~VERSION INFORMATION
 VERS.                2.0:   CWLS LOG ASCII STANDARD - VERSION 2.0
 WRAP.                 NO:   ONE LINE PER DEPTH STEP
~WELL INFORMATION
#MNEM.UNIT      DATA TYPE    INFORMATION
#----------   ------------   ------------------------------
 STRT.F           30.0000:   START DEPTH
 STOP.F          482.0000:   STOP DEPTH
 STEP.F            0.5000:   STEP LENGTH
 NULL.          -999.2500:   NO VALUE
 COMP. FENIX & SCISSON INC:   COMPANY
 WELL.        S 10 #72-10:   WELL
 FLD .             TEAPOT:   FIELD
 LOC .      S10 T38N R78W:   LOCATION
 CNTY.            NATRONA:   COUNTY
 STAT.            WYOMING:   STATE
 CTRY. UNITED STATES OF AMERICA:   COUNTRY
 SRVC.            Unknown:   SERVICE COMPANY
 DATE.        07-FEB-1978:   LOGDATE
 API .       490251056900:   API NUMBER
~CURVE INFORMATION
#MNEM.UNIT       API CODE    CURVE DESCRIPTION
#----------   ------------   ------------------------------
 DEPT.F                  :   
 CALD.IN     45 280 60 00:   CALIPER FROM DENSITY LOG
 CORR.G/C3   45 356 01 00:   DENSITY CORRECTION
 DPHI.DEC    45 890 12 00:   DENSITY POROSITY SANDSTONE
 GRD .GAPI   45 310 01 00:   GAMMA RAY FROM DENSITY LOG
 RHOB.G/C3   45 350 01 00:   BULK DENSITY
 SN  .OHMM   05 040 16 00:   SHORT NORMAL 16"
 SPR .MV     05 010 01 00:   SPONTANEOUS POTENTIAL FROM RES.
 ILD .OHMM   05 120 46 00:   INDUCTION LOG DEEP
~PARAMETER INFORMATION
#MNEM.UNIT          VALUE    DESCRIPTION
#----------   ------------   ------------------------------
 PD  .                 GL:   PERMANENT DATUM
 EPD .F              5174:   ELEVATION PERMANENT DATUM
 LMF .                 KB:   LOG MEASURED FROM
 DMF .                 KB:   DRILLING MEASURED FROM
 EKB .F              5177:   KELLING BUSHING
 EGL .F              5174:   GROUND LEVEL
 DATE.        07-FEB-1978:   RUN DATE
 RUN .                  1:   RUN NUMBER
 DD  .F               469:   DEPTH DRILLER
 DL  .F               482:   DEPTH LOGGER
 BLI .F               474:   BOTTOM LOG INTERVAL
 TLI .F                44:   TOP LOG INTERVAL
 CS  .IN            8.625:   CASING SIZE
 CBD .F                39:   CASING BOTTOM DRILLER
 CBL .F                42:   CASING BOTTOM LOGGER
 BS  .IN            7.875:   BIT SIZE
 BSD .F               469:   BIT SIZE AT DEPTH
 DFT .    LIGNO/SULF FULL:   DRILLING FLUID TYPE
 DFD .                8.7:   DRILLING FLUID DENSITY
 DFV .                 31:   DRILLING FLUID VISCOSITY
 DFPH.                  9:   DRILLING FLUID PH
 DFL .                4.8:   DRILLING FLUID LOSS
 MSS .           FLOWLINE:   MUD SAMPLE SOURCE
 RMS .OHMM             .9:   RESISTIVITY MUD SAMPLE
 MST .F                50:   MUD SAMPLE TEMPERATURE
 RMF .OHMM            .65:   RESISTIVITY MUD FILTRATE SAMPLE
 MFST.F                58:   MUD FILTRATE SAMPLE TEMPERATURE
 RMC .OHMM            1.2:   RESISTIVITY MUD CAKE
 MCST.F                58:   MUD CAKE SAMPLE TEMPERATURE
 MFSS.               MEAS:   MUD FILTRATE SAMPLE SOURCE
 RMB .OHMM            .55:   RESISTIVITY MUD AT BHT
 BHT .F                82:   BOTTOM HOLE TEMPERATURE
 TCS .HRS               3:   TIME CURCULATED STOPPED
 MRT .F                82:   MAXIMUM RECORDED TEMPERATURE
 LUN .               2958:   LOGGING UNIT NUMBER
 LUL .               CASP:   LOGGING UNIT LOCATION
 ENGI.            POINTER:   RECORDING ENGINEER
 WITN.         HARRINGTON:   WITNESSED BY
 CLNT.            A2DTECH:   CLIENT CODE
 ORIG.           5" PRINT:   ORIGIN OF DATA
 UWI .       490251056900:   UNIQUE WELL ID
 DICO. A2D Technologies, Inc.:   DIGITIZING COMPANY
~OTHER INFORMATION
~A   DEPT     CALD       CORR       DPHI         GRD      RHOB         SN        SPR        ILD   
# ...
  232.5000     7.7872     0.0866     0.0886    98.3034     2.5030     8.3407   -33.0441     7.5851
  233.0000     7.7419     0.0582     0.0964    95.0556     2.4933     8.2873   -33.0381     7.6421
  233.5000     7.7283     0.0492     0.1015    92.6604     2.4904     8.2326   -33.1829     7.6463
  234.0000     7.7435     0.0464     0.1036    94.0069     2.4867     8.2369   -33.1755     7.6506
  234.5000     7.7587     0.0435     0.1039    92.0783     2.4777     8.2403   -33.1696     7.6548
  235.0000     7.7887     0.0406     0.1048    92.2329     2.4747     8.1293   -33.3144     7.6590
  235.5000     7.8188     0.0408     0.1047    93.2804     2.4740     8.1335   -33.3070     7.6633
  236.0000     7.8488     0.0455     0.1035    94.3279     2.4756     8.0798   -33.3010     7.6675
  236.5000     7.8640     0.0532     0.1017    98.6493     2.4794     8.0840   -33.2951     7.6718
  237.0000     7.8792     0.0593     0.1011    98.3575     2.4810     8.0307   -33.7369     7.6760
  237.5000     7.8497     0.0595     0.1023    98.0657     2.4825     8.0348   -33.7310     7.6803
  238.0000     7.7904     0.0473     0.1059    97.9226     2.4788     8.0381   -34.3221     7.6845
  238.5000     7.7610     0.0327     0.1091    97.9286     2.4698     7.9851   -34.7654     7.6888
  239.0000     7.7613     0.0396     0.1097    98.3968     2.4706     8.0448   -34.4594     7.6931
  239.5000     7.7616     0.0571     0.1106    98.6843     2.4714     8.0482   -34.3042     7.6973
  240.0000     7.7768     0.0588     0.1118    95.7155     2.4662     8.0515   -33.5520     7.7016
  240.5000     7.7930     0.0604     0.1136    94.6796     2.4610     8.0548   -33.2476     7.5996
  241.0000     7.8240     0.0606     0.1176    95.1319     2.4453     7.9463   -33.2417     7.2940
  241.5000     7.8521     0.0607     0.1219    96.3268     2.4218     7.6264   -33.3851     6.7152
  242.0000     7.8673     0.0353     0.1406    96.9293     2.3996     7.2680   -33.3790     6.2688
  242.5000     7.8527     0.0264     0.1792    97.3816     2.3789     6.9265   -33.2239     6.1857
  243.0000     7.8530     0.0792     0.1668   100.5124     2.3168     6.6932   -32.6199     6.2323
  243.5000     7.7938     0.2179     0.1394   102.4528     2.3823     6.5574   -32.4657     6.2792
  244.0000     8.3596     0.2723     0.1129    99.7801     2.4719     6.4704   -32.9234     6.2827
  244.5000     7.9432     0.2243     0.1041    94.4288     2.4787     6.3833   -33.4986     6.2426
  245.0000     7.8541     0.1988     0.1164    95.1787     2.4735     7.0378   -33.4925     6.1175
  245.5000     7.8694     0.1387     0.1429    94.8849     2.4322     6.9437   -33.4866     5.9534
  246.0000     7.8697     0.1584     0.1480    94.1487     2.3886     6.6635   -33.4806     5.7537
  246.5000     7.8700     0.1767     0.1682    94.6240     2.3834     6.3064   -33.4746     5.5607
  247.0000     7.9149     0.1950     0.1790    95.0532     2.3556     6.1364   -33.4687     5.4871
  247.5000     8.0045     0.3097     0.1763    93.7213     2.3507     6.1390   -33.4615     5.4902
  248.0000     8.0950     0.5000     0.1032    92.5366     2.4859     6.2273   -33.4556     5.4932
  248.5000     8.0904     0.5000     0.0248    91.6496     2.6112     6.3169   -33.3004     5.4963
  249.0000     8.0054     0.3582     0.0729    95.0781     2.6031     6.3635   -32.9960     5.4993
  249.5000     7.9462     0.2800     0.0741    97.0185     2.5380     6.5908   -32.8408     5.5024
  250.0000     7.9465     0.2650     0.0925    96.0503     2.5194     7.1536   -32.8570     5.4673
  250.5000     7.9656     0.2317     0.1057    94.6546     2.4778     7.3211   -33.1255     6.0778
  251.0000     7.9980     0.2292     0.1180    93.9142     2.4575     7.4800   -33.4368     6.8035
  251.5000     8.0087     0.3130     0.1023    95.2608     2.5012     7.5838   -34.1687     7.1819
  252.0000     8.0096     0.3900     0.0635    97.5003     2.5381     7.6397   -34.2929     7.2280
  252.5000     8.0402     0.4014     0.0381    96.4660     2.5600     7.6332   -34.2836     7.1802
  253.0000     8.0560     0.4045     0.0089    94.9853     2.6074     7.5931   -34.2729     7.0360
  253.5000     8.0717     0.4077     0.0155    93.8022     2.6413     7.4923   -34.2640     6.7053
  254.0000     8.3405     0.2422     0.0914    89.0477     2.5766     7.2904   -33.6581     6.1724
  254.5000     8.3108     0.0345     0.1338    89.7991     2.4096     6.8997   -33.3507     5.6036
  255.0000     8.1161     0.0437     0.1399    91.4534     2.3825     6.2639   -33.4911     5.4519
  255.5000     8.0158     0.0800     0.1404    93.4271     2.3803     5.9282   -33.7808     5.4547
  256.0000     8.1444     0.2368     0.1320    97.2242     2.3893     5.8490   -33.9234     5.4570
  256.5000     8.0418     0.3047     0.0666    99.6500     2.5174     5.8514   -33.6138     5.3468
  257.0000     8.3609     0.2100     0.0851    95.1931     2.5332     5.9356   -33.3064     5.2026
  257.5000     7.9600     0.1694     0.1057    95.9445     2.4858     6.4533   -33.0012     5.1683
  258.0000     7.9906     0.2012     0.0680    90.4478     2.5310     7.2137   -33.4401     5.3164
  258.5000     7.9915     0.2300     0.0701    90.6040     2.5453     7.5757   -33.8768     5.8609
  259.0000     7.9626     0.1985     0.0722    89.7185     2.5325     7.7381   -34.0194     6.8298
  259.5000     7.9338     0.1625     0.0713    90.6187     2.5295     8.1830   -34.1575     7.6345
  260.0000     7.9047     0.1566     0.0631    91.8147     2.5416     8.5342   -34.4494     8.1295
  260.5000     7.8758     0.1628     0.0661    89.7388     2.5514     8.7779   -34.5876     8.1329
  261.0000     7.8320     0.1148     0.0830    89.0039     2.5334     8.9042   -34.7279     8.1363
  261.5000     7.7885     0.0833     0.0842    86.9280     2.5146     9.0323   -34.7191     8.1397
  262.0000     7.7596     0.0729     0.0847    85.7449     2.5124     9.0360   -34.7102     8.1438
  262.5000     7.7305     0.0640     0.0883    86.7939     2.5124     9.1026   -34.1043     8.1471
  263.0000     7.7019     0.0386     0.0998    88.1406     2.4936     9.1064   -33.4984     8.1505
  263.5000     7.7027     0.0312     0.1052    89.3384     2.4854     9.0472   -33.1910     8.1538
  264.0000     7.7036     0.0314     0.1015    88.3041     2.4914     9.0509   -32.8836     8.2139
  264.5000     7.7045     0.0375     0.0937    84.1448     2.4975     9.0547   -33.1733     8.2173
  265.0000     7.7351     0.0407     0.0961    82.3647     2.4983     9.0585   -33.3284     8.2203
  265.5000     7.7956     0.0191     0.1039    83.7132     2.4998     9.0622   -33.4540     8.2241
  266.0000     7.8857     0.0106     0.1066    87.2920     2.4855     9.0660   -32.6726     8.2847
  266.5000     7.9164     0.0080     0.1077    89.2339     2.4765     9.0705   -32.5385     8.2881
  267.0000     7.9321     0.0082     0.1086    89.8750     2.4706     9.0742   -33.1267     8.2915
  267.5000     7.9023     0.0113     0.1086    86.5700     2.4698     9.0780   -33.4185     8.2949
  268.0000     7.9222     0.0295     0.1074    87.0238     2.4789     9.0817   -33.1089     8.2401
  268.5000     7.9838     0.0508     0.0997    87.0312     2.4880     9.0855   -33.2515     8.2444
  269.0000     8.0101     0.0660     0.0892    86.5566     2.4964     9.0892   -33.3897     8.2477
  269.5000     8.0261     0.0722     0.0883    84.7852     2.5061     9.0930   -33.3808     8.3664
  270.0000     8.0418     0.0753     0.0905    84.6724     2.5015     9.0967   -33.5212     8.7255
  270.5000     8.0276     0.0755     0.0960    86.2440     2.4978     9.1005   -33.6638     9.1032
  271.0000     8.0136     0.0681     0.1024    88.7050     2.4919     9.1042   -33.6527     9.3599
  271.5000     7.9850     0.0502     0.1132    85.2916     2.4708     9.1714   -33.7953     9.3638
  272.0000     7.9858     0.0217     0.1244    84.7019     2.4257     9.2381   -33.7842     9.1121
  272.5000     7.9867     0.0188     0.1503    89.6218     2.3964     8.9890   -33.9268     7.7181
