~VERSION INFORMATION
 VERS.                2.0:   CWLS LOG ASCII STANDARD - VERSION 2.0
 WRAP.                 NO:   ONE LINE PER DEPTH STEP
~WELL INFORMATION
#MNEM.UNIT      DATA TYPE    INFORMATION
#----------   ------------   ------------------------------
 STRT.F          520.5000:   START DEPTH
 STOP.F         3119.5000:   STOP DEPTH
 STEP.F            0.5000:   STEP LENGTH
 NULL.          -999.2500:   NO VALUE
 COMP.   FLUOR DANIEL INC:   COMPANY
 WELL. NAVAL PETROLEUM RESERVE 3 X-10 #52-10:   WELL
 FLD .            WILDCAT:   FIELD
 LOC .      S10 T38N R78W:   LOCATION
 CNTY.            NATRONA:   COUNTY
 STAT.            WYOMING:   STATE
 CTRY. UNITED STATES OF AMERICA:   COUNTRY
 SRVC.            Unknown:   SERVICE COMPANY
 DATE.        16-AUG-1995:   LOGDATE
 API .       490252275200:   API NUMBER
~CURVE INFORMATION
#MNEM.UNIT       API CODE    CURVE DESCRIPTION
#----------   ------------   ------------------------------
 DEPT.F                  :   
 ROP .MIN/FT 91 810 01 00:   RAT OF DRILLING PENETRATION
 TGAS.UNITS  91 830 01 00:   TOTAL GAS FROM HOTWIRE
~PARAMETER INFORMATION
#MNEM.UNIT          VALUE    DESCRIPTION
#----------   ------------   ------------------------------
 EKB .F              5206:   KELLING BUSHING
 EGL .F              5196:   GROUND LEVEL
 DATE.            8-16-95:   RUN DATE
 DD  .F              3120:   DEPTH DRILLER
 CS  .IN            9.625:   CASING SIZE
 CBD .F               508:   CASING BOTTOM DRILLER
 BS  .IN             8.75:   BIT SIZE
 BSD .F              3120:   BIT SIZE AT DEPTH
 ENGI.               HUSK:   RECORDING ENGINEER
 WITN.              TOWER:   WITNESSED BY
 CLNT.            A2DTECH:   CLIENT CODE
 ORIG.           5" PRINT:   ORIGIN OF DATA
 UWI .       490252275200:   UNIQUE WELL ID
 DICO. A2D Technologies, Inc.:   DIGITIZING COMPANY
~OTHER INFORMATION
~A   DEPT        ROP     TGAS   
# ...
 1371.0000     0.4237    34.1766
 1371.5000     0.4237    34.1721
 1372.0000     0.4237    34.1676
 1372.5000     0.4131    34.1630
 1373.0000     0.4131    34.1585
 1373.5000     0.4131    34.1540
 1374.0000     0.4025    34.1495
 1374.5000     0.4016    34.1449
 1375.0000     0.3919    34.1404
 1375.5000     0.3919    34.1359
 1376.0000     0.3919    34.1314
 1376.5000     0.3919    34.1269
 1377.0000     0.3814    34.1223
 1377.5000     0.3814    34.1178
 1378.0000     0.3814    34.1133
 1378.5000     0.3814    34.1088
 1379.0000     0.3814    34.1043
 1379.5000     0.3814    34.0997
 1380.0000     0.3814    34.0952
 1380.5000     0.3814    34.0907
 1381.0000     0.3814    34.0862
 1381.5000     0.3814    34.0816
 1382.0000     0.3814    34.0771
 1382.5000     0.3814    34.0726
 1383.0000     0.3814    34.0681
 1383.5000     0.3814    34.0636
 1384.0000     0.3814    34.0590
 1384.5000     0.3814    34.0545
 1385.0000     0.3814    34.0500
 1385.5000     0.3814    34.0455
 1386.0000     0.3814    34.0409
 1386.5000     0.3814    34.0364
 1387.0000     0.3814    34.0319
 1387.5000     0.3814    34.0274
 1388.0000     0.3814    34.0229
 1388.5000     0.3814    34.0183
 1389.0000     0.3814    34.0138
 1389.5000     0.3814    34.0093
 1390.0000     0.3814    34.0048
 1390.5000     0.3814    34.0003
 1391.0000     0.3814    33.9957
 1391.5000     0.3814    33.9912
 1392.0000     0.3814    33.9867
 1392.5000     0.3814    33.9822
 1393.0000     0.3814    33.9776
 1393.5000     0.3814    33.9731
 1394.0000     0.3814    33.9686
 1394.5000     0.3814    33.9641
 1395.0000     0.3814    33.9596
 1395.5000     0.3814    33.9550
 1396.0000     0.3814    33.9505
 1396.5000     0.3814    33.9460
 1397.0000     0.3814    33.9415
 1397.5000     0.3814    33.9369
 1398.0000     0.3814    33.9368
 1398.5000     0.3814    33.9432
 1399.0000     0.3814    33.9495
 1399.5000     0.3814    33.9559
 1400.0000     0.3814    33.9623
 1400.5000     0.3801    33.9686
 1401.0000     0.3808    33.9708
 1401.5000     0.3805    33.9568
 1402.0000     0.3697    33.9428
 1402.5000     0.3694    33.9289
 1403.0000     0.3691    33.9149
 1403.5000     0.3689    33.9009
 1404.0000     0.3686    33.8870
 1404.5000     0.3684    33.8730
 1405.0000     0.3681    33.8590
 1405.5000     0.3678    33.8450
 1406.0000     0.3676    33.8311
 1406.5000     0.3673    33.8171
 1407.0000     0.3670    33.8031
 1407.5000     0.3668    33.7891
 1408.0000     0.3665    33.7752
 1408.5000     0.3662    33.7612
 1409.0000     0.3660    33.7472
 1409.5000     0.3657    33.7332
 1410.0000     0.3655    33.7193
 1410.5000     0.3652    33.7053
 1411.0000     0.3649    33.6913
 1411.5000     0.3646    33.6774
 1412.0000     0.3644    33.6634
 1412.5000     0.3535    33.6494
 1413.0000     0.3533    33.6354
 1413.5000     0.3424    33.6215
 1414.0000     0.3421    33.6075
 1414.5000     0.3419    33.5935
 1415.0000     0.3310    33.5795
 1415.5000     0.3308    33.5656
 1416.0000     0.3305    33.5516
 1416.5000     0.3302    33.5376
 1417.0000     0.3299    33.5237
 1417.5000     0.3403    33.5097
 1418.0000     0.3400    33.4957
 1418.5000     0.3292    33.4817
 1419.0000     0.3396    33.4678
 1419.5000     0.3710    33.4538
 1420.0000     0.4025    33.4398
 1420.5000     0.4235    33.4258
 1421.0000     0.4338    33.4119
 1421.5000     0.4335    33.3979
 1422.0000     0.4332    33.3839
 1422.5000     0.4224    33.3700
 1423.0000     0.4221    33.3560
 1423.5000     0.4218    33.3420
 1424.0000     0.4216    33.3280
 1424.5000     0.4213    33.3141
 1425.0000     0.4211    33.3001
 1425.5000     0.4208    33.2861
 1426.0000     0.4205    33.2721
 1426.5000     0.4203    33.2582
 1427.0000     0.4200    33.2442
 1427.5000     0.4197    33.2302
 1428.0000     0.4195    33.2162
 1428.5000     0.4192    33.2023
 1429.0000     0.4189    33.1883
 1429.5000     0.4187    33.1743
 1430.0000     0.4184    33.1604
 1430.5000     0.4182    33.1464
 1431.0000     0.4179    33.1324
 1431.5000     0.4176    33.1184
 1432.0000     0.4280    33.1045
 1432.5000     0.4277    33.0905
 1433.0000     0.4274    33.0765
 1433.5000     0.4271    33.0625
 1434.0000     0.4269    33.0486
 1434.5000     0.4373    33.0346
 1435.0000     0.4370    33.0206
 1435.5000     0.4367    33.0067
 1436.0000     0.4364    32.9927
 1436.5000     0.4362    32.9787
 1437.0000     0.4359    32.9647
 1437.5000     0.4356    32.9508
 1438.0000     0.4353    32.9368
 1438.5000     0.4351    32.9228
 1439.0000     0.4348    32.9088
 1439.5000     0.4346    32.8949
 1440.0000     0.4343    32.8809
 1440.5000     0.4023    32.8669
 1441.0000     0.4020    32.8530
 1441.5000     0.4017    32.8390
 1442.0000     0.4015    32.8250
 1442.5000     0.4012    32.8110
 1443.0000     0.4009    32.7971
 1443.5000     0.4007    32.7831
 1444.0000     0.4111    32.7691
 1444.5000     0.4107    32.7551
 1445.0000     0.4105    32.7412
 1445.5000     0.4102    32.7272
 1446.0000     0.4206    32.7132
 1446.5000     0.4202    32.6992
 1447.0000     0.4306    32.6853
 1447.5000     0.4303    32.6713
 1448.0000     0.4195    32.6573
 1448.5000     0.4299    32.6434
 1449.0000     0.4295    32.6294
 1449.5000     0.4293    32.6154
 1450.0000     0.4290    32.6014
 1450.5000     0.4275    32.5875
 1451.0000     0.4179    32.5735
 1451.5000     0.4176    32.5595
 1452.0000     0.4173    32.5455
 1452.5000     0.4171    32.5316
 1453.0000     0.4168    32.5176
 1453.5000     0.4166    32.5036
 1454.0000     0.4163    32.4897
 1454.5000     0.4160    32.4757
 1455.0000     0.4052    32.4617
 1455.5000     0.4049    32.4477
 1456.0000     0.4046    32.4338
 1456.5000     0.4044    32.4198
 1457.0000     0.4148    32.4058
 1457.5000     0.4144    32.3918
 1458.0000     0.4142    32.3779
 1458.5000     0.4245    32.3639
 1459.0000     0.4243    32.3499
 1459.5000     0.4239    32.3360
 1460.0000     0.4343    32.3220
 1460.5000     0.4340    32.3080
 1461.0000     0.4338    32.2940
 1461.5000     0.4335    32.2801
 1462.0000     0.4332    32.2661
 1462.5000     0.4330    32.2521
 1463.0000     0.4327    32.2381
 1463.5000     0.4325    32.2242
 1464.0000     0.4322    32.2102
 1464.5000     0.4319    32.1962
 1465.0000     0.4316    32.1823
 1465.5000     0.4314    32.1683
 1466.0000     0.4311    32.1543
 1466.5000     0.4309    32.1403
 1467.0000     0.4306    32.1264
 1467.5000     0.4303    32.1124
 1468.0000     0.4300    32.0984
 1468.5000     0.4298    32.0844
 1469.0000     0.4295    32.0705
 1469.5000     0.4187    32.0565
 1470.0000     0.4184    32.0425
 1470.5000     0.4076    32.0285
 1471.0000     0.4073    32.0146
 1471.5000     0.4070    32.0006
 1472.0000     0.4068    31.9866
 1472.5000     0.4065    31.9727
 1473.0000     0.4062    31.9587
 1473.5000     0.4060    31.9447
 1474.0000     0.4057    31.9307
 1474.5000     0.4054    31.9168
 1475.0000     0.4158    31.9028
 1475.5000     0.4155    31.8888
 1476.0000     0.4153    31.8748
 1476.5000     0.4149    31.8609
 1477.0000     0.4147    31.8469
 1477.5000     0.4250    31.8329
 1478.0000     0.4142    31.8190
 1478.5000     0.4139    31.8050
 1479.0000     0.4137    31.7910
 1479.5000     0.4134    31.7770
 1480.0000     0.4237    31.7631
 1480.5000     0.4132    31.7491
 1481.0000     0.4134    31.7351
 1481.5000     0.4135    31.7211
 1482.0000     0.4137    31.7072
 1482.5000     0.4138    31.6932
 1483.0000     0.4140    31.6792
 1483.5000     0.4141    31.6653
 1484.0000     0.4036    31.6513
 1484.5000     0.4038    31.6373
 1485.0000     0.4039    31.6233
 1485.5000     0.4040    31.6094
 1486.0000     0.4041    31.5954
 1486.5000     0.4043    31.5814
 1487.0000     0.4044    31.5674
 1487.5000     0.4045    31.5535
 1488.0000     0.4047    31.5395
 1488.5000     0.4048    31.5255
 1489.0000     0.3943    31.5115
 1489.5000     0.3945    31.4976
 1490.0000     0.3946    31.4836
 1490.5000     0.3947    31.4696
 1491.0000     0.3949    31.4557
 1491.5000     0.3950    31.4417
 1492.0000     0.3951    31.4277
