~VERSION INFORMATION
 VERS.                2.0:   CWLS LOG ASCII STANDARD - VERSION 2.0
 WRAP.                 NO:   ONE LINE PER DEPTH STEP
~WELL INFORMATION
#MNEM.UNIT      DATA TYPE    INFORMATION
#----------   ------------   ------------------------------
 STRT.F           26.0000:   START DEPTH
 STOP.F          484.0000:   STOP DEPTH
 STEP.F            0.5000:   STEP LENGTH
 NULL.          -999.2500:   NO VALUE
 COMP.    FENIX & SCISSON:   COMPANY
 WELL.        NPR #44-S-3:   WELL
 FLD .              NPR-3:   FIELD
 LOC .       S3 T38N R78W:   LOCATION
 CNTY.            NATRONA:   COUNTY
 STAT.            WYOMING:   STATE
 CTRY. UNITED STATES OF AMERICA:   COUNTRY
 SRVC.              Welex:   SERVICE COMPANY
 DATE.        22-APR-1977:   LOGDATE
 API .       490251034000:   API NUMBER
~CURVE INFORMATION
#MNEM.UNIT       API CODE    CURVE DESCRIPTION
#----------   ------------   ------------------------------
 DEPT.F                  :   
 SPR .MV     07 010 01 00:   SPONTANEOUS POTENTIAL
 ILD .OHMM   07 120 46 00:   INDUCTION LOG DEEP
 ILM .OHMM   07 120 44 00:   INDUCTION LOG MEDIUM
 SGRD.OHMM   07 221 05 00:   SHALLOW SHORT GUARD RESISTIVITY
 GRD .GAPI   45 310 01 00:   GAMMA RAY FROM DENSITY LOG
 CALD.IN     45 280 60 00:   CALIPER FROM DENSITY LOG
 CORR.G/C3   45 356 01 00:   DENSITY CORRECTION
 RHOB.G/C3   45 350 01 00:   BULK DENSITY
 DPHI.DEC    45 890 12 00:   DENSITY POROSITY SANDSTONE
~PARAMETER INFORMATION
#MNEM.UNIT          VALUE    DESCRIPTION
#----------   ------------   ------------------------------
 PD  .                 GL:   PERMANENT DATUM
 EPD .F              5160:   ELEVATION PERMANENT DATUM
 LMF .                 GL:   LOG MEASURED FROM
 DMF .                 GL:   DRILLING MEASURED FROM
 EGL .F              5160:   GROUND LEVEL
 DATE.        22-APR-1977:   RUN DATE
 RUN .                  1:   RUN NUMBER
 DD  .F               490:   DEPTH DRILLER
 DL  .F               486:   DEPTH LOGGER
 BLI .F               484:   BOTTOM LOG INTERVAL
 TLI .F                30:   TOP LOG INTERVAL
 CS  .IN            8.625:   CASING SIZE
 CBD .F                40:   CASING BOTTOM DRILLER
 CBL .F                38:   CASING BOTTOM LOGGER
 BS  .IN            7.875:   BIT SIZE
 BSD .F               490:   BIT SIZE AT DEPTH
 DFT .            KCL GEL:   DRILLING FLUID TYPE
 DFD .                8.8:   DRILLING FLUID DENSITY
 DFV .                 36:   DRILLING FLUID VISCOSITY
 DFPH.                8.0:   DRILLING FLUID PH
 DFL .                6.4:   DRILLING FLUID LOSS
 MSS .            MUD PIT:   MUD SAMPLE SOURCE
 RMS .OHMM            .36:   RESISTIVITY MUD SAMPLE
 MST .F                60:   MUD SAMPLE TEMPERATURE
 RMF .OHMM            .30:   RESISTIVITY MUD FILTRATE SAMPLE
 MFST.F                60:   MUD FILTRATE SAMPLE TEMPERATURE
 RMC .OHMM            .42:   RESISTIVITY MUD CAKE
 MCST.F                60:   MUD CAKE SAMPLE TEMPERATURE
 MFSS.               MEAS:   MUD FILTRATE SAMPLE SOURCE
 MCSS.               MEAS:   MUD CAKE SAMPLE SOURCE
 RMB .OHMM            .30:   RESISTIVITY MUD AT BHT
 BHT .F                70:   BOTTOM HOLE TEMPERATURE
 TCS .HRS            0200:   TIME CURCULATED STOPPED
 MRT .F                70:   MAXIMUM RECORDED TEMPERATURE
 LUN .               8611:   LOGGING UNIT NUMBER
 LUL .             CASPER:   LOGGING UNIT LOCATION
 ENGI.          T. JOYNER:   RECORDING ENGINEER
 WITN.           ROB LYON:   WITNESSED BY
 CLNT.            A2DTECH:   CLIENT CODE
 ORIG.           5" PRINT:   ORIGIN OF DATA
 UWI .       490251034000:   UNIQUE WELL ID
 DICO. A2D Technologies, Inc.:   DIGITIZING COMPANY
~OTHER INFORMATION
~A   DEPT      SPR        ILD        ILM       SGRD        GRD       CALD       CORR       RHOB       DPHI   
# ...
  354.5000   -32.2913    13.5436    15.4555    20.3923    90.1322     7.7319    -0.0078     2.4019     0.1496
  355.0000   -32.4337    13.4568    15.4641    19.9816    91.6360     7.7333    -0.0152     2.3992     0.1505
  355.5000   -32.5761    13.2784    15.2602    19.1762    92.9911     7.7348    -0.0211     2.3992     0.1490
  356.0000   -32.8669    13.1040    14.9552    18.2807    94.1976     7.7066    -0.0224     2.4023     0.1469
  356.5000   -32.8595    12.8412    15.0673    18.0506    95.2556     7.6785    -0.0208     2.4047     0.1433
  357.0000   -32.8535    12.5836    15.2856    18.3194    96.4621     7.6651    -0.0161     2.4077     0.1397
  357.5000   -32.9975    12.4168    15.5070    18.7155    97.5201     7.6178    -0.0115     2.4123     0.1370
  358.0000   -33.1399    12.2507    15.8408    19.2528    98.5780     7.4317    -0.0068     2.4220     0.1313
  358.5000   -33.2823    12.2582    15.2055    19.6611    99.4874     7.2399    -0.0037     2.4310     0.1259
  359.0000   -33.2749    12.2641    14.6969    18.3516    99.9510     7.7034    -0.0036     2.4415     0.1226
  359.5000   -33.2689    12.3552    14.4032    17.9933    98.6315     7.7170    -0.0034     2.4483     0.1204
  360.0000   -33.2630    12.4469    14.5112    18.0046    96.2719     7.7188    -0.0033     2.4469     0.1225
  360.5000   -33.2571    12.5394    14.9264    18.0158    95.2452     7.7203    -0.0047     2.4372     0.1258
  361.0000   -33.1028    12.6325    15.3535    18.0362    98.2392     7.7366    -0.0045     2.4328     0.1275
  361.5000   -32.8001    12.6386    15.7929    18.1634   100.7831     7.7381    -0.0044     2.4329     0.1260
  362.0000   -32.7941    12.6447    16.2448    18.4484   103.3269     7.7244    -0.0028     2.4404     0.1233
  362.5000   -32.7882    12.9160    16.0306    18.9674   100.3730     7.7262    -0.0026     2.4427     0.1230
  363.0000   -32.7823    13.1023    15.5997    19.4999   101.4309     7.7277    -0.0025     2.4391     0.1239
  363.5000   -32.7763    13.2911    15.3940    19.2441   102.3403     7.7292    -0.0039     2.4369     0.1263
  364.0000   -32.7704    13.3898    15.2964    19.5245   100.8722     7.7306    -0.0022     2.4317     0.1284
  364.5000   -32.7644    13.3963    15.4133    19.8220    98.5126     7.7321    -0.0036     2.4176     0.1317
  365.0000   -32.7585    13.4028    15.5288    20.0970    95.7073     7.7336    -0.0034     2.4274     0.1333
  365.5000   -32.7526    13.2252    15.6452    20.2488    96.0223     7.7351    -0.0033     2.4290     0.1321
  366.0000   -32.7466    13.0498    15.6539    19.5587    97.8232     7.7365    -0.0047     2.4245     0.1342
  366.5000   -32.7407    12.9662    15.6626    19.0507    99.3269     7.7228    -0.0061     2.4201     0.1377
  367.0000   -32.7347    12.7046    15.5611    19.7490    97.4131     7.7095    -0.0059     2.4179     0.1386
  367.5000   -32.7288    12.4513    15.8983    20.0208    96.6835     7.7114    -0.0058     2.4188     0.1377
  368.0000   -32.7229    12.1175    16.2383    20.0328    98.9346     7.7128    -0.0041     2.4218     0.1350
  368.5000   -32.8668    11.8745    15.2692    18.8044   100.4383     7.7143    -0.0025     2.4249     0.1320
  369.0000   -32.8594    11.6349    14.9640    18.0662   102.5364     7.7158    -0.0024     2.4302     0.1283
  369.5000   -33.0033    11.4016    15.0762    17.7059   104.6345     7.7173    -0.0007     2.4370     0.1256
  370.0000   -33.1457    11.3132    16.1622    17.5944   103.7608     7.7187     0.0009     2.4437     0.1232
  370.5000   -33.1395    11.1635    15.4092    17.4998   100.8068     7.7202     0.0010     2.4505     0.1223
  371.0000   -32.9852    11.1067    15.0992    17.5111   100.5230     7.7217     0.0027     2.4521     0.1223
  371.5000   -32.6825    11.2042    14.9001    17.5220   102.4770     7.7232     0.0028     2.4462     0.1223
  372.0000   -32.5005    11.3507    14.9104    17.4116   104.7236     7.7247     0.0014     2.4440     0.1234
  372.5000   -32.0500    11.4350    15.1264    17.1832   105.3314     7.7261     0.0001     2.4403     0.1258
  373.0000   -31.4510    11.6144    15.1348    17.4523   103.8678     7.7124    -0.0013     2.4374     0.1293
  373.5000   -30.7038    11.8779    15.0368    17.7067   102.3997     7.7143    -0.0011     2.4315     0.1320
  374.0000   -30.2789    12.3865    14.9414    17.9450   100.3328     7.7157    -0.0025     2.4234     0.1359
  374.5000   -29.8027    13.1876    15.5852    18.5229   105.8484     7.7172    -0.0009     2.4175     0.1385
  375.0000   -29.2038    14.1379    16.4807    20.4680   101.5617     7.7187    -0.0007     2.4108     0.1418
  375.5000   -28.6049    15.5818    17.4277    22.6944    99.2021     7.7202     0.0009     2.4005     0.1465
  376.0000   -28.0059    16.8585    18.6858    25.9312    98.0312     7.7217     0.0010     2.3916     0.1549
  376.5000   -27.5554    17.9084    20.1737    29.1143    95.9688     7.7231    -0.0004     2.3872     0.1584
  377.0000   -27.1049    18.5466    21.9312    31.8345    93.3120     7.6946    -0.0002     2.3813     0.1599
  377.5000   -26.6543    20.0847    23.5144    33.4357    89.7637     7.6813    -0.0001     2.3753     0.1641
  378.0000   -26.2038    23.0241    25.0381    34.5899    86.6612     7.6831     0.0001     2.3747     0.1616
  378.5000   -25.7745    24.1275    26.4768    35.5829    83.8559     7.6846     0.0002     2.3791     0.1583
  379.0000   -25.4718    24.8156    27.6137    35.0231    82.6850     7.6861     0.0003     2.3893     0.1550
  379.5000   -25.1489    25.7004    28.9993    34.1333    83.0000     7.7024     0.0005     2.3959     0.1505
  380.0000   -24.8665    26.8264    30.2445    36.6055    87.4755     7.7039     0.0006     2.4028     0.1472
  380.5000   -24.8605    27.9245    31.3258    45.3847    88.0877     7.7201     0.0022     2.4088     0.1433
  381.0000   -24.7062    27.3405    32.4457    50.3761    86.3224     7.7216     0.0024     2.4116     0.1421
  381.5000   -24.5519    26.7928    32.9158    39.8467    84.4086     7.7079     0.0025     2.4054     0.1474
  382.0000   -24.3976    26.0751    32.7026    35.6956    82.4948     7.6946     0.0042     2.3877     0.1552
  382.5000   -24.3917    25.5323    31.1790    34.7434    80.2838     7.6964     0.0043     2.3812     0.1614
  383.0000   -24.2374    24.8490    28.9114    35.2492    83.4220     7.6979     0.0044     2.3821     0.1599
  383.5000   -24.2478    24.1839    25.7193    34.7813    85.9658     7.6994     0.0046     2.3873     0.1575
  384.0000   -24.3740    23.3915    23.8488    36.7881    89.4012     7.7009     0.0032     2.3964     0.1551
  384.5000   -24.3676    22.7489    22.7346    39.1745    90.4547     7.7023     0.0018     2.3972     0.1518
  385.0000   -24.5105    22.0025    23.5474    34.6115    86.9108     7.6886    -0.0011     2.3905     0.1530
  385.5000   -24.6530    21.5617    25.2472    32.0964    84.4027     7.6905    -0.0009     2.3846     0.1595
  386.0000   -24.6469    21.2764    26.3313    31.4570    82.6375     7.6920    -0.0038     2.3817     0.1607
  386.5000   -24.7894    20.9948    26.7091    31.2597    82.0565     7.6934    -0.0067     2.3818     0.1609
  387.0000   -24.7834    20.8607    25.8194    31.0588    85.7935     7.6949    -0.0080     2.3818     0.1615
  387.5000   -24.7774    20.5963    25.6521    30.6560    86.2571     7.6964    -0.0094     2.3842     0.1599
  388.0000   -24.7834    20.3232    25.1429    30.0453    85.5319     7.6979    -0.0092     2.3879     0.1581
  388.5000   -24.9253    20.1930    24.1345    29.6465    83.7667     7.6993    -0.0106     2.3910     0.1566
  389.0000   -25.2049    20.2029    23.0069    29.0559    81.5557     7.6560    -0.0105     2.3933     0.1548
  389.5000   -25.3473    20.2127    22.5470    28.4815    79.9391     7.5838    -0.0088     2.3979     0.1492
  390.0000   -25.6381    20.2225    22.7136    28.2985    82.9287     7.6001    -0.0057     2.4084     0.1404
  390.5000   -25.9289    20.5140    23.4253    29.1147    86.8054     7.6016    -0.0041     2.4234     0.1332
