~VERSION INFORMATION
 VERS.                2.0:   CWLS LOG ASCII STANDARD - VERSION 2.0
 WRAP.                 NO:   ONE LINE PER DEPTH STEP
~WELL INFORMATION
#MNEM.UNIT      DATA TYPE    INFORMATION
#----------   ------------   ------------------------------
 STRT.F           30.0000:   START DEPTH
 STOP.F          750.0000:   STOP DEPTH
 STEP.F            0.5000:   STEP LENGTH
 NULL.          -999.2500:   NO VALUE
 COMP. FENIX & SCISSON INC:   COMPANY
 WELL. TEAPOT DOME SX #38-11:   WELL
 FLD .             TEAPOT:   FIELD
 LOC .      S11 T38N R78W:   LOCATION
 CNTY.            NATRONA:   COUNTY
 STAT.            WYOMING:   STATE
 CTRY. UNITED STATES OF AMERICA:   COUNTRY
 SRVC.            Unknown:   SERVICE COMPANY
 DATE.        23-FEB-1978:   LOGDATE
 API .       490251058200:   API NUMBER
~CURVE INFORMATION
#MNEM.UNIT       API CODE    CURVE DESCRIPTION
#----------   ------------   ------------------------------
 DEPT.F                  :   
 CALD.IN     45 280 60 00:   CALIPER FROM DENSITY LOG
 GRD .GAPI   45 310 01 00:   GAMMA RAY FROM DENSITY LOG
 RHOB.G/C3   45 350 01 00:   BULK DENSITY
 DPHI.DEC    45 890 12 00:   DENSITY POROSITY SANDSTONE
 CORR.G/C3   45 356 01 00:   DENSITY CORRECTION
 SPR .MV     07 010 01 00:   SPONTANEOUS POTENTIAL FROM RES. LOG
 SN  .OHMM   07 040 16 00:   SHORT NORMAL 16'
 ILD .OHMM   07 120 46 00:   INDUCTION LOG DEEP
~PARAMETER INFORMATION
#MNEM.UNIT          VALUE    DESCRIPTION
#----------   ------------   ------------------------------
 PD  .                 GL:   PERMANENT DATUM
 EPD .F              5204:   ELEVATION PERMANENT DATUM
 LMF .                 KB:   LOG MEASURED FROM
 DAPD.F                 4:   FEET ABOVE PERMANENT DATUM
 DMF .                 KB:   DRILLING MEASURED FROM
 EKB .F              5208:   KELLING BUSHING
 EGL .F              5204:   GROUND LEVEL
 DATE.            2-23-78:   RUN DATE
 RUN .                  1:   RUN NUMBER
 DD  .F               755:   DEPTH DRILLER
 DL  .F               751:   DEPTH LOGGER
 BLI .F               745:   BOTTOM LOG INTERVAL
 TLI .F                45:   TOP LOG INTERVAL
 CS  .IN            8.625:   CASING SIZE
 CBD .F                40:   CASING BOTTOM DRILLER
 CBL .F                40:   CASING BOTTOM LOGGER
 BS  .IN            7.875:   BIT SIZE
 BSD .F               755:   BIT SIZE AT DEPTH
 DFT .         LIGNO SULF:   DRILLING FLUID TYPE
 DFD .                8.7:   DRILLING FLUID DENSITY
 DFV .                 33:   DRILLING FLUID VISCOSITY
 DFPH.                 10:   DRILLING FLUID PH
 DFL .                  4:   DRILLING FLUID LOSS
 MSS .          FLOW LINE:   MUD SAMPLE SOURCE
 RMS .OHMM              2:   RESISTIVITY MUD SAMPLE
 MST .F                60:   MUD SAMPLE TEMPERATURE
 RMF .OHMM            1.9:   RESISTIVITY MUD FILTRATE SAMPLE
 MFST.F                62:   MUD FILTRATE SAMPLE TEMPERATURE
 RMC .OHMM            3.5:   RESISTIVITY MUD CAKE
 MCST.F                60:   MUD CAKE SAMPLE TEMPERATURE
 MFSS.               MEAS:   MUD FILTRATE SAMPLE SOURCE
 MCSS.               MEAS:   MUD CAKE SAMPLE SOURCE
 RMB .OHMM           1.69:   RESISTIVITY MUD AT BHT
 BHT .F                71:   BOTTOM HOLE TEMPERATURE
 TCS .HRS               3:   TIME CURCULATED STOPPED
 MRT .F                71:   MAXIMUM RECORDED TEMPERATURE
 LUN .               2958:   LOGGING UNIT NUMBER
 LUL .               CASP:   LOGGING UNIT LOCATION
 ENGI.            POINTER:   RECORDING ENGINEER
 WITN.           MCGINLEY:   WITNESSED BY
 CLNT.            A2DTECH:   CLIENT CODE
 ORIG.       2", 5" PRINT:   ORIGIN OF DATA
 UWI .       490251058200:   UNIQUE WELL ID
 DICO. A2D Technologies, Inc.:   DIGITIZING COMPANY
~OTHER INFORMATION
~A   DEPT     CALD         GRD      RHOB       DPHI       CORR        SPR         SN        ILD   
# ...
  354.0000     8.4267    98.4972     2.4666     0.1095     0.0275   -34.8654     8.6115     7.6948
  354.5000     8.4141   100.1751     2.4657     0.1066     0.0279   -35.4568     8.6288     7.7053
  355.0000     8.4098   101.2933     2.4701     0.1054     0.0283   -34.8250     8.6462     7.7263
  355.5000     8.4151   101.3135     2.4746     0.1058     0.0287   -35.7173     8.6635     7.7473
  356.0000     8.4208   100.7321     2.4765     0.1054     0.0311   -36.8442     8.6768     7.7683
  356.5000     8.4262    97.9050     2.4745     0.1032     0.0339   -36.2467     8.6864     7.7894
  357.0000     8.4359    97.9367     2.4813     0.1014     0.0367   -36.3084     8.6962     7.8106
  357.5000     8.3739    99.6008     2.4831     0.1004     0.0359   -36.3147     8.7060     7.8318
  358.0000     8.1770   100.2499     2.4782     0.0994     0.0341   -35.5864     8.7158     7.8531
  358.5000     8.1696    96.9866     2.4827     0.1014     0.0329   -36.8329     8.7256     7.8745
  359.0000     8.1707    93.5527     2.4851     0.1040     0.0344   -36.3362     8.7355     7.8959
  359.5000     8.1710    90.4544     2.4776     0.1032     0.0358   -35.7504     8.7453     7.9173
  360.0000     8.1710    91.7916     2.4819     0.1031     0.0369   -34.6154     8.7551     7.9388
  360.5000     8.1695    93.3851     2.4861     0.1048     0.0367   -33.9060     8.7650     7.9604
  361.0000     8.2378    94.7457     2.4824     0.1058     0.0363   -35.0046     8.7749     7.9843
  361.5000     8.3253    94.1653     2.4776     0.1050     0.0358   -36.0784     8.7848     7.9734
  362.0000     8.3488    92.2593     2.4767     0.1031     0.0354   -36.8564     8.7947     7.9518
  362.5000     8.2163    92.7806     2.4816     0.1013     0.0350   -37.1392     8.8046     7.9302
  363.0000     8.3173    93.2375     2.4865     0.0998     0.0340   -36.0054     8.8146     7.9087
  363.5000     8.3896    93.4146     2.4894     0.1005     0.0326   -35.7843     8.8245     7.8873
  364.0000     8.3461    93.5931     2.4819     0.1012     0.0312   -37.2074     8.8343     7.8657
  364.5000     8.3051    92.4882     2.4726     0.1019     0.0298   -35.5524     8.9651     7.8379
  365.0000     8.2623    90.5973     2.4803     0.1030     0.0284   -35.1451     9.1509     7.8969
  365.5000     8.2879    88.7146     2.4807     0.1035     0.0270   -36.1562     9.3405     8.0165
  366.0000     8.3348    86.8329     2.4819     0.1046     0.0277   -36.4302     9.5340     8.1376
  366.5000     8.3504    85.0874     2.4828     0.1050     0.0306   -36.1625     9.7316     8.2606
  367.0000     8.3669    84.9142     2.4764     0.1046     0.0334   -35.7597     9.8930     8.3854
  367.5000     8.3833    85.1410     2.4787     0.1030     0.0348   -34.5735    10.1025     8.5121
  368.0000     8.3996    85.6675     2.4823     0.1014     0.0367   -35.5675    10.3169     8.6407
  368.5000     8.4094    86.6096     2.4838     0.0956     0.0393   -35.4196    10.5355     8.7715
  369.0000     8.4093    88.4876     2.4855     0.0903     0.0446   -34.7886    10.7588     8.9605
  369.5000     8.3963    90.2085     2.4836     0.0850     0.0534   -35.4607    10.8267     9.2132
  370.0000     8.3765    89.5537     2.5037     0.0797     0.0620   -36.1541    10.8267     9.4550
  370.5000     8.3004    85.7613     2.5160     0.0747     0.0716   -36.5217    10.8267     9.7025
  371.0000     8.2094    82.0296     2.5298     0.0565     0.0746   -36.0458    11.1307     9.9564
  371.5000     8.2291    78.7536     2.5554     0.0645     0.0462   -35.5861    11.7644    10.2171
  372.0000     8.2778    79.9768     2.5384     0.0780     0.0220   -36.2064    12.4311    10.3865
  372.5000     8.3281    83.1361     2.5090     0.0916     0.0176   -36.9907    12.9094    10.5476
  373.0000     8.3315    83.7261     2.4819     0.1035     0.0214   -35.6325    12.9079    10.7114
  373.5000     8.3323    83.5527     2.4826     0.1038     0.0249   -36.0725    12.6372    10.8200
  374.0000     8.3333    84.7901     2.4804     0.1033     0.0227   -36.6975    12.3479    10.7319
  374.5000     8.3344    87.3289     2.4759     0.1029     0.0196   -37.2049    11.9826    10.6592
  375.0000     8.3356    89.5545     2.4716     0.1024     0.0169   -37.0598    12.0006    10.5870
  375.5000     8.3367    88.9520     2.4673     0.1020     0.0215   -36.2938    12.0352    10.5153
  376.0000     8.3378    88.3900     2.4731     0.1013     0.0281   -35.3715    12.0713    10.4442
  376.5000     8.3389    89.2356     2.4827     0.1002     0.0351   -35.7464    12.0912    10.3736
  377.0000     8.3400    94.7678     2.4885     0.1016     0.0340   -36.1103    11.7373    10.3385
  377.5000     8.3412   100.1981     2.4839     0.1042     0.0323   -36.7552    11.4696    10.2941
  378.0000     8.3423   100.6128     2.4783     0.1069     0.0309   -37.4608    11.1307    10.2309
  378.5000     8.3434    96.1620     2.4727     0.1088     0.0316   -38.1894    11.2166    10.1682
  379.0000     8.3445    91.7640     2.4706     0.1083     0.0323   -37.2829    11.3380    10.1058
  379.5000     8.3456    89.2010     2.4706     0.1077     0.0329   -36.9839    11.0284    10.0438
  380.0000     8.3468    90.9443     2.4716     0.1071     0.0318   -38.1059    11.1564     9.9822
  380.5000     8.3479    93.6695     2.4743     0.1071     0.0290   -35.6249    11.3380     9.9638
  381.0000     8.3490    96.8028     2.4767     0.1073     0.0262   -36.9757    11.0521     9.9285
  381.5000     8.3499    94.3793     2.4754     0.1076     0.0235   -37.6368    10.7423     9.8583
  382.0000     8.3499    92.2532     2.4733     0.1078     0.0207   -35.3904    10.4334     9.7885
  382.5000     8.3499    93.1993     2.4711     0.1092     0.0179   -35.8161    10.5728     9.7193
  383.0000     8.3499    94.9059     2.4690     0.1108     0.0152   -37.1390    10.8267     9.6505
  383.5000     8.3499    94.1888     2.4669     0.1121     0.0124   -36.5528    10.9151     9.6095
  384.0000     8.3498    89.2606     2.4660     0.1125     0.0110   -36.4273    10.8197     9.7966
  384.5000     8.3461    85.9683     2.4664     0.1128     0.0113   -36.7489    10.7017     9.9485
  385.0000     8.3328    86.0238     2.4586     0.1146     0.0116   -35.7442    10.5848    10.0562
  385.5000     8.3353    86.0219     2.4479     0.1171     0.0119   -36.4989    10.4685     9.9054
  386.0000     8.3423    86.2548     2.4409     0.1196     0.0122   -36.8280    10.3106     9.7406
  386.5000     8.3496    88.0812     2.4391     0.1220     0.0125   -37.0295    10.2182     9.6027
  387.0000     8.3523    90.6207     2.4423     0.1213     0.0128   -37.1875    10.1266     9.5306
  387.5000     8.3549    93.4284     2.4400     0.1207     0.0131   -36.7207    10.0358     9.4285
  388.0000     8.3575    95.9605     2.4426     0.1200     0.0140   -35.0179     9.9459     9.3275
  388.5000     8.3601    96.3855     2.4462     0.1193     0.0149   -35.3815     9.8567     9.2277
  389.0000     8.3627    89.0346     2.4474     0.1187     0.0158   -34.8506     9.7684     9.1288
  389.5000     8.3652    82.6428     2.4465     0.1180     0.0167   -35.1736     9.6808     9.0311
  390.0000     8.3679    83.4756     2.4591     0.1174     0.0172   -36.4178     9.6027     8.8782
  390.5000     8.3704    85.0033     2.4590     0.1171     0.0183   -36.2332     9.5508     8.9193
  391.0000     8.3730    86.5576     2.4575     0.1187     0.0194   -35.4297     9.4935     8.8697
  391.5000     8.3756    88.1116     2.4560     0.1203     0.0204   -35.6241     9.4365     8.7994
  392.0000     8.3782    89.5656     2.4543     0.1219     0.0221   -36.2628     9.3799     8.7297
  392.5000     8.3808    89.4605     2.4469     0.1233     0.0244   -36.9100     9.3236     8.6605
  393.0000     8.3834    89.3022     2.4492     0.1210     0.0267   -36.8259     9.2677     8.5919
  393.5000     8.3860    89.1446     2.4545     0.1194     0.0292   -36.4470     9.2121     8.5237
  394.0000     8.3886    89.0463     2.4600     0.1189     0.0290   -36.0046     9.1568     8.5043
