~VERSION INFORMATION
 VERS.                2.0:   CWLS LOG ASCII STANDARD - VERSION 2.0
 WRAP.                 NO:   ONE LINE PER DEPTH STEP
~WELL INFORMATION
#MNEM.UNIT      DATA TYPE    INFORMATION
#----------   ------------   ------------------------------
 STRT.F           34.0000:   START DEPTH
 STOP.F          662.0000:   STOP DEPTH
 STEP.F            0.5000:   STEP LENGTH
 NULL.          -999.2500:   NO VALUE
 COMP. FENIX & SCISSON INC:   COMPANY
 WELL.     55 S 34 #34-34:   WELL
 FLD .          N.P.R. #3:   FIELD
 LOC .      S34 T39N R78W:   LOCATION
 CNTY.            NATRONA:   COUNTY
 STAT.            WYOMING:   STATE
 CTRY. UNITED STATES OF AMERICA:   COUNTRY
 SRVC.       Schlumberger:   SERVICE COMPANY
 DATE.        15-MAR-1977:   LOGDATE
 API .       490251030500:   API NUMBER
~CURVE INFORMATION
#MNEM.UNIT       API CODE    CURVE DESCRIPTION
#----------   ------------   ------------------------------
 DEPT.F                  :   
 GRD .GAPI   45 310 01 00:   GAMMA RAY FROM DENSITY LOG
 CORR.G/C3   45 356 01 00:   DENSITY CORRECTION
 RHOB.G/C3   45 350 01 00:   BULK DENSITY
 DPOR.DEC    45 890 12 00:   DENSITY POROSITY SANDSTONE
 SPR .MV     07 010 01 00:   SPONTANEOUS POTENTIAL
 LL8 .OHMM   07 220 08 00:   LATEROLOG-8 RES.
 ILD .OHMM   07 120 46 00:   INDUCTION LOG DEEP
 ILM .OHMM   07 120 44 00:   INDUCTION LOG MEDIUM
 CALD.IN     45 280 60 00:   CALIPER
~PARAMETER INFORMATION
#MNEM.UNIT          VALUE    DESCRIPTION
#----------   ------------   ------------------------------
 PD  .                 GL:   PERMANENT DATUM
 EPD .F              5087:   ELEVATION PERMANENT DATUM
 LMF .                 GL:   LOG MEASURED FROM
 DMF .                 GL:   DRILLING MEASURED FROM
 EKB .F              5091:   KELLING BUSHING
 EGL .F              5087:   GROUND LEVEL
 DATE.            3-15-77:   RUN DATE
 RUN .                  1:   RUN NUMBER
 DD  .F               670:   DEPTH DRILLER
 DL  .F               663:   DEPTH LOGGER
 BLI .F               657:   BOTTOM LOG INTERVAL
 TLI .F                40:   TOP LOG INTERVAL
 CS  .IN            8.625:   CASING SIZE
 CBD .F                40:   CASING BOTTOM DRILLER
 CBL .F                40:   CASING BOTTOM LOGGER
 BS  .IN            7.875:   BIT SIZE
 BSD .F               670:   BIT SIZE AT DEPTH
 DFT .                KCL:   DRILLING FLUID TYPE
 DFD .                8.6:   DRILLING FLUID DENSITY
 DFV .                 31:   DRILLING FLUID VISCOSITY
 DFPH.                  8:   DRILLING FLUID PH
 DFL .                8.8:   DRILLING FLUID LOSS
 MSS .                PIT:   MUD SAMPLE SOURCE
 RMS .OHMM           .246:   RESISTIVITY MUD SAMPLE
 MST .F                76:   MUD SAMPLE TEMPERATURE
 RMF .OHMM           .243:   RESISTIVITY MUD FILTRATE SAMPLE
 MFST.F                76:   MUD FILTRATE SAMPLE TEMPERATURE
 MFSS.                  M:   MUD FILTRATE SAMPLE SOURCE
 RMB .OHMM           .267:   RESISTIVITY MUD AT BHT
 BHT .F                70:   BOTTOM HOLE TEMPERATURE
 TCS .HRS            1800:   TIME CURCULATED STOPPED
 TLAB.HRS            2200:   TIME LOGGER AT BOTTOM
 MRT .F                70:   MAXIMUM RECORDED TEMPERATURE
 LUN .               5642:   LOGGING UNIT NUMBER
 LUL .               CSPR:   LOGGING UNIT LOCATION
 ENGI.             MARTIN:   RECORDING ENGINEER
 WITN.              BURKE:   WITNESSED BY
 CLNT.            A2DTECH:   CLIENT CODE
 ORIG. 2", 2.5", 5" PRINT:   ORIGIN OF DATA
 UWI .       490251030500:   UNIQUE WELL ID
 DICO. A2D Technologies, Inc.:   DIGITIZING COMPANY
~OTHER INFORMATION
~A   DEPT       GRD      CORR       RHOB       DPOR        SPR        LL8        ILD        ILM       CALD   
# ...
  581.5000    83.6476     0.0312     2.3933     0.1544   -36.5435    17.7918    15.6773    16.3669     8.1268
  582.0000    81.2921     0.0208     2.3996     0.1524   -36.6750    17.6907    15.4303    16.1099     8.1235
  582.5000    80.5408     0.0060     2.4111     0.1467   -36.8107    17.5865    15.2913    16.0162     8.1202
  583.0000    79.6645     0.0044     2.4401     0.1382   -36.9450    17.4830    15.5908    16.4571     8.1170
  583.5000    77.2760     0.0025     2.4784     0.1211   -37.0751    17.3910    16.2456    17.1483     8.1137
  584.0000    74.9319     0.0148     2.5306     0.1040   -37.2985    21.1246    16.9279    17.8686     8.1104
  584.5000    74.0394     0.0290     2.5013     0.1003   -37.5334    30.3982    17.4015    18.2223     8.1071
  585.0000    79.8574     0.0331     2.4311     0.1399   -37.7681    35.3863    17.0051    17.7253     8.1038
  585.5000    84.4825     0.0053     2.3637     0.1788   -38.0033    26.0794    16.5803    17.2699     8.1005
  586.0000    87.0657     0.0013     2.3618     0.1751   -38.2197    19.7592    16.1308    16.8017     8.0972
  586.5000    88.4600     0.0066     2.3781     0.1658   -38.4316    16.9269    15.6935    16.3463     8.0939
  587.0000    87.1960     0.0089     2.3830     0.1603   -38.2441    16.4652    15.2681    15.9031     8.0906
  587.5000    85.9020     0.0062     2.3681     0.1719   -37.8971    16.6049    14.8541    15.4720     8.0873
  588.0000    86.3437     0.0185     2.3645     0.1748   -37.8357    16.9269    14.4515    15.0526     8.0840
  588.5000    88.2612     0.0356     2.3777     0.1676   -37.7802    17.0837    14.0597    14.6445     8.0807
  589.0000    90.1671     0.0258     2.3797     0.1639   -37.7194    16.4383    13.6932    14.3363     8.0780
  589.5000    92.2508     0.0133     2.3841     0.1623   -38.0110    15.9683    13.5876    14.2038     8.0463
  590.0000    94.7073     0.0037     2.3998     0.1560   -38.5674    15.5117    13.4637    14.0735     7.9967
  590.5000    96.4361     0.0102     2.4160     0.1466   -39.1313    15.2948    13.3410    13.9453     7.9449
  591.0000    93.1718     0.0165     2.4214     0.1412   -39.6949    15.2104    13.2193    13.8182     7.9588
  591.5000    87.5151     0.0245     2.4247     0.1406   -40.2582    15.1544    13.0987    13.6922     7.9787
  592.0000    83.2935     0.0396     2.4371     0.1338   -40.8214    14.8292    12.9793    13.5673     8.0003
  592.5000    81.1065     0.0384     2.4540     0.1235   -41.3820    14.5078    12.8609    13.4436     8.0213
  593.0000    81.8688     0.0330     2.4638     0.1171   -41.7281    14.3390    12.7436    13.3210     8.0423
  593.5000    84.9789     0.0437     2.4644     0.1073   -41.7867    14.2871    12.6274    13.1995     8.0636
  594.0000    87.0088     0.0496     2.4455     0.1034   -41.8474    14.2115    12.5122    13.0791     8.0842
  594.5000    87.5053     0.0286     2.4373     0.1334   -41.9504    14.1372    12.3982    12.9564     8.1195
  595.0000    89.5799     0.0120     2.4484     0.1256   -42.3096    14.0766    12.3728    12.9564     8.1156
  595.5000    91.7796     0.0230     2.4599     0.1211   -42.6695    14.0772    12.3728    12.9564     8.1101
  596.0000    91.6722     0.0315     2.4673     0.1186   -43.0286    14.0772    12.3728    12.9564     8.1051
  596.5000    90.9733     0.0190     2.4456     0.1271   -43.3917    14.0774    12.3727    12.9564     8.0998
  597.0000    90.2889     0.0084     2.4340     0.1351   -43.5058    13.9899    12.3730    12.9564     8.0953
  597.5000    89.6011     0.0141     2.4494     0.1293   -43.1559    13.8655    12.3922    12.9739     8.0796
  598.0000    90.2505     0.0254     2.4629     0.1213   -42.6806    13.7423    12.4518    13.0064     8.0639
  598.5000    92.1686     0.0307     2.4658     0.1191   -42.4128    13.6926    12.5110    13.0392     8.0493
  599.0000    94.1364     0.0138     2.4469     0.1222   -43.1248    13.9342    12.5705    13.0720     8.0529
  599.5000    93.8522     0.0077     2.4536     0.1129   -43.8160    14.1100    12.6030    13.1049     8.0880
  600.0000    92.7310     0.0294     2.4663     0.0997   -43.8328    14.2875    12.3715    13.1378     8.1293
  600.5000    91.4041     0.0187     2.4679     0.0930   -43.7533    14.3495    12.2150    13.1709     8.1711
  601.0000    91.0621     0.0168     2.4645     0.1018   -43.7649    14.4262    12.1468    13.2040     8.2129
  601.5000    91.5846     0.0348     2.4762     0.0982   -43.9482    14.5034    12.2593    13.2373     8.2547
  602.0000    92.7309     0.0171     2.4708     0.1052   -44.1290    14.5810    12.4329    13.2706     8.2765
  602.5000    93.8032     0.0202     2.4588     0.1119   -44.3109    14.6058    12.6047    13.3040     8.2747
  603.0000    93.1023     0.0242     2.4469     0.1259   -44.4958    14.2879    12.7197    13.3200     8.2357
  603.5000    91.0907     0.0141     2.4352     0.1190   -44.6576    14.0783    12.5459    13.1073     8.1973
  604.0000    91.9066     0.0125     2.4328     0.1258   -44.8222    13.8718    12.3728    12.9564     8.1579
  604.5000    93.4372     0.0149     2.4574     0.1285   -44.9840    13.6676    12.4097    13.0064     8.1170
  605.0000    93.3670     0.0329     2.4774     0.1029   -45.0694    13.5655    12.4666    13.0661     8.0762
  605.5000    91.4799     0.0391     2.4971     0.0879   -44.9560    13.8967    12.5237    13.1259     8.0388
  606.0000    90.8079     0.0357     2.5099     0.0846   -44.8476    14.3617    12.5811    13.1861     8.0340
  606.5000    90.9478     0.0310     2.4961     0.0910   -44.7340    14.8415    12.6030    13.1975     8.0192
  607.0000    91.5421     0.0464     2.4879     0.0870   -44.8747    15.2948    12.5112    13.0837     8.0136
  607.5000    92.6660     0.0165     2.4748     0.0994   -45.1315    14.8312    12.4239    12.9925     8.0103
  608.0000    93.7770     0.0263     2.4684     0.0997   -45.3928    14.4163    12.3372    12.9017     8.0230
  608.5000    94.7965     0.0357     2.4852     0.0948   -45.6535    14.0129    12.2511    12.8117     8.0368
  609.0000    95.4313     0.0281     2.4969     0.0910   -45.9140    13.6208    12.1656    12.7223     8.0505
  609.5000    95.6875     0.0231     2.4935     0.0910   -46.1745    13.5675    12.0807    12.6335     8.0642
  610.0000    95.7546     0.0227     2.4827     0.0941   -46.4356    13.5955    11.9963    12.5452     8.0772
  610.5000    97.4473     0.0045     2.4717     0.0998   -46.6963    13.6267    11.9126    12.4578     8.0768
  611.0000    99.1309     0.0048     2.4678     0.1070   -46.9037    13.6579    11.8291    12.3728     8.0746
  611.5000    99.1438     0.0121     2.4653     0.1072   -46.8562    13.6891    11.8155    12.3692     8.0725
  612.0000    97.0090     0.0203     2.4616     0.1090   -46.8120    13.8200    11.8011    12.3552     8.0705
  612.5000    95.0655     0.0030     2.4576     0.1110   -46.7681    13.7735    11.7877    12.3409     8.0684
  613.0000    96.5207     0.0105     2.4617     0.1101   -46.7273    13.7227    11.7742    12.3268     8.0664
  613.5000    98.2446     0.0175     2.4685     0.1075   -46.8148    13.6721    11.7607    12.3128     8.0643
  614.0000    98.5687     0.0033     2.4617     0.1069   -47.0935    13.6217    11.7473    12.2988     8.0622
  614.5000    97.8755     0.0080     2.4655     0.1086   -47.3714    13.5715    11.7339    12.2841     8.0602
  615.0000    97.2413     0.0214     2.4712     0.1069   -47.4542    13.5214    11.7207    12.2641     8.0581
  615.5000    97.5430     0.0148     2.4771     0.1037   -47.3753    13.4716    11.7053    12.3778     8.0566
  616.0000    99.4653     0.0049     2.4786     0.1000   -47.3091    13.4219    11.8203    12.2924     8.0549
  616.5000   101.2259     0.0211     2.4857     0.0961   -47.5129    13.3724    11.6583    12.1890     8.0532
  617.0000   101.7663     0.0373     2.4962     0.0877   -47.7893    13.3231    11.5621    12.0883     8.0514
  617.5000   101.3418     0.0493     2.5022     0.0750   -48.2360    13.2740    11.4668    11.9886     8.0497
