~VERSION INFORMATION
 VERS.                2.0:   CWLS LOG ASCII STANDARD - VERSION 2.0
 WRAP.                 NO:   ONE LINE PER DEPTH STEP
~WELL INFORMATION
#MNEM.UNIT      DATA TYPE    INFORMATION
#----------   ------------   ------------------------------
 STRT.F           11.0000:   START DEPTH
 STOP.F          807.0000:   STOP DEPTH
 STEP.F            0.5000:   STEP LENGTH
 NULL.          -999.2500:   NO VALUE
 COMP. BROWN JOHN E&C INC:   COMPANY
 WELL. NPR 3 SHX-34 #77-1-34:   WELL
 FLD .             TEAPOT:   FIELD
 LOC .      S34 T39N R79W:   LOCATION
 CNTY.            NATRONA:   COUNTY
 STAT.            WYOMING:   STATE
 CTRY. UNITED STATES OF AMERICA:   COUNTRY
 SRVC.     Atlas Wireline:   SERVICE COMPANY
 DATE.        07-DEC-1991:   LOGDATE
 API .       490252248000:   API NUMBER
~CURVE INFORMATION
#MNEM.UNIT       API CODE    CURVE DESCRIPTION
#----------   ------------   ------------------------------
 DEPT.F                  :   
 CALD.IN     45 280 60 00:   CALIPER FROM DENSITY LOG
 CORR.G/C3   45 356 01 00:   DENSITY CORRECTION
 DEN .G/C3   45 350 01 00:   COMPENSATED BULK DENSTIY
 GRD .GAPI   45 310 01 00:   GAMMA RAY FROM DENSITY LOG
 PORD.DEC    45 890 12 00:   POROSITY DENSITY SANDSTONE
 GRR .GAPI   07 310 01 00:   GAMMA RAY FROM RESISTIVITY
 RILD.OHMM   07 120 46 00:   RESISTIVITY INDUCTION LOG DEEP
 RILM.OHMM   07 120 44 00:   RESITIVITY INDUCTION LOG MEDIUM
~PARAMETER INFORMATION
#MNEM.UNIT          VALUE    DESCRIPTION
#----------   ------------   ------------------------------
 PD  .                 GL:   PERMANENT DATUM
 EPD .F              5098:   ELEVATION PERMANENT DATUM
 LMF .                 KB:   LOG MEASURED FROM
 DAPD.F                10:   FEET ABOVE PERMANENT DATUM
 DMF .                 KB:   DRILLING MEASURED FROM
 EKB .F              5108:   KELLING BUSHING
 EDF .F              5107:   DRILLING FLOOR
 EGL .F              5098:   GROUND LEVEL
 DATE.        07-DEC-1991:   RUN DATE
 RUN .                  1:   RUN NUMBER
 DD  .F               810:   DEPTH DRILLER
 DL  .F               810:   DEPTH LOGGER
 BLI .F               808:   BOTTOM LOG INTERVAL
 CS  .IN            9.625:   CASING SIZE
 CBD .F                85:   CASING BOTTOM DRILLER
 CBL .F                97:   CASING BOTTOM LOGGER
 BS  .IN             8.75:   BIT SIZE
 BSD .F               810:   BIT SIZE AT DEPTH
 DFT .                AIR:   DRILLING FLUID TYPE
 BHT .F                90:   BOTTOM HOLE TEMPERATURE
 MRT .F                90:   MAXIMUM RECORDED TEMPERATURE
 LUN .            HL 6274:   LOGGING UNIT NUMBER
 LUL .             CASPER:   LOGGING UNIT LOCATION
 ENGI.       P. RASMUSSEN:   RECORDING ENGINEER
 WITN.        GARY STRONG:   WITNESSED BY
 CLNT.            A2DTECH:   CLIENT CODE
 ORIG.           5" PRINT:   ORIGIN OF DATA
 UWI .       490252248000:   UNIQUE WELL ID
 DICO. A2D Technologies, Inc.:   DIGITIZING COMPANY
~OTHER INFORMATION
~A   DEPT     CALD       CORR        DEN        GRD       PORD         GRR      RILD       RILM   
# ...
  294.5000     9.3783     0.0021     2.3882   130.4289     0.1613   101.8351     8.1073     7.9182
  295.0000     9.3777     0.0051     2.3927   127.7077     0.1576   105.4352     8.1062     8.0285
  295.5000     9.3773     0.0111     2.3987   130.7103     0.1514   105.4324     7.8844     7.9182
  296.0000     9.3619     0.0006     2.4072   135.2064     0.1472   104.2282     7.6686     7.5964
  296.5000     9.3614     0.0052     2.4115   136.3994     0.1444   103.9245     7.4534     7.3383
  297.0000     9.3610     0.0037     2.4108   133.9864     0.1435   104.2226     7.2045     7.1876
  297.5000     9.3606    -0.0008     2.4093   131.2753     0.1444   106.0209     7.0559     6.9916
  298.0000     9.3601    -0.0023     2.4055   131.2669     0.1463   109.3814     6.8628     6.8955
  298.5000     9.3596    -0.0038     2.4010   134.9609     0.1494   112.6211     6.7212     6.8008
  299.0000     9.3592    -0.0038     2.3980   137.2561     0.1532   115.9216     6.5823     6.7074
  299.5000     9.3438    -0.0023     2.3950   137.2456     0.1559   118.6215     6.5815     6.6612
  300.0000     9.3433    -0.0008     2.3883   137.5376     0.1586   119.2192     6.6264     6.7074
  300.5000     9.3428    -0.0037     2.3875   140.8304     0.1607   115.6121     6.6713     6.8008
  301.0000     9.3424    -0.0037     2.3920   143.5247     0.1583   115.0086     6.7631     6.8955
  301.5000     9.3419    -0.0036     2.3943   143.5163     0.1571   114.1049     6.8089     6.9434
  302.0000     9.3415    -0.0021     2.3966   144.4067     0.1553   111.9999     6.9026     6.9916
  302.5000     9.3411    -0.0020     2.3981   149.2031     0.1535   107.1916     6.9498     7.0889
  303.0000     9.3106    -0.0020     2.4003   152.1977     0.1523   105.3870     7.0456     7.1876
  303.5000     9.3101    -0.0004     2.4026   153.6908     0.1511   107.1866     7.1423     7.2375
  304.0000     9.2947    -0.0004     2.4041   151.2780     0.1496   103.5795     7.1908     7.2877
  304.5000     9.2943    -0.0003     2.4056   147.3657     0.1484   102.9760     7.2397     7.3383
  305.0000     9.2788     0.0012     2.4033   144.3543     0.1505   104.1737     7.2887     7.3892
  305.5000     9.2784     0.0028     2.3974   143.1426     0.1529   106.8736     7.3444     7.5441
  306.0000     9.2930     0.0028     2.3966   143.7348     0.1541   108.3729     7.4393     7.6013
  306.5000     9.3075     0.0043     2.4004   144.6273     0.1505   106.5576     7.5417     7.7022
  307.0000     9.3070     0.0059     2.4042   145.8180     0.1487   105.3628     7.6453     7.7557
  307.5000     9.3066     0.0059     2.4079   146.1120     0.1475   111.9666     7.6973     7.8095
  308.0000     9.3061     0.0060     2.4102   144.2998     0.1451   111.9638     7.7496     7.8095
  308.5000     9.3126     0.0000     2.4118   143.0901     0.1427   109.5585     7.7483     7.7022
  309.0000     9.3229    -0.0014     2.4147   142.1788     0.1424   110.1556     7.6940     7.5964
  309.5000     9.3377     0.0001     2.4162   142.1704     0.1436   116.1588     7.4835     7.3892
  310.0000     9.3524     0.0002     2.4117   138.0171     0.1451   117.0575     7.2720     7.2877
  310.5000     9.3520     0.0002     2.4042   136.2097     0.1487   114.3513     7.0792     7.0889
  311.0000     9.3817     0.0033     2.3982   136.8047     0.1506   113.3674     7.0296     6.9916
  311.5000     9.3814     0.0063     2.3947   139.2015     0.1539   110.4410     6.9323     6.9434
  312.0000     9.3811     0.0003     2.3932   140.0967     0.1543   106.8345     6.8837     6.8955
  312.5000     9.3808     0.0004     2.3999   137.9876     0.1528   108.0329     6.9304     6.8955
  313.0000     9.3655     0.0034     2.4022   134.9790     0.1503   111.9539     6.8836     6.8955
  313.5000     9.3502     0.0095     2.4037   135.8729     0.1476   111.3298     6.8848     6.8955
  314.0000     9.3499     0.0050     2.4051   138.8703     0.1479   109.8110     6.8857     6.8955
  314.5000     9.3496     0.0006     2.4051   141.5674     0.1486   109.3483     6.8867     6.9916
  315.0000     9.3643    -0.0009     2.4059   142.1624     0.1468   109.9599     6.8876     7.0028
  315.5000     9.3791    -0.0024     2.4074   140.9542     0.1449   111.1303     6.8885     7.0099
  316.0000     9.3787    -0.0023     2.4081   139.7474     0.1465   110.5210     6.9372     6.9607
  316.5000     9.3784    -0.0008     2.4036   139.1411     0.1492   111.1128     6.9862     7.0567
  317.0000     9.3631     0.0008     2.3990   139.7362     0.1528   114.1071     7.0355     7.0555
  317.5000     9.3328     0.0023     2.3990   140.9303     0.1540   115.9001     7.0854     7.1037
  318.0000     9.3175     0.0039     2.4035   141.8256     0.1486   116.4941     7.0864     7.1025
  318.5000     9.3172     0.0039     2.4118   143.0198     0.1427   114.3811     7.0874     7.1511
  319.0000     9.3019     0.0055     2.4208   143.6148     0.1396   114.6726     7.0393     7.1499
  319.5000     9.3166     0.0055     2.4215   143.3089     0.1402   115.2645     7.0405     7.1489
  320.0000     9.3163     0.0041     2.4170   140.6006     0.1414   115.8541     7.0902     7.1479
  320.5000     9.3160     0.0041     2.4140   136.0891     0.1423   116.1456     7.0912     7.2465
  321.0000     9.3308     0.0072     2.4110   133.3808     0.1432   116.4394     7.0921     7.2958
  321.5000     9.3304     0.0103     2.4109   133.0749     0.1438   114.6266     7.0931     7.3454
  322.0000     9.3451     0.0133     2.4147   136.7928     0.1423   113.4167     7.0941     7.4465
  322.5000     9.3298     0.0133     2.4229   139.6689     0.1324   113.7082     7.1444     7.4455
  323.0000     9.3145     0.0134     2.4290   140.5641     0.1276   113.3991     7.1948     7.4964
  323.5000     9.3142     0.0074     2.4365   140.2582     0.1249   108.8859     7.2959     7.5474
  324.0000     9.2989     0.0014     2.4417   141.1521     0.1246   107.3756     7.3474     7.5984
  324.5000     9.2836     0.0045     2.4274   142.0474     0.1363   114.8722     7.3993     7.6504
  325.0000     9.2834     0.0075     2.4176   142.3435     0.1433   116.9677     7.5032     7.7022
  325.5000     9.2830     0.0151     2.4071   141.7007     0.1469   113.3531     7.6085     7.7546
  326.0000     9.2978     0.0196     2.4033   139.0262     0.1487   112.7438     7.7154     7.8615
  326.5000     9.3125     0.0046     2.4168   137.8194     0.1378   115.4377     7.8237     7.9150
  327.0000     9.3121     0.0000     2.4318   140.8168     0.1306   116.3321     7.9338     7.9688
  327.5000     9.3118    -0.0013     2.4378   143.2136     0.1282   113.9187     7.9898     8.0784
  328.0000     9.3266     0.0003     2.4258   142.6060     0.1336   112.1081     8.0463     8.0773
  328.5000     9.3262     0.0003     2.4198   144.1018     0.1382   113.9769     8.1593     8.0762
  329.0000     9.3409     0.0004     2.4167   145.5977     0.1406   116.2926     8.1604     8.0751
  329.5000     9.3406     0.0019     2.4152   145.2904     0.1409   118.3860     8.1614     8.0741
  330.0000     9.3704     0.0035     2.4152   144.9845     0.1406   121.0799     8.1625     8.1293
  330.5000     9.3700     0.0050     2.4182   145.2792     0.1397   122.8751     8.1637     8.1843
  331.0000     9.3697     0.0081     2.4197   145.5739     0.1391   121.6630     8.2301     8.2400
  331.5000     9.3544     0.0096     2.4182   144.0654     0.1394   121.3561     8.3370     8.3588
  332.0000     9.3391     0.0097     2.4136   142.5583     0.1415   123.4473     8.4541     8.4685
  332.5000     9.3238     0.0080     2.4121   144.4044     0.1427   121.3164     8.5728     8.6448
  333.0000     9.3386     0.0037     2.4174   146.7513     0.1424   119.7818     8.6333     8.7640
  333.5000     9.3382     0.0023     2.4249   145.5431     0.1367   118.0134     8.7545     8.8239
  334.0000     9.3379     0.0008     2.4316   141.3332     0.1313   115.0016     8.8775     9.0074
  334.5000     9.3526    -0.0006     2.4331   136.5214     0.1307   110.4884     9.0021     9.1316
