~VERSION INFORMATION
 VERS.                2.0:   CWLS LOG ASCII STANDARD - VERSION 2.0
 WRAP.                 NO:   ONE LINE PER DEPTH STEP
~WELL INFORMATION
#MNEM.UNIT      DATA TYPE    INFORMATION
#----------   ------------   ------------------------------
 STRT.F           10.0000:   START DEPTH
 STOP.F          481.0000:   STOP DEPTH
 STEP.F            0.5000:   STEP LENGTH
 NULL.          -999.2500:   NO VALUE
 COMP. BROWN JOHN E&C INC:   COMPANY
 WELL.         SX 67 #1-3:   WELL
 FLD .        TEAPOT DOME:   FIELD
 LOC .       S3 T38N R78W:   LOCATION
 CNTY.            NATRONA:   COUNTY
 STAT.            WYOMING:   STATE
 CTRY. UNITED STATES OF AMERICA:   COUNTRY
 SRVC.       Schlumberger:   SERVICE COMPANY
 DATE.        12-OCT-1990:   LOGDATE
 API .       490251132900:   API NUMBER
~CURVE INFORMATION
#MNEM.UNIT       API CODE    CURVE DESCRIPTION
#----------   ------------   ------------------------------
 DEPT.F                  :   
 CALD.IN     45 280 60 00:   CALIPER FROM DENSITY LOG
 DRHO.G/C3   45 356 01 00:   DENSITY CORRECTION
 GRD .GAPI   45 310 01 00:   GAMMA RAY FROM DENSITY LOG
 RHOB.G/C3   45 350 01 00:   BULK DENSITY
 DPHI.DEC    45 890 12 00:   DENSITY POROSITY SANDSTONE
~PARAMETER INFORMATION
#MNEM.UNIT          VALUE    DESCRIPTION
#----------   ------------   ------------------------------
 PD  .                 GL:   PERMANENT DATUM
 EPD .F              5174:   ELEVATION PERMANENT DATUM
 LMF .                 KB:   LOG MEASURED FROM
 DAPD.F                10:   FEET ABOVE PERMANENT DATUM
 DMF .                 KB:   DRILLING MEASURED FROM
 EKB .F              5184:   KELLING BUSHING
 EGL .F              5174:   GROUND LEVEL
 DATE.           10-12-90:   RUN DATE
 RUN .                  1:   RUN NUMBER
 DD  .F               486:   DEPTH DRILLER
 DL  .F               486:   DEPTH LOGGER
 BLI .F               483:   BOTTOM LOG INTERVAL
 TLI .F                10:   TOP LOG INTERVAL
 CS  .IN            8.625:   CASING SIZE
 CBD .F                50:   CASING BOTTOM DRILLER
 CBL .F                50:   CASING BOTTOM LOGGER
 BS  .IN            7.875:   BIT SIZE
 BSD .F               486:   BIT SIZE AT DEPTH
 DFT .      DISPERSED GEL:   DRILLING FLUID TYPE
 DFD .                 15:   DRILLING FLUID DENSITY
 DFV .                 44:   DRILLING FLUID VISCOSITY
 DFPH.                  8:   DRILLING FLUID PH
 DFL .                7.2:   DRILLING FLUID LOSS
 MSS .           FLOWLINE:   MUD SAMPLE SOURCE
 RMS .OHMM              1:   RESISTIVITY MUD SAMPLE
 MST .F                60:   MUD SAMPLE TEMPERATURE
 RMF .OHMM             .7:   RESISTIVITY MUD FILTRATE SAMPLE
 MFST.F                60:   MUD FILTRATE SAMPLE TEMPERATURE
 RMC .OHMM            1.5:   RESISTIVITY MUD CAKE
 MCST.F                60:   MUD CAKE SAMPLE TEMPERATURE
 MFSS.               MEAS:   MUD FILTRATE SAMPLE SOURCE
 MCSS.               CALC:   MUD CAKE SAMPLE SOURCE
 RMB .OHMM           .753:   RESISTIVITY MUD AT BHT
 BHT .F                82:   BOTTOM HOLE TEMPERATURE
 TCS .HRS            1230:   TIME CURCULATED STOPPED
 MRT .F                82:   MAXIMUM RECORDED TEMPERATURE
 LUN .               8116:   LOGGING UNIT NUMBER
 LUL .             CASPER:   LOGGING UNIT LOCATION
 ENGI.            S. PEEL:   RECORDING ENGINEER
 WITN.        GARY STRONG:   WITNESSED BY
 CLNT.            A2DTECH:   CLIENT CODE
 ORIG.           5" PRINT:   ORIGIN OF DATA
 UWI .       490251132900:   UNIQUE WELL ID
 DICO. A2D Technologies, Inc.:   DIGITIZING COMPANY
~OTHER INFORMATION
~A   DEPT     CALD       DRHO         GRD      RHOB       DPHI   
# ...
  437.0000     7.6934     0.0135    82.4489     2.4821     0.1049
  437.5000     7.6934     0.0182    80.3853     2.5164     0.0838
  438.0000     7.6934     0.0195    80.0768     2.5263     0.0759
  438.5000     7.6934     0.0205    79.1448     2.5318     0.0728
  439.0000     7.6934     0.0187    79.4180     2.5332     0.0717
  439.5000     7.6934     0.0149    81.3859     2.5294     0.0732
  440.0000     7.6934     0.0106    84.1207     2.5234     0.0770
  440.5000     7.6934     0.0056    85.7059     2.5173     0.0807
  441.0000     7.6934     0.0031    84.1686     2.5124     0.0837
  441.5000     7.6934     0.0067    81.9817     2.5161     0.0811
  442.0000     7.6934     0.0100    81.6823     2.5205     0.0785
  442.5000     7.6934     0.0117    83.5284     2.5244     0.0760
  443.0000     7.6934     0.0121    85.3366     2.5264     0.0754
  443.5000     7.6934     0.0095    84.3301     2.5239     0.0752
  444.0000     7.6934     0.0071    83.0818     2.5154     0.0817
  444.5000     7.6934     0.0047    83.3625     2.5053     0.0877
  445.0000     7.6934     0.0045    85.4522     2.5025     0.0900
  445.5000     7.6918     0.0061    85.8378     2.5072     0.0873
  446.0000     7.6896     0.0085    85.3178     2.5185     0.0814
  446.5000     7.6874     0.0111    85.9211     2.5299     0.0743
  447.0000     7.6853     0.0136    87.1424     2.5411     0.0668
  447.5000     7.6831     0.0146    86.6666     2.5493     0.0639
  448.0000     7.6809     0.0146    84.3867     2.5392     0.0674
  448.5000     7.6789     0.0144    82.1866     2.5213     0.0754
  449.0000     7.6769     0.0142    81.9718     2.5125     0.0835
  449.5000     7.6743     0.0139    83.4718     2.5103     0.0851
  450.0000     7.6224     0.0137    85.9048     2.5119     0.0836
  450.5000     7.3951     0.0121    88.4062     2.5135     0.0838
  451.0000     6.8839     0.0105    88.7358     2.5101     0.0856
  451.5000     6.5625     0.0104    86.9052     2.5061     0.0874
  452.0000     6.7861     0.0102    83.9626     2.5052     0.0878
  452.5000     7.1863     0.0100    82.7944     2.5062     0.0874
  453.0000     7.5676     0.0099    81.2545     2.5064     0.0873
  453.5000     7.6456     0.0097    78.9343     2.5061     0.0873
  454.0000     7.6950     0.0091    76.5967     2.5058     0.0873
  454.5000     7.6882     0.0075    76.1011     2.5056     0.0873
  455.0000     7.6821     0.0058    76.5029     2.5072     0.0866
  455.5000     7.6760     0.0066    75.5561     2.5090     0.0858
  456.0000     7.6700     0.0080    74.6996     2.5108     0.0849
  456.5000     7.6639     0.0094    75.6051     2.5128     0.0839
  457.0000     7.6579     0.0108    78.6373     2.5196     0.0798
  457.5000     7.6532     0.0122    82.0568     2.5264     0.0755
  458.0000     7.6533     0.0121    84.9266     2.5297     0.0724
  458.5000     7.6533     0.0115    84.3000     2.5266     0.0755
  459.0000     7.6533     0.0109    83.0178     2.5205     0.0789
  459.5000     7.6533     0.0102    82.5688     2.5138     0.0823
  460.0000     7.6533     0.0097    84.0565     2.5126     0.0828
  460.5000     7.6533     0.0118    86.6594     2.5150     0.0815
  461.0000     7.6533     0.0140    86.8331     2.5174     0.0805
  461.5000     7.6533     0.0159    84.9877     2.5170     0.0808
  462.0000     7.6533     0.0199    82.8197     2.5163     0.0810
  462.5000     7.6533     0.0240    80.6478     2.5156     0.0812
  463.0000     7.6533     0.0252  -999.2500     2.5149     0.0815
  463.5000     7.6512     0.0221  -999.2500     2.5167     0.0807
  464.0000     7.6483     0.0189  -999.2500     2.5205     0.0781
  464.5000     7.6454     0.0157  -999.2500     2.5244     0.0756
  465.0000     7.6425     0.0126  -999.2500     2.5247     0.0758
  465.5000     7.6396     0.0116  -999.2500     2.5233     0.0770
  466.0000     7.6367     0.0116  -999.2500     2.5219     0.0783
  466.5000     7.6341     0.0119  -999.2500     2.5211     0.0785
  467.0000     7.6194     0.0141  -999.2500     2.5246     0.0763
  467.5000     7.6030     0.0164  -999.2500     2.5281     0.0740
  468.0000     7.5866     0.0186  -999.2500     2.5261     0.0764
  468.5000     7.5700     0.0206  -999.2500     2.5197     0.0799
  469.0000     7.5537     0.0199  -999.2500     2.5211     0.0793
  469.5000     7.5530     0.0192  -999.2500     2.5289     0.0746
  470.0000     7.5531     0.0185  -999.2500     2.5378     0.0684
  470.5000     7.5531     0.0177  -999.2500     2.5468     0.0622
  471.0000     7.5531     0.0177  -999.2500     2.5475     0.0603
  471.5000     7.5531     0.0161  -999.2500     2.5384     0.0669
  472.0000     7.5531     0.0144  -999.2500     2.5318     0.0716
  472.5000     7.5531     0.0128  -999.2500     2.5297     0.0731
  473.0000     7.5533     0.0115  -999.2500     2.5283     0.0739
  473.5000     7.5465     0.0126  -999.2500     2.5281     0.0736
  474.0000     7.5376     0.0139  -999.2500     2.5296     0.0731
  474.5000     7.5287     0.0153  -999.2500     2.5303     0.0735
  475.0000     7.5197     0.0166  -999.2500     2.5268     0.0756
  475.5000     7.5049     0.0181  -999.2500     2.5232     0.0777
  476.0000     7.4667     0.0197  -999.2500     2.5236     0.0774
  476.5000     7.4319     0.0212  -999.2500     2.5249     0.0757
  477.0000     7.4093     0.0219  -999.2500     2.5235     0.0770
  477.5000     7.3877     0.0223  -999.2500     2.5188     0.0797
  478.0000     7.3661     0.0227  -999.2500     2.5081     0.0841
  478.5000     7.3390     0.0203  -999.2500     2.4901     0.0918
  479.0000     7.3021     0.0171  -999.2500     2.4721     0.1045
  479.5000     7.2659     0.0127  -999.2500     2.4558     0.1179
  480.0000     7.1855     0.0141  -999.2500     2.4530     0.1128
  480.5000     7.1722     0.0155  -999.2500     2.4707     0.1083
  481.0000     7.1722     0.0156  -999.2500     2.4714     0.1083
