~VERSION INFORMATION
 VERS.                2.0:   CWLS LOG ASCII STANDARD - VERSION 2.0
 WRAP.                 NO:   ONE LINE PER DEPTH STEP
~WELL INFORMATION
#MNEM.UNIT      DATA TYPE    INFORMATION
#----------   ------------   ------------------------------
 STRT.F            0.0000:   START DEPTH
 STOP.F          553.0000:   STOP DEPTH
 STEP.F            0.5000:   STEP LENGTH
 NULL.          -999.2500:   NO VALUE
 COMP.   FLUOR DANIEL INC:   COMPANY
 WELL. NAVAL PETROLEUM RESERVE 3 SX-3 #1-3:   WELL
 FLD .             TEAPOT:   FIELD
 LOC .       S3 T38N R78W:   LOCATION
 CNTY.            NATRONA:   COUNTY
 STAT.            WYOMING:   STATE
 CTRY. UNITED STATES OF AMERICA:   COUNTRY
 SRVC.      Western Atlas:   SERVICE COMPANY
 DATE.        28-DEC-1994:   LOGDATE
 API .       490252267700:   API NUMBER
~CURVE INFORMATION
#MNEM.UNIT       API CODE    CURVE DESCRIPTION
#----------   ------------   ------------------------------
 DEPT.F                  :   
 GRR .GAPI   07 310 01 00:   GAMMA RAY FROM RES. LOG.
 RILD.OHMM   07 120 46 00:   INDUCTION LOG DEEP RESISTIVITY
 RILM.OHMM   07 120 44 00:   INDUCTION LOG MEDIUM RESISTIVITY
~PARAMETER INFORMATION
#MNEM.UNIT          VALUE    DESCRIPTION
#----------   ------------   ------------------------------
 PD  .                 GL:   PERMANENT DATUM
 EPD .F              5174:   ELEVATION PERMANENT DATUM
 LMF .                 KB:   LOG MEASURED FROM
 DAPD.F                10:   FEET ABOVE PERMANENT DATUM
 DMF .                 KB:   DRILLING MEASURED FROM
 EKB .F              5184:   KELLING BUSHING
 EDF .F              5183:   DRILLING FLOOR
 EGL .F              5174:   GROUND LEVEL
 DATE.        28-DEC-1994:   RUN DATE
 RUN .                  1:   RUN NUMBER
 DD  .F               561:   DEPTH DRILLER
 DL  .F               562:   DEPTH LOGGER
 BLI .F               553:   BOTTOM LOG INTERVAL
 CS  .IN            9.625:   CASING SIZE
 CBD .F                54:   CASING BOTTOM DRILLER
 CBL .F                54:   CASING BOTTOM LOGGER
 BS  .IN             8.75:   BIT SIZE
 BSD .F               561:   BIT SIZE AT DEPTH
 DFT .                AIR:   DRILLING FLUID TYPE
 MRT .F                89:   MAXIMUM RECORDED TEMPERATURE
 LUN .            HL 6530:   LOGGING UNIT NUMBER
 LUL .             CASPER:   LOGGING UNIT LOCATION
 ENGI.      PAT RASMUSSEN:   RECORDING ENGINEER
 WITN.        STEVE HARDY:   WITNESSED BY
 CLNT.            A2DTECH:   CLIENT CODE
 ORIG.           5" PRINT:   ORIGIN OF DATA
 UWI .       490252267700:   UNIQUE WELL ID
 DICO. A2D Technologies, Inc.:   DIGITIZING COMPANY
~OTHER INFORMATION
~A    DEPT      GRR      RILD       RILM   
# ...
  182.0000   143.4554     8.5170     8.5966
  182.5000   142.5607     8.5027     8.5815
  183.0000   141.2072     8.4833     8.5619
  183.5000   141.1631     8.4639     8.5424
  184.0000   141.2278     8.4447     8.5230
  184.5000   139.0340     8.4254     8.5035
  185.0000   136.6287     8.4062     8.4842
  185.5000   135.1966     8.3870     8.4648
  186.0000   137.7887     8.3680     8.4377
  186.5000   140.5015     8.3613     8.4886
  187.0000   138.8292     8.5183     8.5973
  187.5000   136.5828     8.6277     8.7078
  188.0000   134.4050     8.7387     8.8197
  188.5000   134.3264     8.8511     8.9331
  189.0000   134.3093     9.0025     9.0479
  189.5000   133.6746     9.0015     9.0929
  190.0000   133.9618     9.0955     9.1185
  190.5000   134.9055     9.1682     9.1442
  191.0000   136.5168     9.2549     9.1697
  191.5000   138.1348     9.2277     9.1419
  192.0000   139.4190     9.1846     9.1083
  192.5000   136.7883     9.1417     9.0748
  193.0000   134.2145     9.0990     9.0414
  193.5000   134.9594     9.0566     9.0082
  194.0000   139.6875     9.0145     8.9750
  194.5000   143.0748     8.9725     8.9420
  195.0000   140.7075     8.9305     8.8755
  195.5000   137.4631     8.7953     8.7349
  196.0000   139.2547     8.6284     8.5965
  196.5000   142.8512     8.4647     8.4604
  197.0000   145.0887     8.3040     8.3264
  197.5000   144.8687     8.1456     8.1945
  198.0000   143.3628     7.9842     8.0582
  198.5000   142.6481     7.9430     8.0166
  199.0000   144.0420     7.8888     7.9619
  199.5000   147.2055     7.8382     7.9109
  200.0000   148.6653     7.8382     7.9109
  200.5000   144.1573     7.9144     7.9877
  201.0000   139.5541     7.9845     8.0585
  201.5000   137.2155     8.0552     8.1299
  202.0000   139.1525     8.1266     8.2019
  202.5000   140.2232     8.1986     8.2746
  203.0000   139.5079     8.2780     8.3547
  203.5000   138.8366     8.3592     8.4367
  204.0000   138.7331     8.4413     8.5195
  204.5000   140.0319     8.5241     8.6032
  205.0000   141.3080     8.6078     8.6876
  205.5000   140.4655     8.6923     8.7729
  206.0000   137.6215     8.7786     8.8590
  206.5000   135.2087     8.8368     8.9193
  207.0000   134.6323     8.7920     8.8731
  207.5000   136.9502     8.7568     8.8380
  208.0000   140.2426     8.7221     8.8030
  208.5000   142.6621     8.6876     8.7681
  209.0000   142.7772     8.6518     8.7321
  209.5000   142.6400     8.6156     8.6955
  210.0000   139.2144     8.5794     8.6590
  210.5000   135.0289     8.5435     8.6227
  211.0000   130.5661     8.5077     8.5865
  211.5000   129.1855     8.4720     8.5505
  212.0000   133.1917     8.4397     8.5170
  212.5000   138.5952     8.5264     8.6065
  213.0000   141.5056     8.6348     8.7149
  213.5000   141.3437     8.7438     8.8249
  214.0000   139.8461     8.8541     8.9357
  214.5000   136.9950     8.9885     9.0718
  215.0000   134.1868     9.1575     9.2424
  215.5000   132.8556     9.3298     9.4163
  216.0000   133.8191     9.5052     9.5934
  216.5000   134.2076     9.6840     9.7738
  217.0000   130.2824     9.8662     9.9576
  217.5000   126.2948    10.0517    10.1449
  218.0000   123.3958    10.2408    10.3357
  218.5000   123.9681    10.4334    10.5302
  219.0000   127.8060    10.6297    10.7282
  219.5000   130.9833    10.8296    10.9300
  220.0000   133.1861    11.0333    11.1355
  220.5000   132.7666    11.2408    11.3439
  221.0000   131.8318    11.4431    11.5492
  221.5000   129.5914    11.8077    11.9171
  222.0000   126.4112    12.1682    12.2810
  222.5000   123.8486    12.5397    12.6560
  223.0000   122.6305    12.7832    12.9018
  223.5000   121.3713    12.7832    12.9018
  224.0000   119.7760    12.7832    12.9022
  224.5000   117.8910    12.7832    12.9019
  225.0000   118.3764    12.7832    12.9023
  225.5000   120.5404    12.6629    12.7803
  226.0000   122.6739    12.4952    12.6110
  226.5000   122.8067    12.3297    12.4440
  227.0000   121.2812    12.1664    12.2792
  227.5000   119.4788    12.0052    12.1165
  228.0000   117.7399    11.8462    11.9561
  228.5000   119.9246    11.6893    11.7977
  229.0000   124.9592    11.5344    11.6414
  229.5000   128.8281    11.3812    11.4872
  230.0000   127.0469    11.2329    11.3380
  230.5000   124.7085    11.2342    11.3380
  231.0000   122.3490    11.2201    11.3082
  231.5000   119.9917    11.2072    11.2799
  232.0000   117.9171    11.1941    11.2517
  232.5000   118.5267    11.1811    11.2235
  233.0000   118.4442    11.1682    11.1954
  233.5000   116.7635    11.1552    11.1674
  234.0000   115.0772    11.1422    11.1394
  234.5000   113.4008    11.1307    11.0605
  235.0000   112.2303    11.0062    10.9590
  235.5000   112.0246    10.8712    10.8585
  236.0000   112.2364    10.7378    10.7589
  236.5000   112.9947    10.6060    10.6601
  237.0000   114.2139    10.4759    10.5624
  237.5000   115.5963    10.4343    10.5311
  238.0000   116.9763    10.3849    10.4812
  238.5000   118.3696    10.3156    10.4112
  239.0000   118.9548    10.2467    10.3417
  239.5000   116.1467    10.1783    10.2727
  240.0000   114.2017    10.1104    10.2042
  240.5000   114.9264    10.0429    10.1360
  241.0000   116.7763     9.9759    10.0684
  241.5000   118.3110     9.9093    10.0012
  242.0000   118.2739     9.8432     9.9344
  242.5000   118.2260     9.7775     9.8681
  243.0000   119.8411     9.7121     9.8023
  243.5000   120.6326     9.6466     9.7368
  244.0000   117.2251     9.6018     9.6917
  244.5000   113.0720     9.7310     9.8212
  245.0000   110.4905     9.9109    10.0028
  245.5000   110.5215    10.0562    10.1494
  246.0000   111.9659     9.8051     9.8960
  246.5000   114.9987     9.6507     9.7401
  247.0000   116.8913     9.4987     9.5868
  247.5000   115.1174     9.3491     9.4358
  248.0000   113.1308     9.2547     9.3405
  248.5000   113.8053     9.2118     9.2972
  249.0000   115.7517     9.1390     9.2221
  249.5000   117.6829     9.0020     9.0839
  250.0000   117.7496     8.7920     9.0876
  250.5000   115.5842     8.5350     8.6142
  251.0000   113.4271     8.2856     8.3624
  251.5000   114.1246     8.0432     8.1180
  252.0000   117.7660     7.8080     7.8804
  252.5000   121.0942     7.5801     7.6498
  253.0000   121.7348     7.5541     7.6240
  253.5000   120.1963     7.5240     7.5938
  254.0000   118.7375     7.4832     7.5609
  254.5000   119.7199     7.4809     7.5541
  255.0000   122.3447     7.5579     7.6242
  255.5000   124.7188     7.6908     7.7631
  256.0000   124.6031     7.8252     7.8968
  256.5000   123.6367     7.9165     7.9906
  257.0000   122.7497     7.9565     8.0302
  257.5000   124.0598     7.9959     8.0701
  258.0000   126.4067     8.0356     8.1100
  258.5000   127.7146     8.0754     8.1502
  259.0000   128.3708     8.1154     8.2085
  259.5000   128.7058     8.1606     8.2079
  260.0000   129.0123     8.3182     8.3953
  260.5000   131.0692     8.4388     8.5176
  261.0000   132.1225     8.4388     8.5170
  261.5000   129.2830     8.4454     8.5372
  262.0000   125.4689     8.4995     8.7020
  262.5000   125.3887     8.5537     8.8373
  263.0000   127.1982     8.5968     8.8065
  263.5000   127.7591     8.5494     8.7565
  264.0000   127.8618     8.4943     8.7068
  264.5000   129.1336     8.4396     8.6574
  265.0000   130.3648     8.3853     8.6083
  265.5000   130.7874     8.3313     8.5594
  266.0000   129.9042     8.2776     8.5109
  266.5000   129.1265     8.2243     8.4626
  267.0000   129.1240     8.2084     8.4388
  267.5000   129.0838     8.2279     8.4388
  268.0000   127.0477     8.2454     8.4388
  268.5000   123.6532     8.2629     8.4388
  269.0000   120.3297     8.2805     8.4388
  269.5000   120.1909     8.2981     8.4388
  270.0000   123.2245     8.3158     8.4388
  270.5000   126.1244     8.3334     8.4387
  271.0000   126.8016     8.3517     8.4383
  271.5000   125.1715     8.3621     8.4400
  272.0000   124.2990     8.2852     8.3548
  272.5000   124.2883     8.2124     8.2753
