~VERSION INFORMATION
 VERS.                2.0:   CWLS LOG ASCII STANDARD - VERSION 2.0
 WRAP.                 NO:   ONE LINE PER DEPTH STEP
~WELL INFORMATION
#MNEM.UNIT      DATA TYPE    INFORMATION
#----------   ------------   ------------------------------
 STRT.F          100.0000:   START DEPTH
 STOP.F         1196.0000:   STOP DEPTH
 STEP.F            0.5000:   STEP LENGTH
 NULL.          -999.2500:   NO VALUE
 COMP. DEPARTMENT OF ENERGY:   COMPANY
 WELL.     NRP ##3 77S-11:   WELL
 FLD .             TEAPOT:   FIELD
 LOC .      S11 T38N R78W:   LOCATION
 CNTY.            NATRONA:   COUNTY
 STAT.            WYOMING:   STATE
 CTRY. UNITED STATES OF AMERICA:   COUNTRY
 SRVC.       Schlumberger:   SERVICE COMPANY
 DATE.        18-AUG-1959:   LOGDATE
 API .       490250632900:   API NUMBER
~CURVE INFORMATION
#MNEM.UNIT       API CODE    CURVE DESCRIPTION
#----------   ------------   ------------------------------
 DEPT.F                  :   
 SPR .MV     05 010 01 00:   SPONTANEOUS POTENTIAL FROM RES.
 ASN .OHMM   05 041 16 00:   AMPLIFIED SHORT NORMAL 16"
 ILD .OHMM   05 120 46 00:   INDUCTION LOG DEEP
 CILD.MMHO   05 110 46 00:   CONDUCTIVITY INDUCTION LOG DEEP
~PARAMETER INFORMATION
#MNEM.UNIT          VALUE    DESCRIPTION
#----------   ------------   ------------------------------
 PD  .                 GL:   PERMANENT DATUM
 EPD .F              5258:   ELEVATION PERMANENT DATUM
 LMF .                 KB:   LOG MEASURED FROM
 DAPD.F                 4:   FEET ABOVE PERMANENT DATUM
 DMF .                 KB:   DRILLING MEASURED FROM
 EKB .F              5262:   KELLING BUSHING
 EGL .F              5258:   GROUND LEVEL
 DATE.            8-18-59:   RUN DATE
 RUN .                  1:   RUN NUMBER
 DD  .F              1200:   DEPTH DRILLER
 DL  .F              1201:   DEPTH LOGGER
 BLI .F              1196:   BOTTOM LOG INTERVAL
 TLI .F               100:   TOP LOG INTERVAL
 CBD .F                17:   CASING BOTTOM DRILLER
 BS  .IN             6.75:   BIT SIZE
 BSD .F              1200:   BIT SIZE AT DEPTH
 DFT . GEL-OIL-PHDS-CAUSTIC:   DRILLING FLUID TYPE
 DFD .               10.8:   DRILLING FLUID DENSITY
 DFV .                 60:   DRILLING FLUID VISCOSITY
 DFPH.                  9:   DRILLING FLUID PH
 DFL .                  4:   DRILLING FLUID LOSS
 RMS .OHMM            1.8:   RESISTIVITY MUD SAMPLE
 MST .F                90:   MUD SAMPLE TEMPERATURE
 RMF .OHMM            1.5:   RESISTIVITY MUD FILTRATE SAMPLE
 MFST.F                90:   MUD FILTRATE SAMPLE TEMPERATURE
 RMC .OHMM              2:   RESISTIVITY MUD CAKE
 MCST.F                90:   MUD CAKE SAMPLE TEMPERATURE
 TCS .HRS               1:   TIME CURCULATED STOPPED
 LUN .               2523:   LOGGING UNIT NUMBER
 LUL .               CSPR:   LOGGING UNIT LOCATION
 ENGI.             KNOBEL:   RECORDING ENGINEER
 WITN.             MARTIN:   WITNESSED BY
 CLNT.            A2DTECH:   CLIENT CODE
 ORIG.     1", 2.5" PRINT:   ORIGIN OF DATA
 UWI .       490250632900:   UNIQUE WELL ID
 DICO. A2D Technologies, Inc.:   DIGITIZING COMPANY
~OTHER INFORMATION
~A   DEPT      SPR          ASN        ILD      CILD  
# ...
  976.0000   -25.5366     6.2353     6.0929   178.3223
  976.5000   -25.5705     6.0637     5.8789   181.0271
  977.0000   -25.5935     5.8416     5.6387   189.8388
  977.5000   -25.6366     5.6701     5.4307   200.2753
  978.0000   -25.7150     5.7680     5.3018   204.1796
  978.5000   -25.7585     6.1258     5.2251   206.6335
  979.0000   -25.6650     6.3947     5.1227   207.4357
  979.5000   -25.4440     6.2278     4.9783   206.6958
  980.0000   -25.2277     5.6942     4.8713   211.0135
  980.5000   -25.1080     5.2303     4.8542   212.5216
  981.0000   -25.0406     5.1334     4.8640   210.4967
  981.5000   -24.9461     5.2556     4.8342   216.1628
  982.0000   -24.8286     5.3290     4.8264   220.3196
  982.5000   -24.7361     5.4109     4.9431   240.4726
  983.0000   -24.6598     5.7500     5.1717   238.9142
  983.5000   -24.5497     6.3191     5.4547   229.9237
  984.0000   -24.4121     6.7985     5.8382   218.9399
  984.5000   -24.3297     6.9941     6.3681   172.5356
  985.0000   -24.3669     7.0092     6.8816   164.4145
  985.5000   -24.4984     7.0023     7.1072   160.0047
  986.0000   -24.6512     6.9980     6.9827   153.2993
  986.5000   -24.7870     6.9173     6.7023   162.1283
  987.0000   -24.9140     6.8629     6.4538   168.0201
  987.5000   -25.0442     6.6398     6.2618   177.4319
  988.0000   -25.1819     6.2167     6.0741   185.0836
  988.5000   -25.3268     5.8450     5.8528   191.2710
  989.0000   -25.4640     5.6430     5.5901   195.6784
  989.5000   -25.5802     5.5683     5.3560   207.7141
  990.0000   -25.7059     5.7394     5.3018   216.8680
  990.5000   -25.8780     6.2190     5.5105   222.1654
  991.0000   -26.0326     6.7181     5.8787   216.8680
  991.5000   -26.0247     7.0028     6.2332   196.0740
  992.0000   -25.8066     7.2224     6.5269   182.1736
  992.5000   -25.4955     7.5258     6.8332   168.2732
  993.0000   -25.2071     7.8142     7.1796   153.2993
  993.5000   -24.9255     8.0306     7.4876   147.7370
  994.0000   -24.6179     8.2531     7.6732   142.3072
  994.5000   -24.3690     8.3843     7.7435   135.6413
  995.0000   -24.2840     8.4480     7.7703   134.2993
  995.5000   -24.3320     8.4769     7.8057   132.1097
  996.0000   -24.3923     8.5217     7.8494   131.7526
  996.5000   -24.4106     8.5972     7.8870   131.2699
  997.0000   -24.4217     8.6689     7.9228   130.7873
  997.5000   -24.4535     8.7012     7.9645   130.3439
  998.0000   -24.4906     8.7029     8.0042   130.0833
  998.5000   -24.5170     8.7130     8.0227   129.8422
  999.0000   -24.5396     8.7533     8.0109   129.6012
  999.5000   -24.5672     8.7858     7.9691   129.3602
 1000.0000   -24.5978     8.7444     7.9129   129.1191
 1000.5000   -24.6286     8.6221     7.8774   128.8781
 1001.0000   -24.6547     8.4997     7.9110   128.5781
 1001.5000   -24.6659     8.4742     8.0597   127.5729
 1002.0000   -24.6588     8.5960     8.3199   126.2418
 1002.5000   -24.6516     8.7696     8.5985   124.9106
 1003.0000   -24.6634     8.9935     8.7696   123.5795
 1003.5000   -24.6740     9.2185     8.7785   122.2484
 1004.0000   -24.6543     9.3025     8.6466   121.5149
 1004.5000   -24.6351     9.2106     8.3256   125.0465
 1005.0000   -24.6720     9.0080     7.7170   134.9349
 1005.5000   -24.7107     8.5503     6.8993   147.0483
 1006.0000   -24.5974     7.6125     6.1910   159.1617
 1006.5000   -24.2998     6.4753     5.8156   171.2751
 1007.0000   -24.0182     5.8022     5.6080   183.3885
 1007.5000   -23.9709     5.7719     5.2948   199.2100
 1008.0000   -24.1395     6.0005     4.9533   213.0186
 1008.5000   -24.3366     6.3608     4.8440   239.8234
 1009.0000   -24.4625     7.0968     4.9209   236.2918
 1009.5000   -24.5807     8.1676     5.0056   223.9312
 1010.0000   -24.7521     9.2068     5.3853   191.1378
 1010.5000   -24.9192     9.9893     6.5771   159.0003
 1011.0000   -24.9816    10.4563     8.3723   132.1097
 1011.5000   -24.9354    10.6123     9.7786   103.8569
 1012.0000   -24.8520    10.6265    10.1605   102.9387
 1012.5000   -24.7649    10.6608     9.9151   101.2082
 1013.0000   -24.6606    10.6811     9.7393   100.3253
 1013.5000   -24.5740    10.6817     9.7600   103.7958
 1014.0000   -24.5450    10.7142     9.7000   106.1253
 1014.5000   -24.4862    10.6831     9.4738   108.4548
 1015.0000   -24.3035    10.6178     9.2873   110.7842
 1015.5000   -24.1870    10.7961     9.3658   112.6859
 1016.0000   -24.4702    11.2235     9.7830   103.8569
 1016.5000   -25.1077    11.6700    10.3932   101.2634
 1017.0000   -25.7019    12.1098    10.9095    98.5595
 1017.5000   -26.2108    13.5184    11.2816    95.0279
 1018.0000   -27.2197    14.6236    11.9349    89.2971
 1018.5000   -29.1688    15.6926    13.3122    81.0379
 1019.0000   -31.6374    16.7809    15.2009    72.7788
 1019.5000   -33.8436    17.4047    16.8732    64.5197
 1020.0000   -35.6748    18.2587    17.9843    57.9461
 1020.5000   -37.7351    18.8822    18.8558    54.2253
 1021.0000   -40.3147    19.4692    19.7390    51.1352
 1021.5000   -42.7511    19.8831    20.2902    49.1171
 1022.0000   -44.0587    19.8685    20.1024    49.8823
 1022.5000   -43.9603    19.6997    19.3686    50.8829
 1023.0000   -43.0613    19.2948    18.6125    49.1171
 1023.5000   -42.1426    18.8334    18.0292    51.9767
 1024.0000   -41.5661    18.3995    17.4734    54.6205
 1024.5000   -41.2831    17.9203    16.8824    57.2643
 1025.0000   -41.0267    17.4883    16.3353    59.9081
 1025.5000   -40.4795    17.0072    15.8063    62.5519
 1026.0000   -39.5109    16.6111    15.2012    65.1957
 1026.5000   -38.2697    16.0770    14.6070    68.5409
 1027.0000   -36.8616    15.5036    14.2436    68.8058
 1027.5000   -35.1418    15.6376    14.1695    69.1663
 1028.0000   -33.1372    16.2027    14.2121    69.5268
 1028.5000   -31.4267    16.5955    14.2238    69.8873
 1029.0000   -30.6015    17.1139    14.2344    70.3067
 1029.5000   -30.4970    17.7421    14.3258    69.2724
 1030.0000   -30.4891    17.7427    14.4792    68.0364
 1030.5000   -30.4955    17.1322    14.6184    66.8003
 1031.0000   -31.1214    16.5893    14.7197    65.5643
 1031.5000   -32.7571    16.0979    14.8072    64.3282
 1032.0000   -35.0215    15.5478    14.8785    63.2435
 1032.5000   -37.1497    15.0459    14.8996    64.6309
 1033.0000   -38.5938    14.5521    14.8590    65.8670
 1033.5000   -39.2302    14.2483    14.7881    67.1030
 1034.0000   -39.3112    14.1768    14.7231    68.3391
 1034.5000   -39.2181    14.0657    14.6699    69.5751
 1035.0000   -39.0440    13.8814    14.6155    70.8112
 1035.5000   -38.5432    13.7661    14.5550    72.0473
 1036.0000   -37.6409    13.6610    14.4950    73.2833
 1036.5000   -36.7555    13.5265    14.4376    74.5194
 1037.0000   -36.3418    13.4113    14.3797    75.7554
 1037.5000   -36.3439    13.2970    14.3213    77.3699
 1038.0000   -36.3905    13.1698    14.2643    77.5367
 1038.5000   -36.3024    13.0512    14.2052    77.7770
 1039.0000   -36.1130    12.9363    14.1426    78.0173
 1039.5000   -35.7962    12.8087    14.0859    78.2577
 1040.0000   -35.2883    12.6895    14.0362    78.4980
 1040.5000   -34.7427    12.5664    13.9753    78.7384
 1041.0000   -34.4483    12.4222    13.9006    78.9787
 1041.5000   -34.4915    12.3064    13.8464    79.2191
 1042.0000   -34.6814    12.2567    13.8208    79.4594
 1042.5000   -34.8278    12.2601    13.7570    79.6998
 1043.0000   -34.9458    12.2762    13.5997    79.9401
 1043.5000   -35.1083    12.2803    13.4139    80.1805
 1044.0000   -35.2551    12.2690    13.3151    80.4208
 1044.5000   -35.3251    12.2563    13.3140    80.6611
 1045.0000   -35.5085    12.2848    13.3290    80.9015
 1045.5000   -36.1185    12.4077    13.3330    80.9015
 1046.0000   -37.1466    12.6271    13.3735    80.9015
 1046.5000   -38.1203    12.8751    13.4515    80.9015
 1047.0000   -38.5237    13.0942    13.4939    80.9015
 1047.5000   -38.2810    13.3097    13.4635    79.4668
 1048.0000   -37.7421    13.5749    13.4086    78.3548
 1048.5000   -37.2701    13.8562    13.3805    77.3093
