~VERSION INFORMATION
 VERS.                2.0:   CWLS LOG ASCII STANDARD - VERSION 2.0
 WRAP.                 NO:   ONE LINE PER DEPTH STEP
~WELL INFORMATION
#MNEM.UNIT      DATA TYPE    INFORMATION
#----------   ------------   ------------------------------
 STRT.F           36.0000:   START DEPTH
 STOP.F          493.0000:   STOP DEPTH
 STEP.F            0.5000:   STEP LENGTH
 NULL.          -999.2500:   NO VALUE
 COMP.    FENIX & SCISSON:   COMPANY
 WELL.       NPR #68-S-10:   WELL
 FLD .             TEAPOT:   FIELD
 LOC .      S10 T38N R78W:   LOCATION
 CNTY.            NATRONA:   COUNTY
 STAT.            WYOMING:   STATE
 CTRY. UNITED STATES OF AMERICA:   COUNTRY
 SRVC.              Welex:   SERVICE COMPANY
 DATE.        18-APR-1977:   LOGDATE
 API .       490251033500:   API NUMBER
~CURVE INFORMATION
#MNEM.UNIT       API CODE    CURVE DESCRIPTION
#----------   ------------   ------------------------------
 DEPT.F                  :   
 SPR .MV     07 010 01 00:   SPONTANEOUS POTENTIAL
 ILD .OHMM   07 120 46 00:   INDUCTION LOG DEEP
 ILM .OHMM   07 120 44 00:   INDUCTION LOG MEDIUM
 SGRD.OHMM   07 221 05 00:   SHALLOW SHORT GUARD RESISTIVITY
 CALD.IN     45 280 60 00:   CALIPER FROM DENSITY LOG
 GRD .GAPI   45 310 01 00:   GAMMA RAY FROM DENSITY LOG
 CORR.G/C3   45 356 01 00:   DENSITY CORRECTION
 RHOB.G/C3   45 350 01 00:   BULK DENSITY
 DPHI.DEC    45 890 12 00:   DENSITY POROSITY SANDSTONE
~PARAMETER INFORMATION
#MNEM.UNIT          VALUE    DESCRIPTION
#----------   ------------   ------------------------------
 PD  .                 GL:   PERMANENT DATUM
 EPD .F              5198:   ELEVATION PERMANENT DATUM
 LMF .                 GL:   LOG MEASURED FROM
 DMF .                 GL:   DRILLING MEASURED FROM
 EGL .F              5198:   GROUND LEVEL
 DATE.        18-APR-1977:   RUN DATE
 RUN .                  1:   RUN NUMBER
 DD  .F               505:   DEPTH DRILLER
 DL  .F               492:   DEPTH LOGGER
 BLI .F               490:   BOTTOM LOG INTERVAL
 TLI .F                32:   TOP LOG INTERVAL
 CS  .IN            8.625:   CASING SIZE
 CBD .F                40:   CASING BOTTOM DRILLER
 CBL .F                42:   CASING BOTTOM LOGGER
 BS  .IN            7.875:   BIT SIZE
 BSD .F               505:   BIT SIZE AT DEPTH
 DFT .            KCL MUD:   DRILLING FLUID TYPE
 DFV .                 36:   DRILLING FLUID VISCOSITY
 MSS .           FLOWLINE:   MUD SAMPLE SOURCE
 RMS .OHMM           2.46:   RESISTIVITY MUD SAMPLE
 MST .F                52:   MUD SAMPLE TEMPERATURE
 RMF .OHMM           2.30:   RESISTIVITY MUD FILTRATE SAMPLE
 MFST.F                52:   MUD FILTRATE SAMPLE TEMPERATURE
 RMC .OHMM           2.66:   RESISTIVITY MUD CAKE
 MCST.F                52:   MUD CAKE SAMPLE TEMPERATURE
 MFSS.               MEAS:   MUD FILTRATE SAMPLE SOURCE
 MCSS.               MEAS:   MUD CAKE SAMPLE SOURCE
 RMB .OHMM           1.97:   RESISTIVITY MUD AT BHT
 BHT .F                65:   BOTTOM HOLE TEMPERATURE
 TCS .HRS            0400:   TIME CURCULATED STOPPED
 MRT .F                65:   MAXIMUM RECORDED TEMPERATURE
 LUN .               8611:   LOGGING UNIT NUMBER
 LUL .             CASPER:   LOGGING UNIT LOCATION
 ENGI.               DOAK:   RECORDING ENGINEER
 WITN.            R. LYON:   WITNESSED BY
 CLNT.            A2DTECH:   CLIENT CODE
 ORIG.           5" PRINT:   ORIGIN OF DATA
 UWI .       490251033500:   UNIQUE WELL ID
 DICO. A2D Technologies, Inc.:   DIGITIZING COMPANY
~OTHER INFORMATION
~A   DEPT      SPR        ILD        ILM       SGRD         CALD       GRD      CORR       RHOB       DPHI   
# ...
  109.0000   -51.9283     9.3069    11.3329    15.7248     7.9489   110.8631     0.0172     2.4123     0.1333
  109.5000   -51.7600     9.3772    11.3423    16.0451     7.9511   110.1354     0.0083     2.3996     0.1407
  110.0000   -51.5957     9.5804    11.2713    15.6199     7.9526   109.4078     0.0024     2.4229     0.1323
  110.5000   -51.5794     9.8546    11.9233    15.6320     7.9541   108.0849     0.0009     2.4387     0.1254
  111.0000   -51.4152    10.1366    12.0965    16.0819     7.9556   108.3989     0.0102     2.4537     0.1167
  111.5000   -51.3989    10.4988    11.9406    16.2056     7.9571   108.8576     0.0133     2.4567     0.1158
  112.0000   -51.3826    10.7993    12.1191    16.2179     7.9586   108.1299     0.0074     2.4451     0.1223
  112.5000   -51.3663    11.0320    12.4686    16.2303     7.9601   107.4063     0.0060     2.4332     0.1274
  113.0000   -51.0541    11.0388    12.8281    16.2426     7.9765   106.5299     0.0061     2.4314     0.1268
  113.5000   -50.8899    11.2767    13.1045    16.2550     7.9482   105.5046     0.0078     2.4394     0.1220
  114.0000   -50.5778    11.5196    12.5862    16.7229     7.9497   104.0329     0.0094     2.4490     0.1172
  114.5000   -50.2656    11.9313    12.5075    17.9320     7.9512   101.5195     0.0140     2.4550     0.1135
  115.0000   -50.1014    12.2728    12.4318    18.0700     7.9527    99.0061     0.0156     2.4602     0.1108
  115.5000   -49.9371    12.6240    12.7050    18.0837     7.9542   100.0642     0.0187     2.4661     0.1075
  116.0000   -49.7729    12.8073    12.9814    18.0975     7.9557   101.5686     0.0219     2.4707     0.1027
  116.5000   -49.6087    12.9933    13.2639    18.2368     7.9721   101.1386     0.0220     2.4692     0.1047
  117.0000   -49.5924    12.6475    13.3641    18.7618     7.9736    99.9604     0.0191     2.4648     0.1092
  117.5000   -49.5761    12.3108    13.1947    19.5878     7.9750   101.9154     0.0147     2.4573     0.1143
  118.0000   -49.5598    12.0661    13.2056    19.1836     7.9914   103.5687     0.0133     2.4439     0.1176
  118.5000   -49.5435    12.0736    13.2166    18.8041     7.9929   103.1386     0.0150     2.4507     0.1169
  119.0000   -49.6751    12.4191    13.3191    19.7509     7.9944   100.6253     0.0166     2.4575     0.1154
  119.5000   -49.6588    12.5128    13.5154    20.1796     7.9959    98.7071     0.0197     2.4613     0.1121
  120.0000   -49.6425    12.5206    13.7117    18.8477     7.9974   100.5092     0.0213     2.4658     0.1091
  120.5000   -49.7782    12.5283    13.3524    18.4719     7.9989   101.2656     0.0260     2.4659     0.1070
  121.0000   -49.9099    12.4480    13.0870    19.6749     8.0004    99.5003     0.0306     2.4658     0.1081
  121.5000   -49.8895    12.3701    12.9211    20.3815     8.0168    98.6238     0.0352     2.4697     0.1060
  122.0000   -49.8732    12.2081    12.6669    18.1381     8.0030    98.1938     0.0413     2.4728     0.1033
  122.5000   -49.8569    12.1317    12.5877    17.4120     8.0049    97.9085     0.0460     2.4676     0.1072
  123.0000   -49.8406    12.1411    12.3426    17.4286     8.0064    97.4825     0.0461     2.4661     0.1065
  123.5000   -49.8243    12.1486    12.1836    17.3186     8.0079    96.9037     0.0447     2.4707     0.1032
  124.0000   -49.8080    12.0707    12.0266    16.9797     8.0094    93.6462     0.0433     2.4692     0.1092
  124.5000   -49.7917    11.9951    12.0366    16.8758     7.9956    88.0079     0.0419     2.4596     0.1143
  125.0000   -49.7754    12.0044    12.0466    16.7692     7.9975    86.2385     0.0390     2.4529     0.1151
  125.5000   -49.7591    12.0950    12.1401    16.6665     7.9989    89.6775     0.0437     2.4701     0.1079
  126.0000   -49.7428    12.1863    12.4902    16.9144     8.0004    94.0094     0.0498     2.4739     0.0998
  126.5000   -49.7265    12.1938    13.1191    17.3980     8.0019    95.5139     0.0544     2.4829     0.0983
  127.0000   -49.7102    12.0342    13.4973    16.8204     8.0031    97.4648     0.0591     2.4793     0.1004
  127.5000   -49.6939    11.8766    13.1409    17.6701     8.0046   100.3044     0.0607     2.4808     0.0976
  128.0000   -49.6776    11.7211    12.7912    17.8027     8.0060    96.6006     0.0593     2.4861     0.0949
  128.5000   -49.6613    11.5677    12.5395    16.9790     8.0075    95.5753     0.0594     2.4906     0.0916
  129.0000   -49.6450    11.5748    12.8151    16.7589     7.9941    94.6988     0.0565     2.4944     0.0892
  129.5000   -49.6287    11.5024    12.8257    16.6531     7.9956    94.5664     0.0551     2.4975     0.0882
  130.0000   -49.6154    11.3518    12.4338    16.5543     7.9971    96.9637     0.0521     2.4908     0.0915
  130.5000   -49.5961    11.2032    11.8909    15.6766     7.9986    99.3611     0.0462     2.4841     0.0963
  131.0000   -49.5798    10.9788    12.0129    14.8455     7.9703   100.8655     0.0435     2.4760     0.1002
  131.5000   -49.7155    10.7605    12.1888    15.3787     7.9718   102.5188     0.0436     2.4783     0.1028
  132.0000   -49.6951    10.6932    12.3547    16.2644     7.9584   103.8745     0.0453     2.4865     0.0983
  132.5000   -49.6788    10.7015    12.3649    17.0828     7.9599   105.6766     0.0484     2.4926     0.0926
  133.0000   -49.8136    10.7081    12.2898    16.5157     7.9763   107.7763     0.0515     2.4956     0.0908
  133.5000   -49.7942    10.7147    12.1140    15.8576     7.9778   109.7272     0.0516     2.4979     0.0896
  134.0000   -49.7779    10.5017    11.8110    15.1209     7.9793   110.7853     0.0517     2.5039     0.0877
  134.5000   -49.7616    10.2930    11.6589    15.7725     7.9808   110.9505     0.0503     2.5070     0.0814
  135.0000   -49.7485    10.1567    11.6687    16.4490     7.9823   110.9669     0.0459     2.4988     0.0874
  135.5000   -49.7322    10.0931    11.6784    15.3663     7.9688   110.2392     0.0401     2.4869     0.0981
  136.0000   -49.7160    10.0299    11.6880    15.8086     7.9703   107.8746     0.0342     2.4750     0.1047
  136.5000   -49.8484     9.9671    11.6977    16.2636     7.9718   102.0874     0.0283     2.4586     0.1119
  137.0000   -49.8321     9.9748    11.7895    15.9424     7.9657    97.3419     0.0239     2.4482     0.1193
  137.5000   -49.9637     9.9810    11.9621    15.3071     7.9597    94.2333     0.0210     2.4351     0.1235
  138.0000   -50.0953    10.0563    11.9721    15.8568     7.9612    93.2080     0.0151     2.4246     0.1280
  138.5000   -50.5228    10.0626    11.9820    16.3102     7.9627    94.4149     0.0093     2.4132     0.1334
  139.0000   -50.6544    10.0688    11.9920    15.5555     7.9493    93.9848     0.0048     2.4270     0.1318
  139.5000   -50.9541    10.0750    11.7560    16.5653     7.9359    92.8107     0.0065     2.4421     0.1246
  140.0000   -51.0656    10.0813    11.5248    17.8861     7.9374    91.7854     0.0126     2.4477     0.1213
  140.5000   -51.1973    10.0875    11.3762    15.4838     7.9389    92.0994     0.0172     2.4373     0.1240
  141.0000   -51.1805    10.0938    11.2298    15.0706     7.9553    92.8599     0.0219     2.4351     0.1257
  141.5000   -51.1642    10.1000    11.1616    15.9416     7.9643    95.8524     0.0220     2.4329     0.1269
  142.0000   -51.1480    10.1063    11.2485    16.8598     7.9732    98.8450     0.0221     2.4292     0.1284
  142.5000   -51.1317     9.9740    11.4142    16.8009     7.9747   101.5400     0.0222     2.4255     0.1299
  143.0000   -51.1154     9.9115    11.5824    15.8050     7.9762   103.1933     0.0224     2.4353     0.1267
  143.5000   -51.0991     9.7143    11.7531    15.3385     7.9925   104.1025     0.0180     2.4242     0.1289
  144.0000   -51.0829     9.4558    11.5219    19.0551     7.9941   103.2260     0.0136     2.4152     0.1332
  144.5000   -51.6586     9.2041    10.8373    16.8240     7.9881   105.1769     0.0107     2.4093     0.1389
  145.0000   -52.0956     8.9593     9.9158    13.2507     7.9747   107.5743     0.0078     2.4056     0.1458
