~VERSION INFORMATION
 VERS.                2.0:   CWLS LOG ASCII STANDARD - VERSION 2.0
 WRAP.                 NO:   ONE LINE PER DEPTH STEP
~WELL INFORMATION
#MNEM.UNIT      DATA TYPE    INFORMATION
#----------   ------------   ------------------------------
 STRT.F           18.0000:   START DEPTH
 STOP.F          449.0000:   STOP DEPTH
 STEP.F            0.5000:   STEP LENGTH
 NULL.          -999.2500:   NO VALUE
 COMP.   LAWRENCE-ALLISON:   COMPANY
 WELL. NPR 3 #52-51SX10OB5:   WELL
 FLD .             TEAPOT:   FIELD
 LOC .      S10 T38N R78W:   LOCATION
 CNTY.            NATRONA:   COUNTY
 STAT.            WYOMING:   STATE
 CTRY. UNITED STATES OF AMERICA:   COUNTRY
 SRVC.      Dresser Atlas:   SERVICE COMPANY
 DATE.        20-DEC-1984:   LOGDATE
 API .       490251101000:   API NUMBER
~CURVE INFORMATION
#MNEM.UNIT       API CODE    CURVE DESCRIPTION
#----------   ------------   ------------------------------
 DEPT.F                  :   
 CALD.IN     45 280 60 00:   CALIPER FROM DENSITY LOG
 CNC .DEC    42 890 03 00:   NEUTRON POROSITY SANDSTONE
 CORR.G/C3   45 356 01 00:   DENSITY CORRECTION
 DEN .G/C3   45 350 01 00:   COMPENSATED BULK DENSTIY
 GRD .GAPI   45 310 01 00:   GAMMA RAY FROM DENSITY LOG
 PORD.DEC    45 890 12 00:   POROSITY DENSITY SANDSTONE
 DT  .US/F   60 520 00 00:   INTERVAL TRANSIT TIME
~PARAMETER INFORMATION
#MNEM.UNIT          VALUE    DESCRIPTION
#----------   ------------   ------------------------------
 PD  .                 GL:   PERMANENT DATUM
 EPD .F              5159:   ELEVATION PERMANENT DATUM
 LMF .                 GL:   LOG MEASURED FROM
 DMF .                 GL:   DRILLING MEASURED FROM
 EGL .F              5159:   GROUND LEVEL
 DATE.        20-DEC-1984:   RUN DATE
 RUN .                  1:   RUN NUMBER
 DD  .F               451:   DEPTH DRILLER
 DL  .F               451:   DEPTH LOGGER
 BLI .F               449:   BOTTOM LOG INTERVAL
 TLI .F                20:   TOP LOG INTERVAL
 CS  .IN            8.625:   CASING SIZE
 CBD .F                20:   CASING BOTTOM DRILLER
 CBL .F                20:   CASING BOTTOM LOGGER
 BS  .IN             6.25:   BIT SIZE
 BSD .F               451:   BIT SIZE AT DEPTH
 DFT .          KCL/WATER:   DRILLING FLUID TYPE
 MSS .            MUDTANK:   MUD SAMPLE SOURCE
 RMS .OHMM           .141:   RESISTIVITY MUD SAMPLE
 MST .F                54:   MUD SAMPLE TEMPERATURE
 RMF .OHMM           .106:   RESISTIVITY MUD FILTRATE SAMPLE
 MFST.F                54:   MUD FILTRATE SAMPLE TEMPERATURE
 RMC .OHMM           .176:   RESISTIVITY MUD CAKE
 MCST.F                54:   MUD CAKE SAMPLE TEMPERATURE
 MFSS.               CALC:   MUD FILTRATE SAMPLE SOURCE
 MCSS.               CALC:   MUD CAKE SAMPLE SOURCE
 TCS .HRS               2:   TIME CURCULATED STOPPED
 MRT .F               100:   MAXIMUM RECORDED TEMPERATURE
 LUN .               6270:   LOGGING UNIT NUMBER
 LUL .                 FM:   LOGGING UNIT LOCATION
 ENGI.        TOM GAUGHAN:   RECORDING ENGINEER
 WITN.              LUERS:   WITNESSED BY
 CLNT.            A2DTECH:   CLIENT CODE
 ORIG.           5" PRINT:   ORIGIN OF DATA
 UWI .       490251101000:   UNIQUE WELL ID
 DICO. A2D Technologies, Inc.:   DIGITIZING COMPANY
~OTHER INFORMATION
~A   DEPT     CALD         CNC      CORR        DEN         GRD      PORD         DT   
# ...
  245.5000     6.1664     0.2986     0.0201     2.3428    64.1289     0.1997   115.1920
  246.0000     6.1668     0.2968     0.0172     2.3040    62.3680     0.2284   119.4435
  246.5000     6.1673     0.2783     0.0174     2.2831    60.7549     0.2361   122.1254
  247.0000     6.1826     0.2783     0.0236     2.2832    59.4378     0.2361   122.5710
  247.5000     6.1830     0.2783     0.0462     2.2867    58.7159     0.2352   122.7786
  248.0000     6.1834     0.2648     0.0434     2.2863    58.1384     0.2331   122.9963
  248.5000     6.1839     0.2543     0.0301     2.2834    58.8923     0.2354   122.5371
  249.0000     6.1843     0.2552     0.0228     2.2865    62.7526     0.2354   118.9410
  249.5000     6.1847     0.2582     0.0178     2.2956    64.8379     0.2258   113.9997
  250.0000     6.1853     0.2686    -0.0112     2.3510    64.2604     0.1935   108.3109
  250.5000     6.1857     0.2829    -0.0125     2.3564    60.6282     0.1923   103.1335
  251.0000     6.1861     0.2886    -0.0049     2.3318    57.1917     0.2138   103.2114
  251.5000     6.1865     0.2868     0.0133     2.2869    56.0190     0.2365   108.2828
  252.0000     6.1870     0.2781     0.0104     2.2413    56.6284     0.2625   114.1038
  252.5000     6.1875     0.2805     0.0046     2.2512    64.7653     0.2532   114.9194
  253.0000     6.1879     0.2903     0.0033     2.2874    66.1081     0.2439   113.9370
  253.5000     6.1883     0.2999     0.0076     2.3195    66.5634     0.2177   112.0632
  254.0000     6.1888     0.2924     0.0197     2.3300    65.9832     0.2107   108.8354
  254.5000     6.2336     0.2660     0.0347     2.3084    63.9236     0.2202   107.0330
  255.0000     6.2489     0.2304     0.0318     2.3047    62.7517     0.2226   105.5296
  255.5000     6.2494     0.2277     0.0260     2.3115    61.5710     0.2199   102.9799
  256.0000     6.2551     0.2303     0.0261     2.3862    62.6296     0.1866    93.2545
  256.5000     6.2560     0.2485     0.0262     2.4135    64.2682     0.1612    91.7510
  257.0000     6.2571     0.2563     0.0370     2.4166    64.7235     0.1573    91.7423
  257.5000     6.2579     0.2658     0.0399     2.3957    65.0308     0.1704    93.9758
  258.0000     6.2588     0.2754     0.0326     2.3411    67.4092     0.2015    99.7967
  258.5000     6.2596     0.2783     0.0088     2.3360    70.3792     0.2033   103.3754
  259.0000     6.2605     0.2801     0.0208     2.3361    71.5741     0.2041   103.5909
  259.5000     6.2614     0.2813     0.0269     2.3346    72.1775     0.2056   103.2063
  260.0000     6.2622     0.2705     0.0211     2.3332    72.7834     0.2056   102.1513
  260.5000     6.2631     0.2668     0.0152     2.3363    76.3451     0.2050   101.5447
  261.0000     6.2642     0.2665     0.0200     2.3386    78.1317     0.2037   101.0876
  261.5000     6.2650     0.2662     0.0334     2.3425    78.1432     0.2025   100.3315
  262.0000     6.2659     0.2539     0.0350     2.3640    78.1547     0.1941    99.7996
  262.5000     6.2667     0.2391     0.0351     2.3756    78.1662     0.1833    99.7160
  263.0000     6.2676     0.2368     0.0382     2.3757    74.9232     0.1809    99.7053
  263.5000     6.2981     0.2389     0.0488     2.3780    72.5552     0.1809    99.0987
  264.0000     6.3286     0.2451     0.0579     2.3863    74.6531     0.1749    97.8942
  264.5000     6.3593     0.2505     0.0580     2.3939    80.5818     0.1701    96.6897
  265.0000     6.3303     0.2538     0.0518     2.3972    80.8862     0.1676    95.7841
  265.5000     6.3314     0.2558     0.0404     2.4015    77.6461     0.1658    95.1775
  266.0000     6.3322     0.2540     0.0315     2.4023    75.4387     0.1664    95.2435
  266.5000     6.3331     0.2465     0.0226     2.3972    75.3018     0.1688    95.9178
  267.0000     6.3340     0.2501     0.0168     2.3913    77.0888     0.1718    96.4945
  267.5000     6.3348     0.2632     0.0229     2.3884    80.1183     0.1744    96.8595
  268.0000     6.3357     0.2665     0.0293     2.3853    81.8484     0.1759    97.0750
  268.5000     6.3368     0.2652     0.0186     2.3818    81.8598     0.1773    97.2905
  269.0000     6.3376     0.2578     0.0049     2.3736    81.2767     0.1782    97.5082
  269.5000     6.3385     0.2553     0.0009     2.3707    80.6994     0.1818    97.7963
  270.0000     6.3393     0.2547     0.0175     2.3753    79.5274     0.1839    97.9371
  270.5000     6.3402     0.2448     0.0281     2.3709    77.7637     0.1841    98.1567
  271.0000     6.3411     0.2442     0.0118     2.3663    77.7752     0.1853    98.6649
  271.5000     6.3725     0.2552    -0.0001     2.3621    78.8392     0.1877    98.6562
  272.0000     6.3874     0.2552     0.0045     2.3629    77.8010     0.1895    98.7222
  272.5000     6.3883     0.2435     0.0121     2.3667    76.4811     0.1876    99.2367
  273.0000     6.3892     0.2482     0.0155     2.3698    76.3418     0.1855    99.8259
  273.5000     6.3604     0.2524     0.0303     2.3707    77.2437     0.1852    99.8172
  274.0000     6.3462     0.2509     0.0543     2.3715    78.4386     0.1843    99.5095
  274.5000     6.3473     0.2541     0.0515     2.3738    80.2252     0.1824    99.4975
  275.0000     6.3481     0.2586     0.0426     2.3799    82.3077     0.1791    99.1928
  275.5000     6.3490     0.2616     0.0353     2.3889    82.6154     0.1755    98.8834
  276.0000     6.3649     0.2592     0.0249     2.3920    80.8542     0.1716    98.7252
  276.5000     6.3658     0.2480     0.0129     2.3846    80.2711     0.1755    98.5670
  277.0000     6.3666     0.2504     0.0102     2.3764    79.6937     0.1806    98.5583
  277.5000     6.3524     0.2588     0.0193     2.3712    78.8176     0.1838    98.5496
  278.0000     6.3535     0.2611     0.0254     2.3743    76.6102     0.1823    98.5409
  278.5000     6.3544     0.2596     0.0240     2.3714    76.0296     0.1829    98.5321
  279.0000     6.3553     0.2596     0.0137     2.3677    76.4892     0.1855    98.2242
  279.5000     6.3711     0.2607    -0.0086     2.3655    79.3048     0.1879    97.9895
  280.0000     6.3570     0.2613    -0.0055     2.3678    81.8336     0.1876    97.9060
  280.5000     6.3580     0.2478     0.0023     2.3703    80.9603     0.1847    97.7500
  281.0000     6.3589     0.2436     0.0246     2.3762    80.2321     0.1812    97.8908
  281.5000     6.3598     0.2466     0.0442     2.3837    78.7643     0.1767    97.2820
  282.0000     6.3606     0.2537     0.0323     2.3853    77.4444     0.1752    96.7501
  282.5000     6.3615     0.2579     0.0264     2.3809    77.4559     0.1776    96.6667
  283.0000     6.3624     0.2501     0.0341     2.3765    80.4300     0.1799    97.0628
  283.5000     6.3634     0.2477     0.0387     2.3750    80.1887     0.1802    97.8429
  284.0000     6.3643     0.2497     0.0328     2.3871    75.4222     0.1769    98.5069
  284.5000     6.3651     0.2545    -0.0016     2.3871    74.5432     0.1751    98.6477
  285.0000     6.3808     0.2530    -0.0118     2.3747    77.8120     0.1810    98.7159
  285.5000     6.3666     0.2491     0.0093     2.3573    80.4862     0.1906    98.7050
  286.0000     6.3677     0.2487     0.0243     2.3544    82.8645     0.1942    98.5468
  286.5000     6.3686     0.2487     0.0274     2.3575    82.8760     0.1923    98.3884
  287.0000     6.3697     0.2487     0.0246     2.3583    82.2957     0.1908    98.0618
  287.5000     6.3705     0.2481     0.0097     2.3606    82.2830     0.1905    97.2480
  288.0000     6.3713     0.2397    -0.0126     2.3622    81.7270     0.1914    96.5667
  288.5000     6.3722     0.2366    -0.0080     2.3667    82.9219     0.1893    96.1095
  289.0000     6.3731     0.2366     0.0041     2.3761    78.7942     0.1856    95.3534
  289.5000     6.3740     0.2414     0.0222     2.3893    75.2554     0.1772    95.0458
  290.0000     6.3452     0.2461     0.0342     2.3939    75.8586     0.1700    95.0274
  290.5000     6.3312     0.2491     0.0269     2.3849    75.8700     0.1726    95.9252
