~VERSION INFORMATION
 VERS.                2.0:   CWLS LOG ASCII STANDARD - VERSION 2.0
 WRAP.                 NO:   ONE LINE PER DEPTH STEP
~WELL INFORMATION
#MNEM.UNIT      DATA TYPE    INFORMATION
#----------   ------------   ------------------------------
 STRT.F           33.0000:   START DEPTH
 STOP.F         1310.0000:   STOP DEPTH
 STEP.F            0.5000:   STEP LENGTH
 NULL.          -999.2500:   NO VALUE
 COMP. FENIX & SCISSON INC:   COMPANY
 WELL.    NPR-3 #76-14 SX:   WELL
 FLD .        TEAPOT DOME:   FIELD
 LOC .      S14 T38N R78W:   LOCATION
 CNTY.            NATRONA:   COUNTY
 STAT.            WYOMING:   STATE
 CTRY. UNITED STATES OF AMERICA:   COUNTRY
 SRVC.            Unknown:   SERVICE COMPANY
 DATE.        12-APR-1978:   LOGDATE
 API .       490251061200:   API NUMBER
~CURVE INFORMATION
#MNEM.UNIT       API CODE    CURVE DESCRIPTION
#----------   ------------   ------------------------------
 DEPT.F                  :   
 SPR .MV     05 010 01 00:   SPONTANEOUS POTENTIAL FROM RES.
 SN  .OHMM   05 040 16 00:   SHORT NORMAL 16"
 ILD .OHMM   05 120 46 00:   INDUCTION LOG DEEP
 CALD.IN     45 280 60 00:   CALIPER FROM DENSITY LOG
 GRD .GAPI   45 310 01 00:   GAMMA RAY FROM DENSITY LOG
 DPOR.DEC    45 890 12 00:   DENSITY POROSITY SANDSTONE
 CORR.G/C3   45 356 01 00:   DENSITY CORRECTION
 RHOB.G/C3   45 350 01 00:   BULK DENSITY
~PARAMETER INFORMATION
#MNEM.UNIT          VALUE    DESCRIPTION
#----------   ------------   ------------------------------
 PD  .                 GL:   PERMANENT DATUM
 EPD .F              5332:   ELEVATION PERMANENT DATUM
 LMF .                 KB:   LOG MEASURED FROM
 DMF .                 KB:   DRILLING MEASURED FROM
 EKB .F              5336:   KELLING BUSHING
 EGL .F              5332:   GROUND LEVEL
 DATE.          4-12-1978:   RUN DATE
 RUN .                  1:   RUN NUMBER
 DD  .F              1300:   DEPTH DRILLER
 DL  .F              1302:   DEPTH LOGGER
 BLI .F              1298:   BOTTOM LOG INTERVAL
 TLI .F                50:   TOP LOG INTERVAL
 CS  .IN            8.625:   CASING SIZE
 CBD .F                40:   CASING BOTTOM DRILLER
 CBL .F                46:   CASING BOTTOM LOGGER
 BS  .IN            7.875:   BIT SIZE
 BSD .F              1300:   BIT SIZE AT DEPTH
 DFT .                KCL:   DRILLING FLUID TYPE
 DFD .                8.5:   DRILLING FLUID DENSITY
 DFV .                 28:   DRILLING FLUID VISCOSITY
 MSS .            MUD PIT:   MUD SAMPLE SOURCE
 RMS .OHMM           1.45:   RESISTIVITY MUD SAMPLE
 MST .F                50:   MUD SAMPLE TEMPERATURE
 RMF .OHMM           1.25:   RESISTIVITY MUD FILTRATE SAMPLE
 MFST.F                62:   MUD FILTRATE SAMPLE TEMPERATURE
 RMC .OHMM           1.65:   RESISTIVITY MUD CAKE
 MCST.F                61:   MUD CAKE SAMPLE TEMPERATURE
 MFSS.           MEASURED:   MUD FILTRATE SAMPLE SOURCE
 MCSS.           MEASURED:   MUD CAKE SAMPLE SOURCE
 RMB .OHMM            .93:   RESISTIVITY MUD AT BHT
 BHT .F                78:   BOTTOM HOLE TEMPERATURE
 TCS .HRS               6:   TIME CURCULATED STOPPED
 MRT .F                78:   MAXIMUM RECORDED TEMPERATURE
 LUN .               2958:   LOGGING UNIT NUMBER
 LUL .                CAS:   LOGGING UNIT LOCATION
 ENGI.             MILLER:   RECORDING ENGINEER
 WITN.           MCGINLEY:   WITNESSED BY
 CLNT.            A2DTECH:   CLIENT CODE
 ORIG.      2" , 5" PRINT:   ORIGIN OF DATA
 UWI .       490251061200:   UNIQUE WELL ID
 DICO. A2D Technologies, Inc.:   DIGITIZING COMPANY
~OTHER INFORMATION
~A   DEPT      SPR         SN        ILD       CALD         GRD      DPOR       CORR       RHOB   
# ...
  276.0000   -11.1000     5.0144     5.8570     7.7034    43.4568     0.1247     0.0306     2.4456
  276.5000   -11.1000     5.0092     5.8438     7.7038    43.1184     0.1254     0.0288     2.4444
  277.0000   -11.1000     5.0040     5.8338     7.7042    42.7776     0.1260     0.0278     2.4432
  277.5000   -11.1000     4.9988     5.8339     7.7046    42.4374     0.1296     0.0278     2.4370
  278.0000   -11.1000     4.9935     5.8339     7.7050    42.3976     0.1313     0.0278     2.4302
  278.5000   -11.1000     4.9884     5.8339     7.7054    42.9509     0.1288     0.0278     2.4282
  279.0000   -11.1000     4.9832     5.8339     7.7058    43.5045     0.1260     0.0278     2.4325
  279.5000   -11.1000     4.9780     5.8339     7.7062    43.6955     0.1233     0.0278     2.4368
  280.0000   -11.1000     4.9728     5.8339     7.7066    43.5894     0.1205     0.0278     2.4411
  280.5000   -11.1000     4.9677     5.8333     7.7069    43.3572     0.1178     0.0278     2.4462
  281.0000   -11.1000     4.9625     5.8322     7.7073    42.4096     0.1156     0.0278     2.4519
  281.5000   -11.1000     4.9573     5.7810     7.7077    41.3489     0.1156     0.0278     2.4576
  282.0000   -11.1000     4.9522     5.7291     7.7081    41.1069     0.1172     0.0278     2.4628
  282.5000   -11.1000     4.9470     5.7030     7.7085    41.6041     0.1188     0.0278     2.4610
  283.0000   -11.1000     4.9425     5.6727     7.7089    42.1451     0.1204     0.0278     2.4566
  283.5000   -11.1000     4.8776     5.6426     7.7093    43.9258     0.1220     0.0285     2.4520
  284.0000   -11.1000     4.8022     5.6127     7.7097    46.0755     0.1236     0.0293     2.4485
  284.5000   -11.1000     4.7279     5.5829     7.7098    46.9217     0.1252     0.0302     2.4451
  285.0000   -11.0999     4.6548     5.5533     7.7085    46.3289     0.1260     0.0311     2.4417
  285.5000   -11.1005     4.5827     5.5239     7.7073    45.6172     0.1265     0.0320     2.4385
  286.0000   -11.1140     4.5412     5.4946     7.7061    44.8981     0.1268     0.0329     2.4371
  286.5000   -11.1278     4.5292     5.4686     7.7049    44.1757     0.1265     0.0338     2.4379
  287.0000   -11.1414     4.5173     5.4657     7.7037    44.1850     0.1261     0.0347     2.4393
  287.5000   -11.1550     4.5054     5.4627     7.7025    45.9723     0.1275     0.0356     2.4407
  288.0000   -11.1687     4.4936     5.4598     7.7013    47.7095     0.1297     0.0365     2.4386
  288.5000   -11.1823     4.4817     5.4568     7.7001    48.9404     0.1313     0.0374     2.4353
  289.0000   -11.1960     4.4699     5.4539     7.6989    47.9964     0.1321     0.0379     2.4319
  289.5000   -11.2096     4.4582     5.4510     7.6977    46.7858     0.1325     0.0379     2.4284
  290.0000   -11.2232     4.4464     5.4480     7.6965    45.5235     0.1325     0.0379     2.4261
  290.5000   -11.2369     4.4347     5.4451     7.6952    46.6771     0.1321     0.0379     2.4260
  291.0000   -11.2505     4.4230     5.4422     7.6940    49.7155     0.1311     0.0379     2.4297
  291.5000   -11.2641     4.4114     5.4393     7.6928    47.6618     0.1295     0.0379     2.4335
  292.0000   -11.2778     4.3998     5.4363     7.6916    44.1110     0.1279     0.0378     2.4372
  292.5000   -11.2914     4.3882     5.4334     7.6904    42.9518     0.1262     0.0371     2.4406
  293.0000   -11.3051     4.3824     5.4305     7.6892    43.6744     0.1246     0.0364     2.4502
  293.5000   -11.3187     4.4194     5.4276     7.6880    44.4169     0.1249     0.0357     2.4538
  294.0000   -11.3323     4.4443     5.4246     7.6868    44.5040     0.1283     0.0349     2.4395
  294.5000   -11.3460     4.4693     5.4213     7.6856    44.4990     0.1305     0.0342     2.4332
  295.0000   -11.3596     4.4945     5.4188     7.6844    44.2464     0.1309     0.0328     2.4312
  295.5000   -11.3733     4.5054     5.4939     7.6831    43.9764     0.1309     0.0308     2.4312
  296.0000   -11.3869     4.5054     5.5738     7.6819    43.1248     0.1279     0.0298     2.4317
  296.5000   -11.4005     4.5054     5.6547     7.6807    42.1112     0.1245     0.0298     2.4359
  297.0000   -11.4142     4.5054     5.7367     7.6795    41.2678     0.1210     0.0297     2.4413
  297.5000   -11.4278     4.5936     5.8198     7.6783    41.7761     0.1176     0.0297     2.4467
  298.0000   -11.4415     4.7391     5.8718     7.6771    42.3626     0.1172     0.0296     2.4511
  298.5000   -11.4551     4.8893     5.9176     7.6759    42.4139     0.1179     0.0295     2.4508
  299.0000   -11.4687     5.0442     5.9638     7.6747    41.7508     0.1186     0.0295     2.4480
  299.5000   -11.4824     5.1268     6.0104     7.6735    41.0770     0.1194     0.0294     2.4452
  300.0000   -11.4960     5.1333     6.0573     7.6722    41.0176     0.1202     0.0294     2.4424
  300.5000   -11.5097     5.1428     6.1046     7.6710    43.2529     0.1208     0.0293     2.4402
  301.0000   -11.5233     5.1522     6.1522     7.6698    45.4044     0.1208     0.0293     2.4430
  301.5000   -11.5369     5.1617     6.2003     7.6686    47.1297     0.1205     0.0292     2.4424
  302.0000   -11.5506     5.1712     6.2491     7.6674    47.4925     0.1198     0.0292     2.4425
  302.5000   -11.5642     5.1807     6.2807     7.6662    47.6994     0.1180     0.0291     2.4476
  303.0000   -11.5779     5.1902     6.2599     7.6650    47.9586     0.1162     0.0291     2.4526
  303.5000   -11.5915     5.1997     6.2441     7.6638    48.9994     0.1144     0.0290     2.4565
  304.0000   -11.6051     5.2093     6.2284     7.6626    50.8573     0.1136     0.0290     2.4582
  304.5000   -11.6188     5.2189     6.2128     7.6614    52.3295     0.1141     0.0289     2.4599
  305.0000   -11.6324     5.2285     6.1972     7.6602    52.2212     0.1148     0.0289     2.4612
  305.5000   -11.6461     5.2381     6.1817     7.6589    52.1329     0.1137     0.0288     2.4556
  306.0000   -11.6597     5.2477     6.1661     7.6577    52.2639     0.1121     0.0288     2.4588
  306.5000   -11.6733     5.2573     6.1506     7.6565    52.7214     0.1108     0.0287     2.4665
  307.0000   -11.6870     5.2668     6.1352     7.6553    54.0659     0.1112     0.0287     2.4643
  307.5000   -11.7006     5.2707     6.1198     7.6541    54.2354     0.1123     0.0286     2.4620
  308.0000   -11.7142     5.1915     6.1044     7.6529    51.8966     0.1134     0.0286     2.4620
  308.5000   -11.7279     5.0574     6.0891     7.6517    49.4410     0.1145     0.0285     2.4591
  309.0000   -11.7415     4.9268     6.0738     7.6505    47.2497     0.1156     0.0285     2.4562
  309.5000   -11.7552     4.8061     6.0586     7.6490    46.1816     0.1166     0.0284     2.4544
  310.0000   -11.7688     4.8061     6.0535     7.6472    45.0942     0.1173     0.0284     2.4524
  310.5000   -11.7824     4.8061     6.0533     7.6455    44.0018     0.1179     0.0283     2.4501
  311.0000   -11.7961     4.8061     6.0533     7.6438    42.9150     0.1186     0.0282     2.4476
  311.5000   -11.8097     4.9277     6.1094     7.6421    42.0641     0.0996     0.0282     2.4628
  312.0000   -11.8234     5.1125     6.2309     7.6404    43.3412     0.1027     0.0281     2.4856
  312.5000   -11.8370     5.3043     6.3710     7.6387    45.2507     0.1060     0.0281     2.4826
  313.0000   -11.8506     5.5033     6.5143     7.6370    46.0386     0.1079     0.0280     2.4770
  313.5000   -11.8643     5.7272     6.6609     7.6353    44.5181     0.1098     0.0280     2.4720
  314.0000   -11.8779     5.8339     6.7622     7.6335    43.0065     0.1125     0.0279     2.4632
  314.5000   -11.8916     5.8339     6.6882     7.6318    41.8238     0.1174     0.0279     2.4485
  315.0000   -11.9052     5.8339     6.6093     7.6301    41.6996     0.1223     0.0278     2.4374
  315.5000   -11.9188     5.8339     6.5309     7.6284    41.9641     0.1221     0.0299     2.4359
  316.0000   -11.9325     5.7803     6.4537     7.6267    44.8974     0.1196     0.0328     2.4385
