~VERSION INFORMATION
 VERS.                2.0:   CWLS LOG ASCII STANDARD - VERSION 2.0
 WRAP.                 NO:   ONE LINE PER DEPTH STEP
~WELL INFORMATION
#MNEM.UNIT      DATA TYPE    INFORMATION
#----------   ------------   ------------------------------
 STRT.F            6.0000:   START DEPTH
 STOP.F          475.0000:   STOP DEPTH
 STEP.F            0.5000:   STEP LENGTH
 NULL.          -999.2500:   NO VALUE
 COMP. BROWN JOHN E&C INC:   COMPANY
 WELL.       SX 74 #32-10:   WELL
 FLD .             TEAPOT:   FIELD
 LOC .      S10 T38N R78W:   LOCATION
 CNTY.            NATRONA:   COUNTY
 STAT.            WYOMING:   STATE
 CTRY. UNITED STATES OF AMERICA:   COUNTRY
 SRVC.       Schlumberger:   SERVICE COMPANY
 DATE.        06-SEP-1990:   LOGDATE
 API .       490251132500:   API NUMBER
~CURVE INFORMATION
#MNEM.UNIT       API CODE    CURVE DESCRIPTION
#----------   ------------   ------------------------------
 DEPT.F                  :   
 GRR .GAPI   07 310 01 00:   GAMMA RAY FROM RES. LOG.
 ILD .OHMM   07 120 46 00:   INDUCTION LOG DEEP
 ILM .OHMM   07 120 44 00:   INDUCTION LOG MEDIUM
~PARAMETER INFORMATION
#MNEM.UNIT          VALUE    DESCRIPTION
#----------   ------------   ------------------------------
 PD  .                 GL:   PERMANENT DATUM
 EPD .F              5180:   ELEVATION PERMANENT DATUM
 LMF .                 KB:   LOG MEASURED FROM
 DAPD.F                10:   FEET ABOVE PERMANENT DATUM
 DMF .                 KB:   DRILLING MEASURED FROM
 EKB .F              5190:   KELLING BUSHING
 EGL .F              5180:   GROUND LEVEL
 DATE.         6-SEP-1990:   RUN DATE
 RUN .                  1:   RUN NUMBER
 DD  .F               480:   DEPTH DRILLER
 DL  .F               481:   DEPTH LOGGER
 BLI .F               475:   BOTTOM LOG INTERVAL
 TLI .F                10:   TOP LOG INTERVAL
 CS  .IN            8.625:   CASING SIZE
 CBD .F                42:   CASING BOTTOM DRILLER
 CBL .F                42:   CASING BOTTOM LOGGER
 BS  .IN            7.875:   BIT SIZE
 BSD .F               480:   BIT SIZE AT DEPTH
 DFT .                AIR:   DRILLING FLUID TYPE
 MFSS.               MEAS:   MUD FILTRATE SAMPLE SOURCE
 MCSS.               CALC:   MUD CAKE SAMPLE SOURCE
 BHT .F                69:   BOTTOM HOLE TEMPERATURE
 TLAB.HRS            0919:   TIME LOGGER AT BOTTOM
 MRT .F                69:   MAXIMUM RECORDED TEMPERATURE
 LUN .               8199:   LOGGING UNIT NUMBER
 LUL .             CASPER:   LOGGING UNIT LOCATION
 ENGI.                LEE:   RECORDING ENGINEER
 WITN.          G. STRONG:   WITNESSED BY
 CLNT.            A2DTECH:   CLIENT CODE
 ORIG.        2" 5" PRINT:   ORIGIN OF DATA
 UWI .       490251132500:   UNIQUE WELL ID
 DICO. A2D Technologies, Inc.:   DIGITIZING COMPANY
~OTHER INFORMATION
~A    DEPT      GRR       ILD        ILM   
# ...
  279.0000    87.4971    33.6428    30.8661
  279.5000    91.5079    34.0791    30.5814
  280.0000    90.3012    34.5209    32.1783
  280.5000    85.9844    34.9685    33.6459
  281.0000    81.9118    35.4219    35.0996
  281.5000    79.2396    35.7505    35.5450
  282.0000    76.4459    37.2365    35.9713
  282.5000    74.9270    38.5663    36.4033
  283.0000    75.6645    39.9328    36.8413
  283.5000    78.8839    40.1743    37.3852
  284.0000    81.9216    40.4163    38.0729
  284.5000    83.9405    40.6577    38.7733
  285.0000    86.0260    40.9022    39.4865
  285.5000    87.9735    41.1440    39.9328
  286.0000    88.0308    41.4207    39.6694
  286.5000    83.1096    40.6474    39.4800
  287.0000    80.0568    40.0527    39.2916
  287.5000    80.2129    39.4582    38.5758
  288.0000    84.1210    38.8068    37.4189
  288.5000    88.0063    38.1316    36.5133
  289.0000    90.3172    37.0840    35.9356
  289.5000    90.6232    36.0765    35.0542
  290.0000    90.2396    34.9171    33.6571
  290.5000    88.7997    33.4187    32.3156
  291.0000    89.1324    32.0062    31.0276
  291.5000    91.3090    30.9547    29.5879
  292.0000    95.2738    29.9530    28.1018
  292.5000    99.0978    28.9837    26.7311
  293.0000   100.4314    28.0457    25.8027
  293.5000    99.0332    27.1381    24.8867
  294.0000    95.6883    26.2599    24.5032
  294.5000    93.9911    25.9791    24.2341
  295.0000    94.7886    25.8021    24.0224
  295.5000    96.4542    25.6530    23.9342
  296.0000    98.6846    25.8715    23.8290
  296.5000    98.7374    26.1020    24.0725
  297.0000    95.7654    26.3346    24.4765
  297.5000    93.1568    26.5686    24.8873
  298.0000    93.5322    26.8055    25.3049
  298.5000    96.7291    27.0730    25.6930
  299.0000    98.3392    27.3525    25.9175
  299.5000    97.4769    27.6350    26.1304
  300.0000    96.5331    27.9205    26.2264
  300.5000    95.6491    28.2119    26.3354
  301.0000    97.4010    28.3911    26.4462
  301.5000   100.7618    28.0060    26.5562
  302.0000   101.6000    27.7285    26.6167
  302.5000   101.2210    27.4538    26.0823
  303.0000    99.5944    27.1818    25.6672
  303.5000    96.1345    26.9125    25.2587
  304.0000    92.9773    26.3702    24.8568
  304.5000    90.8931    25.7802    24.6070
  305.0000    94.4209    25.2056    24.4321
  305.5000   100.9680    24.7675    24.2586
  306.0000   106.5355    24.4465    24.0862
  306.5000   106.9107    24.2724    23.9151
  307.0000   104.1917    24.2718    23.8290
  307.5000   103.3847    24.2723    23.9398
  308.0000   106.4834    24.2725    24.0143
  308.5000   110.0138    24.2725    24.0889
  309.0000   109.3086    24.2725    24.1639
  309.5000   106.2662    24.2724    24.2390
  310.0000   104.8833    24.2723    24.3622
  310.5000   105.5434    24.2693    24.5244
  311.0000   105.7665    24.3304    24.6877
  311.5000   102.7190    24.4612    24.8522
  312.0000   102.0713    24.5923    25.0177
  312.5000   105.2450    24.7242    25.1836
  313.0000   107.2974    24.5732    25.0346
  313.5000   103.0323    24.4232    24.8834
  314.0000    97.9201    24.2740    24.7339
  314.5000    97.7964    24.1258    24.5855
  315.0000   100.6586    23.9785    24.4381
  315.5000   103.0437    23.8321    24.2915
  316.0000   103.9131    23.6865    24.1458
  316.5000   104.7921    23.5419    24.0010
  317.0000   105.6823    23.3981    23.8570
  317.5000   105.7761    23.2553    23.7139
  318.0000   104.7298    22.8602    23.3171
  318.5000   102.8389    22.1874    22.2702
  319.0000   101.4072    21.5345    21.2703
  319.5000   100.8980    20.9007    20.3153
  320.0000   100.3699    20.2856    19.4544
  320.5000    99.7516    19.6346    19.0532
  321.0000    98.7680    19.3104    18.6117
  321.5000    98.1387    18.9596    18.2029
  322.0000    99.0923    18.6152    17.8006
  322.5000    99.0324    18.2770    17.7032
  323.0000    96.4834    18.1524    17.6436
  323.5000    94.0759    18.0556    17.5856
  324.0000    96.0251    17.9593    17.5273
  324.5000   100.2366    17.8030    17.4692
  325.0000   102.2857    17.5708    17.4169
  325.5000    99.8021    17.3417    16.9636
  326.0000    97.4066    17.1156    16.5603
  326.5000    95.9915    16.9417    16.1660
  327.0000    96.5623    16.6591    15.7819
  327.5000    97.8258    16.3283    15.5432
  328.0000    97.4810    16.0042    15.3840
  328.5000    95.3265    15.6864    15.2262
  329.0000    92.7440    15.4496    15.0787
  329.5000    92.2883    15.3269    14.9377
  330.0000    98.6180    15.2108    14.7981
  330.5000   101.5724    15.0957    14.6598
  331.0000   103.2806    14.9814    14.5228
  331.5000   103.8042    14.8679    14.3868
  332.0000   104.3838    14.7555    14.2527
  332.5000   104.9688    14.6187    14.0889
  333.0000   104.8554    14.6522    14.2308
  333.5000   104.4196    14.6962    14.4171
  334.0000   104.9526    14.7405    14.6058
  334.5000   104.5735    14.9287    14.7970
  335.0000   103.3550    15.1807    14.9908
  335.5000   102.2804    15.4370    15.1870
  336.0000   106.5328    15.6976    15.4496
  336.5000   108.7862    15.8678    15.3806
  337.0000   109.2674    15.6856    15.2800
  337.5000   106.8515    15.5353    15.1802
  338.0000   104.4052    15.3865    15.0837
  338.5000   103.7763    15.2391    14.8468
  339.0000   105.4064    15.0086    14.4726
  339.5000   108.0767    14.5201    14.1059
  340.0000   111.5315    14.0476    13.8333
  340.5000   112.4549    13.7046    13.6230
  341.0000   110.7926    13.8315    13.4160
  341.5000   110.0161    13.7813    13.2116
  342.0000   111.0019    13.7046    13.0157
  342.5000   111.0808    13.5788    12.8291
  343.0000   110.9114    13.5178    12.7302
  343.5000   111.0172    13.4542    13.0091
  344.0000   111.3972    14.2198    13.2084
  344.5000   111.6936    15.1469    13.8417
  345.0000   109.9296    16.1850    14.5242
  345.5000   106.1973    17.7433    16.1390
  346.0000    99.9018    19.4544    20.2032
  346.5000    93.6845    21.8912    23.1790
  347.0000    90.6741    24.7860    27.1918
  347.5000    89.2028    28.0637    31.1331
  348.0000    87.5598    31.7748    35.6456
  348.5000    84.8547    35.9766    39.9328
  349.0000    82.1474    40.6739    41.4330
  349.5000    80.1140    41.9365    41.0528
  350.0000    78.1489    42.9798    41.8617
  350.5000    77.4920    42.7270    42.2041
  351.0000    78.4989    42.2970    41.0117
  351.5000    80.7254    41.4558    40.1311
  352.0000    83.2810    40.6313    39.2694
  352.5000    85.8471    39.8233    38.4262
  353.0000    87.6584    39.0313    37.6012
  353.5000    88.2326    38.4183    36.7938
  354.0000    87.6618    38.1910    36.0816
  354.5000    88.4383    37.6361    36.1871
  355.0000    89.5657    36.9797    36.4158
  355.5000    89.9996    36.3991    35.8503
  356.0000    88.1232    35.8275    35.1606
  356.5000    85.4245    35.2654    34.4843
  357.0000    83.2004    34.7116    33.8209
  357.5000    82.7627    34.1424    32.7877
  358.0000    83.8163    33.1270    31.4659
  358.5000    86.6861    32.0948    30.1974
  359.0000    90.9119    31.0948    29.3673
  359.5000    94.0592    30.1260    28.7920
  360.0000    94.4751    29.9597    28.3421
  360.5000    92.8611    29.8904    28.1743
  361.0000    91.6734    29.8221    28.1305
  361.5000    92.0031    29.7305    29.0954
  362.0000    89.4739    30.2447    29.8329
  362.5000    86.3064    31.1187    30.5859
  363.0000    86.4662    31.4214    30.8599
  363.5000    88.4235    30.7800    30.0921
  364.0000    91.4515    30.3500    29.2596
  364.5000    94.3932    29.9261    28.4501
  365.0000    96.1971    29.5080    27.6629
  365.5000    95.8195    29.0227    27.0471
  366.0000    95.0169    28.2969    26.8632
  366.5000    93.8558    27.5836    26.8632
  367.0000    93.2960    27.0438    26.5582
  367.5000    93.5435    26.8070    26.2209
  368.0000    93.8160    26.5766    25.8878
  368.5000    93.8985    26.3481    25.5566
  369.0000    91.7656    26.1216    25.2422
  369.5000    89.8428    25.8971    24.7345
