~VERSION INFORMATION
 VERS.                2.0:   CWLS LOG ASCII STANDARD - VERSION 2.0
 WRAP.                 NO:   ONE LINE PER DEPTH STEP
~WELL INFORMATION
#MNEM.UNIT      DATA TYPE    INFORMATION
#----------   ------------   ------------------------------
 STRT.F          906.5000:   START DEPTH
 STOP.F         2710.5000:   STOP DEPTH
 STEP.F            0.5000:   STEP LENGTH
 NULL.          -999.2500:   NO VALUE
 COMP.   FLUOR DANIEL INC:   COMPANY
 WELL. NAVAL PETROLEUM RESERVE 3 X-4 #77-4:   WELL
 FLD .             TEAPOT:   FIELD
 LOC .       S4 T38N R78W:   LOCATION
 CNTY.            NATRONA:   COUNTY
 STAT.            WYOMING:   STATE
 CTRY. UNITED STATES OF AMERICA:   COUNTRY
 SRVC.            Unknown:   SERVICE COMPANY
 DATE.        21-JUN-1995:   LOGDATE
 API .       490252273600:   API NUMBER
~CURVE INFORMATION
#MNEM.UNIT       API CODE    CURVE DESCRIPTION
#----------   ------------   ------------------------------
 DEPT.F                  :   
 TGAS.UNITS  91 830 01 00:   TOTAL GAS FROM HOTWIRE
 ROP .MIN/FT 91 810 01 00:   RAT OF DRILLING PENETRATION
~PARAMETER INFORMATION
#MNEM.UNIT          VALUE    DESCRIPTION
#----------   ------------   ------------------------------
 EKB .F              5291:   KELLING BUSHING
 EGL .F              5281:   GROUND LEVEL
 DATE.            6-21-95:   RUN DATE
 DD  .F              2711:   DEPTH DRILLER
 CBD .F               893:   CASING BOTTOM DRILLER
 ENGI.               HUSK:   RECORDING ENGINEER
 WITN.              TOWER:   WITNESSED BY
 CLNT.            A2DTECH:   CLIENT CODE
 ORIG.           5" PRINT:   ORIGIN OF DATA
 UWI .       490252273600:   UNIQUE WELL ID
 DICO. A2D Technologies, Inc.:   DIGITIZING COMPANY
~OTHER INFORMATION
~A   DEPT      TGAS         ROP 
# ...
 1878.5000   234.1947     0.7313
 1879.0000   234.1969     0.7313
 1879.5000   234.1991     0.7313
 1880.0000   234.2014     1.4455
 1880.5000   234.2036     1.4454
 1881.0000   234.2058     1.4452
 1881.5000   234.2081     1.4450
 1882.0000   234.2103     0.9006
 1882.5000   234.2125     0.9004
 1883.0000   234.2148     0.9116
 1883.5000   234.2170     0.9114
 1884.0000   234.2192     0.9112
 1884.5000   234.2214     1.0357
 1885.0000   234.2237     1.0355
 1885.5000   234.2259     1.0353
 1886.0000   234.2281     1.0351
 1886.5000   234.2304     0.9669
 1887.0000   234.2326     0.8193
 1887.5000   234.2348     0.8305
 1888.0000   234.2371     0.8303
 1888.5000   234.2393     0.8528
 1889.0000   234.2415     0.8413
 1889.5000   234.2438     0.8411
 1890.0000   234.2460     0.8522
 1890.5000   234.2482     0.8520
 1891.0000   234.2505     0.8518
 1891.5000   234.2527     0.8516
 1892.0000   234.2549     0.8514
 1892.5000   234.2571     0.8513
 1893.0000   234.2594     0.8511
 1893.5000   234.2616     0.8509
 1894.0000   234.2638     0.8507
 1894.5000   234.2661     0.8505
 1895.0000   234.2683     0.8503
 1895.5000   234.2705     0.8502
 1896.0000   234.2728     0.8500
 1896.5000   234.2750     0.8498
 1897.0000   234.2772     0.8496
 1897.5000   234.2795     0.8494
 1898.0000   234.2817     0.8492
 1898.5000   234.2839     0.8490
 1899.0000   234.2862     0.8488
 1899.5000   234.2884     0.8486
 1900.0000   234.2906     0.8484
 1900.5000   234.2928     0.8483
 1901.0000   234.2951     0.8481
 1901.5000   234.2973     0.8365
 1902.0000   234.2995     0.8364
 1902.5000   234.3018     0.8361
 1903.0000   234.3040     0.8246
 1903.5000   234.3062     0.8244
 1904.0000   234.3085     0.8242
 1904.5000   234.3107     0.8241
 1905.0000   234.3129     0.8239
 1905.5000   234.3152     0.8123
 1906.0000   234.3174     1.2544
 1906.5000   234.3196     1.2542
 1907.0000   234.3219     1.2540
 1907.5000   234.3241     1.2651
 1908.0000   234.3263     1.1289
 1908.5000   234.3286     1.1400
 1909.0000   234.3308     1.1512
 1909.5000   234.3330     1.1396
 1910.0000   234.3353     0.9580
 1910.5000   234.3375     0.8898
 1911.0000   234.3397     0.8896
 1911.5000   234.3419     0.8894
 1912.0000   234.3442     0.7305
 1912.5000   234.3464     0.7303
 1913.0000   234.3486     0.7302
 1913.5000   234.3509     0.7413
 1914.0000   234.3531     0.7411
 1914.5000   234.3553     0.7409
 1915.0000   234.3576     0.7407
 1915.5000   234.3598     0.7519
 1916.0000   234.3620     0.9331
 1916.5000   234.3643     0.9443
 1917.0000   234.3665     0.9441
 1917.5000   234.3687     0.9439
 1918.0000   234.3710     0.9550
 1918.5000   234.3732     0.7508
 1919.0000   234.3754     0.7619
 1919.5000   234.3777     0.7731
 1920.0000   234.3799     0.7728
 1920.5000   234.3821     0.7726
 1921.0000   234.3844     0.7725
 1921.5000   234.3866     0.7723
 1922.0000   234.3888     1.3164
 1922.5000   234.3910     1.2934
 1923.0000   234.3933     1.2933
 1923.5000   234.3955     1.2931
 1924.0000   234.3977     1.0435
 1924.5000   234.4000     0.8732
 1925.0000   234.4022     0.8844
 1925.5000   234.4044     0.8842
 1926.0000   234.4067     0.8839
 1926.5000   234.4089     0.8838
 1927.0000   234.4111     0.8836
 1927.5000   234.4134     0.8834
 1928.0000   234.4156     1.0533
 1928.5000   234.4178     1.0531
 1929.0000   234.4201     1.0643
 1929.5000   234.4223     1.0641
 1930.0000   234.4245     0.8598
 1930.5000   234.4267     0.8596
 1931.0000   234.4290     0.8594
 1931.5000   234.4312     0.8706
 1932.0000   234.4334     0.7683
 1932.5000   234.4357     0.7228
 1933.0000   234.4379     0.7340
 1933.5000   234.4401     0.7451
 1934.0000   234.4424     0.7562
 1934.5000   234.4446     0.7560
 1935.0000   234.4468     0.7445
 1935.5000   234.4491     0.7443
 1936.0000   234.4513     0.7441
 1936.5000   234.4535     0.7440
 1937.0000   234.4558     0.7438
 1937.5000   234.4580     0.7435
 1938.0000   234.4602     0.7434
 1938.5000   234.4624     0.7432
 1939.0000   234.4647     0.7430
 1939.5000   234.4669     0.7428
 1940.0000   234.4691     0.8369
 1940.5000   234.4714     0.9691
 1941.0000   234.4736     0.9688
 1941.5000   234.4758     0.9572
 1942.0000   234.4781     0.9569
 1942.5000   234.4803     0.9680
 1943.0000   234.4825     0.8770
 1943.5000   234.4848     0.8540
 1944.0000   234.4870     0.8764
 1944.5000   234.4892     0.8761
 1945.0000   234.4915     0.8758
 1945.5000   234.4937     0.8869
 1946.0000   234.4959     1.0793
 1946.5000   234.4982     1.0790
 1947.0000   234.5004     1.0788
 1947.5000   234.5026     1.0558
 1948.0000   234.5049     0.8968
 1948.5000   234.5071     0.7718
 1949.0000   234.5093     0.7715
 1949.5000   234.5116     0.7826
 1950.0000   234.5138     0.7823
 1950.5000   234.5160     0.9635
 1951.0000   234.5182     0.9631
 1951.5000   234.5205     0.9402
 1952.0000   234.5227     0.8378
 1952.5000   234.5249     0.8263
 1953.0000   234.5272     0.8374
 1953.5000   234.5294     0.8370
 1954.0000   234.5316     0.8254
 1954.5000   234.5339     0.8251
 1955.0000   234.5361     0.8248
 1955.5000   234.5383     0.8265
 1956.0000   234.5406     0.9603
 1956.5000   234.5428     0.9600
 1957.0000   234.5450     0.9597
 1957.5000   234.5473     0.9594
 1958.0000   234.5495     0.8685
 1958.5000   234.5517     0.8228
 1959.0000   234.5540     0.8225
 1959.5000   234.5562     0.8223
 1960.0000   234.5584     0.8220
 1960.5000   234.5607     0.8217
 1961.0000   234.5629     0.8214
 1961.5000   234.5651     0.8211
 1962.0000   234.5673     0.8208
 1962.5000   234.5696     0.8205
 1963.0000   234.5718     0.8203
 1963.5000   234.5740     0.8200
 1964.0000   234.5763     0.5363
 1964.5000   234.5785     0.5473
 1965.0000   234.5807     0.5470
 1965.5000   234.5830     0.5468
 1966.0000   234.5852     0.5465
 1966.5000   234.5874     0.5461
 1967.0000   234.5897     0.5459
 1967.5000   234.5919     0.5456
 1968.0000   234.5941     0.5453
 1968.5000   234.5964     0.5564
 1969.0000   234.5986     0.5675
 1969.5000   234.6008     0.5786
 1970.0000   234.6030     0.5896
 1970.5000   234.6053     0.5893
 1971.0000   234.6075     0.5890
 1971.5000   234.6097     0.5887
 1972.0000   234.6120     0.5884
 1972.5000   234.6142     0.5881
 1973.0000   234.6164     0.5878
 1973.5000   234.6187     0.5990
 1974.0000   234.6209     0.6099
 1974.5000   234.6231     0.6097
 1975.0000   234.6254     0.6321
 1975.5000   234.6276     0.6431
 1976.0000   234.6298     0.7676
 1976.5000   234.6321     1.4929
 1977.0000   234.6343     1.4926
 1977.5000   234.6365     1.4923
 1978.0000   234.6387     1.5034
 1978.5000   234.6410     1.5144
 1979.0000   234.6432     1.5141
 1979.5000   234.6454     1.5365
 1980.0000   234.6477     1.5363
 1980.5000   234.6499     0.9691
 1981.0000   234.6521     0.9688
 1981.5000   234.6544     0.9572
 1982.0000   234.6566     0.9569
 1982.5000   234.6588     1.0731
 1983.0000   234.6611     1.4892
 1983.5000   234.6633     1.5003
 1984.0000   234.6655     1.5000
 1984.5000   234.6678     1.3863
 1985.0000   234.6700     0.6377
 1985.5000   234.6722     0.6374
 1986.0000   234.6745     0.6372
 1986.5000   234.6767     0.6369
 1987.0000   234.6789     0.6366
 1987.5000   234.6812     0.6363
 1988.0000   234.6834     0.6361
 1988.5000   234.6856     0.6357
 1989.0000   234.6879     0.6354
 1989.5000   234.6901     0.6466
 1990.0000   234.6923     0.6462
 1990.5000   234.6945     1.4849
 1991.0000   234.6968     1.4847
 1991.5000   234.6990     1.4958
 1992.0000   234.7012     1.4955
 1992.5000   234.7035     1.5065
 1993.0000   234.7057     1.5062
 1993.5000   234.7079     1.5060
 1994.0000   234.7102     1.5056
 1994.5000   234.7124     1.5167
 1995.0000   234.7146     1.5164
 1995.5000   234.7169     1.5161
 1996.0000   234.7191     0.9149
 1996.5000   234.7213     0.5745
 1997.0000   234.7236     0.5742
 1997.5000   234.7258     0.5740
 1998.0000   234.7280     0.5737
 1998.5000   234.7303     0.5734
 1999.0000   234.7325     0.5731
 1999.5000   234.7347     0.5728
