~VERSION INFORMATION
 VERS.                2.0:   CWLS LOG ASCII STANDARD - VERSION 2.0
 WRAP.                 NO:   ONE LINE PER DEPTH STEP
~WELL INFORMATION
#MNEM.UNIT      DATA TYPE    INFORMATION
#----------   ------------   ------------------------------
 STRT.F           80.0000:   START DEPTH
 STOP.F         1011.0000:   STOP DEPTH
 STEP.F            0.5000:   STEP LENGTH
 NULL.          -999.2500:   NO VALUE
 COMP.          U.S. NAVY:   COMPANY
 WELL. RES 3 TEAPOT DOM #61S-11:   WELL
 FLD .             TEAPOT:   FIELD
 LOC .      S11 T38N R78W:   LOCATION
 CNTY.            NATRONA:   COUNTY
 STAT.            WYOMING:   STATE
 CTRY. UNITED STATES OF AMERICA:   COUNTRY
 SRVC.       Schlumberger:   SERVICE COMPANY
 DATE.        23-JUL-1964:   LOGDATE
 API .       490250637500:   API NUMBER
~CURVE INFORMATION
#MNEM.UNIT       API CODE    CURVE DESCRIPTION
#----------   ------------   ------------------------------
 DEPT.F                  :   
 CALS.IN     60 280 50 00:   CALIPER FROM SONIC LOG
 DT  .US/F   60 520 33 00:   INTERVAL TRANSIT TIME
 GR  .GAPI   30 310 01 00:   GAMMA RAY
 CILD.MMHO   05 110 46 00:   CONDUCTIVITY INDUCTION LOG DEEP
 ILD .OHMM   05 120 46 00:   INDUCTION LOG DEEP
 ASN .OHMM   05 041 16 00:   AMPLIFIED SHORT NORMAL 16"
 SPR .MV     05 010 01 00:   SPONTANEOUS POTENTIAL FROM RES.
~PARAMETER INFORMATION
#MNEM.UNIT          VALUE    DESCRIPTION
#----------   ------------   ------------------------------
 PD  .                 GL:   PERMANENT DATUM
 EPD .F              5199:   ELEVATION PERMANENT DATUM
 LMF .                 KB:   LOG MEASURED FROM
 DAPD.F                 5:   FEET ABOVE PERMANENT DATUM
 DMF .                 KB:   DRILLING MEASURED FROM
 EKB .F              5204:   KELLING BUSHING
 EGL .F              5199:   GROUND LEVEL
 DATE.          7-23-1964:   RUN DATE
 RUN .                  1:   RUN NUMBER
 DD  .F              1010:   DEPTH DRILLER
 DL  .F              1012:   DEPTH LOGGER
 BLI .F              1011:   BOTTOM LOG INTERVAL
 TLI .F                88:   TOP LOG INTERVAL
 CS  .IN            8.625:   CASING SIZE
 CBD .F                10:   CASING BOTTOM DRILLER
 BS  .IN             6.75:   BIT SIZE
 BSD .F              1010:   BIT SIZE AT DEPTH
 DFT .            GEL-OIL:   DRILLING FLUID TYPE
 DFD .                9.8:   DRILLING FLUID DENSITY
 DFV .                 54:   DRILLING FLUID VISCOSITY
 MSS .           FLOWLINE:   MUD SAMPLE SOURCE
 RMS .OHMM           1.47:   RESISTIVITY MUD SAMPLE
 MST .F                86:   MUD SAMPLE TEMPERATURE
 RMF .OHMM            .96:   RESISTIVITY MUD FILTRATE SAMPLE
 MFST.F                86:   MUD FILTRATE SAMPLE TEMPERATURE
 RMC .OHMM           2.10:   RESISTIVITY MUD CAKE
 MCST.F                86:   MUD CAKE SAMPLE TEMPERATURE
 MFSS.                 FP:   MUD FILTRATE SAMPLE SOURCE
 MCSS.                 FP:   MUD CAKE SAMPLE SOURCE
 TCS .HRS               2:   TIME CURCULATED STOPPED
 LUN .               4507:   LOGGING UNIT NUMBER
 LUL .              CSPR.:   LOGGING UNIT LOCATION
 ENGI.             DANNER:   RECORDING ENGINEER
 WITN.          JORGENSEN:   WITNESSED BY
 CLNT.            A2DTECH:   CLIENT CODE
 ORIG.      2" & 5" PRINT:   ORIGIN OF DATA
 UWI .       490250637500:   UNIQUE WELL ID
 DICO. A2D Technologies, Inc.:   DIGITIZING COMPANY
~OTHER INFORMATION
~A   DEPT     CALS         DT         GR        CILD         ILD        ASN      SPR   
# ...
  808.0000     6.6616    96.9005    82.6246   177.0841     5.8645     7.8127   -23.1193
  808.5000     6.6768    97.8787    77.3663   178.5486     5.7201     7.2976   -23.1165
  809.0000     6.6769    99.6099    75.2612   178.5130     5.6492     6.9674   -23.1137
  809.5000     6.6922   102.3631    73.7567   177.7066     5.6528     6.8126   -23.1103
  810.0000     6.7074   100.8586    68.9189   172.5054     5.7292     6.8277   -23.1075
  810.5000     6.7075    99.9565    70.5976   166.5334     6.0266     6.8724   -23.1050
  811.0000     6.7077    99.5061    72.5465   157.5897     6.4713     7.1015   -23.1021
  811.5000     6.7078    98.6040    75.6967   147.9030     7.0639     7.8895   -23.0993
  812.0000     6.7080    95.8947    77.9459   139.7022     7.5086     8.3906   -23.0964
  812.5000     6.7081    93.7124    79.2943   132.0594     7.9532     8.9654   -23.0935
  813.0000     6.7083    93.3374    83.2048   126.2652     8.4715     9.2751   -22.9467
  813.5000     6.7085    93.3389    84.3974   124.0079     8.7689     9.4670   -22.7995
  814.0000     6.7086    93.2651    85.0332   122.4935     8.9190     9.6016   -22.7967
  814.5000     6.7088    92.4336    88.0071   121.7221     8.9962     9.7625   -22.7939
  815.0000     6.7089    91.5212    89.9500   120.2078     8.9990     9.8660   -22.7912
  815.5000     6.7091    91.2364    90.0872   119.3285     9.0755     9.9254   -22.7884
  816.0000     6.7092    91.6385    86.6679   117.1720     9.1519    10.0826   -22.7856
  816.5000     6.7094    92.1434    81.3302   114.9147     9.3020    10.3034   -23.0706
  817.0000     6.7095    92.5967    79.2674   112.6574     9.3785    10.5243   -23.0672
  817.5000     6.7097    92.7488    81.1461   110.4001     9.4557    10.7451   -23.3522
  818.0000     6.7098    92.4490    83.5313   108.8856     9.5321    10.9879   -23.3494
  818.5000     6.7100    91.5469    85.4626   107.3643     9.6086    11.2925   -23.2027
  819.0000     6.7101    90.7950    86.3124   105.8500     9.6851    11.5780   -23.0561
  819.5000     6.7103    90.1945    84.8080   105.0786     9.6879    11.7993   -23.0532
  820.0000     6.7104    89.2923    89.4589   105.0501     9.7644    11.8734   -23.1944
  820.5000     6.7106    89.3691    91.4078   105.0216     9.6199    11.9474   -23.4787
  821.0000     6.7107    90.5001    91.7059   108.1576     9.4025    11.8006   -23.9083
  821.5000     6.7109    93.4384    89.9011   114.6159     9.0372    11.6434   -24.4804
  822.0000     6.7110    94.9459    92.3005   119.0451     8.5982    11.1985   -25.0532
  822.5000     6.7112    95.6251    91.2457   125.7031     8.3065    10.7606   -25.4820
  823.0000     6.7113    96.6055    90.4920   132.3611     8.0884    10.3228   -24.9030
  823.5000     6.7115    97.7365    94.8433   135.3046     7.8703     9.8827   -24.1809
  824.0000     6.7116    99.0934    95.2915   136.8698     7.7265     9.2407   -23.7464
  824.5000     6.7118    99.9985    92.7352   138.2192     7.5814     9.1675   -23.5998
  825.0000     6.7119    99.4729    90.0295   138.9337     7.5106     9.1507   -23.5970
  825.5000     6.7121    97.2047    87.4740   138.1552     7.4398     8.9328   -23.4504
  826.0000     6.7122    96.8333    84.7683   135.1550     7.5169     8.7123   -23.3036
  826.5000     6.7124    95.8330    83.8644   132.1098     7.7414     9.0662   -23.1564
  827.0000     6.7125    92.3213    82.0596   126.9186     8.1860     9.6115   -23.0097
  827.5000     6.7127    89.1644    90.4650   124.6613     8.5571     9.8918   -23.2947
  828.0000     6.7128    91.7262    90.7631   124.6328     8.6335     9.9805   -23.5797
  828.5000     6.6376    92.6313    91.9605   127.5761     8.6363     9.8633   -23.8647
  829.0000     6.4718    91.9551    91.8074   130.5194     8.3446     9.6870   -23.8494
  829.5000     6.2755    91.5797    87.4500   138.1209     7.6118     9.6431   -23.4268
  830.0000     6.0940    94.7442    87.8975   149.7719     7.0991     9.6289   -23.2802
  830.5000     6.1704    97.5314    91.3480   158.6587     6.7338     9.6146   -23.1335
  831.0000     6.6492    96.6297    93.7474   163.0879     6.5157     9.3143   -23.1307
  831.5000     6.8044    96.4049    94.3450   166.0312     6.3713     8.4226   -23.1280
  832.0000     6.8046    99.5694    88.3360   167.4889     6.2268     7.7161   -23.1252
  832.5000     6.8047    99.6458    80.6761   168.2031     6.1560     7.3631   -23.2656
  833.0000     6.7746    99.4218    82.0244   167.4246     6.1595     7.2309   -23.6945
  833.5000     6.7145    98.9715    79.6183   165.1673     6.2360     7.3050   -24.1234
  834.0000     6.6392    97.6175    79.1648   155.4806     6.6806     7.9187   -24.4084
  834.5000     6.5941    94.7576    79.0117   146.5369     7.2726     8.5586   -24.1179
  835.0000     6.5490    92.6506    78.1078   138.2608     7.7172     9.2799   -23.8273
  835.5000     6.5793    92.8027    76.6033   127.1563     8.0890     9.6338   -23.5367
  836.0000     6.6549    92.9548    72.3961   122.6702     8.2391     9.7520   -23.5333
  836.5000     6.7154    92.8810    73.8946   121.1559     8.3155     9.8555   -23.8183
  837.0000     6.7306    93.1084    76.4442   121.1274     8.4656     9.9296   -23.8155
  837.5000     6.7006    92.9342    76.8916   121.0990     8.5421    10.0179   -23.5250
  838.0000     6.6555    92.7349    76.8886   119.5839     8.6186    10.0971   -23.2345
  838.5000     6.6712    93.2635    70.5793   118.0632     8.9166    10.1762   -23.2225
  839.0000     6.7161    92.3617    70.2768   116.5488     9.2877    10.2702   -23.0844
  839.5000     6.7163    91.1584    71.9247   115.0345     9.5114    10.4915   -23.0816
  840.0000     6.7165    91.0089    74.1740   113.5201     9.6615    10.7129   -23.0788
  840.5000     6.7166    92.4415    74.9225   112.0058     9.5171    10.9342   -22.9322
  841.0000     6.7168    92.5183    74.3181   111.2333     9.1517    10.9346   -22.9294
  841.5000     6.7169    92.2185    72.9638   111.1988     8.8600    10.8611   -23.0705
  842.0000     6.7171    91.3917    73.4120   111.1703     9.0108    10.4819   -23.2116
  842.5000     6.7323    91.0163    71.6065   109.6560     9.3082    10.1996   -23.3527
  843.0000     6.7324    91.8465    70.2521   106.6558     9.6055    10.2001   -23.6377
  843.5000     6.7326    92.6010    69.9229   104.3710     9.7556    10.3478   -23.7789
  844.0000     6.6875    93.1296    71.5975   102.8770     9.8321    10.6427   -23.7754
  844.5000     6.6574    93.3570    72.9458   102.8486     9.8356    10.9377   -23.6287
  845.0000     6.6274    93.1325    73.3933   102.8201     9.7648    11.2401   -23.4820
  845.5000     6.6276    92.3058    75.3420   104.2775     9.5467    11.5278   -23.1909
  846.0000     6.6579    91.1777    81.6453   106.4785     9.1814    11.6755   -22.9003
  846.5000     6.6732    89.3692    81.3420   121.0680     8.3742    11.5285   -22.7537
  847.0000     6.7186    87.9227    83.1408   145.7898     7.3461    11.2345   -22.6070
  847.5000     6.7338    86.7997    84.9396   159.1343     6.5396    10.8667   -22.6042
  848.0000     6.7339    86.1275    85.3878   163.5706     6.3215    10.0937   -22.4576
  848.5000     6.7341    86.8181    85.2340   161.3062     6.2500     8.0547   -23.0297
  849.0000     6.7343    93.8042    78.9247   159.0489     6.2535     7.6130   -23.3154
  849.5000     6.7193    99.0183    75.3181   162.1070     6.2564     7.5990   -23.7442
  850.0000     6.6290    99.6237    70.7266   161.0403     6.4065     7.6878   -23.8854
  850.5000     6.5386    99.8527    69.9099   149.4743     6.8685     8.1992   -23.6743
  851.0000     6.4935    99.5545    73.3634   134.4725     8.3290     9.7800   -23.4924
  851.5000     6.4786    96.9973    74.7147   116.6419     9.3635    12.1520   -23.3006
  852.0000     6.4636    88.0395    68.4084    98.0684    10.8398    12.8153   -23.2978
  852.5000     6.4638    87.5899    63.7538    90.5147    11.4325    13.1154   -23.5828
  853.0000     6.4790    88.7233    61.3514    85.4383    11.4360    13.3321   -23.7239
