~VERSION INFORMATION
 VERS.                2.0:   CWLS LOG ASCII STANDARD - VERSION 2.0
 WRAP.                 NO:   ONE LINE PER DEPTH STEP
~WELL INFORMATION
#MNEM.UNIT      DATA TYPE    INFORMATION
#----------   ------------   ------------------------------
 STRT.F           26.0000:   START DEPTH
 STOP.F          535.5000:   STOP DEPTH
 STEP.F            0.5000:   STEP LENGTH
 NULL.          -999.2500:   NO VALUE
 COMP. BROWN JOHN E&C INC:   COMPANY
 WELL.       NPR 86 #11-3:   WELL
 FLD .             TEAPOT:   FIELD
 LOC .       S3 T38N R78W:   LOCATION
 CNTY.            NATRONA:   COUNTY
 STAT.            WYOMING:   STATE
 CTRY. UNITED STATES OF AMERICA:   COUNTRY
 SRVC.       Schlumberger:   SERVICE COMPANY
 DATE.        21-SEP-1990:   LOGDATE
 API .       490251130800:   API NUMBER
~CURVE INFORMATION
#MNEM.UNIT       API CODE    CURVE DESCRIPTION
#----------   ------------   ------------------------------
 DEPT.F                  :   
 ILD .OHMM   07 120 46 00:   INDUCTION LOG DEEP
 ILM .OHMM   07 120 44 00:   INDUCTION LOG MEDIUM
 GRD .GAPI   45 310 01 00:   GAMMA RAY FROM DENSITY LOG
 CALD.IN     45 280 60 00:   CALIPER
 DRHO.G/C3   45 356 01 00:   DENSITY CORRECTION
 DPHI.DEC    45 890 00 00:   DENSITY POROSITY
 RHOB.G/C3   45 350 01 00:   BULK DENSITY
~PARAMETER INFORMATION
#MNEM.UNIT          VALUE    DESCRIPTION
#----------   ------------   ------------------------------
 PD  .                 GL:   PERMANENT DATUM
 EPD .F              5144:   ELEVATION PERMANENT DATUM
 LMF .                 KB:   LOG MEASURED FROM
 DAPD.F                10:   FEET ABOVE PERMANENT DATUM
 DMF .                 KB:   DRILLING MEASURED FROM
 EKB .F              5154:   KELLING BUSHING
 EDF .F              5153:   DRILLING FLOOR
 EGL .F              5144:   GROUND LEVEL
 DATE.            9-21-90:   RUN DATE
 RUN .                  1:   RUN NUMBER
 DD  .F               540:   DEPTH DRILLER
 DL  .F               539:   DEPTH LOGGER
 BLI .F               533:   BOTTOM LOG INTERVAL
 TLI .F                49:   TOP LOG INTERVAL
 CS  .IN            8.625:   CASING SIZE
 CBD .F                50:   CASING BOTTOM DRILLER
 CBL .F                48:   CASING BOTTOM LOGGER
 BS  .IN            7.875:   BIT SIZE
 BSD .F               540:   BIT SIZE AT DEPTH
 DFT .                AIR:   DRILLING FLUID TYPE
 TCS .HRS            0315:   TIME CURCULATED STOPPED
 TLAB.HRS            0409:   TIME LOGGER AT BOTTOM
 LUN .               5882:   LOGGING UNIT NUMBER
 LUL .               CODY:   LOGGING UNIT LOCATION
 ENGI.          M. FISHER:   RECORDING ENGINEER
 WITN.          G. STRONG:   WITNESSED BY
 CLNT.            A2DTECH:   CLIENT CODE
 ORIG.   2" 2.5" 5" PRINT:   ORIGIN OF DATA
 UWI .       490251130800:   UNIQUE WELL ID
 DICO. A2D Technologies, Inc.:   DIGITIZING COMPANY
~OTHER INFORMATION
~A   DEPT      ILD        ILM         GRD      CALD       DRHO       DPHI       RHOB   
   26.0000  -999.2500  -999.2500    74.0519  -999.2500  -999.2500  -999.2500  -999.2500
   26.5000  -999.2500  -999.2500    74.2705  -999.2500  -999.2500  -999.2500  -999.2500
   27.0000  -999.2500  -999.2500    74.4511  -999.2500  -999.2500  -999.2500  -999.2500
   27.5000  -999.2500  -999.2500    73.3913  -999.2500  -999.2500  -999.2500  -999.2500
   28.0000  -999.2500  -999.2500    72.1907  -999.2500  -999.2500  -999.2500  -999.2500
   28.5000  -999.2500  -999.2500    70.9755  -999.2500  -999.2500  -999.2500  -999.2500
   29.0000  -999.2500  -999.2500    71.7849  -999.2500  -999.2500  -999.2500  -999.2500
   29.5000  -999.2500  -999.2500    72.8536  -999.2500  -999.2500  -999.2500  -999.2500
   30.0000  -999.2500  -999.2500    73.9477  -999.2500  -999.2500  -999.2500  -999.2500
   30.5000  -999.2500  -999.2500    72.8519  -999.2500  -999.2500  -999.2500  -999.2500
   31.0000  -999.2500  -999.2500    71.4609  -999.2500  -999.2500  -999.2500  -999.2500
   31.5000  -999.2500  -999.2500    70.0571  -999.2500  -999.2500  -999.2500  -999.2500
   32.0000  -999.2500  -999.2500    68.6392  -999.2500  -999.2500  -999.2500  -999.2500
   32.5000  -999.2500  -999.2500    69.0982  -999.2500  -999.2500  -999.2500  -999.2500
   33.0000  -999.2500  -999.2500    70.8507  -999.2500  -999.2500  -999.2500  -999.2500
   33.5000  -999.2500  -999.2500    72.7421  -999.2500  -999.2500  -999.2500  -999.2500
   34.0000  -999.2500  -999.2500    74.6366  -999.2500  -999.2500  -999.2500  -999.2500
   34.5000  -999.2500  -999.2500    76.5292  -999.2500  -999.2500  -999.2500  -999.2500
   35.0000  -999.2500  -999.2500    77.8893  -999.2500  -999.2500  -999.2500  -999.2500
   35.5000  -999.2500  -999.2500    76.7649  -999.2500  -999.2500  -999.2500  -999.2500
   36.0000  -999.2500  -999.2500    74.4119  -999.2500  -999.2500  -999.2500  -999.2500
   36.5000  -999.2500  -999.2500    71.9249  -999.2500  -999.2500  -999.2500  -999.2500
   37.0000  -999.2500  -999.2500    69.9810  -999.2500  -999.2500  -999.2500  -999.2500
   37.5000  -999.2500  -999.2500    71.5026  -999.2500  -999.2500  -999.2500  -999.2500
   38.0000  -999.2500  -999.2500    73.3167  -999.2500  -999.2500  -999.2500  -999.2500
   38.5000  -999.2500  -999.2500    74.0095  -999.2500  -999.2500  -999.2500  -999.2500
   39.0000  -999.2500  -999.2500    74.4479  -999.2500  -999.2500  -999.2500  -999.2500
   39.5000  -999.2500  -999.2500    74.4202  -999.2500  -999.2500  -999.2500  -999.2500
   40.0000  -999.2500  -999.2500    73.2027  -999.2500  -999.2500  -999.2500  -999.2500
   40.5000  -999.2500  -999.2500    71.9231  -999.2500  -999.2500  -999.2500  -999.2500
   41.0000  -999.2500  -999.2500    71.2209  -999.2500  -999.2500  -999.2500  -999.2500
   41.5000  -999.2500  -999.2500    72.6035  -999.2500  -999.2500  -999.2500  -999.2500
   42.0000  -999.2500  -999.2500    75.3036  -999.2500  -999.2500  -999.2500  -999.2500
   42.5000  -999.2500  -999.2500    76.4235  -999.2500  -999.2500  -999.2500  -999.2500
   43.0000  -999.2500  -999.2500    76.4566  -999.2500  -999.2500  -999.2500  -999.2500
   43.5000  -999.2500  -999.2500    76.9439  -999.2500  -999.2500  -999.2500  -999.2500
   44.0000  -999.2500  -999.2500    81.2816  -999.2500  -999.2500  -999.2500  -999.2500
   44.5000  -999.2500  -999.2500    87.8512  -999.2500  -999.2500  -999.2500  -999.2500
   45.0000  -999.2500  -999.2500    94.6673     8.1657  -999.2500  -999.2500  -999.2500
   45.5000  -999.2500  -999.2500   103.9896     8.1520  -999.2500  -999.2500  -999.2500
   46.0000  -999.2500  -999.2500   113.7947     8.0526  -999.2500  -999.2500  -999.2500
   46.5000  -999.2500  -999.2500   119.1459     7.9682     0.0249  -999.2500  -999.2500
   47.0000  -999.2500  -999.2500   122.6650     7.9281     0.0409     0.1170     2.4616
   47.5000  -999.2500  -999.2500   126.1979     7.8895     0.0269     0.1094     2.4686
   48.0000     5.1981   967.0571   126.3311     7.8646     0.0151     0.1159     2.4636
   48.5000     1.5115   749.0698   123.1374     7.8664     0.0039     0.1213     2.4466
   49.0000     1.7898     9.5090   120.1385     7.8663     0.0003     0.1248     2.4306
   49.5000   104.8524     4.8077   118.4751     7.8663    -0.0026     0.1277     2.4156
   50.0000   935.1774     6.2014   118.9555     7.8663    -0.0040     0.1297     2.4109
   50.5000  1536.2332     7.2528   119.5289     7.8663    -0.0036     0.1288     2.4116
   51.0000   796.2144     9.4872   119.1208     7.8663    -0.0022     0.1270     2.4194
   51.5000    37.3635    11.0597   118.8144     7.8663    -0.0003     0.1252     2.4269
   52.0000     6.8610     8.8050   119.8186     7.8693     0.0018     0.1234     2.4343
   52.5000     6.0595     6.8344   120.9310     7.8755     0.0012     0.1218     2.4398
   53.0000     6.1108     8.3780   124.4308     7.8818    -0.0007     0.1218     2.4393
   53.5000     6.1551    23.4312   127.5862     7.8910    -0.0037     0.1236     2.4339
   54.0000     6.8161    31.1885   128.6999     7.9110    -0.0067     0.1252     2.4285
   54.5000     7.7070    17.5328   127.7817     7.9303    -0.0098     0.1258     2.4246
   55.0000     8.0662     7.2247   129.7951     7.9496    -0.0120     0.1257     2.4247
   55.5000     7.5141     6.8358   133.0075     7.9689    -0.0120     0.1258     2.4247
   56.0000     6.7606     6.6472   135.5980     7.9882    -0.0121     0.1268     2.4209
   56.5000     6.5235     6.6429   129.5512     8.0058    -0.0076     0.1277     2.4191
   57.0000     6.5253     6.8212   123.5291     8.0027    -0.0026     0.1254     2.4289
   57.5000     6.7107     6.9246   118.8114     7.9977     0.0009     0.1232     2.4385
   58.0000     6.8847     7.0560   121.1888     7.9926     0.0037     0.1210     2.4453
   58.5000     7.0630     7.1897   126.4682     7.9879     0.0014     0.1189     2.4489
   59.0000     7.2479     7.3260   131.6904     7.9692    -0.0017     0.1186     2.4517
   59.5000     7.3213     7.4648   135.4239     7.9457    -0.0047     0.1194     2.4482
   60.0000     7.3615     7.5087   131.1743     7.9285    -0.0076     0.1212     2.4433
   60.5000     7.4015     7.5394   127.0162     7.9118    -0.0071     0.1230     2.4399
   61.0000     7.4417     7.5702   124.7118     7.8952    -0.0044     0.1201     2.4469
   61.5000     7.4821     7.6013   126.3422     7.8787    -0.0018     0.1175     2.4540
   62.0000     7.5363     7.6316   128.7291     7.8698    -0.0003     0.1150     2.4604
   62.5000     7.5989     7.7170   129.4256     7.8879     0.0009     0.1171     2.4556
   63.0000     7.6626     7.8126   129.2803     7.9053    -0.0001     0.1203     2.4443
   63.5000     7.7404     7.9097   129.1639     7.9226    -0.0017     0.1234     2.4342
   64.0000     7.8638     8.0080   130.0878     7.9401    -0.0022     0.1204     2.4440
   64.5000     7.9875     8.1076   133.4376     7.9460     0.0016     0.1139     2.4597
   65.0000     8.1138     8.2083   133.0602     7.9462     0.0052     0.1073     2.4756
   65.5000     8.2407     8.3103   130.6449     7.9387     0.0081     0.1010     2.4846
   66.0000     8.3272     8.3983   128.2587     7.9273     0.0060     0.1010     2.4822
   66.5000     8.3762     8.4576   129.4801     7.9158     0.0030     0.1050     2.4770
   67.0000     8.4254     8.5174   131.3126     7.9043     0.0000     0.1080     2.4717
   67.5000     8.4557     8.5775   132.8004     7.8928    -0.0028     0.1109     2.4664
   68.0000     8.4559     8.6295   131.4651     7.8843    -0.0053     0.1114     2.4656
   68.5000     8.4561     8.6688   129.9363     7.8798    -0.0060     0.1114     2.4656
   69.0000     8.4909     8.7083   128.7120     7.8752    -0.0060     0.1125     2.4644
   69.5000     8.5258     8.7479   128.7229     7.8705    -0.0059     0.1136     2.4626
   70.0000     8.5607     8.7877   129.4071     7.8675    -0.0046     0.1138     2.4615
   70.5000     8.5957     8.8277   130.2219     7.8983    -0.0033     0.1119     2.4657
   71.0000     8.7086     8.8932   129.8851     7.9303     0.0000     0.1101     2.4706
