~VERSION INFORMATION
 VERS.                2.0:   CWLS LOG ASCII STANDARD - VERSION 2.0
 WRAP.                 NO:   ONE LINE PER DEPTH STEP
~WELL INFORMATION
#MNEM.UNIT      DATA TYPE    INFORMATION
#----------   ------------   ------------------------------
 STRT.F           86.0000:   START DEPTH
 STOP.F          770.0000:   STOP DEPTH
 STEP.F            0.5000:   STEP LENGTH
 NULL.          -999.2500:   NO VALUE
 COMP.           U S NAVY:   COMPANY
 WELL. NPR 3 TEAPOT DOM #85-S-34:   WELL
 FLD .        TEAPOT DOME:   FIELD
 LOC .      S34 T39N R78W:   LOCATION
 CNTY.            NATRONA:   COUNTY
 STAT.            WYOMING:   STATE
 CTRY. UNITED STATES OF AMERICA:   COUNTRY
 SRVC. Schlumberger Well Surveying Corp:   SERVICE COMPANY
 DATE.        31-JUL-1963:   LOGDATE
 API .       490250652800:   API NUMBER
~CURVE INFORMATION
#MNEM.UNIT       API CODE    CURVE DESCRIPTION
#----------   ------------   ------------------------------
 DEPT.F                  :   
 ASN .OHMM   05 041 16 00:   AMPLIFIED SHORT NORMAL 16"
 CILD.MMHO   05 110 46 00:   CONDUCTIVITY INDUCTION LOG DEEP
 ILD .OHMM   05 120 46 00:   INDUCTION LOG DEEP
 SPR .MV     05 010 01 00:   SPONTANEOUS POTENTIAL FROM RES.
 GR  .GAPI   30 310 01 00:   GAMMA RAY
~PARAMETER INFORMATION
#MNEM.UNIT          VALUE    DESCRIPTION
#----------   ------------   ------------------------------
 PD  .                 GL:   PERMANENT DATUM
 EPD .F              5071:   ELEVATION PERMANENT DATUM
 LMF .                 KB:   LOG MEASURED FROM
 DAPD.F                 5:   FEET ABOVE PERMANENT DATUM
 DMF .                 KB:   DRILLING MEASURED FROM
 EKB .F              5076:   KELLING BUSHING
 EGL .F              5071:   GROUND LEVEL
 DATE.        31-JUL-1963:   RUN DATE
 RUN .                  1:   RUN NUMBER
 DD  .F               770:   DEPTH DRILLER
 DL  .F               771:   DEPTH LOGGER
 BLI .F               770:   BOTTOM LOG INTERVAL
 TLI .F                86:   TOP LOG INTERVAL
 CS  .IN            8.625:   CASING SIZE
 CBD .F                10:   CASING BOTTOM DRILLER
 BS  .IN             6.75:   BIT SIZE
 BSD .F               770:   BIT SIZE AT DEPTH
 DFT .          GEL & OIL:   DRILLING FLUID TYPE
 DFD .                9.6:   DRILLING FLUID DENSITY
 DFV .                 39:   DRILLING FLUID VISCOSITY
 DFPH.                9.0:   DRILLING FLUID PH
 DFL .                8.8:   DRILLING FLUID LOSS
 MSS .           FLOWLINE:   MUD SAMPLE SOURCE
 RMS .OHMM           3.06:   RESISTIVITY MUD SAMPLE
 MST .F                94:   MUD SAMPLE TEMPERATURE
 RMF .OHMM           2.64:   RESISTIVITY MUD FILTRATE SAMPLE
 MFST.F                94:   MUD FILTRATE SAMPLE TEMPERATURE
 MFSS.               MEAS:   MUD FILTRATE SAMPLE SOURCE
 TCS .HRS               1:   TIME CURCULATED STOPPED
 MRT .F           LESS 80:   MAXIMUM RECORDED TEMPERATURE
 LUN .               4507:   LOGGING UNIT NUMBER
 LUL .               CSPR:   LOGGING UNIT LOCATION
 ENGI.            WINKLER:   RECORDING ENGINEER
 WITN.          JORGENSON:   WITNESSED BY
 CLNT.            A2DTECH:   CLIENT CODE
 ORIG.           5" PRINT:   ORIGIN OF DATA
 UWI .       490250652800:   UNIQUE WELL ID
 DICO. A2D Technologies, Inc.:   DIGITIZING COMPANY
~OTHER INFORMATION
~A   DEPT        ASN      CILD         ILD      SPR         GR   
# ...
  147.0000     3.9296   280.5720     3.6284   -31.0552  -999.2500
  147.5000     3.8550   258.5208     3.9380   -31.0598  -999.2500
  148.0000     4.8242   227.0059     4.3260   -31.6924  -999.2500
  148.5000     5.1674   200.2229     4.7140   -32.8027  -999.2500
  149.0000     5.2916   184.4809     4.9582   -33.7645  -999.2500
  149.5000     5.3844   178.2019     5.0982   -34.0621  -999.2500
  150.0000     5.5712   171.1357     5.1727   -34.2234  -999.2500
  150.5000     5.6333   172.8207     5.1691   -34.2265  -999.2500
  151.0000     5.6325   175.9194     5.1661   -34.8574  -999.2500
  151.5000     5.6486   176.7310     5.1630   -35.0175  -999.2500
  152.0000     5.6626   177.5427     5.1593   -35.0205  -999.2500
  152.5000     5.6619   179.1431     5.0779   -34.0738  -999.2500
  153.0000     5.5361   180.7434     4.9964   -32.6238  -999.2500
  153.5000     5.2851   185.4983     4.6799   -32.0469  -999.2500
  154.0000     5.0028   198.1396     4.3634   -32.6786  -999.2500
  154.5000     4.5953   228.1311     4.0469   -34.2515  -999.2500
  155.0000     4.2034   258.0179     3.8088   -34.7247  -999.2500
  155.5000     4.0129   286.3275     3.5630   -34.2575  -999.2500
  156.0000     3.9673   300.7612     3.2533   -33.7897  -999.2500
  156.5000     4.1232   301.5729     3.1719   -33.6185  -999.2500
  157.0000     4.2010   302.3846     3.1689   -33.3248  -999.2500
  157.5000     4.0281   302.4077     3.3234   -33.6425  -999.2500
  158.0000     3.9493   299.2762     3.5547   -34.7445  -999.2500
  158.5000     3.9956   290.6241     3.7084   -34.9045  -999.2500
  159.0000     4.3424   277.2402     3.8621   -34.2796  -999.2500
  159.5000     4.5107   247.1687     4.0264   -32.7128  -999.2500
  160.0000     4.6040   226.9716     4.3255   -33.3647  -999.2500
  160.5000     4.6973   211.0690     4.4792   -33.9755  -999.2500
  161.0000     4.8688   207.1489     4.6329   -34.1355  -999.2500
  161.5000     5.0873   204.8002     4.7082   -34.2955  -999.2500
  162.0000     5.2119   202.4631     4.8627   -35.0835  -999.2500
  162.5000     5.2895   200.9089     4.9373   -34.9295  -999.2500
  163.0000     5.3223   199.3546     4.9342   -34.6185  -999.2500
  163.5000     5.3353   199.3777     4.9304   -34.3077  -999.2500
  164.0000     5.3032   200.1893     4.9274   -34.1287  -999.2500
  164.5000     5.1461   202.6525     4.9243   -33.2156  -999.2500
  165.0000     4.9577   210.4936     4.8429   -32.2767  -999.2500
  165.5000     4.8162   223.9236     4.6048   -31.3378  -999.2500
  166.0000     4.6591   242.8741     4.2883   -31.1831  -999.2500
  166.5000     4.4833   260.2472     3.9718   -31.1869  -999.2500
  167.0000     4.2822   280.7750     3.7268   -31.1900  -999.2500
  167.5000     4.1094   283.9469     3.5731   -31.1931  -999.2500
  168.0000     3.9680   280.0325     3.4917   -32.6097  -999.2500
  168.5000     4.0769   281.6328     3.4103   -35.5954  -999.2500
  169.0000     4.0921   288.0916     3.3289   -36.2264  -999.2500
  169.5000     3.8566   296.9163     3.3258   -36.7004  -999.2500
  170.0000     3.6839   301.4238     3.3228   -37.1744  -999.2500
  170.5000     3.8262   299.8695     3.3197   -37.4914  -999.2500
  171.0000     3.8861   297.5266     3.2382   -37.1575  -999.2500
  171.5000     3.8228   299.1270     3.1562   -34.9865  -999.2500
  172.0000     3.7283   303.0933     3.1531   -34.8318  -999.2500
  172.5000     3.6338   312.5800     3.0717   -35.6205  -999.2500
  173.0000     3.5705   324.4327     2.9903   -35.3096  -999.2500
  173.5000     3.4447   349.8077     2.8306   -34.5277  -999.2500
  174.0000     3.2709   382.1131     2.6708   -34.8447  -999.2500
  174.5000     3.1617   404.9492     2.5110   -35.0047  -999.2500
  175.0000     3.0985   407.3382     2.5078   -33.6473  -999.2500
  175.5000     3.0822   393.9543     2.5833   -31.2439  -999.2500
  176.0000     3.1129   364.0089     2.6586   -29.9910  -999.2500
  176.5000     3.3627   345.8932     2.8116   -29.8363  -999.2500
  177.0000     3.5186   333.2979     2.9653   -29.8401  -999.2500
  177.5000     3.4710   320.7027     3.1190   -30.0001  -999.2500
  178.0000     3.4391   297.0664     3.2727   -30.0032  -999.2500
  178.5000     3.8766   274.5034     3.5107   -30.3396  -999.2500
  179.0000     4.2829   235.6040     3.8144   -31.2659  -999.2500
  179.5000     4.4074   227.7407     3.9681   -32.2108  -999.2500
  180.0000     4.3912   225.3920     4.0442   -33.3128  -999.2500
  180.5000     4.3123   238.0391     4.1196   -33.7868  -999.2500
  181.0000     4.2648   247.5259     4.0374   -33.6328  -999.2500
  181.5000     4.1849   260.1672     4.0344   -33.1648  -999.2500
  182.0000     4.0287   275.1745     3.8746   -32.0565  -999.2500
  182.5000     3.9029   287.0272     3.7147   -31.6011  -999.2500
  183.0000     3.7614   307.0188     3.4759   -31.4471  -999.2500
  183.5000     3.5887   336.8952     3.1594   -32.0789  -999.2500
  184.0000     3.4316   378.5847     2.7645   -32.2389  -999.2500
  184.5000     3.3058   410.1535     2.2913   -32.3989  -999.2500
  185.0000     3.1800   426.7381     2.2099   -32.5589  -999.2500
  185.5000     3.0834   425.9706     2.1284   -32.4050  -999.2500
  186.0000     3.0536   407.7711     2.2038   -32.2510  -999.2500
  186.5000     3.3971   382.9576     2.2913   -32.0971  -999.2500
  187.0000     3.5844   366.8972     2.6672   -31.3160  -999.2500
  187.5000     3.4428   344.8382     3.1344   -30.0624  -999.2500
  188.0000     3.3485   314.1042     3.5232   -30.6941  -999.2500
  188.5000     4.4901   264.4427     3.8336   -31.3251  -999.2500
  189.0000     4.8860   218.7244     4.3008   -31.4851  -999.2500
  189.5000     5.1460   199.8200     4.6112   -31.4882  -999.2500
  190.0000     5.2863   191.9566     4.7649   -31.6489  -999.2500
  190.5000     5.4265   191.9797     4.9186   -33.3788  -999.2500
  191.0000     5.5511   192.0032     4.9932   -35.1087  -999.2500
  191.5000     5.6131   190.4485     5.0693   -36.3676  -999.2500
  192.0000     5.6751   182.5908     5.2223   -35.7427  -999.2500
  192.5000     5.8310   174.7274     5.3767   -34.4898  -999.2500
  193.0000     6.2299   167.6527     5.6080   -34.1789  -999.2500
  193.5000     6.5964   160.5779     5.9185   -34.4967  -999.2500
  194.0000     6.7836   155.8691     6.1588   -34.4997  -999.2500
  194.5000     6.9552   151.1603     6.4602   -33.5608  -999.2500
  195.0000     7.1424   149.6057     6.6139   -31.6800  -999.2500
  195.5000     7.2669   149.6293     6.6109   -31.8400  -999.2500
  196.0000     7.3446   149.7686     6.6862   -32.0001  -999.2500
  196.5000     7.3596   151.2583     6.6832   -33.2862  -999.2500
  197.0000     7.2493   152.8586     6.6802   -35.3036  -999.2500
  197.5000     7.2018   154.4589     6.6771   -34.5217  -999.2500
  198.0000     7.1699   154.4820     6.5956   -33.2681  -999.2500
  198.5000     7.1380   155.2936     6.5919   -33.4289  -999.2500
  199.0000     7.1061   156.1053     6.4322   -34.5308  -999.2500
  199.5000     7.1055   156.9170     6.3507   -35.1618  -999.2500
  200.0000     7.1428   156.9414     6.2693   -35.3218  -999.2500
  200.5000     7.1583   157.7379     6.2688   -35.1739  -999.2500
  201.0000     7.1579   157.7457     6.2680   -35.1874  -999.2500
  201.5000     7.1576   158.5422     6.1889   -35.0408  -999.2500
  202.0000     7.1573   159.3387     6.1881   -34.5812  -999.2500
  202.5000     7.1569   159.3466     6.1873   -32.2373  -999.2500
  203.0000     7.1566   160.1431     6.1864   -30.5213  -999.2500
  203.5000     7.1406   160.1510     6.1856   -30.6892  -999.2500
  204.0000     7.1089   158.5796     6.1848   -31.0246  -999.2500
  204.5000     7.1086   157.0121     6.1840   -31.3391  -999.2500
  205.0000     7.1083   156.2313     6.3402   -31.3501  -999.2500
  205.5000     7.3121   155.4486     6.4960   -31.3632  -999.2500
  206.0000     7.6571   152.3038     6.6521   -31.3740  -999.2500
  206.5000     7.8138   146.7912     7.0430   -32.0128  -999.2500
  207.0000     7.8920   138.1240     7.4341   -32.9656  -999.2500
  207.5000     7.9702   127.0908     7.9035   -32.6625  -999.2500
