~VERSION INFORMATION
 VERS.                2.0:   CWLS LOG ASCII STANDARD - VERSION 2.0
 WRAP.                 NO:   ONE LINE PER DEPTH STEP
~WELL INFORMATION
#MNEM.UNIT      DATA TYPE    INFORMATION
#----------   ------------   ------------------------------
 STRT.F           30.0000:   START DEPTH
 STOP.F          547.0000:   STOP DEPTH
 STEP.F            0.5000:   STEP LENGTH
 NULL.          -999.2500:   NO VALUE
 COMP.   FINIX & SCISSION:   COMPANY
 WELL. SX-11 NPR #3 #11-11:   WELL
 FLD .             TEAPOT:   FIELD
 LOC .      S11 T38N R78W:   LOCATION
 CNTY.            NATRONA:   COUNTY
 STAT.            WYOMING:   STATE
 CTRY. UNITED STATES OF AMERICA:   COUNTRY
 SRVC.       Schlumberger:   SERVICE COMPANY
 DATE.        01-MAR-1977:   LOGDATE
 API .       490251058500:   API NUMBER
~CURVE INFORMATION
#MNEM.UNIT       API CODE    CURVE DESCRIPTION
#----------   ------------   ------------------------------
 DEPT.F                  :   
 ILD .OHMM               :   INDUCTION LOG DEEP
 ILM .OHMM   07 120 44 00:   INDUCTION LOG MEDIUM
 LL8 .OHMM   07 220 08 00:   
 SPR .MV     07 010 01 00:   SPONTANEOUS POTENTIAL
 CALD.IN     45 280 60 00:   CALIPER FROM DENSITY LOG
 CORR.G/C3   45 356 01 00:   DENSITY CORRECTION
 DPHI.DEC    45 890 12 00:   DENSITY POROSITY SANDSTONE
 GRD .GAPI   45 310 01 00:   GAMMA RAY FROM DENSITY LOG
 RHOB.G/C3   45 350 01 00:   BULK DENSITY
~PARAMETER INFORMATION
#MNEM.UNIT          VALUE    DESCRIPTION
#----------   ------------   ------------------------------
 PD  .                 GL:   PERMANENT DATUM
 EPD .F              5158:   ELEVATION PERMANENT DATUM
 LMF .                 GL:   LOG MEASURED FROM
 DMF .                 GL:   DRILLING MEASURED FROM
 EKB .F              5161:   KELLING BUSHING
 EGL .F              5158:   GROUND LEVEL
 DATE.        01-MAR-1977:   RUN DATE
 RUN .                  1:   RUN NUMBER
 DD  .F               575:   DEPTH DRILLER
 DL  .F               548:   DEPTH LOGGER
 BLI .F               547:   BOTTOM LOG INTERVAL
 TLI .F                45:   TOP LOG INTERVAL
 CS  .IN            8.625:   CASING SIZE
 CBD .F                40:   CASING BOTTOM DRILLER
 CBL .F                45:   CASING BOTTOM LOGGER
 BS  .IN            7.875:   BIT SIZE
 BSD .F               575:   BIT SIZE AT DEPTH
 DFT .                PIT:   DRILLING FLUID TYPE
 DFD .                8.7:   DRILLING FLUID DENSITY
 DFV .                 46:   DRILLING FLUID VISCOSITY
 DFPH.                  8:   DRILLING FLUID PH
 DFL .                6.8:   DRILLING FLUID LOSS
 MSS .                PIT:   MUD SAMPLE SOURCE
 RMS .OHMM          0.632:   RESISTIVITY MUD SAMPLE
 MST .F                65:   MUD SAMPLE TEMPERATURE
 RMF .OHMM          0.465:   RESISTIVITY MUD FILTRATE SAMPLE
 MFST.F                65:   MUD FILTRATE SAMPLE TEMPERATURE
 MFSS.               MEAS:   MUD FILTRATE SAMPLE SOURCE
 RMB .OHMM          0.635:   RESISTIVITY MUD AT BHT
 BHT .F                68:   BOTTOM HOLE TEMPERATURE
 TCS .HRS              12:   TIME CURCULATED STOPPED
 MRT .F                68:   MAXIMUM RECORDED TEMPERATURE
 LUN .               5642:   LOGGING UNIT NUMBER
 LUL .               CSPR:   LOGGING UNIT LOCATION
 ENGI.         JIM MARTIN:   RECORDING ENGINEER
 WITN.         STUEBINGER:   WITNESSED BY
 CLNT.            A2DTECH:   CLIENT CODE
 ORIG.           5" PRINT:   ORIGIN OF DATA
 UWI .       490251058500:   UNIQUE WELL ID
 DICO. A2D Technologies, Inc.:   DIGITIZING COMPANY
~OTHER INFORMATION
~A   DEPT      ILD        ILM        LL8        SPR       CALD       CORR       DPHI         GRD      RHOB   
# ...
  395.0000    35.5625    29.7356    33.0874   -25.9130     7.7873     0.1108     0.1542    56.7934     2.3450
  395.5000    33.1654    28.9270    33.0956   -25.5863     7.8032     0.0808     0.1878    58.4529     2.3030
  396.0000    31.5748    28.5314    31.9757   -24.5169     7.7741     0.0719     0.2145    59.9625     2.2873
  396.5000    30.2875    28.1418    30.4339   -23.9177     7.7601     0.0644     0.2181    61.4720     2.3128
  397.0000    29.0470    28.1442    29.2359   -23.7525     7.8210     0.0591     0.1956    62.9816     2.3397
  397.5000    27.9432    27.9522    28.8381   -24.1658     7.8818     0.0704     0.1827    64.6411     2.3698
  398.0000    27.3087    27.7617    28.8453   -24.6143     7.9276     0.0487     0.1794    65.5484     2.3616
  398.5000    26.5738    26.9759    28.8510   -24.8975     7.9734     0.0404     0.1778    63.7622     2.3556
  399.0000    25.9087    25.4981    28.8568   -25.1807     7.9892     0.0436     0.1757    62.7230     2.3646
  399.5000    25.2058    23.8520    28.6634   -25.5102     7.9752     0.0494     0.1704    61.9837     2.3563
  400.0000    24.5990    23.2030    27.3138   -25.7512     7.8264     0.0554     0.1615    63.1934     2.3657
  400.5000    24.0366    23.5289    26.3895   -25.5823     7.7971     0.0666     0.1467    64.5524     2.3820
  401.0000    23.3743    22.4218    25.1458   -25.4162     7.8276     0.0748     0.1377    65.3110     2.4017
  401.5000    22.5852    21.9641    24.2949   -25.3743     7.8881     0.0583     0.1563    66.5193     2.3963
  402.0000    21.9741    21.5164    23.6359   -25.2304     7.9037     0.0486     0.1683    68.6272     2.3775
  402.5000    21.3794    21.2240    22.5219   -25.2171     7.8891     0.0440     0.1722    68.0364     2.3651
  403.0000    20.9451    21.0815    21.7609   -25.2006     7.8899     0.0523     0.1704    66.3961     2.3728
  403.5000    20.6619    20.9385    21.7652   -25.1817     7.8905     0.0561     0.1647    65.3556     2.3833
  404.0000    20.5236    20.7978    21.3219   -25.4897     7.8911     0.0380     0.1620    64.4650     2.3810
  404.5000    20.5280    20.8007    21.3262   -25.7480     7.8917     0.0474     0.1671    63.7243     2.3788
  405.0000    20.5322    20.7019    21.3304   -25.8028     7.9222     0.0479     0.1659    63.1335     2.3758
  405.5000    20.5364    20.8064    21.4840   -26.0190     7.9527     0.0473     0.1704    62.8426     2.3728
  406.0000    20.6830    20.8092    21.6376   -26.2981     7.9683     0.0387     0.1770    63.7591     2.3607
  406.5000    20.8311    20.8475    21.7923   -26.4878     7.9538     0.0357     0.1815    64.6682     2.3532
  407.0000    20.8350    21.0343    21.7967   -26.7188     7.9545     0.0357     0.1845    64.8184     2.3472
  407.5000    20.8394    21.1127    21.8010   -26.8488     7.9851     0.0469     0.1788    64.2104     2.3652
  408.0000    20.8437    21.2569    21.8054   -27.2811     7.9557     0.0784     0.1635    64.4308     2.3892
  408.5000    20.8488    21.4071    22.2936   -27.4145     7.9114     0.0888     0.1542    65.4982     2.3930
  409.0000    20.9969    21.4101    22.4279   -27.3982     7.8820     0.0903     0.1618    66.6554     2.3757
  409.5000    21.0016    21.4130    22.5883   -27.3817     7.8527     0.0873     0.1708    65.4650     2.3674
  410.0000    21.1519    21.4164    22.4369   -27.3653     7.8383     0.0738     0.1759    65.7738     2.3607
  410.5000    20.9936    21.4194    21.9799   -27.3488     7.8239     0.0685     0.1757    66.6822     2.3577
  411.0000    20.8332    21.2741    21.8326   -27.3323     7.8994     0.0588     0.1737    66.0915     2.3667
  411.5000    20.5879    21.1309    22.0658   -27.3130     7.9464     0.0543     0.1677    65.6484     2.3757
  412.0000    20.5917    21.1343    23.0866   -27.3263     7.9774     0.0633     0.1590    65.8095     2.3862
  412.5000    20.4542    20.9261    22.6153   -27.6135     8.0060     0.0707     0.1548    66.7179     2.3940
  413.0000    20.3179    20.8494    22.3098   -27.8672     8.0067     0.0490     0.1647    67.9263     2.3809
  413.5000    20.3218    20.6921    21.8553   -27.9966     8.0072     0.0355     0.1737    68.5349     2.3696
  414.0000    20.2252    20.5690    21.4104   -28.1317     8.0078     0.0288     0.1764    68.9914     2.3606
  414.5000    20.0512    20.4247    21.2668   -28.2676     8.0085     0.0182     0.1812    66.3039     2.3509
  415.0000    19.9173    20.2923    20.6910   -28.2473     8.0240     0.0084     0.1866    64.5137     2.3419
  415.5000    19.7842    20.1454    20.2696   -28.3848     8.0246     0.0096     0.1887    63.6209     2.3435
  416.0000    19.6466    20.0194    20.1337   -28.6639     8.0251     0.0193     0.1713    64.5316     2.3571
  416.5000    19.2528    19.8509    20.1378   -28.7979     8.0257     0.0347     0.1611    65.8898     2.3731
  417.0000    19.1241    19.7500    20.1418   -28.7814     8.0264     0.0504     0.1512    66.6484     2.3891
  417.5000    18.9965    19.6480    19.9611   -28.7649     8.0269     0.0601     0.1500    66.6573     2.3560
  418.0000    18.9022    19.4843    19.7355   -28.7485     8.0276     0.0406     0.1515    67.1160     2.3366
  418.5000    18.8736    19.3407    19.7404   -28.7320     8.0281     0.0309     0.1518    66.5252     2.3238
  419.0000    18.8474    19.2223    19.6071   -28.7156     8.0288     0.0271     0.1521    65.6346     2.3365
  419.5000    18.7514    19.0926    19.6120   -28.6991     8.0293     0.0428     0.1569    64.5941     2.3643
  420.0000    18.7558    18.9529    19.6159   -28.6826     8.0300     0.0256     0.1629    64.0033     2.3815
  420.5000    18.7119    18.8355    19.6208   -28.6634     8.0305     0.0368     0.1689    64.0122     2.3703
  421.0000    18.5059    18.7087    19.6247   -28.6472     8.0312     0.0338     0.1749    64.1711     2.3605
  421.5000    18.5097    18.6996    19.6287   -28.6309     8.0318     0.0211     0.1831    64.3299     2.3515
  422.0000    18.3851    18.4573    19.6326   -28.7685     8.0172     0.0143     0.1896    64.6387     2.3448
  422.5000    18.3898    18.4596    19.5008   -28.7482     8.0030     0.0315     0.1762    65.4023     2.3643
  423.0000    18.2669    18.3352    19.2366   -28.7319     7.9886     0.0293     0.1707    67.3904     2.3687
  423.5000    18.3973    18.3375    19.2414   -28.8654     7.9834     0.0195     0.1752    69.3132     2.3635
  424.0000    18.2743    18.2133    19.2452   -28.8492     7.9898     0.0128     0.1782    65.0606     2.3590
  424.5000    18.2781    18.2166    19.3828   -29.1323     7.9904     0.0150     0.1668    63.7838     2.3552
  425.0000    18.4086    18.2189    19.5214   -29.4155     8.0060     0.0180     0.1533    64.1180     2.3680
  425.5000    18.5401    18.2214    19.6610   -29.5490     8.0068     0.0240     0.1350    63.0543     2.4272
  426.0000    18.8299    18.7346    20.2172   -29.6824     8.0227     0.0229     0.1098    61.1142     2.4820
  426.5000    19.9413    20.0775    20.8135   -29.8164     8.0377     0.0134     0.0866    59.6238     2.5060
  427.0000    22.0505    21.6811    22.5963   -30.1078     8.0233     0.0213     0.0737    58.2835     2.5255
  427.5000    24.4635    23.5833    25.9582   -30.3156     8.0065     0.0299     0.0647    56.9431     2.5442
  428.0000    25.8245    25.4519    28.4092   -30.3660     7.9648     0.0426     0.0548    56.0524     2.5607
  428.5000    28.1003    27.0729    30.6639   -30.3457     7.9336     0.0560     0.0458    57.4107     2.5757
  429.0000    30.5358    26.8567    32.4171   -30.3294     7.8911     0.0418     0.0671    59.0688     2.5480
  429.5000    32.0555    25.5727    33.3346   -30.1635     7.8616     0.0508     0.0896    60.8768     2.4992
  430.0000    29.5109    22.4467    30.8965   -29.6982     7.8323     0.0410     0.1026    62.6848     2.4647
  430.5000    24.4935    20.2395    23.4258   -29.3506     7.8029     0.0313     0.1248    64.4929     2.4119
  431.0000    21.3366    18.3759    20.4001   -29.0176     7.7886     0.0268     0.1425    66.1510     2.3849
