~VERSION INFORMATION
 VERS.                2.0:   CWLS LOG ASCII STANDARD - VERSION 2.0
 WRAP.                 NO:   ONE LINE PER DEPTH STEP
~WELL INFORMATION
#MNEM.UNIT      DATA TYPE    INFORMATION
#----------   ------------   ------------------------------
 STRT.F           16.0000:   START DEPTH
 STOP.F          474.0000:   STOP DEPTH
 STEP.F            0.5000:   STEP LENGTH
 NULL.          -999.2500:   NO VALUE
 COMP. FENIX & SCISSON INCORPORATED:   COMPANY
 WELL.    NPR #3 #58-SX-3:   WELL
 FLD .             TEAPOT:   FIELD
 LOC .       S3 T38N R78W:   LOCATION
 CNTY.            NATRONA:   COUNTY
 STAT.            WYOMING:   STATE
 CTRY. UNITED STATES OF AMERICA:   COUNTRY
 SRVC.           BIRDWELL:   SERVICE COMPANY
 DATE.        19-OCT-1978:   LOGDATE
 API .       490251072000:   API NUMBER
~CURVE INFORMATION
#MNEM.UNIT       API CODE    CURVE DESCRIPTION
#----------   ------------   ------------------------------
 DEPT.F                  :   
 CALD.IN     45 280 60 00:   CALIPER FROM DENSITY LOG
 CORR.G/C3   45 356 01 00:   DENSITY CORRECTION
 DPHI.DEC    45 890 12 00:   DENSITY POROSITY SANDSTONE
 GRD .GAPI   45 310 01 00:   GAMMA RAY FROM DENSITY LOG
 RHOB.G/C3   45 350 01 00:   BULK DENSITY
 ILD .OHMM   05 120 46 00:   INDUCTION LOG DEEP
 SN  .OHMM   05 040 16 00:   SHORT NORMAL 16"
 SPR .MV     05 010 01 00:   SPONTANEOUS POTENTIAL FROM RES.
~PARAMETER INFORMATION
#MNEM.UNIT          VALUE    DESCRIPTION
#----------   ------------   ------------------------------
 PD  .                 GL:   PERMANENT DATUM
 EPD .F              5198:   ELEVATION PERMANENT DATUM
 LMF .                 KB:   LOG MEASURED FROM
 DAPD.F                 4:   FEET ABOVE PERMANENT DATUM
 DMF .                 KB:   DRILLING MEASURED FROM
 EKB .F              5202:   KELLING BUSHING
 EGL .F              5198:   GROUND LEVEL
 DATE.        19-OCT-1978:   RUN DATE
 RUN .                  1:   RUN NUMBER
 DD  .F               474:   DEPTH DRILLER
 DL  .F               474:   DEPTH LOGGER
 BLI .F               474:   BOTTOM LOG INTERVAL
 TLI .F                30:   TOP LOG INTERVAL
 CBD .F                40:   CASING BOTTOM DRILLER
 CBL .F                38:   CASING BOTTOM LOGGER
 BS  .IN            7.875:   BIT SIZE
 BSD .F               474:   BIT SIZE AT DEPTH
 DFT .                KCL:   DRILLING FLUID TYPE
 DFD .                8.7:   DRILLING FLUID DENSITY
 DFV .                 38:   DRILLING FLUID VISCOSITY
 DFPH.                9.0:   DRILLING FLUID PH
 DFL .                 13:   DRILLING FLUID LOSS
 MSS .           FLOWLINE:   MUD SAMPLE SOURCE
 RMS .OHMM            .25:   RESISTIVITY MUD SAMPLE
 MST .F                58:   MUD SAMPLE TEMPERATURE
 RMF .OHMM             .2:   RESISTIVITY MUD FILTRATE SAMPLE
 MFST.F                60:   MUD FILTRATE SAMPLE TEMPERATURE
 RMC .OHMM            .24:   RESISTIVITY MUD CAKE
 MCST.F                60:   MUD CAKE SAMPLE TEMPERATURE
 MFSS.               MEAS:   MUD FILTRATE SAMPLE SOURCE
 MCSS.               MEAS:   MUD CAKE SAMPLE SOURCE
 RMB .OHMM            .23:   RESISTIVITY MUD AT BHT
 BHT .F                70:   BOTTOM HOLE TEMPERATURE
 TCS .HRS               3:   TIME CURCULATED STOPPED
 MRT .F                70:   MAXIMUM RECORDED TEMPERATURE
 LUN .               2958:   LOGGING UNIT NUMBER
 LUL .               CASP:   LOGGING UNIT LOCATION
 ENGI.           REYNOLDS:   RECORDING ENGINEER
 WITN.           DINSMORE:   WITNESSED BY
 CLNT.            A2DTECH:   CLIENT CODE
 ORIG.           5" PRINT:   ORIGIN OF DATA
 UWI .       490251072000:   UNIQUE WELL ID
 DICO. A2D Technologies, Inc.:   DIGITIZING COMPANY
~OTHER INFORMATION
~A   DEPT     CALD       CORR       DPHI         GRD      RHOB        ILD         SN        SPR   
# ...
  340.0000     7.9172     0.0145     0.1309    38.4035     2.4595    13.9160    10.7746   -37.5443
  340.5000     7.9167     0.0144     0.1309    38.1011     2.4640    13.7300    10.6301   -37.6740
  341.0000     7.9015     0.0144     0.1321    38.0940     2.4618    13.6388    10.5591   -37.8261
  341.5000     7.9010     0.0142     0.1356    38.3824     2.4566    13.5428    10.4883   -37.8304
  342.0000     7.9006     0.0129     0.1394    39.1236     2.4500    13.3677    10.4182   -37.8348
  342.5000     7.9001     0.0128     0.1418    39.9913     2.4439    13.3694    10.4188   -37.8400
  343.0000     7.8849     0.0128     0.1429    40.4291     2.4368    13.2802    10.4195   -37.6957
  343.5000     7.8845     0.0128     0.1444    40.7175     2.4339    13.2824    10.4203   -37.5536
  344.0000     7.8840     0.0128     0.1462    31.9937     2.4324    13.3215    10.4210   -42.1301
  344.5000     7.8836     0.0127     0.1485    27.7031     2.4354    13.4676    10.4217   -36.2347
  345.0000     7.8831     0.0136     0.1379    27.9897     2.4414    13.5674    10.4225   -33.1121
  345.5000     7.8827     0.0141     0.1375    31.6754     2.4494    13.7489    10.4232   -36.3909
  346.0000     7.8822     0.0156     0.1444    37.7244     2.4546    13.8444    10.4948   -36.5436
  346.5000     7.8966     0.0162     0.1493    38.6054     2.4369    14.0356    10.4955   -36.9903
  347.0000     7.8962     0.0184     0.1499    34.0175     2.4310    14.1331    10.5676   -37.4371
  347.5000     7.9104     0.0184     0.1484    31.3146     2.4311    14.1349    10.6402   -37.7364
  348.0000     7.9101     0.0184     0.1461    29.7181     2.4347    14.1368    10.6409   -38.0356
  348.5000     7.9244     0.0183     0.1431    35.1763     2.4392    14.0429    10.7142   -38.3349
  349.0000     7.9288     0.0183     0.1393    38.4206     2.4443    13.9502    10.7149   -38.4867
  349.5000     7.9383     0.0183     0.1369    36.4916     2.4488    13.8571    10.7156   -38.6395
  350.0000     7.9281     0.0182     0.1360    35.7459     2.4517    13.6722    10.7163   -38.6434
  350.5000     7.8930     0.0196     0.1390    37.4421     2.4510    13.3986    10.6446   -35.1068
  351.0000     7.8926     0.0297     0.1390    39.8657     2.4502    13.1300    10.1530   -39.5312
  351.5000     7.8933     0.0443     0.1319    41.3357     2.4487    12.9541    10.0857   -40.1222
  352.0000     7.9065     0.0573     0.1240    37.1927     2.4590    12.8684    10.0873   -37.7640
  352.5000     7.9060     0.0704     0.1219    34.2313     2.4737    12.7830    10.0203   -38.0607
  353.0000     7.9056     0.0837     0.1231    32.8948     2.4789    12.6981    10.0217   -39.2421
  353.5000     7.8903     0.0935     0.1225    31.7059     2.4803    12.6137    10.0233   -40.8659
  354.0000     7.8751     0.0993     0.1223    30.9601     2.4780    12.6158    10.0928   -43.0797
  354.5000     7.8599     0.1007     0.1264    30.8036     2.4721    12.6174    10.0941   -39.6887
  355.0000     7.8294     0.0860     0.1326    30.6487     2.4610    12.6194    10.1641   -39.9855
  355.5000     7.7825     0.0713     0.1498    30.4939     2.4426    12.7936    10.3045   -40.5768
  356.0000     7.7106     0.0566     0.1663    30.3390     2.4122    12.9703    10.4466   -38.9558
  356.5000     7.7101     0.0405     0.1746    30.0365     2.3843    14.0004    10.5906   -34.6268
  357.0000     7.7245     0.0269     0.1864    31.2110     2.3651    15.5855    10.8872   -33.5014
  357.5000     7.7390     0.0155     0.1858    35.0443     2.3658    17.7347    11.4142   -33.3552
  358.0000     7.7532     0.0125     0.1773    37.8631     2.3724    20.3178    11.8095   -39.8467
  358.5000     7.7676     0.0124     0.1723    37.2439     2.3842    23.6108    12.3852   -40.1431
  359.0000     7.7903     0.0123     0.1676    35.7596     2.4077    27.2173    13.0775   -39.8494
  359.5000     7.8025     0.0122     0.1517    34.2754     2.4246    29.9364    13.9974   -40.1462
  360.0000     7.8255     0.0121     0.1522    32.6434     2.4364    32.4828    14.7798   -44.8673
  360.5000     7.8397     0.0120     0.1735    31.6023     2.4327    34.5348    15.3956   -34.2079
  361.0000     7.8541     0.0135     0.2010    30.7089     2.4083    35.0117    15.9287   -30.4162
  361.5000     7.8537     0.0148     0.2163    30.1108     2.3624    33.1653    16.7058   -29.6801
  362.0000     7.8750     0.0168     0.2184    30.3974     2.3287    30.9914    17.2842   -29.5337
  362.5000     7.8824     0.0190     0.2164    33.6399     2.3191    29.1573    17.6418   -29.5354
  363.0000     7.8880     0.0218     0.2158    35.9961     2.3249    28.3795    17.8850   -29.5369
  363.5000     7.8963     0.0246     0.2173    34.9550     2.3293    28.3840    18.0091   -29.6860
  364.0000     7.8958     0.0289     0.2185    31.8459     2.3242    28.1952    18.0119   -29.7404
  364.5000     7.8954     0.0318     0.2164    31.2479     2.3181    28.1990    18.0140   -29.8363
  365.0000     7.8949     0.0361     0.2073    34.7858     2.3315    28.1933    18.0164   -29.9855
  365.5000     7.8945     0.0374     0.1961    36.2558     2.3476    28.0154    18.0189   -29.9869
  366.0000     7.8941     0.0373     0.1941    34.0312     2.3594    28.0199    17.8995   -29.9883
  366.5000     7.8936     0.0343     0.1962    33.4332     2.3653    28.0233    17.9022   -30.1372
  367.0000     7.8931     0.0313     0.1997    33.8692     2.3601    28.0271    17.7829   -30.1389
  367.5000     7.9075     0.0254     0.2033    34.3052     2.3446    28.0316    17.6616   -30.1403
  368.0000     7.9071     0.0224     0.2027    34.4475     2.3401    28.2263    17.5485   -30.2892
  368.5000     7.9067     0.0179     0.2021    32.8138     2.3416    28.2299    17.4323   -30.2906
  369.0000     7.9062     0.0149     0.2004    32.0680     2.3445    28.0424    17.3164   -30.2920
  369.5000     7.9058     0.0134     0.1980    31.7637     2.3496    27.8561    17.1623   -30.4412
  370.0000     7.9053     0.0133     0.1916    31.9061     2.3564    27.4847    17.0881   -30.2948
  370.5000     7.9048     0.0132     0.1674    31.4540     2.3695    27.1164    17.0907   -30.2965
  371.0000     7.9044     0.0131     0.1302    30.5606     2.4240    26.7548    16.9772   -30.2979
  371.5000     7.8892     0.0130     0.1111    29.3718     2.4836    26.7591    16.9229   -30.2996
  372.0000     7.8887    -0.0090     0.1167    27.2967     2.4969    26.9450    16.8670   -30.1535
  372.5000     7.8883    -0.0193     0.1271    26.1078     2.4791    27.1321    16.8696   -30.3024
  373.0000     7.8879    -0.0041     0.1480    27.6170     2.4378    27.5067    16.6445   -30.2980
  373.5000     7.9022     0.0097     0.1763    29.3414     2.3899    27.8866    16.6199   -30.1577
  374.0000     7.9017     0.0170     0.1955    30.9590     2.3678    28.0811    16.4249   -31.9294
  374.5000     7.9013     0.0213     0.1988    32.4290     2.3574    28.4688    16.4267   -31.9308
  375.0000     7.9008     0.0212     0.1991    33.7513     2.3530    28.8619    16.4291   -31.6372
  375.5000     7.9004     0.0211     0.1991    35.6643     2.3500    29.6606    16.3202   -31.4911
  376.0000     7.9000     0.0210     0.1992    46.4401     2.3514    27.9062    16.2119   -31.4928
  376.5000     7.8995     0.0209     0.1989    47.3192     2.3536    26.7952    15.8880   -31.4942
  377.0000     7.8991     0.0179     0.1992    38.4476     2.3551    25.5543    15.6759   -31.6431
  377.5000     7.8987     0.0170     0.2007    34.1569     2.3521    24.0393    15.2583   -31.9398
  378.0000     7.8982     0.0156     0.2025    31.9341     2.3454    23.5601    14.9529   -32.3837
  378.5000     7.8978     0.0147     0.2093    30.7452     2.3394    23.5639    14.7538   -32.6801
  379.0000     7.8973     0.0161     0.2131    31.0353     2.3262    24.0520    14.5569   -32.6814
  379.5000     7.8969     0.0175     0.1960    31.3220     2.3350    24.5503    14.5587   -32.2407
  380.0000     7.8965     0.0174     0.1887    31.7578     2.3483    24.0590    14.3645   -31.7996
