~VERSION INFORMATION
 VERS.                2.0:   CWLS LOG ASCII STANDARD - VERSION 2.0
 WRAP.                 NO:   ONE LINE PER DEPTH STEP
~WELL INFORMATION
#MNEM.UNIT      DATA TYPE    INFORMATION
#----------   ------------   ------------------------------
 STRT.F           29.0000:   START DEPTH
 STOP.F          720.0000:   STOP DEPTH
 STEP.F            0.5000:   STEP LENGTH
 NULL.          -999.2500:   NO VALUE
 COMP.    FENIX & SCISSON:   COMPANY
 WELL. RES 3 TEAPOT DOM #21-S-14:   WELL
 FLD .        TEAPOT DOME:   FIELD
 LOC .      S14 T38N R78W:   LOCATION
 CNTY.            NATRONA:   COUNTY
 STAT.            WYOMING:   STATE
 CTRY. UNITED STATES OF AMERICA:   COUNTRY
 SRVC.            Unknown:   SERVICE COMPANY
 DATE.        25-MAY-1978:   LOGDATE
 API .       490251063300:   API NUMBER
~CURVE INFORMATION
#MNEM.UNIT       API CODE    CURVE DESCRIPTION
#----------   ------------   ------------------------------
 DEPT.F                  :   
 CALD.IN     45 280 60 00:   CALIPER FROM DENSITY LOG
 CORR.G/C3   45 356 01 00:   DENSITY CORRECTION
 DPHI.DEC    45 890 12 00:   DENSITY POROSITY SANDSTONE
 GRD .GAPI   45 310 01 00:   GAMMA RAY FROM DENSITY LOG
 RHOB.G/C3   45 350 01 00:   BULK DENSITY
 ILD .OHMM   05 120 46 00:   INDUCTION LOG DEEP
 SN  .OHMM   05 040 16 00:   SHORT NORMAL 16"
 SPR .MV     05 010 01 00:   SPONTANEOUS POTENTIAL FROM RES.
~PARAMETER INFORMATION
#MNEM.UNIT          VALUE    DESCRIPTION
#----------   ------------   ------------------------------
 PD  .                 GL:   PERMANENT DATUM
 EPD .F              5232:   ELEVATION PERMANENT DATUM
 LMF .                 KB:   LOG MEASURED FROM
 DAPD.F                 4:   FEET ABOVE PERMANENT DATUM
 DMF .                 KB:   DRILLING MEASURED FROM
 EKB .F              5236:   KELLING BUSHING
 EGL .F              5232:   GROUND LEVEL
 DATE.        25-MAY-1978:   RUN DATE
 RUN .                  1:   RUN NUMBER
 DD  .F               716:   DEPTH DRILLER
 DL  .F               727:   DEPTH LOGGER
 BLI .F               720:   BOTTOM LOG INTERVAL
 TLI .F                44:   TOP LOG INTERVAL
 CS  .IN            8.625:   CASING SIZE
 CBD .F                40:   CASING BOTTOM DRILLER
 CBL .F                44:   CASING BOTTOM LOGGER
 BS  .IN            7.875:   BIT SIZE
 BSD .F               716:   BIT SIZE AT DEPTH
 DFT .                KCL:   DRILLING FLUID TYPE
 DFD .                8.6:   DRILLING FLUID DENSITY
 DFV .                 31:   DRILLING FLUID VISCOSITY
 DFPH.                9.5:   DRILLING FLUID PH
 DFL .               10.8:   DRILLING FLUID LOSS
 MSS .            MUD PIT:   MUD SAMPLE SOURCE
 RMS .OHMM           0.32:   RESISTIVITY MUD SAMPLE
 MST .F                82:   MUD SAMPLE TEMPERATURE
 RMF .OHMM           0.34:   RESISTIVITY MUD FILTRATE SAMPLE
 MFST.F                72:   MUD FILTRATE SAMPLE TEMPERATURE
 RMC .OHMM            0.8:   RESISTIVITY MUD CAKE
 MCST.F                72:   MUD CAKE SAMPLE TEMPERATURE
 MFSS.               MEAS:   MUD FILTRATE SAMPLE SOURCE
 RMB .OHMM           0.35:   RESISTIVITY MUD AT BHT
 BHT .F                74:   BOTTOM HOLE TEMPERATURE
 TCS .HRS               1:   TIME CURCULATED STOPPED
 MRT .F                74:   MAXIMUM RECORDED TEMPERATURE
 LUN .               2958:   LOGGING UNIT NUMBER
 LUL .               CASP:   LOGGING UNIT LOCATION
 ENGI.             MILLER:   RECORDING ENGINEER
 WITN.           MCGINLEY:   WITNESSED BY
 CLNT.            A2DTECH:   CLIENT CODE
 ORIG.           5" PRINT:   ORIGIN OF DATA
 UWI .       490251063300:   UNIQUE WELL ID
 DICO. A2D Technologies, Inc.:   DIGITIZING COMPANY
~OTHER INFORMATION
~A   DEPT     CALD       CORR       DPHI         GRD      RHOB        ILD         SN        SPR   
# ...
  596.0000     7.3029     0.0310     0.1524    63.2907     2.4256    11.0141    10.1307   -22.4402
  596.5000     7.3046     0.0165     0.1580    60.4723     2.4174    10.9493    10.1388   -22.5746
  597.0000     7.3064     0.0063     0.1597    57.9524     2.4108    10.8806    10.0751   -22.7091
  597.5000     7.3081     0.0034     0.1552    57.5220     2.4086    10.8915    10.0158   -22.8435
  598.0000     7.3099     0.0097     0.1495    62.1706     2.4110    10.9002    10.0238   -22.9779
  598.5000     7.3266     0.0159     0.1468    63.3821     2.4201    10.9090    10.0318   -23.1123
  599.0000     7.3283     0.0161     0.1455    63.3995     2.4261    10.9179    10.0400   -23.0943
  599.5000     7.3301     0.0163     0.1437    62.8199     2.4292    10.9287    10.0500   -22.9311
  600.0000     7.3318     0.0165     0.1392    62.2807     2.4318    10.9380    10.0560   -22.9167
  600.5000     7.3411     0.0122     0.1439    61.6577     2.4339    10.9726    10.0317   -23.1955
  601.0000     7.3500     0.0034     0.1457    61.8267     2.4318    11.0071    10.0092   -23.7738
  601.5000     7.3664     0.0067     0.1453    62.8874     2.4296    11.0445     9.9866   -24.0536
  602.0000     7.3679     0.0084     0.1453    64.6943     2.4305    11.0549     9.9641   -24.0357
  602.5000     7.3693     0.0101     0.1438    65.0047     2.4313    11.0653    10.0377   -24.0145
  603.0000     7.4007     0.0133     0.1428    64.0994     2.4322    11.0757    10.0472   -23.9971
  603.5000     7.4021     0.0136     0.1482    63.9930     2.4285    11.0099     9.9850   -23.6821
  604.0000     7.6021     0.0168     0.1478    64.1620     2.4256    11.0992     9.9968   -23.3671
  604.5000     7.9235     0.0200     0.1475    65.0734     2.4280    11.1096    10.0062   -23.3497
  605.0000     8.0047     0.0217     0.1453    64.6318     2.4281    11.0436    10.0851   -23.3323
  605.5000     7.9763     0.0264     0.1429    63.7658     2.4304    11.0540    10.0946   -23.3149
  606.0000     7.8731     0.0281     0.1489    63.9309     2.4312    11.0644    10.1041   -23.1488
  606.5000     7.7400     0.0238     0.1501    64.5438     2.4269    10.9961    10.1138   -23.1310
  607.0000     7.7415     0.0256     0.1488    64.5597     2.4255    10.9333    10.1957   -22.9608
  607.5000     7.7130     0.0274     0.1482    64.5756     2.4256    10.8683    10.2053   -22.9435
  608.0000     7.5626     0.0306     0.1437    64.5914     2.4256    10.7295    10.2149   -23.0792
  608.5000     7.4917     0.0338     0.1380    64.4580     2.4287    10.6657    10.2246   -23.0575
  609.0000     7.6878     0.0370     0.1400    66.1196     2.4393    10.6024    10.2342   -23.1889
  609.5000     7.7192     0.0402     0.1367    68.8221     2.4409    10.6148    10.2438   -23.1716
  610.0000     7.7057     0.0434     0.1316    74.2111     2.4447    10.5493    10.1826   -23.1542
  610.5000     7.5576     0.0466     0.1300    80.7941     2.4478    10.5617    10.1925   -22.6904
  611.0000     7.2900     0.0453     0.1408    81.2577     2.4487    10.5716    10.2023   -22.2262
  611.5000     7.2764     0.0330     0.1455    80.8258     2.4488    10.6548    10.2849   -21.9072
  612.0000     7.3079     0.0129     0.1486    80.2409     2.4317    10.7387    10.2946   -21.5922
  612.5000     7.3097     0.0146     0.1514    79.9129     2.4250    10.9046    10.3757   -21.4260
  613.0000     7.3261     0.0193     0.1475    77.1460     2.4251    11.1391    10.4575   -21.2598
  613.5000     7.3574     0.0255     0.1469    75.0723     2.4267    11.3045    10.6130   -21.2425
  614.0000     7.3888     0.0198     0.1550    74.1927     2.4238    11.5518    10.9207   -20.9275
  614.5000     7.4201     0.0095     0.1780    74.3578     2.3903    12.0513    11.2373   -20.6125
  615.0000     7.4216     0.0162     0.1802    74.3737     2.3761    12.8354    11.7240   -20.2975
  615.5000     7.4230     0.0399     0.1784    73.4774     2.3732    13.5765    12.3299   -19.9821
  616.0000     7.4072     0.0701     0.1598    63.4114     2.3718    14.4598    13.4900   -19.6631
  616.5000     7.2917     0.0822     0.1577    57.1118     2.4071    16.2744    14.6699   -19.4969
  617.0000     7.1138     0.0406     0.1601    56.2282     2.4319    17.9602    15.5183   -19.3351
  617.5000     6.8313     0.0318     0.1801    56.5465     2.4223    19.2457    15.9682   -19.4665
  618.0000     6.7576     0.0365     0.2002    58.8012     2.3872    20.0780    16.0940   -19.4448
  618.5000     7.0285     0.0412     0.2108    61.3543     2.3544    20.2360    16.1092   -19.4274
  619.0000     7.1495     0.0430     0.2122    63.1612     2.3260    20.1158    16.0133   -19.5595
  619.5000     7.1510     0.0402     0.2170    63.6249     2.3172    19.5866    16.0284   -19.5415
  620.0000     7.2125     0.0360     0.2110    61.2566     2.3158    18.8101    15.9330   -19.5238
  620.5000     7.3485     0.0452     0.2065    57.8397     2.3084    18.1894    15.8382   -19.5060
  621.0000     7.4546     0.0573     0.1905    57.7023     2.3235    18.0811    15.7477   -19.4850
  621.5000     7.4859     0.0695     0.1775    58.4684     2.3505    18.0986    15.6503   -19.4676
  622.0000     7.5173     0.0802     0.1758    61.0216     2.3902    17.9908    15.4501   -19.5990
  622.5000     7.4888     0.0606     0.1824    64.9194     2.4015    17.8881    15.0466   -19.5817
  623.0000     7.4753     0.0522     0.1845    64.7860     2.3725    17.9049    14.8506   -19.5643
  623.5000     7.4785     0.0585     0.1895    64.6522     2.3628    17.7943    14.5630   -19.5469
  624.0000     7.5533     0.0587     0.1987    65.4229     2.3570    17.4462    14.3767   -19.6786
  624.5000     7.5847     0.0559     0.2038    65.7331     2.3369    16.8745    14.0950   -19.6607
  625.0000     7.5562     0.0502     0.2085    65.7489     2.3287    16.5437    13.9147   -19.6429
  625.5000     7.5274     0.0444     0.2040    64.8693     2.3243    16.1092    13.7367   -19.6219
  626.0000     7.4990     0.0553     0.1947    64.2841     2.3222    15.6854    13.5609   -19.7576
  626.5000     7.5157     0.0569     0.1938    66.6920     2.3485    15.4850    13.3874   -19.8891
  627.0000     7.5022     0.0571     0.1910    70.5885     2.3486    15.5032    13.2161   -19.8673
  627.5000     7.5037     0.0573     0.1892    72.9925     2.3517    15.4075    13.0501   -19.8500
  628.0000     7.5055     0.0650     0.1816    68.3854     2.3555    15.5324    13.0624   -19.8326
  628.5000     7.4916     0.0428     0.1972    61.0878     2.3646    15.5470    12.8952   -19.8152
  629.0000     7.4934     0.0235     0.2011    56.6260     2.3526    15.4510    12.9075   -19.7976
  629.5000     7.4796     0.0222     0.1968    56.0449     2.3408    15.3622    12.9200   -19.7798
  630.0000     7.4814     0.0375     0.1920    56.2100     2.3462    15.3773    12.9347   -19.7587
  630.5000     7.4529     0.0406     0.1878    57.2707     2.3515    15.1808    12.8547   -19.7413
  631.0000     7.4544     0.0334     0.1913    57.7364     2.3531    14.9869    12.7783   -19.7240
  631.5000     7.4711     0.0231     0.1910    58.9327     2.3524    15.0045    12.6177   -19.7066
  632.0000     7.4875     0.0203     0.1784    64.4864     2.3570    14.8128    12.6296   -19.8424
  632.5000     7.4890     0.0266     0.1844    62.7112     2.3633    14.7248    12.7292   -19.8206
  633.0000     7.4755     0.0208     0.1924    62.7271     2.3714    14.6339    12.6532   -19.8033
  633.5000     7.4470     0.0120     0.1846    62.5937     2.3573    14.3509    12.6654   -19.9347
  634.0000     7.4485     0.0288     0.1780    61.7140     2.3514    14.0702    12.6777   -19.9167
  634.5000     7.5097     0.0274     0.1756    60.8343     2.3740    13.8904    12.5151   -20.1932
  635.0000     7.5710     0.0217     0.1728    61.0000     2.3785    13.8079    12.3578   -20.1758
  635.5000     7.5575     0.0204     0.1743    61.9148     2.3809    13.7259    12.1968   -20.1584
  636.0000     7.5141     0.0207     0.1742    66.1098     2.3810    13.7420    12.0408   -20.1411
