~VERSION INFORMATION
 VERS.                2.0:   CWLS LOG ASCII STANDARD - VERSION 2.0
 WRAP.                 NO:   ONE LINE PER DEPTH STEP
~WELL INFORMATION
#MNEM.UNIT      DATA TYPE    INFORMATION
#----------   ------------   ------------------------------
 STRT.F           86.0000:   START DEPTH
 STOP.F          708.0000:   STOP DEPTH
 STEP.F            0.5000:   STEP LENGTH
 NULL.          -999.2500:   NO VALUE
 COMP. U S NAVY/INTEX OIL CO:   COMPANY
 WELL.      33 S-11 #3-11:   WELL
 FLD .             TEAPOT:   FIELD
 LOC .      S11 T38N R78W:   LOCATION
 CNTY.            NATRONA:   COUNTY
 STAT.            WYOMING:   STATE
 CTRY. UNITED STATES OF AMERICA:   COUNTRY
 SRVC.       Schlumberger:   SERVICE COMPANY
 DATE.        11-JUL-1962:   LOGDATE
 API .       490250636000:   API NUMBER
~CURVE INFORMATION
#MNEM.UNIT       API CODE    CURVE DESCRIPTION
#----------   ------------   ------------------------------
 DEPT.F                  :   
 SPR .MV     05 010 01 00:   SPONTANEOUS POTENTIAL FROM RES.
 CILD.MMHO   05 110 46 00:   CONDUCTIVITY INDUCTION LOG DEEP
 ILD .OHMM   05 120 46 00:   INDUCTION LOG DEEP
 ASN .OHMM   05 041 16 00:   AMPLIFIED SHORT NORMAL 16"
 GR  .GAPI   30 310 01 00:   GAMMA RAY
~PARAMETER INFORMATION
#MNEM.UNIT          VALUE    DESCRIPTION
#----------   ------------   ------------------------------
 PD  .                 GL:   PERMANENT DATUM
 EPD .F              5171:   ELEVATION PERMANENT DATUM
 LMF .                 KB:   LOG MEASURED FROM
 DAPD.F                 5:   FEET ABOVE PERMANENT DATUM
 DMF .                 KB:   DRILLING MEASURED FROM
 EKB .F              5176:   KELLING BUSHING
 EGL .F              5171:   GROUND LEVEL
 DATE.            7-11-62:   RUN DATE
 RUN .                  1:   RUN NUMBER
 DD  .F               710:   DEPTH DRILLER
 DL  .F               709:   DEPTH LOGGER
 BLI .F               708:   BOTTOM LOG INTERVAL
 TLI .F                86:   TOP LOG INTERVAL
 BS  .IN             6.75:   BIT SIZE
 BSD .F               710:   BIT SIZE AT DEPTH
 DFT .            GEL/OIL:   DRILLING FLUID TYPE
 DFD .               10.3:   DRILLING FLUID DENSITY
 DFV .                 50:   DRILLING FLUID VISCOSITY
 DFL .                3.7:   DRILLING FLUID LOSS
 RMS .OHMM           5.66:   RESISTIVITY MUD SAMPLE
 MST .F                77:   MUD SAMPLE TEMPERATURE
 RMF .OHMM           4.44:   RESISTIVITY MUD FILTRATE SAMPLE
 MFST.F                77:   MUD FILTRATE SAMPLE TEMPERATURE
 RMC .OHMM            5.9:   RESISTIVITY MUD CAKE
 MCST.F                77:   MUD CAKE SAMPLE TEMPERATURE
 TCS .HRS               1:   TIME CURCULATED STOPPED
 LUN .               2503:   LOGGING UNIT NUMBER
 LUL .               CSPR:   LOGGING UNIT LOCATION
 ENGI.             DANNER:   RECORDING ENGINEER
 WITN.          JORGENSEN:   WITNESSED BY
 CLNT.            A2DTECH:   CLIENT CODE
 ORIG.       2", 5" PRINT:   ORIGIN OF DATA
 UWI .       490250636000:   UNIQUE WELL ID
 DICO. A2D Technologies, Inc.:   DIGITIZING COMPANY
~OTHER INFORMATION
~A   DEPT      SPR        CILD         ILD        ASN       GR   
# ...
  269.0000   -57.0475   140.7985     7.1212     7.2416  -999.2500
  269.5000   -56.8172   140.2584     7.1212     7.1876  -999.2500
  270.0000   -56.7693   139.7182     7.1212     7.1321  -999.2500
  270.5000   -57.0500   139.1781     7.1212     7.2278  -999.2500
  271.0000   -57.3064   138.6380     7.1212     7.3248  -999.2500
  271.5000   -57.3204   138.0978     7.1212     7.3480  -999.2500
  272.0000   -56.8002   136.2857     7.1211     7.3604  -999.2500
  272.5000   -56.7215   134.8196     7.1212     7.3722  -999.2500
  273.0000   -56.7196   133.3535     7.1305     7.3835  -999.2500
  273.5000   -56.6743   132.6676     7.1772     7.3745  -999.2500
  274.0000   -56.4609   132.4173     7.2228     7.3810  -999.2500
  274.5000   -56.2542   132.1670     7.2683     7.4229  -999.2500
  275.0000   -56.1020   131.9167     7.3139     7.3997  -999.2500
  275.5000   -56.1510   131.6664     7.3594     7.3957  -999.2500
  276.0000   -56.7777   131.4161     7.4049     7.4981  -999.2500
  276.5000   -57.5019   131.1658     7.4504     7.5882  -999.2500
  277.0000   -57.5346   130.9155     7.4959     7.5862  -999.2500
  277.5000   -57.4748   130.2755     7.5415     7.5852  -999.2500
  278.0000   -57.4193   129.3425     7.5870     7.6554  -999.2500
  278.5000   -57.3650   127.9952     7.6325     7.7792  -999.2500
  279.0000   -57.3107   126.0404     7.6780     7.8112  -999.2500
  279.5000   -57.2565   124.0856     7.7235     7.8373  -999.2500
  280.0000   -57.2023   122.1275     7.7691     7.8615  -999.2500
  280.5000   -57.1475   120.6413     7.8146     7.9912  -999.2500
  281.0000   -57.1286   120.4214     7.8601     8.1342  -999.2500
  281.5000   -57.1282   120.2003     7.9056     8.2773  -999.2500
  282.0000   -57.1283   119.9772     7.9511     8.4332  -999.2500
  282.5000   -57.1283   119.7541     7.9967     8.3768  -999.2500
  283.0000   -57.1283   119.5310     8.0422     8.3126  -999.2500
  283.5000   -57.1283   119.3079     8.0877     8.2499  -999.2500
  284.0000   -57.1283   119.0848     8.1332     8.2323  -999.2500
  284.5000   -57.1286   118.8617     8.1786     8.2451  -999.2500
  285.0000   -57.1243   118.5017     8.2232     8.2692  -999.2500
  285.5000   -57.1136   117.6465     8.2851     8.4264  -999.2500
  286.0000   -57.3698   116.7913     8.3680     8.5894  -999.2500
  286.5000   -57.6721   114.2755     8.5281     8.7524  -999.2500
  287.0000   -57.9669   111.4766     8.6844     8.9156  -999.2500
  287.5000   -58.1475   108.6712     8.8406     9.0783  -999.2500
  288.0000   -58.1950   105.8966     8.9967     9.2372  -999.2500
  288.5000   -58.2561   103.8083     9.1529     9.3253  -999.2500
  289.0000   -58.3160   102.4606     9.3091     9.4172  -999.2500
  289.5000   -58.3528   101.0923     9.4656     9.5098  -999.2500
  290.0000   -58.2043    99.7239     9.6212     9.6209  -999.2500
  290.5000   -57.9844    98.3556     9.7525     9.8291  -999.2500
  291.0000   -57.7686    96.9872     9.8094     9.9628  -999.2500
  291.5000   -57.5322    95.6189     9.8716    10.2849  -999.2500
  292.0000   -57.2382    94.2505     9.9338    10.7491  -999.2500
  292.5000   -56.9421    92.8821     9.9961    10.8502  -999.2500
  293.0000   -57.2371    92.8097    10.0583    10.9586  -999.2500
  293.5000   -57.5835    93.3891    10.1210    10.9292  -999.2500
  294.0000   -57.9293    93.9679    10.1508    10.8643  -999.2500
  294.5000   -58.2724    94.5477    10.0422    10.8024  -999.2500
  295.0000   -58.5365    95.1271     9.9212    10.7577  -999.2500
  295.5000   -58.3732    95.7064     9.8003    10.8087  -999.2500
  296.0000   -58.2166    96.2858     9.6795    10.0562  -999.2500
  296.5000   -58.0627    96.8651     9.5586     9.8402  -999.2500
  297.0000   -57.9766    97.4444     9.4380     9.7353  -999.2500
  297.5000   -58.1690    98.0238     9.3326     9.6709  -999.2500
  298.0000   -58.3974    98.6031     9.2893     9.6978  -999.2500
  298.5000   -58.5214    99.1825     9.2451     9.6842  -999.2500
  299.0000   -58.4000    99.4949     9.2008     9.6328  -999.2500
  299.5000   -58.2751    99.4949     9.1564     9.5812  -999.2500
  300.0000   -58.1512   100.1133     9.1121     9.5771  -999.2500
  300.5000   -58.0277   101.0108     9.0677     9.6002  -999.2500
  301.0000   -57.9042   101.9084     9.0234     9.5808  -999.2500
  301.5000   -57.7807   102.8059     8.9790     9.4950  -999.2500
  302.0000   -57.6571   103.7034     8.9347     9.4092  -999.2500
  302.5000   -57.5334   104.6009     8.8904     9.3602  -999.2500
  303.0000   -57.4104   105.5556     8.8460     9.2849  -999.2500
  303.5000   -57.3338   105.3996     8.8017     9.2107  -999.2500
  304.0000   -57.4646   105.2330     8.7571     9.1471  -999.2500
  304.5000   -57.6027   105.0664     8.7377     9.0963  -999.2500
  305.0000   -57.7360   104.8998     8.7373     9.0612  -999.2500
  305.5000   -57.6692   104.7332     8.7373     9.0721  -999.2500
  306.0000   -57.5545   104.5667     8.7374     9.1187  -999.2500
  306.5000   -57.6082   104.4001     8.7374     9.2203  -999.2500
  307.0000   -57.9805   104.2335     8.7374     9.3066  -999.2500
  307.5000   -58.3460   104.0669     8.7374     9.2464  -999.2500
  308.0000   -58.7115   103.9003     8.7375     9.1735  -999.2500
  308.5000   -58.7466   103.7337     8.7382     9.0986  -999.2500
  309.0000   -58.4787   103.5671     8.7337     9.0394  -999.2500
  309.5000   -58.2122   104.0492     8.6163     8.9707  -999.2500
  310.0000   -57.9482   105.3603     8.4946     8.9520  -999.2500
  310.5000   -57.6845   109.0862     8.3738     8.9341  -999.2500
  311.0000   -57.4205   112.8103     8.2559     8.9163  -999.2500
  311.5000   -57.1564   116.5383     8.0550     8.8136  -999.2500
  312.0000   -56.8949   120.2651     7.8421     8.6494  -999.2500
  312.5000   -56.7207   123.9899     7.6287     8.4015  -999.2500
  313.0000   -56.8602   127.3218     7.4155     8.1550  -999.2500
  313.5000   -57.0072   129.4993     7.2027     7.9083  -999.2500
  314.0000   -57.1545   131.6768     6.9858     7.7031  -999.2500
  314.5000   -57.3014   132.8283     6.9965     7.6036  -999.2500
  315.0000   -57.4484   132.8283     7.1023     7.5457  -999.2500
  315.5000   -57.5954   132.0854     7.2855     7.5368  -999.2500
  316.0000   -57.7423   129.4724     7.4729     7.6255  -999.2500
  316.5000   -57.8903   126.8595     7.6604     7.9842  -999.2500
  317.0000   -57.9443   124.2465     7.8476     8.3738  -999.2500
  317.5000   -57.8091   121.6335     8.0350     8.3647  -999.2500
  318.0000   -57.6053   119.0205     8.2225     8.3159  -999.2500
  318.5000   -57.3989   116.4075     8.4071     8.4287  -999.2500
  319.0000   -57.1931   114.3232     8.5190     8.6532  -999.2500
  319.5000   -56.9888   113.9502     8.4567     8.7449  -999.2500
  320.0000   -57.1199   114.8955     8.3981     8.6631  -999.2500
  320.5000   -57.5172   115.8407     8.3389     8.5798  -999.2500
  321.0000   -57.5189   116.7860     8.2798     8.5247  -999.2500
  321.5000   -57.3514   117.7313     8.2207     8.4337  -999.2500
  322.0000   -57.1843   118.6765     8.1616     8.4013  -999.2500
  322.5000   -57.0183   119.6218     8.1023     8.4461  -999.2500
  323.0000   -56.8520   120.5671     8.0411     8.3892  -999.2500
  323.5000   -56.6842   121.5123     8.0627     8.2757  -999.2500
  324.0000   -56.5273   120.5801     8.1043     8.2479  -999.2500
  324.5000   -56.6835   119.1284     8.1462     8.3361  -999.2500
  325.0000   -56.8547   117.6768     8.1880     8.4241  -999.2500
  325.5000   -56.7582   116.2251     8.2298     8.5123  -999.2500
  326.0000   -56.3477   114.7735     8.2716     8.6009  -999.2500
  326.5000   -56.1599   113.3218     8.3133     8.6427  -999.2500
  327.0000   -56.4258   111.8701     8.3551     8.6809  -999.2500
  327.5000   -56.6852   110.4185     8.3968     8.7687  -999.2500
  328.0000   -56.6086   109.5108     8.4386     8.8596  -999.2500
  328.5000   -56.5969   109.1479     8.4804     8.9496  -999.2500
  329.0000   -56.9536   108.7850     8.5221     9.0002  -999.2500
  329.5000   -57.2930   108.4213     8.5640     9.0173  -999.2500
