~VERSION INFORMATION
 VERS.                2.0:   CWLS LOG ASCII STANDARD - VERSION 2.0
 WRAP.                 NO:   ONE LINE PER DEPTH STEP
~WELL INFORMATION
#MNEM.UNIT      DATA TYPE    INFORMATION
#----------   ------------   ------------------------------
 STRT.F          660.0000:   START DEPTH
 STOP.F         2899.5000:   STOP DEPTH
 STEP.F            0.5000:   STEP LENGTH
 NULL.          -999.2500:   NO VALUE
 COMP. LAWRENCE/ALLISON INC:   COMPANY
 WELL. NPR #3 22 X 10 #22-10:   WELL
 FLD .             TEAPOT:   FIELD
 LOC .      S10 T38N R78W:   LOCATION
 CNTY.            NATRONA:   COUNTY
 STAT.            WYOMING:   STATE
 CTRY. UNITED STATES OF AMERICA:   COUNTRY
 SRVC.            Unknown:   SERVICE COMPANY
 DATE.        11-SEP-1986:   LOGDATE
 API .       490251106200:   API NUMBER
~CURVE INFORMATION
#MNEM.UNIT       API CODE    CURVE DESCRIPTION
#----------   ------------   ------------------------------
 DEPT.F                  :   
 ROP .MIN/FT 91 810 01 00:   RATE OF DRILLING PENETRATION
 TGAS.UNITS  91 830 01 00:   TOTAL GAS FROM HOTWIRE
~PARAMETER INFORMATION
#MNEM.UNIT          VALUE    DESCRIPTION
#----------   ------------   ------------------------------
 DATE.          9-11-1986:   RUN DATE
 DD  .F              2900:   DEPTH DRILLER
 TLI .F              1380:   TOP LOG INTERVAL
 WITN. R. HUSK/K. FREDERICK:   WITNESSED BY
 CLNT.            A2DTECH:   CLIENT CODE
 ORIG.           5" PRINT:   ORIGIN OF DATA
 UWI .       490251106200:   UNIQUE WELL ID
 DICO. A2D Technologies, Inc.:   DIGITIZING COMPANY
~OTHER INFORMATION
~A   DEPT      ROP         TGAS 
# ...
  903.0000     0.7644     3.5468
  903.5000     0.7644     3.4914
  904.0000     0.7645     3.4360
  904.5000     0.7645     3.3831
  905.0000     0.7646     3.3813
  905.5000     0.7647     3.3794
  906.0000     0.7647     3.3775
  906.5000     0.7648     3.3756
  907.0000     0.7648     3.3738
  907.5000     0.7649     3.3719
  908.0000     0.7650     3.3700
  908.5000     0.7650     3.3682
  909.0000     0.7651     3.3663
  909.5000     0.7652     3.3644
  910.0000     0.8183     3.3625
  910.5000     0.8825     3.3607
  911.0000     0.9246     3.3588
  911.5000     0.9557     3.3569
  912.0000     0.9646     3.3551
  912.5000     0.9735     3.3532
  913.0000     0.9712     3.3513
  913.5000     0.9692     3.3494
  914.0000     0.9903     3.3476
  914.5000     0.9981     3.3457
  915.0000     0.9960     3.3438
  915.5000     1.0044     3.3420
  916.0000     0.9994     3.3401
  916.5000     0.9765     3.3382
  917.0000     0.9252     3.3363
  917.5000     0.8583     3.3345
  918.0000     0.7887     3.3326
  918.5000     0.7544     3.3307
  919.0000     0.7456     3.3289
  919.5000     0.7434     3.3270
  920.0000     0.7428     3.3251
  920.5000     0.7441     3.3512
  921.0000     0.7454     3.3773
  921.5000     0.7466     3.4034
  922.0000     0.7479     3.4294
  922.5000     0.7491     3.4555
  923.0000     0.7504     3.4816
  923.5000     0.7516     3.5077
  924.0000     0.7710     3.5338
  924.5000     0.8184     3.5598
  925.0000     0.8684     3.5859
  925.5000     0.9139     3.6120
  926.0000     0.9368     3.6381
  926.5000     0.9087     3.6642
  927.0000     0.8632     3.6902
  927.5000     0.8177     3.7163
  928.0000     0.7522     3.7424
  928.5000     0.7522     3.7685
  929.0000     0.7522     3.7946
  929.5000     0.7522     3.8206
  930.0000     0.7412     3.8467
  930.5000     0.7412    20.7357
  931.0000     0.7412    66.4813
  931.5000     0.7412   116.6931
  932.0000     0.7434   143.7006
  932.5000     0.8269    85.3310
  933.0000     1.1487    16.5630
  933.5000     1.5257     4.0144
  934.0000     2.0022     4.1850
  934.5000     2.0022     4.1131
  935.0000     2.0022     4.0411
  935.5000     2.0022     3.9691
  936.0000     1.9993     3.8972
  936.5000     1.9912     3.8252
  937.0000     1.9912     3.7533
  937.5000     1.9912     3.6813
  938.0000     1.9954     3.6094
  938.5000     2.0341     3.5374
  939.0000     2.1138     3.4655
  939.5000     2.1935     3.3935
  940.0000     2.2743     3.3274
  940.5000     2.2542     3.3401
  941.0000     2.1851     3.3518
  941.5000     2.1161     3.3636
  942.0000     2.0453     3.3754
  942.5000     2.0434     3.3871
  943.0000     2.0415     3.3989
  943.5000     2.0396     3.4106
  944.0000     2.0376     3.4224
  944.5000     2.0357     3.4342
  945.0000     2.0337     3.4459
  945.5000     2.0318     3.4577
  946.0000     2.0298     3.4694
  946.5000     2.0279     3.4812
  947.0000     2.0259     3.4930
  947.5000     2.0240     3.5047
  948.0000     2.0220     3.5165
  948.5000     2.0201     3.5282
  949.0000     2.0182     3.5400
  949.5000     2.0162     3.5518
  950.0000     2.0143     3.5635
  950.5000     2.0123     3.5753
  951.0000     2.0104     3.5871
  951.5000     2.0084     3.5988
  952.0000     2.0122     3.6106
  952.5000     2.0692     3.6223
  953.0000     2.1243     3.6341
  953.5000     2.1698     3.6459
  954.0000     2.2153     3.6576
  954.5000     2.2486     3.6694
  955.0000     2.2276     3.6811
  955.5000     2.1624     3.6929
  956.0000     2.1049     3.7047
  956.5000     2.0937     3.7164
  957.0000     2.1557     3.7282
  957.5000     2.2187     3.7399
  958.0000     2.2757     3.7517
  958.5000     2.2856     3.7635
  959.0000     2.1897     3.7752
  959.5000     2.0990     3.7870
  960.0000     2.0483     3.7987
  960.5000     2.0299     3.8105
  961.0000     2.0232     3.8223
  961.5000     2.0227     3.8357
  962.0000     2.0221    12.7659
  962.5000     1.8280    21.0131
  963.0000     1.5186    22.4723
  963.5000     1.2035    14.6657
  964.0000     0.8791     7.9749
  964.5000     0.7725     6.2718
  965.0000     0.7688     6.2312
  965.5000     0.7683     6.1907
  966.0000     0.7344     6.1650
  966.5000     0.6564     6.1427
  967.0000     0.6006     6.1205
  967.5000     0.5448     6.0982
  968.0000     0.5553     6.0760
  968.5000     0.6211     6.0537
  969.0000     0.6877     6.0315
  969.5000     0.7317     6.0092
  970.0000     0.7523     5.9869
  970.5000     0.7517     5.9647
  971.0000     0.7511     5.9424
  971.5000     0.7506     5.9202
  972.0000     0.7500     5.8979
  972.5000     0.7494     5.8757
  973.0000     0.7520     5.8534
  973.5000     0.7769     5.8312
  974.0000     0.8335     5.8089
  974.5000     0.8944     5.7867
  975.0000     0.9532     5.7644
  975.5000     0.9784     5.7422
  976.0000     0.9779     5.7199
  976.5000     0.9773     5.6976
  977.0000     0.9768     5.6754
  977.5000     0.9762     5.6531
  978.0000     0.9757     5.6309
  978.5000     0.9751     5.6086
  979.0000     0.9746     5.5864
  979.5000     0.9819     5.5641
  980.0000     1.0339     5.5419
  980.5000     1.1014     5.4865
  981.0000     1.1688     5.4310
  981.5000     1.2465     5.3756
  982.0000     1.2565     5.3202
  982.5000     1.2665     5.2648
  983.0000     1.2654     5.2094
  983.5000     1.2643     5.1539
  984.0000     1.2743     5.0985
  984.5000     1.2732     5.0431
  985.0000     1.2721     4.9877
  985.5000     1.2710     4.9323
  986.0000     1.2699     4.8768
  986.5000     1.2690     4.8214
  987.0000     1.2790     4.7660
  987.5000     1.2801     4.7106
  988.0000     1.2821     4.6552
  988.5000     1.2426     4.5998
  989.0000     1.1582     4.5443
  989.5000     1.0696     4.4889
  990.0000     1.0384     4.4335
  990.5000     1.0944     4.3781
  991.0000     1.1503     4.3227
  991.5000     1.2062     4.2672
  992.0000     1.2511     4.2118
  992.5000     1.2196     4.1564
  993.0000     1.1334     4.1010
  993.5000     1.0656     4.2486
  994.0000     1.0282     6.9178
  994.5000     1.0188    12.6401
  995.0000     1.0177    14.9721
  995.5000     1.0166     9.5180
  996.0000     1.0155     5.3109
  996.5000     0.9885     4.9554
  997.0000     0.9025     5.3202
  997.5000     0.8461     5.2648
  998.0000     0.8118     5.2094
  998.5000     0.7997     5.1539
  999.0000     0.7986     5.0985
  999.5000     0.7975     5.0431
 1000.0000     0.7965     4.9877
 1000.5000     0.8078     5.0304
 1001.0000     0.8544     5.0732
 1001.5000     0.9311     5.1159
 1002.0000     0.9803     5.1587
 1002.5000     0.9792     5.2014
 1003.0000     0.9889     5.2442
 1003.5000     0.9878     5.2869
 1004.0000     0.9904     5.3297
 1004.5000     1.0008     5.3724
 1005.0000     1.0066     5.4152
 1005.5000     1.0055     5.4579
 1006.0000     1.0044     5.5007
 1006.5000     1.0093     5.5434
 1007.0000     1.0133     5.5862
 1007.5000     1.0122     5.6289
 1008.0000     0.9963     5.6717
 1008.5000     0.9643     5.7145
 1009.0000     0.9204     5.7572
 1009.5000     0.8748     5.8000
 1010.0000     0.8405     5.8427
 1010.5000     0.8505     5.8855
 1011.0000     0.9048     5.9282
 1011.5000     0.9480     5.9710
 1012.0000     0.9912     6.0137
 1012.5000     1.0012     6.0565
 1013.0000     1.0001     6.0992
 1013.5000     1.0101     6.1420
 1014.0000     1.0088     6.1847
 1014.5000     1.0077     6.2275
 1015.0000     1.0094     6.2702
 1015.5000     1.0166     6.3130
 1016.0000     1.0152     6.3557
 1016.5000     1.0133     6.3985
 1017.0000     1.0114     6.4412
 1017.5000     1.0095     6.4840
 1018.0000     1.0076     6.5267
 1018.5000     1.0057     6.5695
 1019.0000     1.0038     6.6122
 1019.5000     1.0019     6.6550
 1020.0000     1.0000     6.6977
 1020.5000     0.9981     6.7405
 1021.0000     0.9962     6.7832
 1021.5000     0.9943     6.8260
 1022.0000     0.9922     6.8687
 1022.5000     0.9361     6.9115
 1023.0000     0.8689     6.9542
 1023.5000     0.8128     6.9970
 1024.0000     0.7788     7.0397
