~VERSION INFORMATION
 VERS.                2.0:   CWLS LOG ASCII STANDARD - VERSION 2.0
 WRAP.                 NO:   ONE LINE PER DEPTH STEP
~WELL INFORMATION
#MNEM.UNIT      DATA TYPE    INFORMATION
#----------   ------------   ------------------------------
 STRT.F           33.0000:   START DEPTH
 STOP.F         1310.0000:   STOP DEPTH
 STEP.F            0.5000:   STEP LENGTH
 NULL.          -999.2500:   NO VALUE
 COMP. FENIX & SCISSON INC:   COMPANY
 WELL.    NPR-3 #76-14 SX:   WELL
 FLD .        TEAPOT DOME:   FIELD
 LOC .      S14 T38N R78W:   LOCATION
 CNTY.            NATRONA:   COUNTY
 STAT.            WYOMING:   STATE
 CTRY. UNITED STATES OF AMERICA:   COUNTRY
 SRVC.            Unknown:   SERVICE COMPANY
 DATE.        12-APR-1978:   LOGDATE
 API .       490251061200:   API NUMBER
~CURVE INFORMATION
#MNEM.UNIT       API CODE    CURVE DESCRIPTION
#----------   ------------   ------------------------------
 DEPT.F                  :   
 SPR .MV     05 010 01 00:   SPONTANEOUS POTENTIAL FROM RES.
 SN  .OHMM   05 040 16 00:   SHORT NORMAL 16"
 ILD .OHMM   05 120 46 00:   INDUCTION LOG DEEP
 CALD.IN     45 280 60 00:   CALIPER FROM DENSITY LOG
 GRD .GAPI   45 310 01 00:   GAMMA RAY FROM DENSITY LOG
 DPOR.DEC    45 890 12 00:   DENSITY POROSITY SANDSTONE
 CORR.G/C3   45 356 01 00:   DENSITY CORRECTION
 RHOB.G/C3   45 350 01 00:   BULK DENSITY
~PARAMETER INFORMATION
#MNEM.UNIT          VALUE    DESCRIPTION
#----------   ------------   ------------------------------
 PD  .                 GL:   PERMANENT DATUM
 EPD .F              5332:   ELEVATION PERMANENT DATUM
 LMF .                 KB:   LOG MEASURED FROM
 DMF .                 KB:   DRILLING MEASURED FROM
 EKB .F              5336:   KELLING BUSHING
 EGL .F              5332:   GROUND LEVEL
 DATE.          4-12-1978:   RUN DATE
 RUN .                  1:   RUN NUMBER
 DD  .F              1300:   DEPTH DRILLER
 DL  .F              1302:   DEPTH LOGGER
 BLI .F              1298:   BOTTOM LOG INTERVAL
 TLI .F                50:   TOP LOG INTERVAL
 CS  .IN            8.625:   CASING SIZE
 CBD .F                40:   CASING BOTTOM DRILLER
 CBL .F                46:   CASING BOTTOM LOGGER
 BS  .IN            7.875:   BIT SIZE
 BSD .F              1300:   BIT SIZE AT DEPTH
 DFT .                KCL:   DRILLING FLUID TYPE
 DFD .                8.5:   DRILLING FLUID DENSITY
 DFV .                 28:   DRILLING FLUID VISCOSITY
 MSS .            MUD PIT:   MUD SAMPLE SOURCE
 RMS .OHMM           1.45:   RESISTIVITY MUD SAMPLE
 MST .F                50:   MUD SAMPLE TEMPERATURE
 RMF .OHMM           1.25:   RESISTIVITY MUD FILTRATE SAMPLE
 MFST.F                62:   MUD FILTRATE SAMPLE TEMPERATURE
 RMC .OHMM           1.65:   RESISTIVITY MUD CAKE
 MCST.F                61:   MUD CAKE SAMPLE TEMPERATURE
 MFSS.           MEASURED:   MUD FILTRATE SAMPLE SOURCE
 MCSS.           MEASURED:   MUD CAKE SAMPLE SOURCE
 RMB .OHMM            .93:   RESISTIVITY MUD AT BHT
 BHT .F                78:   BOTTOM HOLE TEMPERATURE
 TCS .HRS               6:   TIME CURCULATED STOPPED
 MRT .F                78:   MAXIMUM RECORDED TEMPERATURE
 LUN .               2958:   LOGGING UNIT NUMBER
 LUL .                CAS:   LOGGING UNIT LOCATION
 ENGI.             MILLER:   RECORDING ENGINEER
 WITN.           MCGINLEY:   WITNESSED BY
 CLNT.            A2DTECH:   CLIENT CODE
 ORIG.      2" , 5" PRINT:   ORIGIN OF DATA
 UWI .       490251061200:   UNIQUE WELL ID
 DICO. A2D Technologies, Inc.:   DIGITIZING COMPANY
~OTHER INFORMATION
~A   DEPT      SPR         SN        ILD       CALD         GRD      DPOR       CORR       RHOB   
   33.0000  -999.2500  -999.2500  -999.2500  -999.2500    19.5092  -999.2500  -999.2500  -999.2500
   33.5000  -999.2500  -999.2500  -999.2500  -999.2500    35.9227  -999.2500  -999.2500  -999.2500
   34.0000  -999.2500  -999.2500  -999.2500  -999.2500    32.0485  -999.2500  -999.2500  -999.2500
   34.5000  -999.2500  -999.2500  -999.2500  -999.2500    30.0533  -999.2500  -999.2500  -999.2500
   35.0000  -999.2500  -999.2500  -999.2500  -999.2500    29.4978  -999.2500  -999.2500  -999.2500
   35.5000  -999.2500  -999.2500  -999.2500  -999.2500    30.3578  -999.2500  -999.2500  -999.2500
   36.0000  -999.2500  -999.2500  -999.2500  -999.2500    30.8548  -999.2500  -999.2500  -999.2500
   36.5000  -999.2500  -999.2500  -999.2500  -999.2500    28.8560  -999.2500  -999.2500  -999.2500
   37.0000  -999.2500  -999.2500  -999.2500  -999.2500    27.2324  -999.2500  -999.2500  -999.2500
   37.5000  -999.2500  -999.2500  -999.2500  -999.2500    28.7605  -999.2500  -999.2500  -999.2500
   38.0000  -999.2500  -999.2500  -999.2500  -999.2500    30.9833  -999.2500  -999.2500  -999.2500
   38.5000  -999.2500  -999.2500  -999.2500  -999.2500    29.3003  -999.2500  -999.2500  -999.2500
   39.0000  -999.2500  -999.2500  -999.2500  -999.2500    27.0704  -999.2500  -999.2500  -999.2500
   39.5000  -999.2500  -999.2500  -999.2500  -999.2500    28.5101  -999.2500  -999.2500  -999.2500
   40.0000  -999.2500  -999.2500  -999.2500  -999.2500    30.1013  -999.2500  -999.2500  -999.2500
   40.5000  -999.2500  -999.2500  -999.2500  -999.2500    31.6861  -999.2500  -999.2500  -999.2500
   41.0000  -999.2500  -999.2500  -999.2500  -999.2500    32.9860  -999.2500  -999.2500  -999.2500
   41.5000  -999.2500  -999.2500  -999.2500  -999.2500    30.8324  -999.2500  -999.2500  -999.2500
   42.0000  -999.2500  -999.2500  -999.2500  -999.2500    28.3195  -999.2500  -999.2500  -999.2500
   42.5000  -999.2500  -999.2500  -999.2500  -999.2500    27.1360  -999.2500  -999.2500  -999.2500
   43.0000  -999.2500  -999.2500  -999.2500  -999.2500    26.5746  -999.2500  -999.2500  -999.2500
   43.5000  -999.2500  -999.2500  -999.2500  -999.2500    26.2766  -999.2500  -999.2500  -999.2500
   44.0000  -999.2500  -999.2500  -999.2500  -999.2500    26.2337  -999.2500  -999.2500  -999.2500
   44.5000  -999.2500  -999.2500  -999.2500  -999.2500    26.1907  -999.2500  -999.2500  -999.2500
   45.0000  -999.2500  -999.2500  -999.2500  -999.2500    26.1507  -999.2500  -999.2500  -999.2500
   45.5000  -999.2500  -999.2500  -999.2500  -999.2500    26.0758  -999.2500  -999.2500  -999.2500
   46.0000  -999.2500  -999.2500  -999.2500     8.2725    25.0104  -999.2500    -0.3566  -999.2500
   46.5000  -999.2500  -999.2500  -999.2500     8.3322    24.4996  -999.2500    -0.1675  -999.2500
   47.0000  -999.2500  -999.2500  -999.2500     8.3919    27.5965  -999.2500     0.0815  -999.2500
   47.5000  -999.2500  -999.2500  -999.2500     8.4458    31.7199  -999.2500     0.2262  -999.2500
   48.0000  -999.2500  -999.2500  -999.2500     9.5459    35.8686  -999.2500     0.1730     2.1630
   48.5000  -999.2500  -999.2500  -999.2500     8.9863    36.3308  -999.2500     0.1403     2.2145
   49.0000  -999.2500  -999.2500  -999.2500     8.9110    35.5063  -999.2500     0.0899     2.2547
   49.5000  -999.2500  -999.2500  -999.2500     8.9489    34.8838  -999.2500     0.0639     2.2467
   50.0000  -999.2500  -999.2500  -999.2500     8.8792    34.8737  -999.2500     0.0647     2.2183
   50.5000  -999.2500  -999.2500  -999.2500     8.8917    34.8859  -999.2500     0.0662     2.2178
   51.0000  -999.2500     0.6794     4.0331     9.0127    35.8593  -999.2500     0.0678     2.2206
   51.5000  -999.2500     0.8147     4.4230     8.7684    36.9327     0.2452     0.0722     2.2192
   52.0000    -7.0325     1.0483     4.0359     8.9966    37.9994     0.2187     0.0981     2.2192
   52.5000    -9.1196     1.0973     3.6103     9.2235    39.0651     0.2212     0.0984     2.2394
   53.0000   -10.0748     1.1496     3.6764     8.7463    40.1319     0.2234     0.0889     2.2675
   53.5000   -10.7920     1.1710     3.7614     9.5428    41.2048     0.2195     0.0857     2.2541
   54.0000   -11.5054     1.1347     3.8483     9.9871    42.2620     0.2080     0.0728     2.2754
   54.5000   -12.2168     1.0291     3.9373     8.4321    42.3002     0.1965     0.0575     2.2988
   55.0000   -12.3056     1.0291     4.0283     8.1779    41.9768     0.1889     0.0576     2.3038
   55.5000   -12.3178     1.4614     4.1214     7.9371    41.6339     0.1866     0.0575     2.3168
   56.0000   -11.6096     1.2263     4.2167     7.9707    41.5098     0.1844     0.0573     2.3238
   56.5000   -10.6645     1.7903     4.2639     8.0059    41.7742     0.1822     0.0571     2.3284
   57.0000    -9.7283     1.4614     4.2676     8.0412    42.0555     0.1817     0.0569     2.3355
   57.5000    -9.6931     1.6325     4.2713     8.0761    42.0622     0.1814     0.0567     2.3347
   58.0000    -9.6988     1.6815     4.2750     8.1096    41.0592     0.1810     0.0565     2.3335
   58.5000    -9.7000     1.7631     4.2787     8.1323    39.7152     0.1798     0.0563     2.3377
   59.0000    -9.7000     1.8546     4.2824     8.2031    38.3671     0.1774     0.0560     2.3423
   59.5000    -9.7000     1.9275     4.2860     8.2744    37.1388     0.1748     0.0552     2.3437
   60.0000    -9.7000     1.8186     4.2897     8.3454    38.0547     0.1722     0.0528     2.3475
   60.5000    -9.7000     1.5540     4.2934     8.4163    40.1842     0.1713     0.0505     2.3566
   61.0000    -9.7000     1.3449     4.2971     8.4881    41.4991     0.1757     0.0481     2.3565
   61.5000    -9.7000     1.0103     4.3008     8.5097    41.7532     0.1794     0.0458     2.3474
   62.0000    -9.7000     1.7903     4.3046     8.5098    42.2656     0.1794     0.0439     2.3414
   62.5000    -9.7000     1.8577     4.3083     8.4859    43.0252     0.1783     0.0449     2.3443
   63.0000    -9.7000     1.7927     4.3120     8.4503    42.9620     0.1754     0.0459     2.3375
   63.5000    -9.7000     1.5733     4.3157     8.2159    42.6896     0.1726     0.0470     2.3443
   64.0000    -9.7000     1.7903     4.3194     8.0450    42.5872     0.1763     0.0480     2.3552
   64.5000    -9.7000     1.8406     4.3231     8.0303    43.3494     0.1797     0.0490     2.3498
   65.0000    -9.7000     2.0131     4.3269     8.0297    43.3939     0.1814     0.0501     2.3417
   65.5000    -9.7000     2.3277     4.3306     8.0299    42.8469     0.1822     0.0511     2.3333
   66.0000    -9.7000     2.6624     4.3343     8.0409    42.5513     0.1663     0.0521     2.3464
   66.5000    -9.7000     2.7372     4.3382     8.0893    45.2358     0.1572     0.0532     2.3651
   67.0000    -9.7000     2.7887     4.3403     8.1593    47.2253     0.1505     0.0538     2.3746
   67.5000    -9.7000     2.8401     4.4581     8.2295    47.4732     0.1490     0.0534     2.3779
   68.0000    -9.7000     2.9371     4.5890     8.3002    48.1941     0.1465     0.0529     2.3865
   68.5000    -9.7000     3.0449     4.7237     8.3686    48.8359     0.1440     0.0525     2.3960
   69.0000    -9.7000     3.1567     4.8622     8.3676    48.3531     0.1415     0.0521     2.4057
   69.5000    -9.7000     3.2725     5.0048     8.2734    47.9122     0.1409     0.0517     2.4088
   70.0000    -9.7000     3.3927     5.0580     8.1759    47.8971     0.1424     0.0512     2.4100
   70.5000    -9.7000     3.5173     5.0890     8.0788    47.8994     0.1454     0.0508     2.4111
   71.0000    -9.7000     3.6465     5.1203     7.9817    47.8997     0.1483     0.0504     2.4086
   71.5000    -9.7000     3.7802     5.1518     7.8848    47.8945     0.1513     0.0499     2.4002
   72.0000    -9.7000     3.8683     5.1919     7.8436    47.8618     0.1542     0.0505     2.3920
   72.5000    -9.7000     3.9038     5.2568     7.8130    49.2837     0.1553     0.0554     2.3854
   73.0000    -9.7000     3.9396     5.3214     7.7907    50.9169     0.1541     0.0637     2.3836
