~VERSION INFORMATION
 VERS.                2.0:   CWLS LOG ASCII STANDARD - VERSION 2.0
 WRAP.                 NO:   ONE LINE PER DEPTH STEP
~WELL INFORMATION
#MNEM.UNIT      DATA TYPE    INFORMATION
#----------   ------------   ------------------------------
 STRT.F           20.0000:   START DEPTH
 STOP.F         1363.5000:   STOP DEPTH
 STEP.F            0.5000:   STEP LENGTH
 NULL.          -999.2500:   NO VALUE
 COMP.   FLUOR DANIEL INC:   COMPANY
 WELL.   NPR 3 "S" #83-14:   WELL
 FLD .             TEAPOT:   FIELD
 LOC .      S14 T38N R78W:   LOCATION
 CNTY.            NATRONA:   COUNTY
 STAT.            WYOMING:   STATE
 CTRY. UNITED STATES OF AMERICA:   COUNTRY
 SRVC. Schlumberger Well Surveying Corp:   SERVICE COMPANY
 DATE.        22-AUG-1966:   LOGDATE
 API .       490250971000:   API NUMBER
~CURVE INFORMATION
#MNEM.UNIT       API CODE    CURVE DESCRIPTION
#----------   ------------   ------------------------------
 DEPT.F                  :   
 SPR .MV     05 010 01 00:   SPONTANEOUS POTENTIAL FROM RES.
 ASN .OHMM   05 041 16 00:   AMPLIFIED SHORT NORMAL 16"
 CILD.MMHO   05 110 00 00:   CONDUCTIVITY INDUCTION LOG
 ILD .OHMM   05 120 46 00:   INDUCTION LOG DEEP
 CALD.IN     45 280 60 00:   CALIPER
 GRD .GAPI   45 310 01 00:   GAMMA RAY FROM DENSITY LOG
 CORR.G/C3   45 356 01 00:   DENSITY CORRECTION
 RHOB.G/C3   45 350 01 00:   BULK DENSITY
 DPOR.DEC    45 890 12 00:   DENSITY POROSITY SANDSTONE
~PARAMETER INFORMATION
#MNEM.UNIT          VALUE    DESCRIPTION
#----------   ------------   ------------------------------
 PD  .                 GL:   PERMANENT DATUM
 EPD .F              5300:   ELEVATION PERMANENT DATUM
 LMF .                 KB:   LOG MEASURED FROM
 DAPD.F                 5:   FEET ABOVE PERMANENT DATUM
 DMF .                 KB:   DRILLING MEASURED FROM
 EKB .F              5305:   KELLING BUSHING
 EGL .F              5300:   GROUND LEVEL
 DATE.          8-22-1966:   RUN DATE
 RUN .                  1:   RUN NUMBER
 DD  .F              1365:   DEPTH DRILLER
 DL  .F              1363:   DEPTH LOGGER
 BLI .F              1362:   BOTTOM LOG INTERVAL
 TLI .F                20:   TOP LOG INTERVAL
 CS  .IN            8.625:   CASING SIZE
 CBD .F                15:   CASING BOTTOM DRILLER
 CBL .F                20:   CASING BOTTOM LOGGER
 BS  .IN            7.875:   BIT SIZE
 BSD .F              1365:   BIT SIZE AT DEPTH
 DFT .           GEL-CHEM:   DRILLING FLUID TYPE
 DFD .                 10:   DRILLING FLUID DENSITY
 DFV .                 55:   DRILLING FLUID VISCOSITY
 DFL .                  8:   DRILLING FLUID LOSS
 MSS .          FLOW LINE:   MUD SAMPLE SOURCE
 RMS .OHMM           1.86:   RESISTIVITY MUD SAMPLE
 MST .F                73:   MUD SAMPLE TEMPERATURE
 RMF .OHMM           1.13:   RESISTIVITY MUD FILTRATE SAMPLE
 MFST.F                70:   MUD FILTRATE SAMPLE TEMPERATURE
 MFSS.                  M:   MUD FILTRATE SAMPLE SOURCE
 RMB .OHMM           1.32:   RESISTIVITY MUD AT BHT
 BHT .F               102:   BOTTOM HOLE TEMPERATURE
 TCS .HRS               1:   TIME CURCULATED STOPPED
 MRT .F               102:   MAXIMUM RECORDED TEMPERATURE
 LUN .               3527:   LOGGING UNIT NUMBER
 LUL .               CSPR:   LOGGING UNIT LOCATION
 ENGI.          TOLLEFSON:   RECORDING ENGINEER
 WITN.         MAY/TUTTLE:   WITNESSED BY
 CLNT.            A2DTECH:   CLIENT CODE
 ORIG.       2", 5" PRINT:   ORIGIN OF DATA
 UWI .       490250971000:   UNIQUE WELL ID
 DICO. A2D Technologies, Inc.:   DIGITIZING COMPANY
~OTHER INFORMATION
~A   DEPT       SPR       ASN         CILD      ILD         CALD       GRD       CORR        RHOB     DPOR   
# ...
  823.0000   -50.7554     7.8587   178.5710     5.8500     8.0592    96.0820     0.0302     2.5309     0.0758
  823.5000   -51.1261     7.6078   177.2960     5.8500     8.0562    96.4829     0.0388     2.5628     0.0470
  824.0000   -51.4056     7.3375   176.8595     5.8500     8.0533    95.5885     0.0466     2.5747     0.0586
  824.5000   -51.2415     7.0886   178.8213     5.8500     8.0506    90.4379     0.0505     2.5587     0.0550
  825.0000   -50.8985     7.0638   180.6795     5.8497     8.0575    88.1431     0.0239     2.5322     0.0846
  825.5000   -50.6289     7.1312   181.7544     5.8505     8.0666    87.3094     0.0328     2.5176     0.0798
  826.0000   -50.9432     7.1962   180.8253     5.9061     8.0754    90.0756     0.0411     2.5242     0.0838
  826.5000   -51.2110     7.2096   179.8962     5.9675     8.0844    93.5238     0.0312     2.5050     0.0909
  827.0000   -51.1968     7.1858   178.9670     6.0288     8.0932    98.7552     0.0187     2.4985     0.0950
  827.5000   -50.9534     7.1599   178.0379     6.0900     8.1024   107.1977     0.0217     2.5162     0.0926
  828.0000   -50.8000     7.1345   176.9733     6.1512     8.1094   109.6708     0.0303     2.5126     0.0854
  828.5000   -50.8981     7.1097   174.8303     6.2124     8.1050   107.3520     0.0366     2.5009     0.0887
  829.0000   -51.3774     7.1636   172.6873     6.2736     8.0992   104.1059     0.0307     2.4957     0.0966
  829.5000   -51.8010     7.2435   170.5443     6.3351     8.0936   104.8797     0.0234     2.5062     0.0919
  830.0000   -51.8034     7.3814   168.4013     6.3966     8.0879   108.2022     0.0198     2.5148     0.0878
  830.5000   -51.4635     7.5401   166.2583     6.4438     8.0822   107.5234     0.0463     2.5022     0.0842
  831.0000   -51.1995     7.7004   164.8297     6.3751     8.0765   105.9451     0.0385     2.4833     0.1004
  831.5000   -51.2043     7.8618   163.8277     6.3074     8.0709   107.9913     0.0154     2.4701     0.1058
  832.0000   -51.2027     7.9275   163.8277     6.2400     8.0650   109.1867     0.0205     2.4804     0.1006
  832.5000   -51.1093     7.8765   166.9420     6.1726     8.0598   105.0504     0.0346     2.5043     0.0872
  833.0000   -50.6136     7.7105   169.6915     6.1053     8.0530   105.7000     0.0513     2.5448     0.0738
  833.5000   -50.5910     7.5118   172.4189     6.0379     8.0524   108.4324     0.0562     2.5406     0.0666
  834.0000   -50.5573     7.3124   175.1436     5.9706     8.0624   111.4155     0.0458     2.5335     0.0732
  834.5000   -50.5224     7.1327   177.8691     5.9032     8.0715   109.7943     0.0394     2.5338     0.0770
  835.0000   -50.4871     7.0847   180.5945     5.8359     8.0813   104.7315     0.0421     2.5327     0.0710
  835.5000   -50.4518     7.0333   182.0355     5.7659     8.0906   100.2032     0.0469     2.5119     0.0898
  836.0000   -50.4164     6.9766   183.4956     5.7500     8.1001    98.5072     0.0488     2.5229     0.0846
  836.5000   -50.4136     6.8842   184.9556     5.7498     8.1094   100.1399     0.0421     2.5337     0.0698
  837.0000   -50.4992     6.7880   185.8717     5.7499     8.1187   100.6577     0.0331     2.5116     0.0825
  837.5000   -50.5862     6.7878   185.0425     5.7495     8.1299   100.7398     0.0381     2.4860     0.0942
  838.0000   -50.6022     6.8916   183.6328     5.7523     8.1188   101.1571     0.0617     2.4909     0.0904
  838.5000   -50.5970     6.9929   182.2231     5.8221     7.9966   103.3920     0.0850     2.5220     0.0812
  839.0000   -50.4966     7.0122   180.8134     5.8937     7.9482   106.7799     0.0775     2.5326     0.0730
  839.5000   -50.4169     7.0225   179.4036     5.9649     7.9883   108.1924     0.0685     2.5291     0.0758
  840.0000   -50.2833     7.0425   177.9939     6.0360     8.0289   109.6011     0.0359     2.5342     0.0718
  840.5000   -50.5889     7.1628   176.0120     6.1072     8.0702   111.0191     0.0077     2.5047     0.0890
  841.0000   -50.5906     7.2848   173.9679     6.1785     8.1122   111.8623     0.0199     2.4664     0.1138
  841.5000   -50.5717     7.4071   171.9239     6.2495     8.1297   111.2383     0.0280     2.4538     0.1098
  842.0000   -50.5540     7.5266   169.8767     6.3213     8.1198   110.0286     0.0371     2.4871     0.0953
  842.5000   -50.5367     7.5124   167.8239     6.3203     8.1138   104.9541     0.0489     2.5304     0.0774
  843.0000   -50.5193     7.4881   165.8317     6.2718     8.1057   100.5093     0.0372     2.5182     0.0834
  843.5000   -50.5020     7.4686   166.8075     6.2224     8.0986    99.3327     0.0555     2.5323     0.0726
  844.0000   -50.4847     7.5090   168.3628     6.1729     8.0910   100.7579     0.0504     2.5255     0.0770
  844.5000   -50.4674     7.5551   169.9181     6.1235     8.0836   104.4057     0.0317     2.5063     0.0926
  845.0000   -50.4501     7.5273   171.4734     6.0742     8.0761   108.1404     0.0391     2.5129     0.0802
  845.5000   -50.4327     7.4407   172.8457     6.0248     8.0686   102.1918     0.0413     2.5210     0.0830
  846.0000   -50.4157     7.3542   174.1542     5.9755     8.0614   103.0246     0.0461     2.5103     0.0879
  846.5000   -50.3993     7.2684   175.9578     5.9261     8.0536   107.4539     0.0267     2.4991     0.0970
  847.0000   -50.3416     7.1980   177.7614     5.8767     8.0494   107.3195     0.0202     2.4931     0.0929
  847.5000   -50.2794     7.1274   179.5650     5.8272     8.0520   108.6444     0.0292     2.5165     0.0818
  848.0000   -50.2174     7.0553   181.3724     5.7789     8.0554   108.8842     0.0360     2.5050     0.0906
  848.5000   -50.1553     7.0151   183.1845     5.7900     8.0586   107.1785     0.0435     2.5245     0.0769
  849.0000   -50.0934     7.0081   184.8589     5.8847     8.0619   103.7722     0.0514     2.5590     0.0602
  849.5000   -50.0322     7.0027   183.2639     5.9785     8.0651    99.8674     0.0578     2.5359     0.0707
  850.0000   -50.0310     6.9970   180.8551     6.0726     8.0684    98.0394     0.0671     2.5040     0.0834
  850.5000   -50.0944     6.9897   178.4464     6.1667     8.0716    99.9251     0.0465     2.5071     0.0918
  851.0000   -50.1575     7.0335   174.8682     6.2607     8.0749   102.7771     0.0314     2.5378     0.0766
  851.5000   -50.2209     7.1729   170.8940     6.3548     8.0780   105.7419     0.0420     2.5295     0.0678
  852.0000   -50.2846     7.3559   166.9239     6.4495     8.0814   107.5865     0.0484     2.5178     0.0858
  852.5000   -50.3492     7.5375   162.9570     6.5459     8.0843   106.7506     0.0571     2.5377     0.0720
  853.0000   -50.3972     7.7185   158.9890     6.5692     8.0883   108.3267     0.0644     2.5650     0.0586
  853.5000   -50.1500     7.8997   155.8116     6.5887     8.0880   107.2496     0.0693     2.5748     0.0470
  854.0000   -49.8846     8.0806   155.8116     6.6088     8.0800   105.3907     0.0740     2.5677     0.0590
  854.5000   -49.8174     8.2282   154.8096     6.6298     8.0727   104.0756     0.0754     2.5605     0.0570
  855.0000   -49.8505     8.2143   157.2574     6.6470     8.0649    98.9816     0.0724     2.5530     0.0538
  855.5000   -49.8857     8.1946   159.4990     6.4973     8.0572    96.0889     0.0597     2.5381     0.0700
  856.0000   -49.9209     8.0482   161.8237     6.3334     8.0513    99.1104     0.0478     2.5247     0.0787
  856.5000   -49.9558     7.8695   166.8823     6.1700     8.0606   101.3541     0.0343     2.5185     0.0821
  857.0000   -49.9949     7.6900   171.7392     6.0068     8.0708   102.3007     0.0252     2.5120     0.0855
  857.5000   -49.8568     7.5111   176.5961     5.8434     8.0816   100.8379     0.0314     2.5042     0.0889
  858.0000   -49.6614     7.3327   181.4529     5.6776     8.0887    98.8589     0.0343     2.4995     0.0923
  858.5000   -49.4640     7.2109   186.3098     5.6495     8.0806   101.1513     0.0318     2.5090     0.0938
  859.0000   -49.4611     7.1636   188.8778     5.6479     8.0723   104.8764     0.0308     2.5266     0.0791
