~VERSION INFORMATION
 VERS.                2.0:   CWLS LOG ASCII STANDARD - VERSION 2.0
 WRAP.                 NO:   ONE LINE PER DEPTH STEP
~WELL INFORMATION
#MNEM.UNIT      DATA TYPE    INFORMATION
#----------   ------------   ------------------------------
 STRT.F           26.0000:   START DEPTH
 STOP.F          484.0000:   STOP DEPTH
 STEP.F            0.5000:   STEP LENGTH
 NULL.          -999.2500:   NO VALUE
 COMP.    FENIX & SCISSON:   COMPANY
 WELL.        NPR #44-S-3:   WELL
 FLD .              NPR-3:   FIELD
 LOC .       S3 T38N R78W:   LOCATION
 CNTY.            NATRONA:   COUNTY
 STAT.            WYOMING:   STATE
 CTRY. UNITED STATES OF AMERICA:   COUNTRY
 SRVC.              Welex:   SERVICE COMPANY
 DATE.        22-APR-1977:   LOGDATE
 API .       490251034000:   API NUMBER
~CURVE INFORMATION
#MNEM.UNIT       API CODE    CURVE DESCRIPTION
#----------   ------------   ------------------------------
 DEPT.F                  :   
 SPR .MV     07 010 01 00:   SPONTANEOUS POTENTIAL
 ILD .OHMM   07 120 46 00:   INDUCTION LOG DEEP
 ILM .OHMM   07 120 44 00:   INDUCTION LOG MEDIUM
 SGRD.OHMM   07 221 05 00:   SHALLOW SHORT GUARD RESISTIVITY
 GRD .GAPI   45 310 01 00:   GAMMA RAY FROM DENSITY LOG
 CALD.IN     45 280 60 00:   CALIPER FROM DENSITY LOG
 CORR.G/C3   45 356 01 00:   DENSITY CORRECTION
 RHOB.G/C3   45 350 01 00:   BULK DENSITY
 DPHI.DEC    45 890 12 00:   DENSITY POROSITY SANDSTONE
~PARAMETER INFORMATION
#MNEM.UNIT          VALUE    DESCRIPTION
#----------   ------------   ------------------------------
 PD  .                 GL:   PERMANENT DATUM
 EPD .F              5160:   ELEVATION PERMANENT DATUM
 LMF .                 GL:   LOG MEASURED FROM
 DMF .                 GL:   DRILLING MEASURED FROM
 EGL .F              5160:   GROUND LEVEL
 DATE.        22-APR-1977:   RUN DATE
 RUN .                  1:   RUN NUMBER
 DD  .F               490:   DEPTH DRILLER
 DL  .F               486:   DEPTH LOGGER
 BLI .F               484:   BOTTOM LOG INTERVAL
 TLI .F                30:   TOP LOG INTERVAL
 CS  .IN            8.625:   CASING SIZE
 CBD .F                40:   CASING BOTTOM DRILLER
 CBL .F                38:   CASING BOTTOM LOGGER
 BS  .IN            7.875:   BIT SIZE
 BSD .F               490:   BIT SIZE AT DEPTH
 DFT .            KCL GEL:   DRILLING FLUID TYPE
 DFD .                8.8:   DRILLING FLUID DENSITY
 DFV .                 36:   DRILLING FLUID VISCOSITY
 DFPH.                8.0:   DRILLING FLUID PH
 DFL .                6.4:   DRILLING FLUID LOSS
 MSS .            MUD PIT:   MUD SAMPLE SOURCE
 RMS .OHMM            .36:   RESISTIVITY MUD SAMPLE
 MST .F                60:   MUD SAMPLE TEMPERATURE
 RMF .OHMM            .30:   RESISTIVITY MUD FILTRATE SAMPLE
 MFST.F                60:   MUD FILTRATE SAMPLE TEMPERATURE
 RMC .OHMM            .42:   RESISTIVITY MUD CAKE
 MCST.F                60:   MUD CAKE SAMPLE TEMPERATURE
 MFSS.               MEAS:   MUD FILTRATE SAMPLE SOURCE
 MCSS.               MEAS:   MUD CAKE SAMPLE SOURCE
 RMB .OHMM            .30:   RESISTIVITY MUD AT BHT
 BHT .F                70:   BOTTOM HOLE TEMPERATURE
 TCS .HRS            0200:   TIME CURCULATED STOPPED
 MRT .F                70:   MAXIMUM RECORDED TEMPERATURE
 LUN .               8611:   LOGGING UNIT NUMBER
 LUL .             CASPER:   LOGGING UNIT LOCATION
 ENGI.          T. JOYNER:   RECORDING ENGINEER
 WITN.           ROB LYON:   WITNESSED BY
 CLNT.            A2DTECH:   CLIENT CODE
 ORIG.           5" PRINT:   ORIGIN OF DATA
 UWI .       490251034000:   UNIQUE WELL ID
 DICO. A2D Technologies, Inc.:   DIGITIZING COMPANY
~OTHER INFORMATION
~A   DEPT      SPR        ILD        ILM       SGRD        GRD       CALD       CORR       RHOB       DPHI   
# ...
   99.0000   -50.3214     8.1863     8.4727    11.3379   121.2854     7.7133    -0.0002     2.4879     0.0965
   99.5000   -50.3079     8.3061     8.4191    11.0387   124.5729     7.7150    -0.0001     2.4835     0.0985
  100.0000   -50.2970     8.3685     8.3472    11.0661   126.5230     7.7315    -0.0015     2.4788     0.1036
  100.5000   -50.2864     8.3732     8.2261    11.1566   124.9109     7.7480    -0.0039     2.4762     0.1033
  101.0000   -50.2741     8.3783     8.0936    11.2472   121.3640     7.7497    -0.0062     2.4763     0.1023
  101.5000   -50.2637     8.3829     8.3829    11.2194   119.6001     7.7514    -0.0086     2.4748     0.1075
  102.0000   -50.4043     8.3286     8.8646    11.0723   118.4258     7.7531    -0.0114     2.4726     0.1110
  102.5000   -50.3912     8.2770     9.1183    11.0794   118.8955     7.7549    -0.0113     2.4690     0.1121
  103.0000   -50.3808     8.2816     9.1867    11.3967   119.0585     7.7566    -0.0141     2.4691     0.1109
  103.5000   -50.3704     8.2280     9.2556    11.6425   117.1508     7.7583    -0.0155     2.4662     0.1108
  104.0000   -50.3620     8.1758     9.3250    11.7305   115.2383     7.7600    -0.0168     2.4610     0.1144
  104.5000   -50.3516     8.1815     9.2646    11.3395   114.0640     7.7617    -0.0182     2.4543     0.1153
  105.0000   -50.1929     8.1860     9.3354    11.4252   114.3851     7.7337    -0.0195     2.4559     0.1143
  105.5000   -50.1825     8.2474     9.4054    11.9159   115.5930     7.7359    -0.0194     2.4604     0.1131
  106.0000   -50.1721     8.3669     9.7416    12.6878   116.6523     7.7820    -0.0192     2.4635     0.1113
  106.5000   -50.1617     8.4882    10.1600    12.8702   117.7116     7.8129    -0.0161     2.4666     0.1101
  107.0000   -50.1513     8.6709    10.3787    13.0593   117.5822     7.6521    -0.0129     2.4763     0.1088
  107.5000   -50.1409     8.9190    10.5291    13.6202   115.6697     7.6093    -0.0098     2.4853     0.1058
  108.0000   -49.9822     9.1110    10.5349    14.0104   115.9860     7.2555    -0.0064     2.4906     0.1013
  108.5000   -49.8234     9.3718    10.5408    13.5434   115.7080     7.7164    -0.0035     2.4795     0.0959
  109.0000   -49.6647     9.6400    10.4725    13.2740   113.9441     7.7922    -0.0033     2.4751     0.1066
  109.5000   -49.5059     9.8475    10.4061    13.1002   115.3006     7.7787    -0.0016     2.4759     0.1042
  110.0000   -49.4955    10.0595    10.7054    13.0162   118.1430     7.7656     0.0000     2.4805     0.1003
  110.5000   -49.1884    10.2761    10.9359    13.7661   120.2424     7.7525     0.0017     2.4887     0.0964
  111.0000   -48.8812    10.3531    11.2488    14.3573   121.7474     7.7393     0.0033     2.4920     0.0949
  111.5000   -48.7224    10.2861    11.4910    14.7685   121.1619     7.7262     0.0050     2.4874     0.0984
  112.0000   -48.5636    10.2080    11.7522    14.9832   117.8437     7.7284     0.0066     2.4904     0.0968
  112.5000   -48.2565    10.0166    12.0868    15.0965   113.4721     7.7301     0.0083     2.4942     0.0947
  113.0000   -48.2460     9.9531    12.4183    15.2105   114.0339     7.7466     0.0054     2.4958     0.0924
  113.5000   -48.2356     9.8219    12.5982    16.0844   116.3675     7.7483     0.0041     2.4981     0.0911
  114.0000   -48.2252     9.8275    12.7807    16.8887   116.5133     7.7500     0.0027     2.4973     0.0935
  114.5000   -48.2147     9.7650    12.7878    15.9937   113.5655     7.7517    -0.0017     2.4928     0.0935
  115.0000   -48.2043     9.7705    12.6133    15.5677   108.9784     7.7682    -0.0030     2.4901     0.0964
  115.5000   -48.1939     9.8470    12.2777    15.4679   111.6722     7.7699    -0.0044     2.4849     0.1000
  116.0000   -48.1835     9.9864    11.8687    15.5872   110.3541     7.7864    -0.0057     2.4783     0.1017
  116.5000   -48.1730    10.0617    11.3937    15.5969   107.8424     7.8030    -0.0055     2.4798     0.1020
  117.0000   -48.1626    10.2778    11.0137    15.6067   110.5410     7.8047    -0.0054     2.4859     0.0993
  117.5000   -48.3031    10.3549    10.8684    15.5090   113.8291     7.8212    -0.0052     2.4807     0.0987
  118.0000   -48.2901    10.3607    10.8745    15.3034   112.2138     7.8229    -0.0036     2.4778     0.1025
  118.5000   -48.4307    10.4384    11.0320    15.1054   110.0042     7.8093    -0.0034     2.4786     0.1016
  119.0000   -48.5686    10.3721    11.4265    14.8026   109.5728     7.7818    -0.0018     2.4854     0.0977
  119.5000   -48.7065    10.3780    11.8350    14.3115   111.3798     7.7687    -0.0016     2.4877     0.0972
  120.0000   -48.6935    10.2409    12.1737    14.3385   111.8447     7.7556    -0.0015     2.4848     0.1003
  120.5000   -48.8314    10.2468    12.1805    14.5268   111.4133     7.7573     0.0002     2.4833     0.0994
  121.0000   -48.8210    10.3236    12.0199    14.5358   110.6944     7.7590     0.0003     2.4901     0.0964
  121.5000   -49.1073    10.4011    12.1100    14.3316   111.0107     7.7607     0.0005     2.4924     0.0954
  122.0000   -49.2452    10.6250    12.2855    14.2553   114.7446     7.7624     0.0006     2.4917     0.0960
  122.5000   -49.2348    10.7789    13.3558    14.5629   115.3581     7.7641     0.0008     2.4896     0.0972
  123.0000   -49.2244    10.7849    14.1232    15.7660   114.3372     7.7510     0.0024     2.4867     0.0999
  123.5000   -49.3649    10.7151    14.8319    17.2087   110.9388     7.7527     0.0026     2.4837     0.0989
  124.0000   -49.5029    10.6472    14.3358    15.8331   107.6843     7.7544     0.0027     2.4839     0.0983
  124.5000   -49.6408    10.5068    13.2017    14.5972   111.2743     7.7710     0.0013     2.4794     0.1012
  125.0000   -49.7788    10.4402    11.9076    14.0155   108.7675     7.7727     0.0015     2.4810     0.1009
  125.5000   -49.7657    10.3039    11.2731    13.4551   106.8550     7.7744     0.0002     2.4863     0.0982
  126.0000   -49.7553    10.1667    11.1229    13.5568   105.6692     7.7909    -0.0012     2.4795     0.1011
  126.5000   -49.8932    10.0326    11.1306    13.5708   107.0420     7.7926    -0.0040     2.4729     0.1071
  127.0000   -49.8828     9.9003    11.2141    13.1130   107.0611     7.7943    -0.0054     2.4662     0.1106
  127.5000   -50.0233     9.9072    11.2982    12.5889   107.0803     7.7812    -0.0068     2.4604     0.1139
  128.0000   -50.1613     9.9127    11.2250    12.4995   107.6979     7.7830    -0.0066     2.4545     0.1150
  128.5000   -50.1482     9.9870    11.0770    13.0473   109.3671     7.7850    -0.0049     2.4531     0.1177
  129.0000   -50.2888     9.9224    10.7823    13.4211   112.2228     7.7867    -0.0048     2.4532     0.1189
  129.5000   -50.2758     9.7254    10.2077    13.5390   112.9520     7.7884    -0.0046     2.4540     0.1185
  130.0000   -50.2653     9.5972     9.9334    13.0718   108.0588     7.7901    -0.0045     2.4570     0.1161
  130.5000   -50.2549     9.4041     9.9403    12.7217   105.8346     7.7770    -0.0043     2.4623     0.1134
  131.0000   -50.2445     9.1526     9.8773    12.4687   105.5801     7.7635    -0.0042     2.4527     0.1187
  131.5000   -50.2340     9.0319     9.6132    12.4784   105.9012     7.7504    -0.0040     2.4445     0.1223
  132.0000   -50.2236     8.9747     9.2917    12.8359   107.5548     7.7373    -0.0039     2.4416     0.1235
  132.5000   -50.2132     8.8576     9.2315    12.7555   109.3571     7.7093    -0.0037     2.4477     0.1216
  133.0000   -50.3537     8.6805     9.3007    12.4999   108.3361     7.7115    -0.0036     2.4507     0.1197
  133.5000   -50.3407     8.4484     9.2418    12.5096   106.1265     7.7132    -0.0034     2.4560     0.1177
  134.0000   -50.4812     8.2796     9.1832    12.8680   106.4428     7.7149    -0.0033     2.4628     0.1143
  134.5000   -50.4703     8.1704     9.0634    12.5253   108.2451     7.7166    -0.0016     2.4688     0.1090
  135.0000   -50.4599     8.1750     8.9426    12.5331   111.0874     7.7331    -0.0015     2.4793     0.1110
