~VERSION INFORMATION
 VERS.                2.0:   CWLS LOG ASCII STANDARD - VERSION 2.0
 WRAP.                 NO:   ONE LINE PER DEPTH STEP
~WELL INFORMATION
#MNEM.UNIT      DATA TYPE    INFORMATION
#----------   ------------   ------------------------------
 STRT.F           47.0000:   START DEPTH
 STOP.F          790.0000:   STOP DEPTH
 STEP.F            0.5000:   STEP LENGTH
 NULL.          -999.2500:   NO VALUE
 COMP. LAWRENCE/ALLISON INC:   COMPANY
 WELL. NPR #3 #21-16 SX 2:   WELL
 FLD .             NPR #3:   FIELD
 LOC .       S2 T38N R78W:   LOCATION
 CNTY.            NATRONA:   COUNTY
 STAT.            WYOMING:   STATE
 CTRY. UNITED STATES OF AMERICA:   COUNTRY
 SRVC.           Gearhart:   SERVICE COMPANY
 DATE.        16-MAY-1986:   LOGDATE
 API .       490251106700:   API NUMBER
~CURVE INFORMATION
#MNEM.UNIT       API CODE    CURVE DESCRIPTION
#----------   ------------   ------------------------------
 DEPT.F                  :   
 CNS .DEC    42 890 00 00:   NEUTRON POROSITY
 GRD .GAPI   45 310 01 00:   GAMMA RAY FROM DENSITY LOG
~PARAMETER INFORMATION
#MNEM.UNIT          VALUE    DESCRIPTION
#----------   ------------   ------------------------------
 PD  .                 GL:   PERMANENT DATUM
 LMF .                 GL:   LOG MEASURED FROM
 DATE.        16-MAY-1986:   RUN DATE
 RUN .                  1:   RUN NUMBER
 DD  .F               835:   DEPTH DRILLER
 DL  .F               835:   DEPTH LOGGER
 BLI .F               835:   BOTTOM LOG INTERVAL
 TLI .F                70:   TOP LOG INTERVAL
 CS  .IN              4.5:   CASING SIZE
 DFT .              WATER:   DRILLING FLUID TYPE
 LUN .               6084:   LOGGING UNIT NUMBER
 LUL .           GILLETTE:   LOGGING UNIT LOCATION
 ENGI.                COX:   RECORDING ENGINEER
 WITN.             STRONG:   WITNESSED BY
 CLNT.            A2DTECH:   CLIENT CODE
 ORIG.           5" PRINT:   ORIGIN OF DATA
 UWI .       490251106700:   UNIQUE WELL ID
 DICO. A2D Technologies, Inc.:   DIGITIZING COMPANY
 R1  .                 NE:   REMARKS 1
~OTHER INFORMATION
~A   DEPT        CNS       GRD  
   47.0000     0.3942    50.1889
   47.5000     0.3933    52.9351
   48.0000     0.3957    55.3755
   48.5000     0.3988    57.5101
   49.0000     0.3985    59.6447
   49.5000     0.3976    61.4735
   50.0000     0.3970    62.6906
   50.5000     0.3982    63.9078
   51.0000     0.3985    64.8191
   51.5000     0.3982    65.4262
   52.0000     0.3982    66.0317
   52.5000     0.3979    66.6373
   53.0000     0.3976    66.6297
   53.5000     0.3973    66.6236
   54.0000     0.3967    65.7001
   54.5000     0.3982    64.4708
   55.0000     0.3992    62.9356
   55.5000     0.3995    64.1528
   56.0000     0.3998    65.3699
   56.5000     0.4000    64.7522
   57.0000     0.4000    62.9113
   57.5000     0.4000    58.9193
   58.0000     0.4000    55.8408
   58.5000     0.3998    55.5535
   59.0000     0.3995    56.1856
   59.5000     0.3989    57.0705
   60.0000     0.3977    56.6767
   60.5000     0.3971    55.5291
   61.0000     0.3968    56.4954
   61.5000     0.3971    58.8795
   62.0000     0.3977    61.0141
   62.5000     0.3986    62.5371
   63.0000     0.3989    64.0601
   63.5000     0.3990    64.9714
   64.0000     0.3993    64.9653
   64.5000     0.3993    62.8186
   65.0000     0.3987    60.9776
   65.5000     0.3975    61.2774
   66.0000     0.3957    62.8003
   66.5000     0.3936    64.3233
   67.0000     0.3923    64.9304
   67.5000     0.3936    64.0053
   68.0000     0.3951    59.7179
   68.5000     0.3966    59.1017
   69.0000     0.3981    60.3174
   69.5000     0.3984    62.1461
   70.0000     0.3984    63.3633
   70.5000     0.3984    64.2747
   71.0000     0.3984    63.9643
   71.5000     0.3984    64.2640
   72.0000     0.3985    62.4216
   72.5000     0.3982    60.2748
   73.0000     0.3959    60.2687
   73.5000     0.3899    61.4859
   74.0000     0.3891    62.3972
   74.5000     0.3926    63.0028
   75.0000     0.3970    62.6909
   75.5000     0.3979    62.0732
   76.0000     0.3979    60.2322
   76.5000     0.3985    59.6145
   77.0000     0.3988    59.6085
   77.5000     0.3988    61.4372
   78.0000     0.3988    62.9602
   78.5000     0.3988    63.2599
   79.0000     0.3988    62.0183
   79.5000     0.3985    59.5514
   80.0000     0.3986    57.4108
   80.5000     0.3986    57.7860
   81.0000     0.3986    61.8391
   81.5000     0.3983    66.1010
   82.0000     0.3983    69.6881
   82.5000     0.3986    68.2976
   83.0000     0.3986    66.2618
   83.5000     0.3986    66.5615
   84.0000     0.3986    66.8628
   84.5000     0.3980    67.4668
   85.0000     0.3974    67.4607
   85.5000     0.3753    66.5372
   86.0000     0.3473    64.6963
   86.5000     0.3445    62.2437
   87.0000     0.3500    60.0969
   87.5000     0.3597    59.1734
   88.0000     0.3757    58.8615
   88.5000     0.3974    59.1613
   89.0000     0.3987    60.0726
   89.5000     0.3987    60.6782
   90.0000     0.3987    60.6721
   90.5000     0.3987    60.6660
   91.0000     0.3987    60.6599
   91.5000     0.3987    60.3480
   92.0000     0.3987    59.1187
   92.5000     0.3890    58.1952
   93.0000     0.3773    58.8007
   93.5000     0.3770    61.2411
   94.0000     0.3857    63.6815
   94.5000     0.3966    64.8987
   95.0000     0.3972    64.2810
   95.5000     0.3978    63.3575
   96.0000     0.3981    62.4340
   96.5000     0.3981    61.8163
   97.0000     0.3985    61.5044
   97.5000     0.3988    61.8041
   98.0000     0.3982    63.6329
   98.5000     0.3979    66.3791
   99.0000     0.3988    66.9847
   99.5000     0.3994    66.6728
  100.0000     0.3991    65.5981
  100.5000     0.4000    63.6119
  101.0000     0.3997    63.9207
  101.5000     0.3994    64.2296
  102.0000     0.3988    63.9260
  102.5000     0.3988    61.7892
  103.0000     0.3982    59.9572
  103.5000     0.3975    60.5720
  104.0000     0.3954    62.1041
  104.5000     0.3949    63.0246
  105.0000     0.3976    63.3334
  105.5000     0.3979    63.3365
  106.0000     0.3952    62.4221
  106.5000     0.3683    62.4160
  107.0000     0.3635    63.9572
  107.5000     0.3620    66.1112
  108.0000     0.3928    68.2446
  108.5000     0.3976    68.2089
  109.0000     0.3979    65.7245
  109.5000     0.3928    62.3760
  110.0000     0.3777    60.3057
  110.5000     0.3801    60.3089
  111.0000     0.3949    60.9787
  111.5000     0.3977    63.3737
  112.0000     0.3980    65.5174
  112.5000     0.3980    67.9669
  113.0000     0.3980    69.8048
  113.5000     0.3968    69.5021
  114.0000     0.3611    68.5877
  114.5000     0.3566    66.4500
  115.0000     0.3569    64.6182
  115.5000     0.3638    63.7038
  116.0000     0.3892    61.2604
  116.5000     0.3965    60.6510
  117.0000     0.3980    61.2665
  117.5000     0.3989    63.7160
  118.0000     0.3989    67.0829
  118.5000     0.3989    69.5325
  119.0000     0.3989    69.8413
  119.5000     0.3989    70.1494
  120.0000     0.3989    69.2358
  120.5000     0.3989    68.6264
  121.0000     0.3989    67.4070
  121.5000     0.3989    66.4926
  122.0000     0.3983    65.2724
  122.5000     0.3714    64.3573
  123.0000     0.3379    69.8656
  123.5000     0.3165    79.6546
  124.0000     0.3017    87.9145
  124.5000     0.2962    89.7524
  125.0000     0.2944    91.8961
  125.5000     0.2992    94.6515
  126.0000     0.3337    96.7952
  126.5000     0.3863    95.8808
  127.0000     0.3941    92.8257
  127.5000     0.3796    92.8135
  128.0000     0.3561    94.6667
  128.5000     0.3552    96.1988
  129.0000     0.3559    95.5841
  129.5000     0.3425    94.0642
  130.0000     0.3204    95.3722
  130.5000     0.3059    99.3242
  131.0000     0.3011    99.2721
  131.5000     0.3002    98.8858
  132.0000     0.3084    96.1223
  132.5000     0.3232    94.6941
  133.0000     0.3241    95.0037
  133.5000     0.3168    96.2299
  134.0000     0.3093    97.1504
  134.5000     0.3056    97.4593
  135.0000     0.3072    96.2391
  135.5000     0.2978    92.8782
  136.0000     0.2942    92.2688
  136.5000     0.2969    92.5785
  137.0000     0.3048    94.1105
  137.5000     0.3193    99.3124
  138.0000     0.3428   102.9851
  138.5000     0.3622   102.0707
  139.0000     0.3595    97.7924
  139.5000     0.3582    94.4316
  140.0000     0.3425    93.2106
  140.5000     0.2894    94.1318
  141.0000     0.2864    97.1930
  141.5000     0.2924    99.9483
  142.0000     0.2987   101.7862
  142.5000     0.3003    99.6486
  143.0000     0.3003    96.5935
  143.5000     0.2956    94.4559
  144.0000     0.2799    93.2349
  144.5000     0.2722    93.5445
  145.0000     0.2755    96.2999
  145.5000     0.2985    99.3610
  146.0000     0.3225   101.1989
  146.5000     0.3232   101.8634
  147.0000     0.3254    96.6178
  147.5000     0.3393    96.5851
  148.0000     0.3402    96.0123
  148.5000     0.3272    94.1805
  149.0000     0.3012    92.0428
  149.5000     0.2955    91.1214
  150.0000     0.2739    95.4128
  150.5000     0.2505    94.4877
  151.0000     0.2481    94.1896
  151.5000     0.2502    93.5780
  152.0000     0.2683    92.3547
  152.5000     0.2771    93.6291
  153.0000     0.2822    94.1896
  153.5000     0.2847    94.1896
  154.0000     0.2844    93.2722
  154.5000     0.2768    91.7431
  155.0000     0.2708    90.2141
  155.5000     0.2635    88.6850
  156.0000     0.2527    86.5443
  156.5000     0.2485    85.6269
  157.0000     0.2509    86.8502
  157.5000     0.2588    89.9083
  158.0000     0.2726    95.4128
  158.5000     0.2826   100.0000
  159.0000     0.2812    99.6942
  159.5000     0.2756    96.6361
  160.0000     0.2739    92.3547
  160.5000     0.2946    86.8502
  161.0000     0.2990    86.5443
  161.5000     0.2899    88.9908
  162.0000     0.2812    91.7431
  162.5000     0.2785    92.6606
  163.0000     0.2933    92.0489
  163.5000     0.3063    88.6850
  164.0000     0.3453    87.1355
  164.5000     0.3849    88.9908
  165.0000     0.3876    91.1315
  165.5000     0.3812    92.9765
  166.0000     0.3368    93.8838
  166.5000     0.3039    94.1896
  167.0000     0.2967    93.8431
  167.5000     0.2907    91.5899
  168.0000     0.2852    88.6850
