~VERSION INFORMATION
 VERS.                2.0:   CWLS LOG ASCII STANDARD - VERSION 2.0
 WRAP.                 NO:   ONE LINE PER DEPTH STEP
~WELL INFORMATION
#MNEM.UNIT      DATA TYPE    INFORMATION
#----------   ------------   ------------------------------
 STRT.F           26.0000:   START DEPTH
 STOP.F          484.0000:   STOP DEPTH
 STEP.F            0.5000:   STEP LENGTH
 NULL.          -999.2500:   NO VALUE
 COMP.    FENIX & SCISSON:   COMPANY
 WELL.        NPR #44-S-3:   WELL
 FLD .              NPR-3:   FIELD
 LOC .       S3 T38N R78W:   LOCATION
 CNTY.            NATRONA:   COUNTY
 STAT.            WYOMING:   STATE
 CTRY. UNITED STATES OF AMERICA:   COUNTRY
 SRVC.              Welex:   SERVICE COMPANY
 DATE.        22-APR-1977:   LOGDATE
 API .       490251034000:   API NUMBER
~CURVE INFORMATION
#MNEM.UNIT       API CODE    CURVE DESCRIPTION
#----------   ------------   ------------------------------
 DEPT.F                  :   
 SPR .MV     07 010 01 00:   SPONTANEOUS POTENTIAL
 ILD .OHMM   07 120 46 00:   INDUCTION LOG DEEP
 ILM .OHMM   07 120 44 00:   INDUCTION LOG MEDIUM
 SGRD.OHMM   07 221 05 00:   SHALLOW SHORT GUARD RESISTIVITY
 GRD .GAPI   45 310 01 00:   GAMMA RAY FROM DENSITY LOG
 CALD.IN     45 280 60 00:   CALIPER FROM DENSITY LOG
 CORR.G/C3   45 356 01 00:   DENSITY CORRECTION
 RHOB.G/C3   45 350 01 00:   BULK DENSITY
 DPHI.DEC    45 890 12 00:   DENSITY POROSITY SANDSTONE
~PARAMETER INFORMATION
#MNEM.UNIT          VALUE    DESCRIPTION
#----------   ------------   ------------------------------
 PD  .                 GL:   PERMANENT DATUM
 EPD .F              5160:   ELEVATION PERMANENT DATUM
 LMF .                 GL:   LOG MEASURED FROM
 DMF .                 GL:   DRILLING MEASURED FROM
 EGL .F              5160:   GROUND LEVEL
 DATE.        22-APR-1977:   RUN DATE
 RUN .                  1:   RUN NUMBER
 DD  .F               490:   DEPTH DRILLER
 DL  .F               486:   DEPTH LOGGER
 BLI .F               484:   BOTTOM LOG INTERVAL
 TLI .F                30:   TOP LOG INTERVAL
 CS  .IN            8.625:   CASING SIZE
 CBD .F                40:   CASING BOTTOM DRILLER
 CBL .F                38:   CASING BOTTOM LOGGER
 BS  .IN            7.875:   BIT SIZE
 BSD .F               490:   BIT SIZE AT DEPTH
 DFT .            KCL GEL:   DRILLING FLUID TYPE
 DFD .                8.8:   DRILLING FLUID DENSITY
 DFV .                 36:   DRILLING FLUID VISCOSITY
 DFPH.                8.0:   DRILLING FLUID PH
 DFL .                6.4:   DRILLING FLUID LOSS
 MSS .            MUD PIT:   MUD SAMPLE SOURCE
 RMS .OHMM            .36:   RESISTIVITY MUD SAMPLE
 MST .F                60:   MUD SAMPLE TEMPERATURE
 RMF .OHMM            .30:   RESISTIVITY MUD FILTRATE SAMPLE
 MFST.F                60:   MUD FILTRATE SAMPLE TEMPERATURE
 RMC .OHMM            .42:   RESISTIVITY MUD CAKE
 MCST.F                60:   MUD CAKE SAMPLE TEMPERATURE
 MFSS.               MEAS:   MUD FILTRATE SAMPLE SOURCE
 MCSS.               MEAS:   MUD CAKE SAMPLE SOURCE
 RMB .OHMM            .30:   RESISTIVITY MUD AT BHT
 BHT .F                70:   BOTTOM HOLE TEMPERATURE
 TCS .HRS            0200:   TIME CURCULATED STOPPED
 MRT .F                70:   MAXIMUM RECORDED TEMPERATURE
 LUN .               8611:   LOGGING UNIT NUMBER
 LUL .             CASPER:   LOGGING UNIT LOCATION
 ENGI.          T. JOYNER:   RECORDING ENGINEER
 WITN.           ROB LYON:   WITNESSED BY
 CLNT.            A2DTECH:   CLIENT CODE
 ORIG.           5" PRINT:   ORIGIN OF DATA
 UWI .       490251034000:   UNIQUE WELL ID
 DICO. A2D Technologies, Inc.:   DIGITIZING COMPANY
~OTHER INFORMATION
~A   DEPT      SPR        ILD        ILM       SGRD        GRD       CALD       CORR       RHOB       DPHI   
# ...
  427.5000   -33.9619    11.7612    13.8919    17.4113    96.1943     7.7409    -0.0069     2.4541     0.1186
  428.0000   -33.9582    11.7011    13.6137    17.1824    96.3612     7.7424    -0.0053     2.4564     0.1180
  428.5000   -33.9553    11.6119    13.3398    16.9570   101.1344     7.7439    -0.0052     2.4541     0.1195
  429.0000   -33.9523    11.5380    13.1620    16.7345   101.5939     7.7302    -0.0050     2.4481     0.1210
  429.5000   -34.0982    11.4799    12.8971    16.7454    98.9423     7.7320    -0.0049     2.4469     0.1206
  430.0000   -34.0948    11.4071    13.4490    16.7559    95.6917     7.7183    -0.0063     2.4478     0.1197
  430.5000   -34.0918    11.4150    13.6419    16.9998    95.2107     7.7201    -0.0062     2.4516     0.1185
  431.0000   -34.3856    11.4213    13.5521    17.1284    96.7685     7.7216    -0.0061     2.4554     0.1172
  431.5000   -34.5317    11.4276    13.4643    17.2580    99.3129     7.7230    -0.0059     2.4577     0.1166
  432.0000   -34.6771    11.3535    13.4713    17.3886   102.0285     7.7245    -0.0058     2.4593     0.1163
  432.5000   -34.8225    11.3614    13.7594    17.5201   105.4938     7.7260    -0.0072     2.4623     0.1160
  433.0000   -34.9679    11.3677    13.9567    17.5310   109.8216     7.7274    -0.0071     2.4646     0.1141
  433.5000   -34.9642    11.2940    14.0579    17.3010   105.3350     7.7289    -0.0070     2.4625     0.1147
  434.0000   -35.1104    11.3018    13.0351    17.3118   101.4849     7.7304    -0.0068     2.4595     0.1171
  434.5000   -35.1067    11.3081    12.3387    16.8500   103.8853     7.7319    -0.0052     2.4619     0.1155
  435.0000   -35.1037    11.3143    12.0071    16.7418   103.0121     7.7333    -0.0051     2.4642     0.1143
  435.5000   -35.1007    11.2426    12.4346    16.5247   102.7287     7.7348    -0.0035     2.4747     0.1080
  436.0000   -35.2463    11.2488    12.6130    16.4185   103.9403     7.7366    -0.0018     2.4643     0.1146
  436.5000   -35.3917    11.2550    12.5312    16.4313   104.7016     7.7084    -0.0017     2.4540     0.1187
  437.0000   -35.5371    11.1821    12.3643    16.4415   105.3144     7.7099    -0.0016     2.4548     0.1181
  437.5000   -35.6825    11.1112    12.3694    16.3358   106.6700     7.7114    -0.0015     2.4586     0.1169
  438.0000   -35.6794    11.0407    12.7215    16.2334   108.1742     7.7128    -0.0014     2.4631     0.1147
  438.5000   -35.8249    11.0483    12.2943    16.0204   105.9638     7.7143    -0.0012     2.4692     0.1123
  439.0000   -35.8218    10.9768    11.8814    15.8102   104.6403     7.7158    -0.0026     2.4707     0.1123
  439.5000   -36.1156    10.7588    11.6423    15.4977   106.1491     7.7172    -0.0025     2.4717     0.1119
  440.0000   -36.1127    10.5438    11.4872    15.1890   107.0544     7.7187    -0.0024     2.4724     0.1085
  440.5000   -36.2582    10.4047    11.1784    14.9874   106.1330     7.7201    -0.0008     2.4725     0.1059
  441.0000   -36.5518    10.3387    10.8780    14.8934   107.9872     7.7216    -0.0007     2.4748     0.1071
  441.5000   -36.8456    10.2024    10.2259    15.0084   110.0858     7.7079     0.0010     2.4801     0.1035
  442.0000   -36.9911    10.0678     9.8825    15.1196   110.7180     7.7097     0.0026     2.4787     0.1023
  442.5000   -37.4332     9.7311     9.7508    14.6172   107.7451     7.6960     0.0042     2.4758     0.1019
  443.0000   -37.7269     9.4056     9.6866    14.0319   109.8891     7.6830     0.0043     2.4721     0.1049
  443.5000   -38.1691     8.9661     9.4926    13.6555   113.1960     7.6845     0.0014     2.4699     0.1061
  444.0000   -38.6113     8.4298     9.1739    13.2017   111.9252     7.6860     0.0001     2.4700     0.1075
  444.5000   -39.2018     7.9256     8.7440    12.9367   109.3090     7.6874     0.0002     2.4701     0.1093
  445.0000   -39.7922     7.4001     8.3343    12.9468   109.7731     7.6889     0.0003     2.4687     0.1125
  445.5000   -40.3827     6.8619     7.7271    12.8636   111.1288     7.6905    -0.0011     2.4613     0.1143
  446.0000   -40.9733     6.5413     7.1641    12.2653   112.7816     7.7067    -0.0040     2.4561     0.1167
  446.5000   -41.4154     6.1927     6.5509    11.2179   114.2859     7.7081    -0.0053     2.4495     0.1205
  447.0000   -41.7092     5.8627     6.1582     9.9112   116.6816     7.7096    -0.0052     2.4428     0.1235
  447.5000   -42.0029     5.5888     5.7891     8.1717   120.5633     7.7114    -0.0066     2.4347     0.1258
  448.0000   -42.1484     5.5526     5.6720     6.4637   125.7822     7.7129    -0.0080     2.4131     0.1344
  448.5000   -41.8486     5.8724     5.8745     5.2199   129.8125     7.7143    -0.0094     2.4095     0.1362
  449.0000   -41.2522     6.2099     6.1259     8.1870   128.1964     7.7006    -0.0108     2.4342     0.1302
  449.5000   -40.5074     6.5667     6.5220    14.1459   124.7972     7.7024    -0.0106     2.4589     0.1159
  450.0000   -40.0593     6.9405     7.0133    14.3014   120.5065     7.7039    -0.0087     2.4813     0.1087
  450.5000   -39.9197     7.4843     7.7245    14.1589   113.5619     7.7054    -0.0052     2.4732     0.1071
  451.0000   -39.7573     7.9851     8.2066    14.1704   108.0745     7.7068    -0.0043     2.4703     0.1089
  451.5000   -39.3097     8.7422     8.7385    14.4657   104.6659     7.7083    -0.0042     2.4838     0.1071
  452.0000   -39.0105     9.5051     9.3050    14.7738   109.3023     7.7098    -0.0040     2.4787     0.1035
  452.5000   -38.5629     9.9833     9.7047    14.1783   110.6602     7.7112    -0.0024     2.4713     0.1058
  453.0000   -38.4121    10.0596    10.0519    13.9884   109.4884     7.7127    -0.0008     2.4684     0.1073
  453.5000   -37.9645    10.1364    10.2685    14.0915   107.7213     7.6993     0.0008     2.4714     0.1058
  454.0000   -37.8137    10.2137    10.3457    14.3918   110.4185     7.7008    -0.0006     2.4775     0.1039
  454.5000   -37.5145    10.2917    10.5686    14.5972   109.5443     7.7023    -0.0005     2.4805     0.1027
  455.0000   -37.3636    10.5876    10.8712    14.9083   107.0332     7.7037    -0.0004     2.4797     0.1024
  455.5000   -37.2128    11.0438    11.1825    15.4380   105.2661     7.7052    -0.0018     2.4745     0.1050
  456.0000   -37.0619    11.2830    11.4235    15.9866   109.6002     7.7067    -0.0017     2.4694     0.1095
  456.5000   -36.9111    11.2908    11.4301    16.3272   106.6427     7.7081    -0.0030     2.4644     0.1121
  457.0000   -36.7603    11.2208    11.5160    16.3328   106.2102     7.7096    -0.0029     2.4630     0.1109
  457.5000   -36.6094    11.2285    11.8458    16.3384   110.4002     7.7111    -0.0043     2.4631     0.1091
  458.0000   -36.3102    11.3143    12.1850    16.9190   112.0511     7.7126    -0.0057     2.4631     0.1121
  458.5000   -36.3078    11.5594    12.7966    17.2796   108.5030     7.7144    -0.0056     2.4662     0.1132
  459.0000   -36.1569    11.7285    13.3464    17.2855   107.9217     7.7158    -0.0040     2.4730     0.1111
  459.5000   -36.1545    11.9000    13.8238    17.5322   108.6890     7.7173    -0.0024     2.4798     0.1084
  460.0000   -35.9701    11.9082    14.1217    17.6599   104.3922     7.7188    -0.0008     2.4754     0.1054
  460.5000   -35.8060    11.9164    14.0324    17.7885   101.2859     7.7202     0.0011     2.4732     0.1038
  461.0000   -35.7910    11.9247    13.7522    17.9181    99.6676     7.7217     0.0025     2.4718     0.1068
  461.5000   -35.6269    11.9329    13.2925    17.8007   100.7279     7.7232     0.0011     2.4861     0.1083
  462.0000   -35.6119    12.0240    13.3002    17.6841   102.5322     7.7246    -0.0018     2.4906     0.1057
  462.5000   -35.5970    12.1999    13.6810    17.6902   104.1878     7.7261    -0.0032     2.4758     0.1070
  463.0000   -35.5821    12.3783    14.1704    17.8191   104.8017     7.7276    -0.0046     2.4639     0.1120
  463.5000   -35.5672    12.5593    14.6774    18.7092   103.6298     7.7290    -0.0059     2.4438     0.1180
