~VERSION INFORMATION
 VERS.                2.0:   CWLS LOG ASCII STANDARD - VERSION 2.0
 WRAP.                 NO:   ONE LINE PER DEPTH STEP
~WELL INFORMATION
#MNEM.UNIT      DATA TYPE    INFORMATION
#----------   ------------   ------------------------------
 STRT.F            4.0000:   START DEPTH
 STOP.F          747.0000:   STOP DEPTH
 STEP.F            0.5000:   STEP LENGTH
 NULL.          -999.2500:   NO VALUE
 COMP.          U.S. NAVY:   COMPANY
 WELL. RES 3 TEAPOT DOM #61S-34:   WELL
 FLD .        TRAPOT DOME:   FIELD
 LOC .      S34 T39N R78W:   LOCATION
 CNTY.            NATRONA:   COUNTY
 STAT.            WYOMING:   STATE
 CTRY. UNITED STATES OF AMERICA:   COUNTRY
 SRVC.      NL McCullough:   SERVICE COMPANY
 DATE.        11-AUG-1961:   LOGDATE
 API .       490250656900:   API NUMBER
~CURVE INFORMATION
#MNEM.UNIT       API CODE    CURVE DESCRIPTION
#----------   ------------   ------------------------------
 DEPT.F                  :   
 GRN .GAPI   35 310 30 00:   GAMMA RAY
 NEUT.NAPI   35 330 22 00:   NEUTRON POROSITY
~PARAMETER INFORMATION
#MNEM.UNIT          VALUE    DESCRIPTION
#----------   ------------   ------------------------------
 PD  .                 GL:   PERMANENT DATUM
 EPD .F              5043:   ELEVATION PERMANENT DATUM
 LMF .                 KB:   LOG MEASURED FROM
 DAPD.F                 5:   FEET ABOVE PERMANENT DATUM
 DMF .                 KB:   DRILLING MEASURED FROM
 EKB .F              5048:   KELLING BUSHING
 EGL .F              5043:   GROUND LEVEL
 DATE.        11-AUG-1961:   RUN DATE
 RUN .                  1:   RUN NUMBER
 DD  .F               750:   DEPTH DRILLER
 DL  .F             748.5:   DEPTH LOGGER
 BLI .F               747:   BOTTOM LOG INTERVAL
 TLI .F                 0:   TOP LOG INTERVAL
 BS  .IN            7.875:   BIT SIZE
 BSD .F               750:   BIT SIZE AT DEPTH
 DFT .       OIL EMULSION:   DRILLING FLUID TYPE
 DFD .                9.5:   DRILLING FLUID DENSITY
 ENGI.            JACKSON:   RECORDING ENGINEER
 WITN.          JORGENSON:   WITNESSED BY
 CLNT.            A2DTECH:   CLIENT CODE
 ORIG.        2" 5" PRINT:   ORIGIN OF DATA
 UWI .       490250656900:   UNIQUE WELL ID
 DICO. A2D Technologies, Inc.:   DIGITIZING COMPANY
~OTHER INFORMATION
~A    DEPT       GRN     NEUT   
# ...
  247.0000     6.6147   419.1367
  247.5000     6.6248   408.7591
  248.0000     6.6324   406.5852
  248.5000     6.6533   404.0493
  249.0000     6.7731   398.1837
  249.5000     6.8371   394.0714
  250.0000     6.8485   389.1132
  250.5000     6.8426   383.1862
  251.0000     6.8221   379.2857
  251.5000     6.7962   384.5941
  252.0000     6.7910   390.0824
  252.5000     6.7616   393.3906
  253.0000     6.7414   395.9727
  253.5000     6.6707   395.9795
  254.0000     6.3610   395.9871
  254.5000     6.2902   395.9957
  255.0000     6.2845   395.2451
  255.5000     6.2806   395.2527
  256.0000     6.2130   395.2617
  256.5000     6.0800   395.2679
  257.0000     6.0280   395.2756
  257.5000     6.0195   395.5858
  258.0000     6.0423   395.2895
  258.5000     6.1015   394.5416
  259.0000     6.1939   388.0086
  259.5000     6.3002   382.9584
  260.0000     6.4136   379.4241
  260.5000     6.6637   362.7442
  261.0000     6.8165   349.0359
  261.5000     6.8587   346.1379
  262.0000     6.9214   342.7831
  262.5000     7.0470   340.8525
  263.0000     7.1267   340.8601
  263.5000     7.1336   343.0178
  264.0000     7.1336   346.1748
  264.5000     7.1259   348.1200
  265.0000     7.1011   349.3692
  265.5000     7.0644   350.7401
  266.0000     7.0277   354.4719
  266.5000     7.0320   357.5677
  267.0000     7.0703   356.8194
  267.5000     7.1263   350.7702
  268.0000     7.1339   340.9356
  268.5000     7.1295   340.9449
  269.0000     7.0280   340.9510
  269.5000     6.8629   341.7158
  270.0000     6.8462   342.1774
  270.5000     6.8513   342.6695
  271.0000     6.8708   344.0099
  271.5000     6.9675   345.5614
  272.0000     7.1141   350.2628
  272.5000     7.1064   372.8001
  273.0000     7.0661   384.4648
  273.5000     7.0396   398.2206
  274.0000     7.0359   408.4036
  274.5000     7.1420   408.4099
  275.0000     7.2197   407.6605
  275.5000     7.2254   407.1837
  276.0000     7.0815   407.6756
  276.5000     6.9428   407.6835
  277.0000     6.8543   408.1146
  277.5000     6.8468   410.5753
  278.0000     6.8412   413.7628
  278.5000     6.7635   410.8325
  279.0000     6.6838   403.5724
  279.5000     6.6715   400.1594
  280.0000     6.6500   400.1658
  280.5000     6.6391   400.9608
  281.0000     6.6343   402.4536
  281.5000     6.6198   407.3961
  282.0000     6.5236   421.3932
  282.5000     6.5820   419.4319
  283.0000     6.7367   403.8146
  283.5000     6.7487   402.4904
  284.0000     6.6882   402.1038
  284.5000     6.6249   401.7473
  285.0000     6.5657   402.5135
  285.5000     6.5595   403.6104
  286.0000     6.5630   397.1975
  286.5000     6.5694   383.6109
  287.0000     6.6430   381.8305
  287.5000     6.6638   380.5966
  288.0000     6.6885   380.6042
  288.5000     6.6836   380.6117
  289.0000     6.5623   380.6197
  289.5000     6.4310   382.6554
  290.0000     6.4396   388.6595
  290.5000     6.5935   400.3255
  291.0000     6.6433   415.3214
  291.5000     6.6396   423.4142
  292.0000     6.6264   429.8727
  292.5000     6.5903   433.5128
  293.0000     6.5390   435.1861
  293.5000     6.4273   434.4380
  294.0000     6.2874   432.4454
  294.5000     6.2406   429.9097
  295.0000     6.1814   426.5854
  295.5000     6.1663   424.6243
  296.0000     6.1664   424.6335
  296.5000     6.1740   432.8167
  297.0000     6.2044   452.9616
  297.5000     6.2357   475.3776
  298.0000     6.2499   481.6831
  298.5000     6.2575   486.3540
  299.0000     6.2668   495.0835
  299.5000     6.3409   501.4795
  300.0000     6.3626   484.4660
  300.5000     6.3893   453.3838
  301.0000     6.4161   426.9647
  301.5000     6.4428   425.4506
  302.0000     6.4695   422.0742
  302.5000     6.4776   418.3914
  303.0000     6.4096   411.8241
  303.5000     6.3104   408.2636
  304.0000     6.2276   406.5249
  304.5000     6.1955   405.3174
  305.0000     6.1901   405.0108
  305.5000     6.2054   405.0108
  306.0000     6.3027   405.3590
  306.5000     6.5511   408.5341
  307.0000     6.6753   417.1233
  307.5000     6.7223   423.1416
  308.0000     6.7361   431.5069
  308.5000     6.6788   432.2639
  309.0000     6.6377   433.1648
  309.5000     6.7060   435.2920
  310.0000     6.8672   442.4838
  310.5000     6.8879   451.1896
  311.0000     6.7971   443.6193
  311.5000     6.7638   443.3934
  312.0000     6.7591   442.8623
  312.5000     6.7418   431.8537
  313.0000     6.6669   422.4225
  313.5000     6.5627   422.4225
  314.0000     6.5056   425.1677
  314.5000     6.5022   437.6494
  315.0000     6.5477   441.0833
  315.5000     6.6667   443.6193
  316.0000     6.7800   429.9928
  316.5000     6.9495   428.0888
  317.0000     7.0788   426.9647
  317.5000     7.1542   427.7217
  318.0000     7.2015   428.0094
  318.5000     7.2466   431.5117
  319.0000     7.2529   436.8948
  319.5000     7.1842   442.6460
  320.0000     7.0702   451.1896
  320.5000     7.0258   463.9707
  321.0000     7.0059   470.1154
  321.5000     6.9957   454.9748
  322.0000     6.9882   453.1933
  322.5000     6.9883   451.1896
  323.0000     6.9959   450.7379
  323.5000     6.9960   450.4326
  324.0000     7.0133   454.2177
  324.5000     7.1249   469.3007
  325.0000     7.0871   486.1391
  325.5000     7.0190   487.5270
  326.0000     7.0084   497.0299
  326.5000     7.0116   517.8082
  327.0000     6.9965   530.8826
  327.5000     6.9673   546.7090
  328.0000     6.7884   564.7441
  328.5000     6.6180   565.1718
  329.0000     6.4712   557.9581
  329.5000     6.4588   535.2198
  330.0000     6.4879   525.8322
  330.5000     6.5655   498.8825
  331.0000     6.6789   482.1622
  331.5000     6.6942   479.9567
  332.0000     6.6951   480.7138
  332.5000     6.7322   491.8547
  333.0000     6.8332   504.3170
  333.5000     6.9445   510.2038
  334.0000     7.0208   510.9950
  334.5000     7.1107   488.2841
  335.0000     7.2250   483.7419
  335.5000     7.2440   482.4865
  336.0000     7.2351   448.1615
  336.5000     7.0055   422.9595
  337.0000     6.8939   418.6373
  337.5000     6.8845   417.9749
  338.0000     6.9016   411.2749
  338.5000     6.9397   404.2538
  339.0000     7.0059   400.4686
  339.5000     7.0668   402.3205
  340.0000     7.1167   408.0389
  340.5000     7.2334   410.0905
  341.0000     7.1050   411.8241
  341.5000     6.9684   414.8463
  342.0000     6.9906   418.6752
  342.5000     7.0686   414.8522
  343.0000     7.1808   400.2105
  343.5000     7.2187   392.8983
  344.0000     7.1959   392.8983
  344.5000     7.0674   393.6554
  345.0000     7.0417   393.6554
  345.5000     7.0296   393.6554
  346.0000     7.0297   394.5588
  346.5000     7.0298   396.6835
  347.0000     7.0299   397.1100
  347.5000     7.0299   393.5228
  348.0000     7.0376   389.1132
  348.5000     7.0452   386.6138
  349.0000     7.0819   384.5710
  349.5000     7.0987   384.5710
  350.0000     7.1061   386.8420
  350.5000     7.0830   398.9546
  351.0000     6.9547   412.5207
  351.5000     6.8314   425.5949
  352.0000     6.7299   432.4655
  352.5000     6.6898   437.2225
  353.0000     6.6758   438.3201
  353.5000     6.6516   444.9629
  354.0000     6.6497   474.4019
  354.5000     6.6568   490.5551
  355.0000     6.6977   492.3595
  355.5000     6.7451   492.8263
  356.0000     6.7944   492.8263
  356.5000     6.8343   492.8263
  357.0000     6.8562   492.8263
  357.5000     6.8729   492.8263
  358.0000     6.8573   492.9120
  358.5000     6.8422   493.0269
  359.0000     6.8726   492.5562
  359.5000     6.9658   490.5551
  360.0000     6.9606   467.5412
  360.5000     6.9183   466.3302
  361.0000     6.8481   465.5732
  361.5000     6.7966   461.9463
  362.0000     6.7951   450.9273
  362.5000     6.8479   445.8904
  363.0000     7.1383   443.8768
  363.5000     7.1834   439.8342
  364.0000     7.2067   435.9381
  364.5000     7.1461   434.9969
  365.0000     7.1199   433.0209
  365.5000     7.1160   432.5958
  366.0000     7.1312   435.5191
  366.5000     7.2701   451.1896
  367.0000     7.4874   459.9762
  367.5000     7.5072   461.0310
  368.0000     7.5509   461.0310
