~VERSION INFORMATION
 VERS.                2.0:   CWLS LOG ASCII STANDARD - VERSION 2.0
 WRAP.                 NO:   ONE LINE PER DEPTH STEP
~WELL INFORMATION
#MNEM.UNIT      DATA TYPE    INFORMATION
#----------   ------------   ------------------------------
 STRT.F           30.0000:   START DEPTH
 STOP.F         1178.5000:   STOP DEPTH
 STEP.F            0.5000:   STEP LENGTH
 NULL.          -999.2500:   NO VALUE
 COMP. FENIX & SCISSON INC:   COMPANY
 WELL.     64-S-14 #14-14:   WELL
 FLD .        TEAPOT DOME:   FIELD
 LOC .      S14 T38N R78W:   LOCATION
 CNTY.            NATRONA:   COUNTY
 STAT.            WYOMING:   STATE
 CTRY. UNITED STATES OF AMERICA:   COUNTRY
 SRVC.            Unknown:   SERVICE COMPANY
 DATE.        19-APR-1978:   LOGDATE
 API .       490251061400:   API NUMBER
~CURVE INFORMATION
#MNEM.UNIT       API CODE    CURVE DESCRIPTION
#----------   ------------   ------------------------------
 DEPT.F                  :   
 SPR .MV     05 010 01 00:   SPONTANEOUS POTENTIAL
 SN  .OHMM   05 040 16 00:   SHORT NORMAL 16'
 ILD .OHMM   05 120 46 00:   INDUCTION LOG DEEP
 CALD.IN     45 280 60 00:   CALIPER
 GRD .GAPI   45 310 01 00:   GAMMA RAY FROM DENSITY LOG
 RHOB.G/C3   45 350 01 00:   BULK DENSITY
 DPHI.DEC    45 890 12 00:   DENSITY POROSITY SANDSTONE
 CORR.G/C3   45 356 01 00:   DENSITY CORRECTION
~PARAMETER INFORMATION
#MNEM.UNIT          VALUE    DESCRIPTION
#----------   ------------   ------------------------------
 PD  .                 GL:   PERMANENT DATUM
 EPD .F              5235:   ELEVATION PERMANENT DATUM
 LMF .                 KB:   LOG MEASURED FROM
 DMF .                 KB:   DRILLING MEASURED FROM
 EKB .F              5299:   KELLING BUSHING
 EGL .F              5295:   GROUND LEVEL
 DATE.          4-19-1978:   RUN DATE
 RUN .                  1:   RUN NUMBER
 DD  .F              1180:   DEPTH DRILLER
 DL  .F              1182:   DEPTH LOGGER
 BLI .F              1176:   BOTTOM LOG INTERVAL
 TLI .F                50:   TOP LOG INTERVAL
 CS  .IN            8.625:   CASING SIZE
 CBD .F                40:   CASING BOTTOM DRILLER
 CBL .F                50:   CASING BOTTOM LOGGER
 BS  .IN            7.875:   BIT SIZE
 BSD .F              1180:   BIT SIZE AT DEPTH
 DFT .                KCL:   DRILLING FLUID TYPE
 DFD .                8.7:   DRILLING FLUID DENSITY
 DFV .                 33:   DRILLING FLUID VISCOSITY
 DFPH.               10.5:   DRILLING FLUID PH
 DFL .               12.3:   DRILLING FLUID LOSS
 MSS .            MUD PIT:   MUD SAMPLE SOURCE
 RMS .OHMM            .54:   RESISTIVITY MUD SAMPLE
 MST .F                62:   MUD SAMPLE TEMPERATURE
 RMF .OHMM            .65:   RESISTIVITY MUD FILTRATE SAMPLE
 MFST.F                60:   MUD FILTRATE SAMPLE TEMPERATURE
 RMC .OHMM            .35:   RESISTIVITY MUD CAKE
 MCST.F                60:   MUD CAKE SAMPLE TEMPERATURE
 MFSS.           MEASURED:   MUD FILTRATE SAMPLE SOURCE
 RMB .OHMM            .42:   RESISTIVITY MUD AT BHT
 BHT .F                80:   BOTTOM HOLE TEMPERATURE
 TCS .HRS               2:   TIME CURCULATED STOPPED
 MRT .F                80:   MAXIMUM RECORDED TEMPERATURE
 LUN .               2955:   LOGGING UNIT NUMBER
 LUL .               CASP:   LOGGING UNIT LOCATION
 ENGI.             MILLER:   RECORDING ENGINEER
 WITN.           MCGINLEY:   WITNESSED BY
 CLNT.            A2DTECH:   CLIENT CODE
 ORIG.      2" & 5" PRINT:   ORIGIN OF DATA
 UWI .       490251061400:   UNIQUE WELL ID
 DICO. A2D Technologies, Inc.:   DIGITIZING COMPANY
~OTHER INFORMATION
~A   DEPT      SPR         SN        ILD       CALD         GRD      RHOB       DPHI       CORR   
# ...
  921.0000   -40.4292     5.0758     4.8343     7.3525    99.7282     2.4980     0.1124     0.0597
  921.5000   -40.4244     5.0180     4.6645     7.4044    98.2662     2.4887     0.1164     0.0586
  922.0000   -40.4196     4.9659     4.4295     7.4986    96.3004     2.4837     0.1165     0.0609
  922.5000   -40.4148     4.9652     4.2066     7.6344    95.3275     2.4832     0.1138     0.0678
  923.0000   -40.4100     4.9686     3.9950     7.7580    96.8033     2.4892     0.1125     0.0645
  923.5000   -40.4052     4.6284     3.7708     7.7886    98.2878     2.4861     0.1166     0.0612
  924.0000   -40.4004     4.3828     3.7738     7.8045   100.6970     2.4826     0.1192     0.0709
  924.5000   -40.3955     4.1711     3.7727     7.7876   103.2138     2.4991     0.1099     0.0894
  925.0000   -40.3907     4.2701     3.7900     7.7713   105.6864     2.5059     0.1019     0.1045
  925.5000   -40.3859     4.4696     3.8425     7.7550   105.7691     2.5240     0.0938     0.0953
  926.0000   -40.3811     4.6781     4.1493     7.7387   103.5275     2.5301     0.0900     0.0682
  926.5000   -40.3763     4.9195     4.4493     7.7222    97.7711     2.5214     0.0938     0.0413
  927.0000   -40.3715     5.1483     4.7711     7.6967    92.8597     2.5049     0.1047     0.0162
  927.5000   -40.3667     5.4149     5.1520     7.6356    94.6014     2.4887     0.1156     0.0045
  928.0000   -40.3618     5.6958     5.2956     7.5759    96.6624     2.4782     0.1195     0.0036
  928.5000   -40.3570     6.0206     5.3936     7.5996    96.8953     2.4769     0.1195     0.0028
  929.0000   -40.3522     6.1601     5.4965     7.6335    96.6813     2.4746     0.1221     0.0045
  929.5000   -40.3474     6.3189     5.5918     7.6675    96.5529     2.4658     0.1246     0.0083
  930.0000   -40.3426     6.4819     5.6887     7.7014    97.0307     2.4634     0.1271     0.0180
  930.5000   -40.3378     6.5984     5.7873     7.7352    97.5078     2.4615     0.1280     0.0385
  931.0000   -40.3330     6.5938     5.9112     7.7686    97.9145     2.4704     0.1197     0.0564
  931.5000   -40.3281     6.5896     5.9299     7.7809    97.8867     2.5017     0.1112     0.0604
  932.0000   -40.3233     6.5854     5.9466     7.7549    97.0033     2.5134     0.1028     0.0598
  932.5000   -40.3185     6.5812     5.9640     7.7298    94.6637     2.5118     0.1002     0.0592
  933.0000   -40.3137     6.5770     5.9810     7.7147    93.5411     2.5122     0.0988     0.0589
  933.5000   -40.3089     6.5728     5.9982     7.7425    94.8067     2.5154     0.1002     0.0482
  934.0000   -40.3041     6.5686     6.0154     7.7692    96.3114     2.5121     0.1023     0.0366
  934.5000   -40.2993     6.5645     6.0326     7.7963   102.0559     2.5073     0.1053     0.0249
  935.0000   -40.2944     6.5603     6.0499     7.8324   107.7747     2.5025     0.1083     0.0129
  935.5000   -40.2896     6.5561     6.0673     7.8797   111.1002     2.4981     0.1089     0.0105
  936.0000   -40.2848     6.5520     6.0847     7.9271   107.5435     2.4962     0.1099     0.0105
  936.5000   -40.2800     6.5479     6.1021     7.9353   102.1715     2.4943     0.1127     0.0105
  937.0000   -40.2752     6.5440     6.1196     7.9082   101.4541     2.4925     0.1120     0.0105
  937.5000   -40.2704     6.5382     6.1411     7.8805    99.4451     2.4946     0.1114     0.0105
  938.0000   -40.2655     6.6591     6.1725     7.8528    97.5411     2.4972     0.1080     0.0105
  938.5000   -40.2607     6.7455     6.2042     7.8252    95.9929     2.4916     0.1044     0.0105
  939.0000   -40.2559     6.8428     6.2362     7.7969   102.7220     2.4860     0.1064     0.0121
  939.5000   -40.2511     6.9714     6.2677     7.7694   103.2729     2.4805     0.1088     0.0144
  940.0000   -40.2463     6.8448     6.3609     7.7893   108.8690     2.4751     0.1190     0.0167
  940.5000   -40.2415     6.6679     6.2168     7.8138   116.2886     2.4597     0.1364     0.0190
  941.0000   -40.2367     6.4955     5.8222     7.8832   123.1702     2.4374     0.1538     0.0223
  941.5000   -40.2318     6.3277     5.2086     7.9543   123.2257     2.3958     0.1713     0.0401
  942.0000   -40.2270     5.9656     4.6564     8.0252   111.7363     2.3776     0.1725     0.0810
  942.5000   -40.2222     5.4432     4.1719     8.0946   103.0885     2.4457     0.1429     0.1097
  943.0000   -40.2174     4.9665     4.1352     8.1101    98.0753     2.4791     0.1218     0.0433
  943.5000   -40.2126     4.5316     4.1455     8.1019    98.3147     2.4832     0.1096     0.0275
  944.0000   -40.2078     4.3287     4.1573     8.0300    98.3711     2.4994     0.1054     0.0558
  944.5000   -40.2030     4.3287     4.1693     7.9577    97.3533     2.5169     0.0977     0.0833
  945.0000   -40.1981     4.4493     4.2696     7.8857    96.3073     2.5343     0.0899     0.1030
  945.5000   -40.1933     5.0602     4.3886     7.8137    96.3388     2.5444     0.0823     0.0999
  946.0000   -40.1885     5.9720     5.0673     7.7413    97.8691     2.5405     0.0859     0.0794
  946.5000   -40.1837     7.1657     6.0227     7.6719    99.3523     2.5288     0.0923     0.0592
  947.0000   -40.1789     7.5361     7.1003     7.6732   102.7328     2.5194     0.0981     0.0542
  947.5000   -40.1741     7.7818     7.4333     7.6782   106.5116     2.5168     0.0992     0.0499
  948.0000   -40.1693     7.9621     7.5708     7.6828   110.0775     2.5141     0.1000     0.0467
  948.5000   -40.1644     8.1094     7.5465     7.6876   110.1458     2.5125     0.1009     0.0481
  949.0000   -40.1596     8.1467     7.5120     7.6982   108.0403     2.5125     0.1019     0.0463
  949.5000   -40.1548     8.1467     7.4776     7.7352   105.2886     2.5126     0.1032     0.0430
  950.0000   -40.1500     8.1467     7.4434     7.7709   102.5122     2.5077     0.1049     0.0395
  950.5000   -40.1452     8.1467     7.4333     7.8060    99.7436     2.5033     0.1068     0.0361
  951.0000   -40.1404     8.1474     7.4333     7.8236    96.4866     2.4993     0.1087     0.0327
  951.5000   -40.1356     8.1464     7.5017     7.8028    92.2642     2.4924     0.1137     0.0293
  952.0000   -40.1307     8.1518     7.6405     7.8008    88.0499     2.4731     0.1239     0.0259
  952.5000   -40.1259     8.2326     7.7818     7.8301    83.8361     2.4528     0.1323     0.0244
  953.0000   -40.1211     8.2127     8.0849     7.8589    79.6282     2.4378     0.1407     0.0297
  953.5000   -40.1163     8.7535     8.4189     7.8878    75.6592     2.4316     0.1477     0.0362
  954.0000   -40.1115     9.1794     8.7646     7.9167    73.3764     2.4257     0.1475     0.0389
  954.5000   -40.1067     9.6243     9.1241     7.9456    70.3846     2.4284     0.1469     0.0396
  955.0000   -40.1018    10.0901     9.4982     7.9742    66.5803     2.4207     0.1494     0.0403
  955.5000   -40.0970    10.5785     9.8877     8.0028    63.8635     2.4112     0.1570     0.0470
  956.0000   -40.0922    11.0904    10.2931     8.0302    64.9425     2.3850     0.1647     0.0603
  956.5000   -40.0874    11.6272    10.7247     7.9969    67.7175     2.3942     0.1646     0.0694
  957.0000   -40.0826    11.9656    11.0236     7.9554    72.7019     2.3982     0.1615     0.0751
  957.5000   -40.0778    11.9105    11.0103     7.9134    75.9471     2.4034     0.1584     0.0826
  958.0000   -40.0730    11.8667    10.9762     7.8716    74.5662     2.4084     0.1553     0.0942
  958.5000   -40.0681    11.8230    10.9421     7.8312    72.6422     2.4137     0.1540     0.0863
  959.0000   -40.0633    11.7795    10.9082     7.7891    70.9399     2.4081     0.1549     0.0661
  959.5000   -40.0585    11.7300    10.8743     7.7903    70.5425     2.3979     0.1629     0.0466
  960.0000   -40.0539    11.6179    10.8406     7.7946    70.9083     2.3956     0.1609     0.0375
  960.5000   -40.0497    11.5068    10.8069     7.7995    71.0315     2.4009     0.1576     0.0290
  961.0000   -40.0455    11.3968    10.7734     7.8044    68.6657     2.4021     0.1577     0.0205
