~VERSION INFORMATION
 VERS.                2.0:   CWLS LOG ASCII STANDARD - VERSION 2.0
 WRAP.                 NO:   ONE LINE PER DEPTH STEP
~WELL INFORMATION
#MNEM.UNIT      DATA TYPE    INFORMATION
#----------   ------------   ------------------------------
 STRT.F            8.0000:   START DEPTH
 STOP.F          664.0000:   STOP DEPTH
 STEP.F            0.5000:   STEP LENGTH
 NULL.          -999.2500:   NO VALUE
 COMP. LAWRENCE/ALLISON INC:   COMPANY
 WELL.    13-61 SX #11-11:   WELL
 FLD .             TEAPOT:   FIELD
 LOC .      S11 T38N R78W:   LOCATION
 CNTY.            NATRONA:   COUNTY
 STAT.            WYOMING:   STATE
 CTRY. UNITED STATES OF AMERICA:   COUNTRY
 SRVC.           Gearhart:   SERVICE COMPANY
 DATE.        22-JUN-1986:   LOGDATE
 API .       490251109700:   API NUMBER
~CURVE INFORMATION
#MNEM.UNIT       API CODE    CURVE DESCRIPTION
#----------   ------------   ------------------------------
 DEPT.F                  :   
 GRR .GAPI   07 310 01 00:   GAMMA RAY FROM RES. LOG.
 ILM .OHMM   07 120 44 00:   INDUCTION LOG MEDIUM
 ILD .OHMM   07 120 46 00:   INDUCTION LOG DEEP
~PARAMETER INFORMATION
#MNEM.UNIT          VALUE    DESCRIPTION
#----------   ------------   ------------------------------
 PD  .                 GL:   PERMANENT DATUM
 EPD .F              5154:   ELEVATION PERMANENT DATUM
 LMF .                 KB:   LOG MEASURED FROM
 DAPD.F                 5:   FEET ABOVE PERMANENT DATUM
 DMF .                 KB:   DRILLING MEASURED FROM
 EKB .F              5159:   KELLING BUSHING
 EGL .F              5154:   GROUND LEVEL
 DATE.            6-22-86:   RUN DATE
 RUN .                  1:   RUN NUMBER
 DD  .F               675:   DEPTH DRILLER
 DL  .F               673:   DEPTH LOGGER
 BLI .F               664:   BOTTOM LOG INTERVAL
 CS  .IN            8.625:   CASING SIZE
 CBD .F                44:   CASING BOTTOM DRILLER
 CBL .F                46:   CASING BOTTOM LOGGER
 BS  .IN            7.875:   BIT SIZE
 BSD .F               675:   BIT SIZE AT DEPTH
 DFT .                AIR:   DRILLING FLUID TYPE
 TCS .HRS            1830:   TIME CURCULATED STOPPED
 MRT .F                69:   MAXIMUM RECORDED TEMPERATURE
 LUN .               7609:   LOGGING UNIT NUMBER
 LUL .           GILLETTE:   LOGGING UNIT LOCATION
 ENGI.            WANGLER:   RECORDING ENGINEER
 WITN.              DAVIS:   WITNESSED BY
 CLNT.            A2DTECH:   CLIENT CODE
 ORIG.       2", 5" PRINT:   ORIGIN OF DATA
 UWI .       490251109700:   UNIQUE WELL ID
 DICO. A2D Technologies, Inc.:   DIGITIZING COMPANY
~OTHER INFORMATION
~A    DEPT      GRR       ILM        ILD   
# ...
  190.0000   118.8623     8.2597     8.4310
  190.5000   117.9999     8.3188     8.3932
  191.0000   117.0761     8.3850     8.3378
  191.5000   116.6484     8.4516     8.3962
  192.0000   117.6297     8.5401     8.5086
  192.5000   118.6315     8.6736     8.6226
  193.0000   117.6471     8.8088     8.7380
  193.5000   116.2638     8.9462     8.8551
  194.0000   115.8056     9.0856     8.9736
  194.5000   113.9881     9.2273     9.0938
  195.0000   109.6908     9.3712     9.2156
  195.5000   102.6826     9.5174     9.3390
  196.0000   100.3357     9.6929     9.5116
  196.5000   101.6596     9.6445     9.4584
  197.0000   105.8654     9.5684     9.3737
  197.5000   111.1925     9.4929     9.2899
  198.0000   116.5226     9.4225     9.2067
  198.5000   120.5178     9.2777     9.1244
  199.0000   120.3584     9.1431     9.0427
  199.5000   120.2750     9.0104     8.9618
  200.0000   120.1949     8.8796     8.8748
  200.5000   120.1168     8.7507     8.7729
  201.0000   120.0388     8.6238     8.6721
  201.5000   119.9607     8.4986     8.5724
  202.0000   119.8827     8.3753     8.4739
  202.5000   119.8045     8.2537     8.3766
  203.0000   119.7255     8.1340     8.2803
  203.5000   119.6385     8.0719     8.1824
  204.0000   119.9570     8.0277     8.1679
  204.5000   120.3676     7.9838     8.1530
  205.0000   120.8698     7.9399     8.1381
  205.5000   121.3787     7.8806     8.1232
  206.0000   121.3473     7.9415     8.1057
  206.5000   120.6354     8.0448     8.1781
  207.0000   117.5883     8.1487     8.2955
  207.5000   116.3822     8.2538     8.4146
  208.0000   115.2511     8.3603     8.5358
  208.5000   114.1200     8.4682     8.6160
  209.0000   112.9258     8.5775     8.6762
  209.5000   113.4909     8.6882     8.7367
  210.0000   116.6410     8.8003     8.7977
  210.5000   120.1133     8.9139     8.8591
  211.0000   121.4414     9.0291     8.9209
  211.5000   119.6622     9.1449     8.9831
  212.0000   117.8664     9.2469     9.0745
  212.5000   118.5735     9.1564     9.0559
  213.0000   120.8653     9.0776     9.0218
  213.5000   123.1734     8.9995     8.9878
  214.0000   124.8622     8.9221     8.9540
  214.5000   124.0659     8.8454     8.9203
  215.0000   121.9906     8.7693     8.8868
  215.5000   119.9276     8.7115     8.8533
  216.0000   116.9093     8.6657     8.8200
  216.5000   113.9065     8.6200     8.7868
  217.0000   114.0622     8.5747     8.7537
  217.5000   117.1457     8.5295     8.7208
  218.0000   121.9317     8.4961     8.6880
  218.5000   123.7722     8.5424     8.6575
  219.0000   123.0166     8.5765     8.7581
  219.5000   122.2764     8.6782     8.8531
  220.0000   121.5283     8.7936     8.9493
  220.5000   120.7842     8.9114     9.0464
  221.0000   120.0347     9.0295     9.1431
  221.5000   119.1330     9.2497     9.3628
  222.0000   118.2286     9.2434     9.5879
  222.5000   117.3478     9.8061     9.8084
  223.0000   115.8721     9.9298     9.9755
  223.5000   114.3160    10.0602    10.1454
  224.0000   113.1719    10.1912    10.3183
  224.5000   112.7057    10.3241    10.4941
  225.0000   112.8808    10.4588    10.6728
  225.5000   113.0308    10.5952    10.8547
  226.0000   113.9830    10.7484    11.0395
  226.5000   115.2808    10.9931    11.2282
  227.0000   114.9814    11.2433    11.4266
  227.5000   111.1261    11.4992    11.6597
  228.0000   106.3639    11.7609    11.8964
  228.5000   102.3690    12.0288    12.1379
  229.0000   102.5691    12.3023    12.3844
  229.5000   102.6933    12.6132    12.6132
  230.0000   102.8140    12.5527    12.5800
  230.5000   102.7928    12.4851    12.5323
  231.0000   100.8781    12.4179    12.4848
  231.5000    98.9190    12.3510    12.4374
  232.0000    97.1829    12.2845    12.3902
  232.5000    98.7975    12.2184    12.3093
  233.0000   104.1594    12.1526    12.2173
  233.5000   108.4574    12.0871    12.1260
  234.0000   109.7671    12.0180    12.0354
  234.5000   105.2504    11.9304    11.9455
  235.0000   100.6095    11.8436    11.8562
  235.5000    98.8207    11.7573    11.7676
  236.0000    98.2242    11.6717    11.6987
  236.5000    97.9960    11.5892    11.7403
  237.0000    98.4316    11.6347    11.7812
  237.5000   101.2040    11.6801    11.8222
  238.0000   102.7884    11.7253    11.8634
  238.5000   101.2846    11.7705    11.9047
  239.0000    98.4093    11.8159    11.9463
  239.5000    97.0404    11.8615    11.9884
  240.0000    95.9435    11.9210    12.0336
  240.5000    94.8334    11.7920    11.8721
  241.0000    93.9337    11.6110    11.6953
  241.5000    96.1607    11.4328    11.5211
  242.0000   102.3119    11.2573    11.3507
  242.5000   108.2685    11.0845    11.1901
  243.0000   109.5258    10.9144    11.0317
  243.5000   105.5684    10.7469    10.8756
  244.0000   100.6150    10.5819    10.7217
  244.5000   100.3826    10.4441    10.5700
  245.0000   100.8947    10.4204    10.4467
  245.5000   101.2481    10.3956    10.4310
  246.0000   102.0375    10.3710    10.4152
  246.5000   103.7346    10.3464    10.3995
  247.0000   102.8717    10.3218    10.3839
  247.5000   101.5860    10.2973    10.3682
  248.0000   100.2925    10.2729    10.3526
  248.5000    99.5894    10.2485    10.3370
  249.0000    99.8150    10.2242    10.3214
  249.5000   100.7063    10.2000    10.3058
  250.0000   101.4964    10.1757    10.2903
  250.5000   102.1506    10.1508    10.2748
  251.0000    99.7085    10.1239    10.2593
  251.5000    98.7085    10.0972    10.2171
  252.0000    97.7226    10.0705    10.1651
  252.5000    98.9407    10.0439    10.1134
  253.0000   100.8189    10.0174    10.0619
  253.5000   101.7056     9.9907    10.0108
  254.0000   101.8702     9.9358     9.9697
  254.5000   102.0325     9.7562     9.8500
  255.0000   101.4991     9.5811     9.7229
  255.5000   100.8095     9.4087     9.6015
  256.0000   100.3508     9.2469     9.3507
  256.5000   102.1121     8.9210     9.0586
  257.0000   105.0957     8.6192     8.7756
  257.5000   107.5879     8.3278     8.5015
  258.0000   106.2206     8.1672     8.2597
  258.5000   104.1278     8.1380     8.2473
  259.0000   104.0523     8.1057     8.2295
  259.5000   105.7718     8.1057     8.2117
  260.0000   107.2791     8.1058     8.1939
  260.5000   107.3231     8.1058     8.1824
  261.0000   105.6860     8.1058     8.2880
  261.5000   104.9438     8.1063     8.3673
  262.0000   105.5695     8.2318     8.4734
  262.5000   105.3045     8.3638     8.6233
  263.0000   104.7353     8.4977     8.7759
  263.5000   105.6670     8.6337     8.9311
  264.0000   109.0335     8.8220     9.0084
  264.5000   113.3981     8.9157     9.0386
  265.0000   114.8688     9.0071     9.0688
  265.5000   113.5412     9.0994     9.0992
  266.0000   111.6005     9.1927     9.1296
  266.5000   109.6505     9.3343     9.1602
  267.0000   107.7268     9.3171     9.1908
  267.5000   105.5956     9.2831     9.2216
  268.0000   103.4791     9.2491     9.2524
  268.5000   105.7015     9.2153     9.2834
  269.0000   109.0793     9.1816     9.3150
  269.5000   111.5944     9.1475     9.3343
  270.0000   111.8123     9.1122     9.2511
  270.5000   110.8324     9.0771     9.1905
  271.0000   109.8736     9.0421     9.1304
  271.5000   108.9240     9.0073     9.0706
  272.0000   107.9881     8.9726     9.0113
  272.5000   107.5807     8.9380     8.9800
  273.0000   108.5785     8.9054     8.9650
  273.5000   111.1677     8.8851     8.9501
  274.0000   112.9800     8.8659     8.9352
  274.5000   112.7377     8.8467     8.9202
  275.0000   111.9537     8.8276     8.9054
  275.5000   114.1044     8.8085     8.8905
  276.0000   116.4037     8.7895     8.8757
  276.5000   116.5017     8.7706     8.8609
  277.0000   115.4335     8.7515     8.8461
  277.5000   114.0336     8.7141     8.8315
  278.0000   110.2663     8.6436     8.7952
  278.5000   105.4233     8.5736     8.7235
  279.0000   102.0931     8.5042     8.6522
  279.5000   102.2392     8.4354     8.5815
  280.0000   103.0638     8.3671     8.5113
  280.5000   103.3819     8.2994     8.4417
