~VERSION INFORMATION
 VERS.                2.0:   CWLS LOG ASCII STANDARD - VERSION 2.0
 WRAP.                 NO:   ONE LINE PER DEPTH STEP
~WELL INFORMATION
#MNEM.UNIT      DATA TYPE    INFORMATION
#----------   ------------   ------------------------------
 STRT.F           15.0000:   START DEPTH
 STOP.F          692.0000:   STOP DEPTH
 STEP.F            0.5000:   STEP LENGTH
 NULL.          -999.2500:   NO VALUE
 COMP.    FENIX & SCISSON:   COMPANY
 WELL. S 15 NPR #3 #73-15:   WELL
 FLD .             TEAPOT:   FIELD
 LOC .      S15 T38N R78W:   LOCATION
 CNTY.            NATRONA:   COUNTY
 STAT.            WYOMING:   STATE
 CTRY. UNITED STATES OF AMERICA:   COUNTRY
 SRVC.              Welex:   SERVICE COMPANY
 DATE.        23-FEB-1977:   LOGDATE
 API .       490251057900:   API NUMBER
~CURVE INFORMATION
#MNEM.UNIT       API CODE    CURVE DESCRIPTION
#----------   ------------   ------------------------------
 DEPT.F                  :   
 SPR .MV     07 010 01 00:   SPONTANEOUS POTENTIAL
 SGRD.OHMM   07 220 05 00:   SHALLOW GUARD RESISTIVITY
 ILD .OHMM   07 120 46 00:   INDUCTION LOG DEEP
 ILM .OHMM   07 120 44 00:   INDUCTION LOG MEDIUM
 CALD.IN     45 280 60 00:   CALIPER
 GRD .GAPI   45 310 01 00:   GAMMA RAY FROM DENSITY LOG
 CORR.G/C3   45 356 01 00:   DENSITY CORRECTION
 DPHI.DEC    45 890 10 00:   DENSITY POROSITY SANDSTONE
 RHOB.G/C3   45 350 01 00:   BULK DENSITY
~PARAMETER INFORMATION
#MNEM.UNIT          VALUE    DESCRIPTION
#----------   ------------   ------------------------------
 PD  .                 GL:   PERMANENT DATUM
 EPD .F              5251:   ELEVATION PERMANENT DATUM
 LMF .                 GL:   LOG MEASURED FROM
 DMF .                 GL:   DRILLING MEASURED FROM
 EGL .F              5251:   GROUND LEVEL
 DATE.            2-23-77:   RUN DATE
 RUN .                  1:   RUN NUMBER
 DD  .F               686:   DEPTH DRILLER
 DL  .F               695:   DEPTH LOGGER
 BLI .F               693:   BOTTOM LOG INTERVAL
 TLI .F                42:   TOP LOG INTERVAL
 CS  .IN            8.625:   CASING SIZE
 CBD .F                42:   CASING BOTTOM DRILLER
 CBL .F                42:   CASING BOTTOM LOGGER
 BS  .IN            7.875:   BIT SIZE
 BSD .F               686:   BIT SIZE AT DEPTH
 DFT .           CHEM GEL:   DRILLING FLUID TYPE
 DFD .                8.8:   DRILLING FLUID DENSITY
 DFV .                 33:   DRILLING FLUID VISCOSITY
 DFPH.                  7:   DRILLING FLUID PH
 DFL .               11.2:   DRILLING FLUID LOSS
 MSS .          FLOW LINE:   MUD SAMPLE SOURCE
 RMS .OHMM            .32:   RESISTIVITY MUD SAMPLE
 MST .F                68:   MUD SAMPLE TEMPERATURE
 RMF .OHMM            .28:   RESISTIVITY MUD FILTRATE SAMPLE
 MFST.F                68:   MUD FILTRATE SAMPLE TEMPERATURE
 RMC .OHMM            .61:   RESISTIVITY MUD CAKE
 MCST.F                68:   MUD CAKE SAMPLE TEMPERATURE
 MFSS.           MEASURED:   MUD FILTRATE SAMPLE SOURCE
 MCSS.           MEASURED:   MUD CAKE SAMPLE SOURCE
 RMB .OHMM           .410:   RESISTIVITY MUD AT BHT
 BHT .F                53:   BOTTOM HOLE TEMPERATURE
 TCS .HRS               2:   TIME CURCULATED STOPPED
 MRT .F                53:   MAXIMUM RECORDED TEMPERATURE
 LUN .               8611:   LOGGING UNIT NUMBER
 LUL .           GILLETTE:   LOGGING UNIT LOCATION
 ENGI.            C. DOAK:   RECORDING ENGINEER
 WITN.         STUEBINGER:   WITNESSED BY
 CLNT.            A2DTECH:   CLIENT CODE
 ORIG. 1", 2.5", 5" PRINT:   ORIGIN OF DATA
 UWI .       490251057900:   UNIQUE WELL ID
 DICO. A2D Technologies, Inc.:   DIGITIZING COMPANY
~OTHER INFORMATION
~A   DEPT      SPR       SGRD        ILD        ILM       CALD         GRD      CORR       DPHI       RHOB   
# ...
   88.0000   -17.5484    11.4961     7.7387     9.3527     8.2908   106.1040     0.0958     0.1190     2.4480
   88.5000   -17.7497    11.7622     8.4662     9.7772     8.2908   104.1250     0.0955     0.1220     2.4411
   89.0000   -17.9548    12.9280     9.0792    10.2212     8.2908   102.0946     0.0933     0.1262     2.4326
   89.5000   -18.1592    13.8992     9.5176    10.6854     8.2908   100.0327     0.0910     0.1303     2.4296
   90.0000   -18.3641    14.1541     9.9759    11.1708     8.2908    99.6969     0.0886     0.1350     2.4227
   90.5000   -18.5676    14.4137    10.4562    11.7071     8.2908   101.0309     0.0865     0.1397     2.4161
   91.0000   -18.7710    14.6781    10.9600    11.9536     8.2908   102.5694     0.0842     0.1444     2.4090
   91.5000   -18.9814    14.9473    11.4935    12.2198     8.2908   102.0667     0.0820     0.1485     2.4021
   92.0000   -19.1794    15.1330    11.5743    12.4913     8.2909    99.0871     0.0797     0.1508     2.3952
   92.5000   -19.7104    14.9906    11.6572    12.7746     8.2906   100.0248     0.0775     0.1528     2.3903
   93.0000   -20.4027    14.8496    11.7411    13.0594     8.2910   102.6009     0.0753     0.1548     2.3880
   93.5000   -21.0877    14.7100    11.8255    13.3253     8.2916    99.8727     0.0731     0.1568     2.3850
   94.0000   -21.7680    14.6136    11.9101    13.5736     8.3020    97.8039     0.0745     0.1581     2.3824
   94.5000   -22.4539    15.4243    11.9949    13.4901     8.3109    99.2641     0.0771     0.1581     2.3824
   95.0000   -23.1366    16.0265    12.0801    13.3993     8.3200   101.8282     0.0796     0.1520     2.3882
   95.5000   -23.8201    16.0265    12.1502    13.3253     8.3299   104.6972     0.0821     0.1447     2.3956
   96.0000   -24.5047    16.1590    12.1506    13.6235     8.3305   107.4808     0.0847     0.1373     2.4031
   96.5000   -25.0352    16.4645    12.1506    14.0842     8.3309   110.6746     0.0873     0.1362     2.4083
   97.0000   -25.4503    16.6358    12.1506    13.8499     8.3302   107.3736     0.0897     0.1406     2.4063
   97.5000   -25.6042    16.7729    12.1935    13.0783     8.3309   103.2585     0.0922     0.1449     2.4020
   98.0000   -25.6164    16.9036    12.3516    13.0838     8.3324   101.2250     0.0911     0.1477     2.4000
   98.5000   -25.4110    17.0343    12.5118    13.9272     8.3567   102.3687     0.0897     0.1444     2.4051
   99.0000   -25.0722    17.1660    12.6741    14.6133     8.3781   103.3477     0.0885     0.1400     2.4099
   99.5000   -24.7826    17.2995    12.8424    14.5879     8.4016   102.5906     0.0895     0.1410     2.4121
  100.0000   -24.4410    17.4417    12.8424    14.5193     8.4130   102.4094     0.0909     0.1437     2.3916
  100.5000   -24.7101    17.5759    12.8424    14.4507     8.4158   104.8435     0.0923     0.1453     2.3973
  101.0000   -25.0762    17.1059    12.9681    14.3463     8.4194   107.1569     0.0936     0.1414     2.4095
  101.5000   -25.4845    16.8756    13.0816    14.5075     8.4229   105.2794     0.0950     0.1376     2.4217
  102.0000   -25.5013    16.6291    12.9480    14.8556     8.4263   106.0944     0.0964     0.1338     2.4351
  102.5000   -25.3137    17.3663    12.8424    15.4456     8.4298   107.8623     0.0978     0.1299     2.4365
  103.0000   -25.1357    18.2369    13.2645    15.4165     8.4333   105.2085     0.0991     0.1280     2.4382
  103.5000   -24.9854    17.9046    13.5736    15.3355     8.4368   103.1004     0.1004     0.1257     2.4392
  104.0000   -24.8322    17.5759    13.3656    15.2592     8.4402   101.5157     0.0999     0.1234     2.4402
  104.5000   -25.2370    18.2369    13.3710    15.1664     8.4438   104.5256     0.0989     0.1225     2.4399
  105.0000   -25.6737    17.8703    13.5588    15.1397     8.4473   104.2067     0.0980     0.1229     2.4391
  105.5000   -26.1596    17.5759    13.7493    15.1088     8.4502   104.2691     0.0972     0.1234     2.4382
  106.0000   -26.4106    18.7523    13.9425    15.0784     8.4504   105.1368     0.0963     0.1239     2.4400
  106.5000   -26.3844    19.6342    14.1384    15.0483     8.4502   106.1632     0.0954     0.1239     2.4462
  107.0000   -26.3892    18.9282    14.3370    15.0185     8.4502   105.0639     0.0945     0.1247     2.4520
  107.5000   -26.3922    18.2369    14.6136    14.9890     8.4510   103.5410     0.0937     0.1255     2.4535
  108.0000   -26.3890    20.6933    14.5735    14.9597     8.4402   102.0030     0.0929     0.1262     2.4428
  108.5000   -26.3900    23.9194    14.4086    14.9306     8.4119   100.8116     0.0908     0.1288     2.4334
  109.0000   -26.3895    20.5671    14.2455    14.9015     8.3843    99.8463     0.0875     0.1314     2.4276
  109.5000   -26.3889    16.5548    14.0842    14.8419     8.3574    99.7613     0.0845     0.1334     2.4297
  110.0000   -26.3889    16.7966    13.9248    14.7543     8.3315   100.3639     0.0814     0.1371     2.4386
  110.5000   -26.3889    17.0773    13.7671    14.6671     8.3334   102.0285     0.0784     0.1415     2.4299
  111.0000   -26.3889    17.3666    13.6113    14.4817     8.3375   103.5098     0.0753     0.1459     2.4108
  111.5000   -26.3889    17.4772    13.4572    14.1552     8.3423   106.6513     0.0722     0.1503     2.3955
  112.0000   -26.3889    17.0676    13.3049    13.8377     8.3465   109.7503     0.0692     0.1547     2.3867
  112.5000   -26.3889    16.6291    13.1543    13.5273     8.3509   111.2738     0.0660     0.1591     2.3800
  113.0000   -26.3889    16.6968    12.9232    13.2239     8.3553   109.3170     0.0645     0.1612     2.3799
  113.5000   -26.3889    16.8293    12.6203    12.9273     8.3598   108.1637     0.0673     0.1521     2.3857
  114.0000   -26.3889    16.9389    12.3245    12.6373     8.3642   111.0701     0.0712     0.1394     2.4036
  114.5000   -26.3889    17.7680    12.0356    12.3538     8.3682   111.0438     0.0751     0.1293     2.4214
  115.0000   -26.3889    17.4338    11.7102    12.0767     8.3755   110.5681     0.0790     0.1244     2.4363
  115.5000   -26.3889    15.5578    10.9175    11.6735     8.3855   114.4134     0.0830     0.1195     2.4460
  116.0000   -26.3889    14.3463    10.0478    11.1327     8.3951   111.1960     0.0846     0.1146     2.4544
  116.5000   -26.3889    14.3463     9.2474    10.6170     8.4047   112.1036     0.0838     0.1143     2.4582
  117.0000   -26.3889    13.7374     8.5107    10.1251     8.4145   115.8542     0.0830     0.1183     2.4521
  117.5000   -26.3889    13.0816     7.8328     9.6560     8.4237   119.3167     0.0821     0.1223     2.4462
  118.0000   -26.3889     9.9179     7.2088     8.9965     8.4337   121.4625     0.0813     0.1270     2.4465
  118.5000   -26.3889     9.9179     6.7822     8.3291     8.4437   122.9081     0.0807     0.1205     2.4572
  119.0000   -26.3889     9.9179     6.4680     7.7112     8.4392   123.7298     0.0832     0.1127     2.4678
  119.5000   -26.3889     9.8145     6.2240     7.5150     8.3959   124.8181     0.0856     0.1049     2.4780
  120.0000   -26.3889     9.4590     6.1264     7.9070     8.3513   123.5971     0.0882     0.0983     2.4893
  120.5000   -26.3889     9.1164     6.0254     8.3942     8.3286   120.3633     0.0907     0.0952     2.4899
  121.0000   -26.3889     8.7862     6.0315     8.4070     8.3330   121.3018     0.0924     0.0948     2.4887
  121.5000   -26.3889     8.7158     6.0378     8.4303     8.3365   125.4155     0.0910     0.0944     2.4875
  122.0000   -26.3889     8.7574     6.0442     8.4542     8.3394   129.1865     0.0894     0.0999     2.4806
  122.5000   -26.3889     8.9440     6.0506     8.4781     8.3431   133.2552     0.0878     0.1048     2.4743
  123.0000   -26.3889     9.1346     6.0570     8.5017     8.3464   131.5052     0.0862     0.1086     2.4675
  123.5000   -26.3889     9.3292     6.0634     8.5239     8.3497   128.3892     0.0846     0.1107     2.4623
  124.0000   -26.3889     9.5585     6.0698     8.5564     8.3532   130.9608     0.0829     0.1127     2.4615
