~VERSION INFORMATION
 VERS.                2.0:   CWLS LOG ASCII STANDARD - VERSION 2.0
 WRAP.                 NO:   ONE LINE PER DEPTH STEP
~WELL INFORMATION
#MNEM.UNIT      DATA TYPE    INFORMATION
#----------   ------------   ------------------------------
 STRT.F            0.0000:   START DEPTH
 STOP.F          752.0000:   STOP DEPTH
 STEP.F            0.1000:   STEP LENGTH
 NULL.          -999.2500:   NO VALUE
 COMP. BROWN JOHN E&C INC:   COMPANY
 WELL. N P R 3 STX-34 #53-1-34:   WELL
 FLD .             TEAPOT:   FIELD
 LOC .      S34 T39N R78W:   LOCATION
 CNTY.            NATRONA:   COUNTY
 STAT.            WYOMING:   STATE
 CTRY. UNITED STATES OF AMERICA:   COUNTRY
 SRVC.     Atlas Wireline:   SERVICE COMPANY
 DATE.        29-OCT-1991:   LOGDATE
 API .       490252248700:   API NUMBER
~CURVE INFORMATION
#MNEM.UNIT       API CODE    CURVE DESCRIPTION
#----------   ------------   ------------------------------
 DEPT.F                  :   
 GRR .GAPI   07 310 01 00:   GAMMA RAY
 RILD.OHMM   07 120 46 00:   INDUCTION LOG DEEP RESISTIVITY
 RILM.OHMM   07 120 44 00:   RESITIVITY LONG MEDIUM
~PARAMETER INFORMATION
#MNEM.UNIT          VALUE    DESCRIPTION
#----------   ------------   ------------------------------
 PD  .                 GL:   PERMANENT DATUM
 EPD .F              5067:   ELEVATION PERMANENT DATUM
 LMF .                 KB:   LOG MEASURED FROM
 DAPD.F                10:   FEET ABOVE PERMANENT DATUM
 DMF .                 KB:   DRILLING MEASURED FROM
 EKB .F              5077:   KELLING BUSHING
 EGL .F              5067:   GROUND LEVEL
 DATE.        29-OCT-1991:   RUN DATE
 RUN .                  1:   RUN NUMBER
 DD  .F               760:   DEPTH DRILLER
 DL  .F               760:   DEPTH LOGGER
 BLI .F               758:   BOTTOM LOG INTERVAL
 TLI .F                 0:   TOP LOG INTERVAL
 CS  .IN            9.625:   CASING SIZE
 CBD .F                52:   CASING BOTTOM DRILLER
 CBL .F                52:   CASING BOTTOM LOGGER
 BS  .IN             8.75:   BIT SIZE
 BSD .F               760:   BIT SIZE AT DEPTH
 DFT .        AIR DRILLED:   DRILLING FLUID TYPE
 MRT .F               154:   MAXIMUM RECORDED TEMPERATURE
 LUN .            HL 6307:   LOGGING UNIT NUMBER
 LUL .             CASPER:   LOGGING UNIT LOCATION
 ENGI.          RASMUSSEN:   RECORDING ENGINEER
 WITN.        GARY STRONG:   WITNESSED BY
 CLNT.            A2DTECH:   CLIENT CODE
 ORIG.           5" PRINT:   ORIGIN OF DATA
 UWI .       490252248700:   UNIQUE WELL ID
 DICO. A2D Technologies, Inc.:   DIGITIZING COMPANY
~OTHER INFORMATION
~A    DEPT      GRR      RILD       RILM   
# ...
  327.6000   152.9175     7.1573     7.0797
  327.7000   152.6312     7.2070     7.1483
  327.8000   152.6862     7.2407     7.2053
  327.9000   152.9361     7.2828     7.2471
  328.0000   153.2344     7.3252     7.2803
  328.1000   153.2339     7.3601     7.2805
  328.2000   153.5335     7.3604     7.3653
  328.3000   153.9359     7.4019     7.4168
  328.4000   154.1399     7.4449     7.4599
  328.5000   154.1392     7.4643     7.5032
  328.6000   154.1386     7.4794     7.5467
  328.7000   153.7531     7.5170     7.5921
  328.8000   153.2515     7.5172     7.5922
  328.9000   152.6615     7.5577     7.6255
  329.0000   151.9455     7.5702     7.6698
  329.1000   151.4124     7.5927     7.6991
  329.2000   150.9422     7.6368     7.6992
  329.3000   150.2577     7.6771     7.6993
  329.4000   149.6363     7.6774     7.7407
  329.5000   149.2134     7.6776     7.7534
  329.6000   148.9622     7.7077     7.7535
  329.7000   148.6856     7.7317     7.7536
  329.8000   148.4599     7.7319     7.7537
  329.9000   148.2088     7.7321     7.7539
  330.0000   147.9576     7.7324     7.7144
  330.1000   147.5685     7.7326     7.7002
  330.2000   146.8333     7.7610     7.7003
  330.3000   146.2613     7.7871     7.7121
  330.4000   146.0453     7.7873     7.7544
  330.5000   145.7942     7.7876     7.7545
  330.6000   145.4318     7.7878     7.7546
  330.7000   144.8708     7.7880     7.7547
  330.8000   144.1115     7.7882     7.7742
  330.9000   142.9294     7.7884     7.8092
  331.0000   141.4885     7.7886     7.8093
  331.1000   140.1954     7.7889     7.8094
  331.2000   139.1927     7.7891     7.8095
  331.3000   138.1402     7.7893     7.8368
  331.4000   136.8750     7.7895     7.8644
  331.5000   136.3783     7.7897     7.8645
  331.6000   136.2687     7.7899     7.8646
  331.7000   136.4121     7.7902     7.8647
  331.8000   136.6620     7.7904     7.8999
  331.9000   137.0317     7.7906     7.9200
  332.0000   138.0817     7.7908     7.9201
  332.1000   139.2732     7.7910     7.9202
  332.2000   140.5253     7.7912     7.9203
  332.3000   141.9119     7.7915     7.9204
  332.4000   143.2497     7.7917     7.9205
  332.5000   144.2207     7.7919     7.9206
  332.6000   145.0372     7.7921     7.9207
  332.7000   145.4941     7.7923     7.9208
  332.8000   145.8178     7.7925     7.9210
  332.9000   145.6938     7.7928     7.9211
  333.0000   145.1921     7.8304     7.9212
  333.1000   144.6700     7.8759     7.9213
  333.2000   143.8232     7.9029     7.9214
  333.3000   143.3845     7.9031     7.9215
  333.4000   142.7159     7.9033     7.9216
  333.5000   142.1937     7.9035     7.9217
  333.6000   142.1313     7.9037     7.9218
  333.7000   142.6427     7.9304     7.9219
  333.8000   143.5170     7.9595     7.9221
  333.9000   143.9352     7.9597     7.9222
  334.0000   144.1210     7.9599     7.9223
  334.1000   144.2258     7.9601     7.9224
  334.2000   144.4756     7.9264     7.9225
  334.3000   144.7243     7.9053     7.9226
  334.4000   144.7237     7.9055     7.9227
  334.5000   144.7231     7.9057     7.9228
  334.6000   144.5749     7.9060     7.9229
  334.7000   144.4194     7.9062     7.9230
  334.8000   144.4188     7.9064     7.9232
  334.9000   144.4181     7.8843     7.9065
  335.0000   144.1755     7.8519     7.8683
  335.1000   144.1144     7.8488     7.8684
  335.2000   144.1138     7.7978     7.8685
  335.3000   144.1132     7.7980     7.8687
  335.4000   144.1126     7.7982     7.8688
  335.5000   144.1119     7.7984     7.8689
  335.6000   144.1113     7.7986     7.8634
  335.7000   144.1107     7.7975     7.8144
  335.8000   144.2384     7.7449     7.8145
  335.9000   144.4121     7.7451     7.8146
  336.0000   144.4357     7.7453     7.8147
  336.1000   144.7134     7.7455     7.8149
  336.2000   146.0491     7.7457     7.8150
  336.3000   147.2105     7.7460     7.8151
  336.4000   148.2119     7.7462     7.7758
  336.5000   149.0801     7.7464     7.7610
  336.6000   149.5661     7.7213     7.7611
  336.7000   149.8535     7.6930     7.7612
  336.8000   149.6400     7.6932     7.7613
  336.9000   149.3888     7.6934     7.7614
  337.0000   149.1377     7.6936     7.7241
  337.1000   148.8297     7.6939     7.7077
  337.2000   148.3328     7.7175     7.7078
  337.3000   148.0344     7.7481     7.7079
  337.4000   147.8306     7.7483     7.7080
  337.5000   147.4282     7.7486     7.7081
  337.6000   146.9265     7.7488     7.7083
  337.7000   146.3776     7.7490     7.7084
  337.8000   145.6109     7.7492     7.7085
  337.9000   144.8732     7.7494     7.7086
  338.0000   144.3147     7.7496     7.7087
  338.1000   144.0962     7.7499     7.7088
  338.2000   144.1852     7.7501     7.7089
  338.3000   144.4727     7.7503     7.7090
  338.4000   145.0021     7.7505     7.7091
  338.5000   145.4735     7.7507     7.7092
  338.6000   145.9740     7.7509     7.7093
  338.7000   146.6063     7.7512     7.7303
  338.8000   147.5170     7.7514     7.7528
  338.9000   148.7692     7.7516     7.7753
  339.0000   150.1422     7.7518     7.7978
  339.1000   150.8206     7.7520     7.8204
  339.2000   151.3973     7.7522     7.8431
  339.3000   152.3869     7.7963     7.8659
  339.4000   153.6085     7.8069     7.8732
  339.5000   154.0727     7.8071     7.8787
  339.6000   154.0719     7.8073     7.8902
  339.7000   154.0714     7.8076     7.9017
  339.8000   154.0708     7.8078     7.9132
  339.9000   154.0702     7.8080     7.9247
  340.0000   154.0090     7.8410     7.9289
  340.1000   153.7579     7.8866     7.9290
  340.2000   153.4631     7.9183     7.9291
  340.3000   153.2557     7.9185     7.9302
  340.4000   153.0046     7.9188     7.9848
  340.5000   152.7534     7.9190     7.9849
  340.6000   152.5023     7.9504     7.9850
  340.7000   152.2499     7.9748     8.0036
  340.8000   152.0000     7.9750     8.0411
  340.9000   151.7488     7.9753     8.0413
  341.0000   151.4977     7.9755     8.0414
  341.1000   151.1534     8.0148     8.0415
  341.2000   150.6928     8.0317     8.0416
  341.3000   150.4308     8.0320     8.0417
  341.4000   149.9510     8.0424     8.0418
  341.5000   149.4494     8.0886     8.0419
  341.6000   149.0832     8.0889     8.0860
  341.7000   148.9156     8.1267     8.0984
  341.8000   148.9779     8.1459     8.0985
  341.9000   149.5195     8.1461     8.1137
  342.0000   150.2088     8.1547     8.1554
  342.1000   150.6039     8.2036     8.1555
  342.2000   150.8539     8.2038     8.1984
  342.3000   151.0300     8.2401     8.2460
  342.4000   151.0076     8.2880     8.2704
  342.5000   150.7261     8.3197     8.2840
  342.6000   150.5053     8.3263     8.3321
  342.7000   150.0860     8.3784     8.3869
  342.8000   149.5843     8.3786     8.3870
  342.9000   149.0826     8.3788     8.4191
  343.0000   148.5810     8.3791     8.4459
  343.1000   147.9993     8.3938     8.4579
  343.2000   147.3669     8.4382     8.5052
  343.3000   146.7733     8.4384     8.5054
  343.4000   146.1652     8.4386     8.5463
  343.5000   145.4131     8.4389     8.5651
  343.6000   144.6583     8.4618     8.5857
  343.7000   143.4571     8.4984     8.6253
  343.8000   142.8539     8.4986     8.6254
  343.9000   142.1017     8.4989     8.6255
  344.0000   141.2527     8.4991     8.6651
  344.1000   140.2947     8.5303     8.7154
  344.2000   139.5207     8.5799     8.7470
  344.3000   138.7903     8.6192     8.7471
  344.4000   137.6558     8.6195     8.7473
  344.5000   136.4025     8.6697     8.7474
  344.6000   135.2363     8.6802     8.7855
  344.7000   134.3389     8.7099     8.8365
  344.8000   134.0708     8.7414     8.8706
  344.9000   134.3038     8.7502     8.8838
  345.0000   134.5537     8.8031     8.9954
  345.1000   134.8036     8.8522     8.9955
  345.2000   135.2086     8.8651     9.0327
  345.3000   135.9595     8.8932     9.0852
  345.4000   136.7903     8.9277     9.1222
  345.5000   137.2375     8.9344     9.1270
  345.6000   138.4253     8.9906     9.1863
  345.7000   139.9278     9.0866     9.1864
