~VERSION INFORMATION
 VERS.                2.0:   CWLS LOG ASCII STANDARD - VERSION 2.0
 WRAP.                 NO:   ONE LINE PER DEPTH STEP
~WELL INFORMATION
#MNEM.UNIT      DATA TYPE    INFORMATION
#----------   ------------   ------------------------------
 STRT.F           30.0000:   START DEPTH
 STOP.F          618.0000:   STOP DEPTH
 STEP.F            0.5000:   STEP LENGTH
 NULL.          -999.2500:   NO VALUE
 COMP. FENNIX & SCISSON, INC.:   COMPANY
 WELL.       NPR #88-S-10:   WELL
 FLD .              NPR-3:   FIELD
 LOC .      S10 T38N R78W:   LOCATION
 CNTY.            NATRONA:   COUNTY
 STAT.            WYOMING:   STATE
 CTRY. UNITED STATES OF AMERICA:   COUNTRY
 SRVC.              Welex:   SERVICE COMPANY
 DATE.        22-APR-1977:   LOGDATE
 API .       490251034200:   API NUMBER
~CURVE INFORMATION
#MNEM.UNIT       API CODE    CURVE DESCRIPTION
#----------   ------------   ------------------------------
 DEPT.F                  :   
 CALD.IN     45 280 60 00:   CALIPER FROM DENSITY LOG
 GRD .GAPI   45 310 01 00:   GAMMA RAY FROM DENSITY LOG
 CORR.G/C3   45 356 01 00:   DENSITY CORRECTION
 RHOB.G/C3   45 350 01 00:   BULK DENSITY
 DPHI.DEC    45 890 12 00:   DENSITY POROSITY SANDSTONE
 ILD .OHMM   07 120 46 00:   INDUCTION LOG DEEP
 ILM .OHMM   07 120 44 00:   INDUCTION LOG MEDIUM
 SGRD.OHMM   07 220 05 00:   SHALLOW GUARD RESISTIVITY
 SPR .MV     07 010 01 00:   SPONTANEOUS POTENTIAL FROM RES.
~PARAMETER INFORMATION
#MNEM.UNIT          VALUE    DESCRIPTION
#----------   ------------   ------------------------------
 PD  .                 GL:   PERMANENT DATUM
 EPD .F              5255:   ELEVATION PERMANENT DATUM
 LMF .                 GL:   LOG MEASURED FROM
 DMF .                 GL:   DRILLING MEASURED FROM
 EGL .F              5255:   GROUND LEVEL
 DATE.        22-APR-1977:   RUN DATE
 RUN .                  1:   RUN NUMBER
 DD  .F               630:   DEPTH DRILLER
 DL  .F               620:   DEPTH LOGGER
 BLI .F               618:   BOTTOM LOG INTERVAL
 TLI .F                38:   TOP LOG INTERVAL
 CS  .IN            8.625:   CASING SIZE
 CBD .F                40:   CASING BOTTOM DRILLER
 BS  .IN            7.875:   BIT SIZE
 BSD .F               630:   BIT SIZE AT DEPTH
 DFT .            KCL GEL:   DRILLING FLUID TYPE
 DFD .                9.0:   DRILLING FLUID DENSITY
 DFV .                 40:   DRILLING FLUID VISCOSITY
 DFPH.                8.0:   DRILLING FLUID PH
 DFL .                6.4:   DRILLING FLUID LOSS
 MSS .            MUD PIT:   MUD SAMPLE SOURCE
 RMS .OHMM            .20:   RESISTIVITY MUD SAMPLE
 MST .F                65:   MUD SAMPLE TEMPERATURE
 RMF .OHMM            .18:   RESISTIVITY MUD FILTRATE SAMPLE
 MFST.F                65:   MUD FILTRATE SAMPLE TEMPERATURE
 RMC .OHMM            .28:   RESISTIVITY MUD CAKE
 MCST.F                65:   MUD CAKE SAMPLE TEMPERATURE
 MFSS.               MEAS:   MUD FILTRATE SAMPLE SOURCE
 MCSS.               MEAS:   MUD CAKE SAMPLE SOURCE
 RMB .OHMM            .18:   RESISTIVITY MUD AT BHT
 BHT .F                71:   BOTTOM HOLE TEMPERATURE
 TCS .HRS            0300:   TIME CURCULATED STOPPED
 MRT .F                71:   MAXIMUM RECORDED TEMPERATURE
 LUN .               8611:   LOGGING UNIT NUMBER
 LUL .             CASPER:   LOGGING UNIT LOCATION
 ENGI.          T. JOYNER:   RECORDING ENGINEER
 WITN.           ROB LYON:   WITNESSED BY
 CLNT.            A2DTECH:   CLIENT CODE
 ORIG.           5" PRINT:   ORIGIN OF DATA
 UWI .       490251034200:   UNIQUE WELL ID
 DICO. A2D Technologies, Inc.:   DIGITIZING COMPANY
~OTHER INFORMATION
~A   DEPT     CALD        GRD       CORR       RHOB       DPHI        ILD        ILM       SGRD        SPR   
# ...
  176.0000     7.8607   130.0179     0.0076     2.4880     0.1069     7.8901    10.4387    12.7729   -23.2208
  176.5000     7.8456   125.8281     0.0076     2.4866     0.1117     7.9441    11.1706    12.6834   -23.2238
  177.0000     7.8454   125.0807     0.0076     2.4813     0.1063     7.9435    11.3919    12.5945   -23.3756
  177.5000     7.8453   125.2323     0.0076     2.4746     0.1057     7.8821    10.6790    12.5931   -23.3785
  178.0000     7.8451   126.2817     0.0061     2.4686     0.1096     7.5630    10.0440    12.5913   -23.3815
  178.5000     7.8450   130.3251     0.0046     2.4664     0.1126     7.2567     9.6431    12.6768   -23.3839
  179.0000     7.8448   133.0212     0.0046     2.4739     0.1144     7.0553     9.4505    12.7627   -23.3869
  179.5000     7.8447   133.1721     0.0047     2.4746     0.1162     6.8676     9.3843    12.5700   -23.3899
  180.0000     7.8445   131.5567     0.0047     2.4621     0.1168     6.6810     9.5836    12.0689   -23.4127
  180.5000     7.8294   127.0374     0.0047     2.4521     0.1180     6.5019     9.8497    11.5773   -23.5446
  181.0000     7.8293   127.7155     0.0047     2.4530     0.1183     6.3665     9.9813    11.1107   -23.5476
  181.5000     7.8291   130.1841     0.0047     2.4540     0.1177     6.2793     9.9799    10.6610   -23.5506
  182.0000     7.8290   126.0559     0.0047     2.4680     0.1156     6.2362     9.7724    10.2276   -23.5536
  182.5000     7.8288   127.1431     0.0063     2.4754     0.1120     6.1941     9.5726     9.7444   -23.5565
  183.0000     7.8287   129.7754     0.0063     2.4633     0.1114     6.2368     9.5050     9.7306   -23.5595
  183.5000     7.8285   129.3777     0.0093     2.4605     0.1144     6.3663     9.4388    10.5091   -23.4137
  184.0000     7.8284   126.5290     0.0123     2.4614     0.1153     6.4988     9.7016    11.2576   -23.4167
  184.5000     7.8282   124.6304     0.0139     2.4667     0.1132     6.6799     9.7690    11.8943   -23.4197
  185.0000     7.8281   121.4017     0.0169     2.4772     0.1108     6.9135     9.6989    12.3949   -23.4227
  185.5000     7.8130   117.8726     0.0169     2.4883     0.1081     7.1062     9.5647    12.6526   -23.4257
  186.0000     7.8128   115.6766     0.0184     2.4935     0.1028     7.2541     9.5633    12.7383   -23.2798
  186.5000     7.8127   115.5245     0.0184     2.4964     0.1019     7.4562     9.5620    12.7361   -23.2828
  187.0000     7.8125   114.7774     0.0170     2.4904     0.1028     7.6640    10.0338    12.7344   -23.1369
  187.5000     7.8124   113.8847     0.0155     2.4830     0.1088     7.8235    11.1262    12.8211   -22.9911
  188.0000     7.7973   113.2874     0.0125     2.4695     0.1138     7.9315    12.2528    12.9973   -22.9942
  188.5000     7.7971   119.4267     0.0125     2.4591     0.1180     7.9858    12.7689    12.9058   -22.9972
  189.0000     7.7970   122.4222     0.0140     2.4590     0.1171     7.8219    13.1244    12.5530   -23.0002
  189.5000     7.7968   121.8249     0.0140     2.4606     0.1138     7.6087    12.5904    12.2944   -23.0032
  190.0000     7.8117   116.8863     0.0140     2.4696     0.1130     7.4526    11.5884    11.9583   -23.0062
  190.5000     7.8115   113.4088     0.0125     2.4726     0.1124     7.4009    10.7400    11.8745   -23.0091
  191.0000     7.8113   116.5899     0.0126     2.4718     0.1121     7.3496    10.0227    11.7103   -23.0121
  191.5000     7.8112   117.0405     0.0080     2.4688     0.1121     7.3999     9.5488    11.7896   -23.3127
  192.0000     7.8110   117.6408     0.0050     2.4651     0.1136     7.4506     9.1603    11.8700   -23.3157
  192.5000     7.8109   116.8938     0.0035     2.4591     0.1160     7.5016     8.9098    12.1159   -23.6163
  193.0000     7.8257   117.0450     0.0036     2.4531     0.1172     7.5010     8.5473    12.3678   -23.6193
  193.5000     7.8405   118.6932     0.0036     2.4517     0.1181     7.5525     8.6648    12.5378   -23.7711
  194.0000     7.8403   121.2396     0.0036     2.4532     0.1190     7.7095     9.0298    12.7101   -23.9229
  194.5000     7.8402   125.1333     0.0081     2.4659     0.1133     7.8701     9.4101    12.5339   -23.9259
  195.0000     7.8400   124.6857     0.0127     2.4741     0.1115     7.7084     9.6721    12.3610   -23.9289
  195.5000     7.8399   122.4417     0.0142     2.4749     0.1115     7.5503     9.8055    12.5304   -23.9319
  196.0000     7.8397   119.8983     0.0157     2.4771     0.1112     7.3445     9.8720    12.3571   -23.9349
  196.5000     7.8396   125.8878     0.0172     2.4809     0.1106     7.2936     9.8024    12.1709   -23.9379
  197.0000     7.8394   127.5360     0.0173     2.4846     0.1085     7.1933     9.8011    11.9223   -23.9409
  197.5000     7.8393   126.4896     0.0188     2.4921     0.1052     7.1434     9.8679    11.6895   -23.9439
  198.0000     7.8391   123.4971     0.0173     2.5168     0.0983     7.1429     9.9348    11.6879   -23.9469
  198.5000     7.8539   123.7980     0.0173     2.5146     0.0942     7.1425     9.9331    11.7736   -23.8011
  199.0000     7.8538   125.2965     0.0158     2.4966     0.0969     7.1913     9.7956    11.8513   -23.8040
  199.5000     7.8686   126.4956     0.0128     2.4899     0.0990     7.2407     9.5937    12.0097   -23.8070
  200.0000     7.8685   124.7001     0.0098     2.4869     0.1020     7.3406     9.5264    12.0081   -23.8100
  200.5000     7.8685   122.9007     0.0053     2.4944     0.1011     7.3631     9.7077    12.0659   -23.7556
  201.0000     7.8685   123.6462     0.0023     2.4966     0.0996     7.2858    10.0011    12.0081   -23.6902
  201.5000     7.8685   124.6912     0.0008     2.4966     0.0996     7.2838    10.4925    11.8436   -23.6650
  202.0000     7.8685   127.5325    -0.0007     2.4958     0.1008     7.2818    10.6383    11.6815   -23.5177
  202.5000     7.8685   130.2249    -0.0022     2.4928     0.1044     7.2798    10.4120    11.5215   -23.3707
  203.0000     7.8535   128.1253    -0.0052     2.4844     0.1097     7.2778    10.1270    11.5215   -23.3722
  203.5000     7.8535   121.5355    -0.0067     2.4576     0.1163     7.2259     9.9291    11.6012   -23.3737
  204.0000     7.8535   119.8866    -0.0082     2.4456     0.1211     7.2239     9.8608    11.7623   -23.3751
  204.5000     7.8535   123.9248    -0.0082     2.4337     0.1283     7.1723     9.9978    11.9256   -23.3766
  205.0000     7.8535   126.0176    -0.0081     2.4307     0.1304     7.0723    10.2776    12.0081   -23.3781
  205.5000     7.8685   130.0565    -0.0066     2.4306     0.1316     7.0218    10.6383    12.0081   -23.3796
  206.0000     7.8685   130.6531    -0.0036     2.4291     0.1331     6.9238    11.0117    11.8436   -23.3811
  206.5000     7.8685   128.2542    -0.0051     2.4246     0.1352     6.8744    11.3198    11.6815   -23.3825
  207.0000     7.8685   127.0536    -0.0066     2.4216     0.1379     6.8253    11.3198    11.5146   -23.3840
  207.5000     7.8685   125.8530    -0.0126     2.4216     0.1400     6.8235    10.7861    11.3637   -23.3855
  208.0000     7.8685   124.3530    -0.0142     2.4224     0.1388     6.8216    10.0671    11.2081   -23.5358
  208.5000     7.8685   122.8530    -0.0141     2.4277     0.1298     6.8197     9.7930    11.2081   -23.5372
  209.0000     7.8535   124.3470    -0.0104     2.4500     0.1226     6.8655     9.6588    11.2081   -23.5387
  209.5000     7.8535   125.3920    -0.0035     2.4477     0.1182     6.9110     9.5265    11.2081   -23.6890
  210.0000     7.8685   127.0357    -0.0035     2.4578     0.1152     6.9569     9.5924    11.2081   -23.6905
  210.5000     7.8685   131.8239     0.0011     2.4711     0.1092     7.0027     9.7257    11.2081   -23.6920
  211.0000     7.8685   130.6225     0.0116     2.4831     0.1059     7.0491     9.9291    11.1311   -23.6935
  211.5000     7.8685   130.0207     0.0117     2.4926     0.1032     7.0959    10.0671    11.1311   -23.6949
  212.0000     7.8685   130.3172     0.0117     2.4819     0.1089     7.1429    10.2776    11.0546   -23.6964
