~VERSION INFORMATION
 VERS.                2.0:   CWLS LOG ASCII STANDARD - VERSION 2.0
 WRAP.                 NO:   ONE LINE PER DEPTH STEP
~WELL INFORMATION
#MNEM.UNIT      DATA TYPE    INFORMATION
#----------   ------------   ------------------------------
 STRT.F            7.0000:   START DEPTH
 STOP.F          690.0000:   STOP DEPTH
 STEP.F            0.5000:   STEP LENGTH
 NULL.          -999.2500:   NO VALUE
 COMP. FENIX & SCISSON INC:   COMPANY
 WELL.  NPR#3 #26-46 SX11:   WELL
 FLD .             TEAPOT:   FIELD
 LOC .      S11 T38N R78W:   LOCATION
 CNTY.            NATRONA:   COUNTY
 STAT.            WYOMING:   STATE
 CTRY. UNITED STATES OF AMERICA:   COUNTRY
 SRVC.      Dresser Atlas:   SERVICE COMPANY
 DATE.        13-AUG-1985:   LOGDATE
 API .       490251083600:   API NUMBER
~CURVE INFORMATION
#MNEM.UNIT       API CODE    CURVE DESCRIPTION
#----------   ------------   ------------------------------
 DEPT.F                  :   
 DPHI.DEC    45 890 12 00:   DENSITY POROSITY SANDSTONE
 NPHI.DEC    42 890 03 00:   NEUTRON POROSITY SANDSTONE
 RHOB.G/C3   45 350 01 00:   BULK DENSITY
 CORR.G/C3   45 356 01 00:   DENSITY CORRECTION
 CALD.IN     45 280 60 00:   CALIPER
 SPR .MV     07 010 01 00:   SPONTANEOUS POTENTIAL
 ILD .OHMM   07 120 46 00:   INDUCTION LOG DEEP
 ILM .OHMM   07 120 44 00:   INDUCTION LOG MEDIUM
 SFL .OHMM   07 220 01 00:   SHALLOW FOCUSED LOG RESISTIVITY
 GRR .GAPI   07 310 01 00:   GAMMA RAY FROM RES. LOG.
~PARAMETER INFORMATION
#MNEM.UNIT          VALUE    DESCRIPTION
#----------   ------------   ------------------------------
 PD  .                 GL:   PERMANENT DATUM
 EPD .F              5193:   ELEVATION PERMANENT DATUM
 LMF .                 KB:   LOG MEASURED FROM
 DAPD.F                 5:   FEET ABOVE PERMANENT DATUM
 DMF .                 KB:   DRILLING MEASURED FROM
 EKB .F              5198:   KELLING BUSHING
 EGL .F              5193:   GROUND LEVEL
 DATE.          8-13-1985:   RUN DATE
 RUN .                  8:   RUN NUMBER
 DD  .F               664:   DEPTH DRILLER
 BLI .F               635:   BOTTOM LOG INTERVAL
 TLI .F               340:   TOP LOG INTERVAL
 CBL .F               340:   CASING BOTTOM LOGGER
 BS  .IN             8.75:   BIT SIZE
 BSD .F               664:   BIT SIZE AT DEPTH
 DFT .          KPC WATER:   DRILLING FLUID TYPE
 LUN .           HL- 6274:   LOGGING UNIT NUMBER
 LUL .           GILLETTE:   LOGGING UNIT LOCATION
 ENGI.             RAUTIO:   RECORDING ENGINEER
 WITN.            SCHULTE:   WITNESSED BY
 CLNT.            A2DTECH:   CLIENT CODE
 ORIG.        2" 5" PRINT:   ORIGIN OF DATA
 UWI .       490251083600:   UNIQUE WELL ID
 DICO. A2D Technologies, Inc.:   DIGITIZING COMPANY
~OTHER INFORMATION
~A    DEPT    DPHI       NPHI       RHOB       CORR       CALD         SPR       ILD        ILM        SFL        GRR   
# ...
  543.0000     0.2691     0.2782     2.2253     0.1943     6.0658   -11.3970     9.0651     9.5064    11.0019    83.7145
  543.5000     0.2748     0.2790     2.2191     0.1804     6.0654   -11.7379     9.0918     9.4267    10.9484    80.0011
  544.0000     0.2764     0.2831     2.2173     0.1714     6.0650   -11.9015     9.1181     9.3479    10.8967    77.3734
  544.5000     0.2688     0.2864     2.2304     0.1692     6.0647   -11.8467     9.1446     9.3188    10.9470    77.2483
  545.0000     0.2685     0.2575     2.2302     0.1646     6.0643   -11.7946     9.1710     9.3188    11.0273    79.9149
  545.5000     0.2835     0.2272     2.2067     0.1587     6.0639   -11.7388     9.1976     9.3191    11.1076    82.0597
  546.0000     0.2946     0.2224     2.1860     0.1509     6.0635   -11.8282     9.2242     9.3180    11.1909    83.8096
  546.5000     0.2950     0.2554     2.1849     0.1474     6.0631   -11.9809     9.6434     9.4160    11.3363    83.4803
  547.0000     0.2860     0.2691     2.2020     0.1506     6.0628   -12.1359    10.3967     9.4828    11.5499    83.2185
  547.5000     0.2796     0.2709     2.2125     0.1528     6.0624   -12.2908    11.2087     9.9678    11.7577    83.6371
  548.0000     0.2745     0.2656     2.2215     0.1569     6.0620   -12.4452    11.9469    10.5029    12.2737    81.2643
  548.5000     0.2708     0.2696     2.2306     0.1613     6.0617   -12.5127    13.4862    12.2716    13.2409    77.9892
  549.0000     0.2632     0.2755     2.2404     0.1722     6.0613   -12.4866    15.0948    14.2035    14.5894    77.7547
  549.5000     0.2545     0.2746     2.2513     0.1834     6.0609   -12.4610    16.8954    16.4406    17.1085    80.9458
  550.0000     0.2487     0.2714     2.2622     0.1904     6.0605   -12.4350    18.9107    19.2773    20.0184    82.5794
  550.5000     0.2561     0.2747     2.2518     0.1792     6.0602   -12.4092    20.4710    21.8450    22.9457    77.7882
  551.0000     0.2642     0.2788     2.2351     0.1665     6.0598   -12.3834    21.4407    25.0987    25.0741    74.3343
  551.5000     0.2731     0.2788     2.2233     0.1630     6.0594   -12.3575    22.1302    29.1653    27.5988    75.7646
  552.0000     0.2747     0.2695     2.2197     0.1591     6.0591   -12.3307    22.1302    30.2587    27.8539    78.0556
  552.5000     0.2768     0.2669     2.2176     0.1518     6.0587   -12.3247    21.4843    27.6993    26.4694    79.6161
  553.0000     0.2817     0.2682     2.2110     0.1443     6.0583   -12.3245    20.8069    25.6063    24.0180    76.3293
  553.5000     0.2864     0.2697     2.2012     0.1409     6.0579   -12.3242    20.0534    23.6708    21.9977    73.5812
  554.0000     0.2915     0.2651     2.1907     0.1384     6.0575   -12.3242    19.1465    21.7395    20.3658    71.2172
  554.5000     0.2957     0.2570     2.1844     0.1502     6.0572   -12.3560    18.2805    19.2912    19.6109    66.6652
  555.0000     0.2998     0.2541     2.1775     0.1504     6.0568   -12.5733    17.4538    18.8883    19.5377    64.5871
  555.5000     0.2997     0.2655     2.1710     0.1487     6.0564   -12.7874    17.0015    18.4891    19.4574    66.5396
  556.0000     0.2995     0.2735     2.1668     0.1381     6.0561   -12.8932    16.8209    18.1899    19.6539    70.6898
  556.5000     0.2973     0.2743     2.1872     0.1435     6.0557   -12.7940    16.6383    18.0502    19.8168    74.0121
  557.0000     0.2854     0.2819     2.2150     0.1520     6.0553   -12.6981    16.6383    17.9093    19.1959    73.6153
  557.5000     0.2583     0.2950     2.2467     0.1610     6.0549   -12.6022    16.6383    18.1144    18.7566    74.7711
  558.0000     0.2549     0.2986     2.2524     0.1646     6.0546   -12.5341    16.5778    18.2419    19.2457    76.6546
  558.5000     0.2623     0.2994     2.2452     0.1423     6.0542   -12.6001    16.4251    18.1636    19.4578    79.1917
  559.0000     0.2588     0.2977     2.2476     0.1452     6.0538   -12.6643    16.2738    18.1077    19.2059    81.7450
  559.5000     0.2523     0.2981     2.2610     0.1483     6.0534   -12.7206    16.1238    17.9135    19.1014    82.2360
  560.0000     0.2474     0.2991     2.2666     0.1516     6.0531   -12.6243    16.0371    17.5276    19.4520    80.4951
  560.5000     0.2464     0.2993     2.2681     0.1546     6.0527   -12.5226    16.2239    17.1500    18.9993    77.1514
  561.0000     0.2427     0.2944     2.2738     0.1570     6.0523   -12.4215    16.3569    16.7921    18.2755    75.3943
  561.5000     0.2331     0.2795     2.2923     0.1782     6.0519   -12.3244    16.4860    17.2705    17.5827    75.0695
  562.0000     0.2204     0.2650     2.3116     0.1967     6.0516   -12.2630    16.3283    17.7472    17.5827    74.7018
  562.5000     0.2109     0.2539     2.3282     0.2020     6.0512   -12.2038    16.1779    18.4140    18.9316    74.2588
  563.0000     0.2125     0.2404     2.3203     0.1939     6.0508   -12.1445    16.0288    18.2507    19.7938    73.7880
  563.5000     0.2219     0.2337     2.3063     0.1775     6.0505   -12.0852    15.8812    17.9048    19.1360    73.2991
  564.0000     0.2307     0.2303     2.2950     0.1631     6.0501   -12.0258    15.7447    17.5805    18.0987    71.9860
  564.5000     0.2307     0.2480     2.3020     0.1625     6.0497   -11.9668    15.6080    17.1550    17.4554    70.3469
  565.0000     0.2214     0.2585     2.3135     0.1702     6.0493   -11.9228    15.4810    16.7604    17.1882    71.7230
  565.5000     0.2191     0.2653     2.3084     0.1649     6.0490   -11.9227    15.3551    16.3778    17.1040    74.1657
  566.0000     0.2295     0.2679     2.2871     0.1514     6.0486   -11.9249    15.1780    16.1761    17.4217    76.0842
  566.5000     0.2401     0.2706     2.2822     0.1450     6.0482   -12.0076    14.8996    15.9988    17.2756    75.4602
  567.0000     0.2235     0.2724     2.3103     0.1577     6.0478   -12.3595    14.6263    15.8242    17.1040    74.1796
  567.5000     0.2026     0.2738     2.3566     0.1788     6.0475   -12.4727    14.3580    15.6490    17.2913    72.8839
  568.0000     0.1890     0.2778     2.3651     0.1978     6.0471   -12.3781    14.0946    15.3929    17.5827    71.6073
  568.5000     0.1981     0.2835     2.3434     0.1834     6.0467   -12.2809    13.8360    15.1031    16.7634    73.1707
  569.0000     0.2105     0.2850     2.3314     0.1858     6.0463   -12.1829    13.5819    14.8200    16.0879    75.8401
  569.5000     0.2109     0.2792     2.3406     0.1973     6.0459   -12.0853    13.3346    14.5406    15.7928    78.5100
  570.0000     0.1992     0.2730     2.3533     0.2099     6.0455   -11.9887    13.1090    14.2556    15.4805    80.6484
  570.5000     0.1965     0.2668     2.3402     0.2148     6.0451   -11.9171    12.9096    13.9431    15.0388    80.4646
  571.0000     0.2121     0.2586     2.3222     0.1898     6.0448   -11.9010    12.7120    13.6393    15.0728    80.3091
  571.5000     0.2227     0.2486     2.3104     0.1865     6.0444   -11.8838    12.5174    13.3428    15.1180    79.8947
  572.0000     0.2235     0.2387     2.3084     0.1849     6.0440   -11.8667    12.3258    13.0576    15.1757    78.4455
  572.5000     0.2195     0.2319     2.3156     0.1952     6.0436   -11.8496    12.1999    12.8111    14.7517    77.3653
  573.0000     0.2191     0.2289     2.3031     0.1923     6.0432   -11.8326    12.0945    12.5693    14.2155    78.9873
  573.5000     0.2346     0.2350     2.2834     0.1867     6.0428   -11.8155    11.9469    12.2812    14.0988    81.5607
  574.0000     0.2484     0.2471     2.2640     0.1828     6.0424   -11.7984    11.9639    12.3553    14.0988    84.1018
  574.5000     0.2591     0.2590     2.2468     0.1878     6.0420   -11.7813    11.9931    12.4830    14.4176    84.1337
  575.0000     0.2601     0.2586     2.2461     0.1942     6.0416   -11.7642    12.0223    12.6121    14.9740    80.4502
  575.5000     0.2571     0.2472     2.2495     0.1929     6.0412   -11.7472    12.0516    12.7416    15.3160    77.9303
  576.0000     0.2519     0.2396     2.2599     0.1888     6.0408   -11.7295    12.1337    12.7416    15.1757    75.4022
