~VERSION INFORMATION
 VERS.                2.0:   CWLS LOG ASCII STANDARD - VERSION 2.0
 WRAP.                 NO:   ONE LINE PER DEPTH STEP
~WELL INFORMATION
#MNEM.UNIT      DATA TYPE    INFORMATION
#----------   ------------   ------------------------------
 STRT.F           30.0000:   START DEPTH
 STOP.F         1358.0000:   STOP DEPTH
 STEP.F            0.5000:   STEP LENGTH
 NULL.          -999.2500:   NO VALUE
 COMP. FENIX & SCISSON INC:   COMPANY
 WELL.      3 SX14 #85-14:   WELL
 FLD .             TEAPOT:   FIELD
 LOC .      S14 T38N R78W:   LOCATION
 CNTY.            NATRONA:   COUNTY
 STAT.            WYOMING:   STATE
 CTRY. UNITED STATES OF AMERICA:   COUNTRY
 SRVC.              Welex:   SERVICE COMPANY
 DATE.        10-FEB-1977:   LOGDATE
 API .       490251027500:   API NUMBER
~CURVE INFORMATION
#MNEM.UNIT       API CODE    CURVE DESCRIPTION
#----------   ------------   ------------------------------
 DEPT.F                  :   
 ILM .OHMM   07 120 44 00:   INDUCTION LOG MEDIUM
 ILD .OHMM   07 120 46 00:   INDUCTION LOG DEEP
 CALD.IN     45 280 60 00:   CALIPER
 GRD .GAPI   45 310 01 00:   GAMMA RAY FROM DENSITY LOG
 RHOB.G/C3   45 350 01 00:   BULK DENSITY
 DPHI.DEC    45 890 12 00:   DENSITY POROSITY SANDSTONE
 CORR.G/C3   45 356 01 00:   DENSITY CORRECTION
~PARAMETER INFORMATION
#MNEM.UNIT          VALUE    DESCRIPTION
#----------   ------------   ------------------------------
 PD  .                 GL:   PERMANENT DATUM
 EPD .F              5345:   ELEVATION PERMANENT DATUM
 LMF .                 GL:   LOG MEASURED FROM
 DMF .                 GL:   DRILLING MEASURED FROM
 EGL .F              5345:   GROUND LEVEL
 DATE.          2-10-1977:   RUN DATE
 RUN .                  1:   RUN NUMBER
 DD  .F              1362:   DEPTH DRILLER
 DL  .F              1361:   DEPTH LOGGER
 BLI .F              1359:   BOTTOM LOG INTERVAL
 TLI .F                43:   TOP LOG INTERVAL
 CS  .IN            8.625:   CASING SIZE
 CBD .F                43:   CASING BOTTOM DRILLER
 CBL .F                43:   CASING BOTTOM LOGGER
 BS  .IN            7.875:   BIT SIZE
 BSD .F              1362:   BIT SIZE AT DEPTH
 DFT .           AIR MIST:   DRILLING FLUID TYPE
 TCS .HRS               4:   TIME CURCULATED STOPPED
 MRT .F               104:   MAXIMUM RECORDED TEMPERATURE
 LUN .               8611:   LOGGING UNIT NUMBER
 LUL .           GILLETTE:   LOGGING UNIT LOCATION
 ENGI.               DOAK:   RECORDING ENGINEER
 WITN. PETTINGILL/STUEBINGER:   WITNESSED BY
 CLNT.            A2DTECH:   CLIENT CODE
 ORIG.       2", 5" PRINT:   ORIGIN OF DATA
 UWI .       490251027500:   UNIQUE WELL ID
 DICO. A2D Technologies, Inc.:   DIGITIZING COMPANY
~OTHER INFORMATION
~A   DEPT      ILM        ILD         CALD      GRD         RHOB     DPHI        CORR  
# ...
  439.5000     5.5137     5.0050     8.2852   106.9861     2.4378     0.1397     0.0323
  440.0000     5.4467     4.9735     8.2832   105.8240     2.4439     0.1368     0.0336
  440.5000     5.3806     4.9422     8.2852   104.7833     2.4501     0.1330     0.0349
  441.0000     5.3162     4.9111     8.2656   105.4467     2.4564     0.1297     0.0362
  441.5000     5.2193     4.8938     8.2728   106.1396     2.4565     0.1272     0.0375
  442.0000     5.3275     4.9268     8.2794   106.8232     2.4546     0.1284     0.0388
  442.5000     5.4563     4.9499     8.2863   107.5054     2.4527     0.1307     0.0400
  443.0000     5.5881     4.9731     8.2933   108.1895     2.4509     0.1331     0.0413
  443.5000     5.7232     4.9965     8.3003   108.8672     2.4490     0.1338     0.0426
  444.0000     5.8842     5.0199     8.3072   109.5203     2.4467     0.1342     0.0439
  444.5000     5.9369     5.0435     8.3141   110.0897     2.4429     0.1362     0.0452
  445.0000     5.9096     5.0672     8.3211   109.6131     2.4391     0.1386     0.0465
  445.5000     5.8790     5.0909     8.3281   109.1232     2.4353     0.1411     0.0467
  446.0000     5.8487     5.1241     8.3346   108.6283     2.4314     0.1435     0.0466
  446.5000     5.8183     5.0772     8.3419   108.1328     2.4276     0.1459     0.0435
  447.0000     5.7882     5.0587     8.3222   107.6393     2.4238     0.1480     0.0403
  447.5000     5.7582     5.0408     8.3242   107.2176     2.4210     0.1486     0.0371
  448.0000     5.7285     5.0230     8.3246   107.2747     2.4239     0.1478     0.0340
  448.5000     5.7002     5.0053     8.3244   107.4258     2.4266     0.1464     0.0308
  449.0000     5.6699     4.9849     8.3216   107.4321     2.4294     0.1451     0.0280
  449.5000     5.5665     4.9946     8.2989   107.0534     2.4322     0.1437     0.0280
  450.0000     5.6421     5.0065     8.2760   106.5401     2.4365     0.1401     0.0280
  450.5000     5.7305     5.0185     8.2531   106.0226     2.4452     0.1356     0.0280
  451.0000     5.8203     5.0307     8.2419   105.5743     2.4462     0.1346     0.0280
  451.5000     5.9115     5.1976     8.2477   105.7853     2.4464     0.1350     0.0280
  452.0000     6.0041     5.3735     8.2591   106.6115     2.4449     0.1355     0.0280
  452.5000     6.0982     5.5554     8.2706   107.4271     2.4433     0.1360     0.0280
  453.0000     6.1937     5.7434     8.2822   107.5736     2.4418     0.1365     0.0280
  453.5000     6.3854     5.8286     8.2937   107.4297     2.4402     0.1370     0.0280
  454.0000     6.2419     5.7655     8.3041   107.5730     2.4386     0.1374     0.0280
  454.5000     6.0885     5.7223     8.3042   108.1035     2.4398     0.1380     0.0280
  455.0000     5.9411     5.5587     8.3265   108.4594     2.4418     0.1374     0.0280
  455.5000     5.7976     5.3974     8.3452   108.1711     2.4440     0.1368     0.0280
  456.0000     5.6575     5.2408     8.3356   107.7990     2.4416     0.1367     0.0280
  456.5000     5.5209     5.0887     8.3283   107.4209     2.4384     0.1373     0.0280
  457.0000     5.3874     4.9411     8.3214   107.0521     2.4395     0.1380     0.0280
  457.5000     5.2560     4.7977     8.3143   106.8035     2.4406     0.1388     0.0280
  458.0000     5.1722     4.6585     8.3073   107.4315     2.4417     0.1370     0.0280
  458.5000     5.2624     4.5465     8.3002   108.7425     2.4433     0.1346     0.0281
  459.0000     5.3327     4.6311     8.2931   110.1818     2.4463     0.1322     0.0297
  459.5000     5.4037     4.7046     8.2860   111.6362     2.4527     0.1294     0.0335
  460.0000     5.4755     4.7792     8.2853   113.1088     2.4621     0.1245     0.0368
  460.5000     5.5482     4.8549     8.2912   113.4179     2.4715     0.1196     0.0402
  461.0000     5.6219     4.9319     8.2971   112.8293     2.4808     0.1146     0.0437
  461.5000     5.6966     5.0101     8.3031   112.1011     2.4856     0.1109     0.0468
  462.0000     5.7723     5.0895     8.3090   111.3714     2.4811     0.1116     0.0476
  462.5000     5.8490     5.1702     8.3149   110.9156     2.4789     0.1142     0.0484
  463.0000     5.9267     5.2522     8.3207   111.6069     2.4768     0.1164     0.0492
  463.5000     5.9917     5.3355     8.3246   112.7232     2.4778     0.1163     0.0500
  464.0000     6.0471     5.4200     8.3265   113.8438     2.4790     0.1156     0.0508
  464.5000     6.0871     5.5062     8.3002   114.9694     2.4809     0.1162     0.0516
  465.0000     6.1359     5.5932     8.2822   116.1042     2.4804     0.1169     0.0524
  465.5000     6.1850     5.6709     8.2637   116.2790     2.4790     0.1176     0.0536
  466.0000     6.2345     5.5898     8.2457   115.3456     2.4777     0.1162     0.0557
  466.5000     6.2738     5.5059     8.2275   114.4746     2.4766     0.1160     0.0578
  467.0000     6.1509     5.4234     8.2207   113.6018     2.4776     0.1176     0.0599
  467.5000     6.0058     5.3421     8.2328   112.8393     2.4785     0.1185     0.0620
  468.0000     5.8636     5.2620     8.2462   113.2267     2.4794     0.1159     0.0640
  468.5000     5.7250     5.1830     8.2579   113.8123     2.4770     0.1166     0.0647
  469.0000     5.5896     5.1053     8.2846   114.3751     2.4722     0.1199     0.0629
  469.5000     5.4575     5.0307     8.3239   114.9260     2.4672     0.1231     0.0611
  470.0000     5.3285     4.9299     8.2788   115.3355     2.4569     0.1295     0.0593
  470.5000     5.1715     4.8489     8.2455   117.5464     2.4462     0.1368     0.0575
  471.0000     5.2500     4.8912     8.2654   119.7244     2.4354     0.1403     0.0557
  471.5000     5.3566     4.9678     8.2577   119.6923     2.4337     0.1407     0.0539
  472.0000     5.4653     5.0457     8.2063   117.4815     2.4382     0.1379     0.0521
  472.5000     5.5763     5.1247     8.2324   114.6188     2.4427     0.1351     0.0503
  473.0000     5.6895     5.2050     8.2801   112.3297     2.4429     0.1364     0.0485
  473.5000     5.8050     5.2866     8.3195   111.5796     2.4403     0.1382     0.0467
  474.0000     5.9228     5.3698     8.3062   111.1639     2.4352     0.1403     0.0449
  474.5000     6.0430     5.4532     8.2886   110.7719     2.4284     0.1437     0.0431
  475.0000     6.1657     5.5627     8.2712   110.8918     2.4215     0.1472     0.0413
  475.5000     6.2738     5.6181     8.2730   111.4893     2.4147     0.1506     0.0395
  476.0000     6.2196     5.6064     8.2932   112.1100     2.4097     0.1540     0.0377
  476.5000     6.1722     5.5987     8.3142   112.7400     2.4133     0.1540     0.0360
  477.0000     6.1251     5.5910     8.3003   113.3409     2.4167     0.1517     0.0342
  477.5000     6.0784     5.5834     8.2927   113.2274     2.4201     0.1493     0.0324
  478.0000     6.0471     5.5760     8.2833   112.8417     2.4235     0.1468     0.0306
  478.5000     6.1439     5.5665     8.2734   112.3916     2.4270     0.1436     0.0288
  479.0000     6.2178     5.6329     8.2637   111.3539     2.4341     0.1405     0.0270
  479.5000     6.2926     5.7183     8.2538   110.2377     2.4414     0.1365     0.0265
  480.0000     6.3684     5.8049     8.2443   109.1235     2.4512     0.1297     0.0279
  480.5000     6.4450     5.8929     8.2517   108.0161     2.4627     0.1230     0.0292
  481.0000     6.5225     5.9821     8.2858   106.9232     2.4641     0.1238     0.0306
  481.5000     6.6010     6.0728     8.3188   105.9045     2.4654     0.1244     0.0320
  482.0000     6.6912     6.1594     8.3513   105.8780     2.4629     0.1251     0.0333
  482.5000     6.8155     6.2164     8.3818   106.5197     2.4600     0.1258     0.0347
  483.0000     6.8462     6.2227     8.3609   107.1738     2.4602     0.1262     0.0361
  483.5000     6.8743     6.2285     8.3418   107.8037     2.4621     0.1254     0.0375
  484.0000     6.9026     6.2341     8.3228   107.4013     2.4640     0.1247     0.0388
  484.5000     6.9310     6.2399     8.3044   106.9986     2.4608     0.1255     0.0402
