~VERSION INFORMATION
 VERS.                2.0:   CWLS LOG ASCII STANDARD - VERSION 2.0
 WRAP.                 NO:   ONE LINE PER DEPTH STEP
~WELL INFORMATION
#MNEM.UNIT      DATA TYPE    INFORMATION
#----------   ------------   ------------------------------
 STRT.F            4.0000:   START DEPTH
 STOP.F          510.0000:   STOP DEPTH
 STEP.F            0.5000:   STEP LENGTH
 NULL.          -999.2500:   NO VALUE
 COMP. LAWRENCE/ALLISON INC:   COMPANY
 WELL.     68-46 SX #68-3:   WELL
 FLD .             TEAPOT:   FIELD
 LOC .       S3 T38N R78W:   LOCATION
 CNTY.            NATRONA:   COUNTY
 STAT.            WYOMING:   STATE
 CTRY. UNITED STATES OF AMERICA:   COUNTRY
 SRVC.           Gearhart:   SERVICE COMPANY
 DATE.        15-SEP-1987:   LOGDATE
 API .       490251116400:   API NUMBER
~CURVE INFORMATION
#MNEM.UNIT       API CODE    CURVE DESCRIPTION
#----------   ------------   ------------------------------
 DEPT.F                  :   
 GRR .GAPI   07 310 01 00:   GAMMA RAY
 RILD.OHMM   07 120 46 00:   INDUCTION LOG DEEP RESISTIVITY
 RILM.OHMM   07 120 44 00:   INDUCTION LOG MEDIUM RESISTIVITY
 RLL .OHMM   07 220 00 00:   LATEROLOG RESISTIVITY
 SPR .MV     07 010 01 00:   SPONTANEOUS POTENTIAL
~PARAMETER INFORMATION
#MNEM.UNIT          VALUE    DESCRIPTION
#----------   ------------   ------------------------------
 ENGI.           JOHNSTON:   RECORDING ENGINEER
 WITN.         MR. STRONG:   WITNESSED BY
 PD  .                 GL:   PERMANENT DATUM
 EPD .F              5162:   ELEVATION PERMANENT DATUM
 LMF .                 KB:   LOG MEASURED FROM
 DAPD.F                 8:   FEET ABOVE PERMANENT DATUM
 DMF .                 KB:   DRILLING MEASURED FROM
 EKB .F              5170:   KELLING BUSHING
 EDF .F              5169:   DRILLING FLOOR
 EGL .F              5162:   GROUND LEVEL
 DATE.        15-SEP-1987:   RUN DATE
 RUN .                  1:   RUN NUMBER
 DD  .F               519:   DEPTH DRILLER
 DL  .F               512:   DEPTH LOGGER
 BLI .F               500:   BOTTOM LOG INTERVAL
 TLI .F                50:   TOP LOG INTERVAL
 CS  .IN            8.625:   CASING SIZE
 CBD .F                50:   CASING BOTTOM DRILLER
 CBL .F                50:   CASING BOTTOM LOGGER
 BS  .IN             7.87:   BIT SIZE
 BSD .F               519:   BIT SIZE AT DEPTH
 DFT .                MUD:   DRILLING FLUID TYPE
 RMS .OHMM           0.64:   RESISTIVITY MUD SAMPLE
 MST .F                71:   MUD SAMPLE TEMPERATURE
 RMF .OHMM           0.48:   RESISTIVITY MUD FILTRATE SAMPLE
 MFST.F                71:   MUD FILTRATE SAMPLE TEMPERATURE
 RMC .OHMM           0.76:   RESISTIVITY MUD CAKE
 MCST.F                71:   MUD CAKE SAMPLE TEMPERATURE
 MFSS.              CHART:   MUD FILTRATE SAMPLE SOURCE
 MCSS.              CHART:   MUD CAKE SAMPLE SOURCE
 TCS .HRS            1100:   TIME CURCULATED STOPPED
 TLAB.HRS            1638:   TIME LOGGER AT BOTTOM
 LUN .               7650:   LOGGING UNIT NUMBER
 LUL .           GILLETTE:   LOGGING UNIT LOCATION
 CLNT.            A2DTECH:   CLIENT CODE
 ORIG.           5" PRINT:   ORIGIN OF DATA
 UWI .       490251116400:   UNIQUE WELL ID
 DICO. A2D Technologies, Inc.:   DIGITIZING COMPANY
~OTHER INFORMATION
~A    DEPT       GRR     RILD       RILM        RLL        SPR   
# ...
  431.0000    90.4110    12.1543     9.8657    11.7714   -28.0488
  431.5000    92.8463    11.8282     9.7269    11.4452   -28.3537
  432.0000    97.4125    11.6616     9.5898    11.2851   -28.6585
  432.5000   101.0655    11.4973     9.5885    11.1272   -28.5061
  433.0000   102.9163    11.4152     9.5872    10.8949   -28.0488
  433.5000   105.5058    11.2544     9.5189    10.7425   -27.5915
  434.0000   107.4581    11.1741     9.3194    10.5922   -27.2642
  434.5000   103.5008    11.0944     9.1241    10.5174   -26.8293
  435.0000   101.3699    11.0152     9.0591    10.5908   -26.6768
  435.5000   100.7610    10.8600     8.8690    10.5159   -26.8293
  436.0000   102.2831    10.6317     8.6768    10.4418   -26.8293
  436.5000   107.7626    10.5558     8.3240    10.2957   -26.8293
  437.0000   111.7199    10.4071     8.2069    10.2231   -26.8293
  437.5000   116.2861    10.1173     8.2636    10.1510   -26.8293
  438.0000   117.1994     9.9748     8.3795    10.1503   -27.1341
  438.5000   113.2420     9.8343     8.4373     9.9383   -27.1341
  439.0000   112.0244     9.6958     8.3769     9.7992   -27.2866
  439.5000   112.6332     9.6266     8.3172     9.7301   -27.5915
  440.0000   112.9376     9.6931     8.4335     9.6615   -27.8963
  440.5000   112.0244     9.7598     8.6139     9.5934   -28.0488
  441.0000   108.3714     9.8276     8.7937     9.7282   -27.8963
  441.5000   103.1964     9.9653     8.9167     9.8648   -27.2866
  442.0000    99.8478    10.1049     8.8528    10.0034   -26.8293
  442.5000    99.2390    10.1032     8.6673    10.0026   -27.4390
  443.0000   102.4415     9.9608     8.1359     9.8626   -27.4390
  443.5000   106.8493     9.6835     7.6909     9.4558   -27.7439
  444.0000   109.5890     9.6822     7.2193     9.2584   -28.0488
  444.5000   109.2846     9.5375     6.9209     9.1931   -28.6585
  445.0000   109.2846     9.1502     6.8235     9.0645   -29.1159
  445.5000   109.2846     8.8954     7.0202     8.9377   -29.2683
  446.0000   110.8067     8.8319     7.3262     8.8127   -29.1159
  446.5000   112.6332     8.7689     7.6306     8.6797   -28.6585
  447.0000   110.7663     8.7063     7.6835     8.5677   -28.5051
  447.5000   106.8087     8.8282     7.4174     8.5672   -28.2012
  448.0000   105.9361     8.5824     6.9140     8.5666   -28.0488
  448.5000   109.5890     8.1694     6.9131     8.5660   -27.7439
  449.0000   110.1979     7.9420     6.8638     8.6258   -27.4390
  449.5000   109.8935     7.6668     6.7199     8.6858   -27.2866
  450.0000   110.8067     7.6119     6.6254     8.5040   -26.8288
  450.5000   112.3288     7.7175     5.9500     7.7613   -26.5217
  451.0000   112.6093     7.6614     5.5971     7.4919   -26.8236
  451.5000   108.9413     7.4995     5.5184     7.3856   -26.8198
  452.0000   106.4941     7.6035     5.8772     7.5405   -26.8169
  452.5000   106.7865     7.7153     6.2156     7.9175   -27.1195
  453.0000   111.9496     8.0381     6.5735     8.9171   -27.8780
  453.5000   114.9818     8.5005     7.0502     9.5619   -28.3323
  454.0000   113.1434     8.9266     7.3522     9.7051   -28.3171
  454.5000   109.1740     9.3083     7.6136     9.7598   -28.0213
  455.0000   108.2518     9.6384     8.0577     9.7564   -27.7129
  455.5000   109.1501     9.8410     8.6291     9.7538   -27.4050
  456.0000   109.4426     9.9084     8.9353     9.7511   -27.0972
  456.5000   109.4306     9.9749     8.9964     9.8177   -27.3991
  457.0000   109.7311    10.0424     8.9945     9.9529   -28.1583
  457.5000   110.3199    10.1116     8.8673    10.0202   -28.6126
  458.0000   110.2546    10.1865     8.5596    10.0879   -28.6096
  458.5000   109.6842    10.2478     8.3796    10.0851   -28.9116
  459.0000   108.7590    10.1726     8.2612    10.0817   -29.0610
  459.5000   108.1382     9.9577     8.1444    10.0789   -28.9055
  460.0000   107.5174     9.8853     8.2578    10.0762   -28.9018
  460.5000   105.6790     9.8825     8.3142     9.9332   -28.7464
  461.0000   102.9273     9.9502     8.3710     9.6559   -28.5910
  461.5000   101.3933     9.9467     8.4876     9.6533   -28.2831
  462.0000   102.5990     9.9440     8.5495     9.7875   -27.8229
  462.5000   104.1091    10.0114     8.6039     9.8531   -27.6674
  463.0000   105.3148    10.0086     8.6017     9.9196   -27.6645
  463.5000   105.6073    10.0832     8.6000     9.9168   -27.3566
  464.0000   104.9700    10.1447     8.5982     9.9839   -27.0487
  464.5000   104.3653    10.1412     8.5964     9.9805   -26.7409
  465.0000   105.5684    10.1384     8.5947    10.0480   -26.4329
  465.5000   106.1682     9.9942     8.4732    10.0452   -26.4293
  466.0000   106.1533     9.8520     7.7875    10.0425   -26.5788
  466.5000   105.2281     9.7119     7.5705     9.9000   -27.4904
  467.0000   103.0852     9.3741     7.3527     9.0988   -27.6406
  467.5000   101.8556     8.3165     6.9483     8.4806   -27.4845
  468.0000   104.2790     7.3782     6.6681     8.2408   -27.3290
  468.5000   106.7023     6.8277     6.4369     7.9490   -27.4792
  469.0000   106.3860     6.2588     6.2138     7.6274   -27.7804
  469.5000   104.5475     5.4549     5.5141     7.3113   -27.7774
  470.0000   103.6022     4.5386     4.8933     6.9593   -27.7846
  470.5000   104.8321     3.9704     4.0198     6.4411   -28.4055
  471.0000   107.2997     3.5224     3.6431     6.0457   -28.9872
  471.5000   109.1122     3.2367     3.0996     5.4408   -29.5948
  472.0000   109.3584     3.0376     2.8250     4.3770   -28.8289
  472.5000   107.8213     2.9734     2.4959     3.6366   -27.9112
  473.0000   105.9829     2.9726     2.3562     3.3242   -27.6034
  473.5000   103.5356     3.0780     2.4398     3.2810   -27.2955
  474.0000   100.1751     3.2780     2.5983     4.3111   -26.9877
  474.5000    97.4234     3.5462     2.9267     5.0995   -26.5274
  475.0000    97.1071     3.8691     3.4626     5.6237   -26.0671
  475.5000    98.6172     4.5886     3.9555     6.0304   -25.5925
  476.0000   102.2582     5.5067     4.5185     6.4214   -25.4506
  476.5000   105.5948     5.9894     4.9489     6.7424   -25.4476
  477.0000   108.0181     6.6066     5.4306     6.8358   -25.4447
  477.5000   107.0827     7.2874     6.1271     6.9320   -25.2892
  478.0000   105.2542     7.7066     6.6868     7.1816   -25.2863
  478.5000   104.9376     8.0362     7.0713     7.5339   -25.5882
  479.0000   104.0099     8.3212     7.3738     7.8005   -25.2803
  479.5000   103.6936     8.4961     7.5294     8.0765   -25.4298
  480.0000   103.3772     8.6140     7.5809     8.3039   -26.3414
  480.5000   103.9741     8.7430     7.5789     8.5377   -26.1860
  481.0000   104.5739     8.8546     7.5774     8.7167   -26.3355
  481.5000   105.1678     8.8516     7.5229     8.7757   -26.9415
  482.0000   108.2000     8.8491     7.4131     8.8349   -28.0056
  482.5000   116.1028     8.7848     7.3117     8.7708   -28.7648
  483.0000   120.3526     8.5992     7.2587     8.6370   -29.3716
  483.5000   122.7763     8.4176     7.3087     8.7042   -29.6742
  484.0000   122.7640     8.3563     7.3068     8.7636   -29.8237
  484.5000   120.8888     8.3540     7.3053     8.7606   -29.9731
  485.0000   118.7418     8.2933     7.3038     8.8205   -30.2743
  485.5000   116.0281     8.2877     7.2006     8.8801   -30.2652
  486.0000   113.2764     8.1158     7.1488     8.8770   -30.4289
  486.5000   111.7453     8.0568     7.0974     8.5091   -30.8751
  487.0000   117.5143     8.1686     7.0463     8.2716   -30.5665
  487.5000   119.6332     8.1658     6.9956     8.2115   -30.1062
  488.0000   120.8419     8.1064     6.9938     8.2671   -29.6459
  488.5000  -999.2500     8.1613     7.0420     8.2643   -29.4905
  489.0000  -999.2500     8.2171     7.1400     8.2620   -29.7924
  489.5000  -999.2500     8.2143     7.2900     8.0884   -30.0943
  490.0000  -999.2500     8.2700     7.2885     8.3746   -29.9389
  490.5000  -999.2500     8.2677     7.3387     8.2552   -29.9359
  491.0000  -999.2500     8.2654     7.3885     8.1381   -29.7805
  491.5000  -999.2500     8.2630     7.3869     8.2508   -29.9299
