~VERSION INFORMATION
 VERS.                2.0:   CWLS LOG ASCII STANDARD - VERSION 2.0
 WRAP.                 NO:   ONE LINE PER DEPTH STEP
~WELL INFORMATION
#MNEM.UNIT      DATA TYPE    INFORMATION
#----------   ------------   ------------------------------
 STRT.F           30.0000:   START DEPTH
 STOP.F          620.0000:   STOP DEPTH
 STEP.F            0.5000:   STEP LENGTH
 NULL.          -999.2500:   NO VALUE
 COMP. FENIX & SCISSON INC:   COMPANY
 WELL.       NPR-3 #62-15:   WELL
 FLD .             TEAPOT:   FIELD
 LOC .      S15 T38N R78W:   LOCATION
 CNTY.            NATRONA:   COUNTY
 STAT.            WYOMING:   STATE
 CTRY. UNITED STATES OF AMERICA:   COUNTRY
 SRVC.           BIRDWELL:   SERVICE COMPANY
 DATE.        08-JUN-1978:   LOGDATE
 API .       490251063700:   API NUMBER
~CURVE INFORMATION
#MNEM.UNIT       API CODE    CURVE DESCRIPTION
#----------   ------------   ------------------------------
 DEPT.F                  :   
 SPR .MV     05 010 01 00:   SPONTANEOUS POTENTIAL FROM RES.
 SN  .OHMM   05 040 16 00:   SHORT NORMAL 16"
 ILD .OHMM   05 120 46 00:   INDUCTION LOG DEEP
 CALD.IN     45 280 60 00:   CALIPER FROM DENSITY LOG
 GRD .GAPI   45 310 01 00:   GAMMA RAY FROM DENSITY LOG
 CORR.G/C3   45 356 01 00:   DENSITY CORRECTION
 DPHI.DEC    45 890 12 00:   DENSITY POROSITY SANDSTONE
 DEN .G/C3   45 350 01 00:   DENSITY
~PARAMETER INFORMATION
#MNEM.UNIT          VALUE    DESCRIPTION
#----------   ------------   ------------------------------
 PD  .                 GL:   PERMANENT DATUM
 EPD .F              5246:   ELEVATION PERMANENT DATUM
 LMF .                 KB:   LOG MEASURED FROM
 DAPD.F                 4:   FEET ABOVE PERMANENT DATUM
 DMF .                 KB:   DRILLING MEASURED FROM
 EKB .F              5250:   KELLING BUSHING
 EGL .F              5246:   GROUND LEVEL
 DATE.        08-JUN-1978:   RUN DATE
 RUN .                  1:   RUN NUMBER
 DD  .F               620:   DEPTH DRILLER
 DL  .F               627:   DEPTH LOGGER
 BLI .F               620:   BOTTOM LOG INTERVAL
 TLI .F                42:   TOP LOG INTERVAL
 CS  .IN            8.625:   CASING SIZE
 CBD .F                40:   CASING BOTTOM DRILLER
 CBL .F                42:   CASING BOTTOM LOGGER
 BS  .IN            7.875:   BIT SIZE
 BSD .F               620:   BIT SIZE AT DEPTH
 DFT .                KCL:   DRILLING FLUID TYPE
 DFD .                8.7:   DRILLING FLUID DENSITY
 DFV .                 31:   DRILLING FLUID VISCOSITY
 DFPH.               10.5:   DRILLING FLUID PH
 DFL .                 10:   DRILLING FLUID LOSS
 MSS .           FLOWLINE:   MUD SAMPLE SOURCE
 RMS .OHMM            .26:   RESISTIVITY MUD SAMPLE
 MST .F                76:   MUD SAMPLE TEMPERATURE
 RMF .OHMM            .28:   RESISTIVITY MUD FILTRATE SAMPLE
 MFST.F                76:   MUD FILTRATE SAMPLE TEMPERATURE
 RMC .OHMM            .40:   RESISTIVITY MUD CAKE
 MCST.F                77:   MUD CAKE SAMPLE TEMPERATURE
 MFSS.               MEAS:   MUD FILTRATE SAMPLE SOURCE
 MCSS.               MEAS:   MUD CAKE SAMPLE SOURCE
 RMB .OHMM            .28:   RESISTIVITY MUD AT BHT
 BHT .F                70:   BOTTOM HOLE TEMPERATURE
 TCS .HRS            0400:   TIME CURCULATED STOPPED
 MRT .F                70:   MAXIMUM RECORDED TEMPERATURE
 LUN .               2958:   LOGGING UNIT NUMBER
 LUL .               CASP:   LOGGING UNIT LOCATION
 ENGI.             MILLER:   RECORDING ENGINEER
 WITN.           MCGINLEY:   WITNESSED BY
 CLNT.            A2DTECH:   CLIENT CODE
 ORIG.           5" PRINT:   ORIGIN OF DATA
 UWI .       490251063700:   UNIQUE WELL ID
 DICO. A2D Technologies, Inc.:   DIGITIZING COMPANY
~OTHER INFORMATION
~A   DEPT      SPR         SN        ILD       CALD        GRD       CORR       DPHI        DEN   
# ...
  232.5000   -38.9996     8.3776     5.9304     7.9021    93.0949     0.0350     0.1058     2.5007
  233.0000   -38.8317     8.3815     5.9331     8.0072    90.3825     0.0335     0.1052     2.4999
  233.5000   -38.2183     8.3855     5.9359     8.1876    89.6270     0.0349     0.1065     2.5021
  234.0000   -37.9002     8.3894     5.9799     8.2476    89.7811     0.0349     0.1071     2.5058
  234.5000   -37.5898     8.5101     6.0242     8.2473    90.5286     0.0348     0.1074     2.5006
  235.0000   -37.4224     8.5732     6.0688     8.2319    90.9889     0.0347     0.1083     2.4967
  235.5000   -37.4078     8.5772     6.1138     8.2316    91.1280     0.0362     0.1086     2.4960
  236.0000   -37.3932     8.6409     6.1173     8.2313    86.6626     0.0361     0.1116     2.4892
  236.5000   -37.2289     8.7058     6.1202     8.0804    84.9503     0.0383     0.1146     2.4929
  237.0000   -37.0646     8.7702     6.1231     7.7939    87.0834     0.0450     0.1005     2.5079
  237.5000   -37.0500     8.7744     6.0830     7.8088    91.3479     0.0547     0.0930     2.5199
  238.0000   -36.8857     8.8394     6.0869     7.7783    92.3254     0.0463     0.0978     2.5153
  238.5000   -36.8711     8.8435     6.0895     7.6876    88.1066     0.0223     0.1176     2.4823
  239.0000   -36.8563     8.8477     6.0923     7.5668    85.0931     0.0208     0.1186     2.4725
  239.5000   -36.8413     8.8518     6.0952     7.4310    88.1036     0.0237     0.1195     2.4733
  240.0000   -36.8237     8.8561     6.0151     7.3253    89.9097     0.0252     0.1213     2.4702
  240.5000   -36.5097     8.7992     6.0596     7.3099    86.2934     0.0236     0.1243     2.4634
  241.0000   -36.0460     8.7427     6.0625     7.3247    85.0875     0.0213     0.1294     2.4566
  241.5000   -35.7320     8.6866     6.0653     7.4147    90.6579     0.0190     0.1327     2.4476
  242.0000   -35.5677     8.5724     6.1102     7.5500    93.0664     0.0212     0.1393     2.4371
  242.5000   -35.4034     8.4587     6.1131     7.7454    92.0103     0.0406     0.1414     2.4348
  243.0000   -35.5389     8.4627     6.1160     7.9259    90.0510     0.0644     0.1300     2.4430
  243.5000   -35.5239     8.4083     6.1189     7.9708    86.8868     0.0726     0.1282     2.4512
  244.0000   -35.5090     8.2397     6.1224     8.0156    86.5845     0.0726     0.1373     2.4452
  244.5000   -35.4911     8.1869     6.1253     8.0605    88.2393     0.0815     0.1493     2.4317
  245.0000   -35.6298     8.2485     6.1282     8.0301    87.6353     0.0994     0.1439     2.4294
  245.5000   -35.6116     8.3096     6.0888     7.9394    86.4290     0.1353     0.1199     2.4474
  246.0000   -35.5988     8.4292     6.0917     7.8488    85.3733     0.1532     0.0995     2.4879
  246.5000   -35.5824     8.5505     6.0519     7.7280    84.4682     0.0902     0.1235     2.5066
  247.0000   -35.5678     8.6736     6.0137     7.6674    83.8643     0.0647     0.1325     2.4593
  247.5000   -35.5532     8.6776     6.0187     7.6220    86.8748     0.0572     0.1325     2.4495
  248.0000   -35.5386     8.6817     6.1106     7.5464    87.6264     0.0571     0.1331     2.4487
  248.5000   -35.5240     8.6858     6.2778     7.4105    88.6791     0.0391     0.1376     2.4457
  249.0000   -35.5090     8.6900     6.4123     7.3500    89.8824     0.0331     0.1386     2.4419
  249.5000   -35.4912     8.7553     6.5497     7.3346    90.9351     0.0300     0.1322     2.4426
  250.0000   -35.4803     8.8725     6.6205     7.3377    91.8376     0.0329     0.1236     2.4539
  250.5000   -35.6153     9.2025     6.7375     7.3575    89.8743     0.0346     0.1195     2.4696
  251.0000   -35.5969     9.3297     6.7857     7.3789    88.5143     0.0364     0.1149     2.4763
  251.5000   -35.5790     9.4649     6.8818     7.3937    85.7990     0.0381     0.1137     2.4838
  252.0000   -35.5563     9.6012     6.9309     7.4235    80.2222     0.0388     0.1107     2.4898
  252.5000   -35.5336     9.7394     7.0288     7.4232    79.4658     0.0403     0.1065     2.4942
  253.0000   -35.5109     9.7440     7.0789     7.4229    82.0204     0.0387     0.1071     2.4972
  253.5000   -35.4882     9.8162     7.1789     7.4226    85.7810     0.0387     0.1075     2.4987
  254.0000   -35.4655     9.9575     7.2302     7.3620    89.0898     0.0372     0.1033     2.4994
  254.5000   -35.4428    10.1009     7.3322     7.5123    80.5009     0.0342     0.1012     2.5046
  255.0000   -35.4201    10.3173     7.3846     7.7229    77.7856     0.0326     0.1003     2.5068
  255.5000   -35.3974    10.6115     7.4373     7.7377    79.4377     0.0311     0.1009     2.4978
  256.0000   -35.3747    10.7642     7.4904     7.7373    80.3379     0.0311     0.1039     2.4873
  256.5000   -35.3520    10.9193     7.4919     7.7370    72.1998     0.0311     0.1000     2.5008
  257.0000   -35.3293    10.9246     7.4418     7.7669    74.1531     0.0310     0.0962     2.5113
  257.5000   -35.3066    10.9308     7.3921     7.7515    76.5583     0.0295     0.1031     2.5060
  258.0000   -35.2839    10.8607     7.3940     7.6608    78.8128     0.0295     0.1160     2.4823
  258.5000   -35.2612    10.7167     7.3442     7.7660    80.7661     0.0316     0.1217     2.4728
  259.0000   -35.2385    10.4295     7.2955     7.8711    81.3652     0.0354     0.1196     2.4721
  259.5000   -35.2159    10.1500     7.2463     7.8870    80.4559     0.0354     0.1160     2.4744
  260.0000   -35.1932    10.0837     7.1979     7.7831    79.5478     0.0323     0.1137     2.4788
  260.5000   -35.1705    10.0190     7.1997     7.6895    78.6397     0.0285     0.1200     2.4780
  261.0000   -35.3024    10.0250     7.1516     7.7042    81.3461     0.0241     0.1224     2.4727
  261.5000   -35.5892    10.0297     7.1531     7.7642    81.6439     0.0248     0.1252     2.4667
  262.0000   -35.5848    10.0345     7.1545     7.7639    81.1876     0.0277     0.1272     2.4621
  262.5000   -35.5803    10.0393     7.1560     7.7334    83.7422     0.0337     0.1250     2.4644
  263.0000   -35.5759    10.0442     7.2071     7.7028    84.7919     0.0381     0.1212     2.4696
  263.5000   -35.5714    10.0499     7.2086     7.7031    84.9391     0.0426     0.1171     2.4763
  264.0000   -35.5670    10.0547     7.2603     7.8548    77.4030     0.0411     0.1204     2.4823
  264.5000   -35.5626     9.9890     7.2618     7.9732    74.0853     0.0395     0.1261     2.4792
  265.0000   -35.5581     9.9261     7.2633     7.9729    74.3820     0.0380     0.1285     2.4620
  265.5000   -35.5537     9.9308     7.2144     7.9726    74.3775     0.0410     0.1234     2.4574
  266.0000   -35.5492     9.9355     7.1662     7.9902    73.0175     0.0589     0.1096     2.4739
  266.5000   -35.5448     9.8718     7.0692     8.0925    68.4950     0.0694     0.1060     2.4949
  267.0000   -35.5403     9.6072     7.0220     8.0753    71.2013     0.0604     0.1144     2.5016
  267.5000   -35.5359     9.2854     6.9754     7.9995    78.2751     0.0409     0.1349     2.4528
  268.0000   -35.5314     9.0366     6.9288     7.9215    80.5297     0.0483     0.1406     2.4378
  268.5000   -35.5239     8.9168     6.8351     7.8328    79.7722     0.0752     0.1247     2.4543
  269.0000   -35.5062     8.8596     6.6025     7.7570    78.2616     0.0797     0.1226     2.4655
  269.5000   -35.3418     8.8027     6.3761     7.6784    78.1065     0.0692     0.1328     2.4700
  270.0000   -35.3271     8.8080     6.1238     7.5783    79.3069     0.0572     0.1383     2.4407
  270.5000   -35.3124     8.7504     6.0410     7.5027    80.5072     0.0512     0.1419     2.4369
  271.0000   -35.4511     8.6943     5.9590     7.4421    82.1593     0.0511     0.1431     2.4361
  271.5000   -35.7322     8.6994     5.9605     7.3966    83.2090     0.0511     0.1404     2.4391
  272.0000   -36.1666     8.6436     5.9617     7.3511    82.4515     0.0511     0.1371     2.4420
  272.5000   -36.6047     8.6477     5.9629     7.3508    82.2964     0.0510     0.1374     2.4413
