~VERSION INFORMATION
 VERS.                2.0:   CWLS LOG ASCII STANDARD - VERSION 2.0
 WRAP.                 NO:   ONE LINE PER DEPTH STEP
~WELL INFORMATION
#MNEM.UNIT      DATA TYPE    INFORMATION
#----------   ------------   ------------------------------
 STRT.F          100.0000:   START DEPTH
 STOP.F          812.0000:   STOP DEPTH
 STEP.F            0.5000:   STEP LENGTH
 NULL.          -999.2500:   NO VALUE
 COMP.               NAVY:   COMPANY
 WELL. RES 3 TEAPOT DOM #42S-11:   WELL
 FLD .             TEAPOT:   FIELD
 LOC .      S11 T38N R78W:   LOCATION
 CNTY.            NATRONA:   COUNTY
 STAT.            WYOMING:   STATE
 CTRY. UNITED STATES OF AMERICA:   COUNTRY
 SRVC.       Schlumberger:   SERVICE COMPANY
 DATE.        02-AUG-1961:   LOGDATE
 API .       490250636700:   API NUMBER
~CURVE INFORMATION
#MNEM.UNIT       API CODE    CURVE DESCRIPTION
#----------   ------------   ------------------------------
 DEPT.F                  :   
 SPR .MV     05 010 01 00:   SPONTANEOUS POTENTIAL FROM RES.
 ILD .OHMM   05 120 46 00:   INDUCTION LOG DEEP
 ASN .OHMM   05 041 16 00:   AMPLIFIED SHORT NORMAL 16"
 CILD.MMHO   05 110 46 00:   CONDUCTIVITY INDUCTION LOG DEEP
 GR  .GAPI   30 310 01 00:   GAMMA RAY
~PARAMETER INFORMATION
#MNEM.UNIT          VALUE    DESCRIPTION
#----------   ------------   ------------------------------
 PD  .                 GL:   PERMANENT DATUM
 EPD .F              5172:   ELEVATION PERMANENT DATUM
 LMF .                 KB:   LOG MEASURED FROM
 DAPD.F                 5:   FEET ABOVE PERMANENT DATUM
 DMF .                 KB:   DRILLING MEASURED FROM
 EKB .F              5177:   KELLING BUSHING
 EGL .F              5172:   GROUND LEVEL
 DATE.             8-2-61:   RUN DATE
 RUN .                  1:   RUN NUMBER
 DD  .F               810:   DEPTH DRILLER
 DL  .F               813:   DEPTH LOGGER
 BLI .F               812:   BOTTOM LOG INTERVAL
 TLI .F               100:   TOP LOG INTERVAL
 BS  .IN             6.75:   BIT SIZE
 BSD .F               810:   BIT SIZE AT DEPTH
 DFT .       OIL EMULSION:   DRILLING FLUID TYPE
 DFD .                9.2:   DRILLING FLUID DENSITY
 DFV .                 56:   DRILLING FLUID VISCOSITY
 MFSS.                  M:   MUD FILTRATE SAMPLE SOURCE
 MCSS.                  M:   MUD CAKE SAMPLE SOURCE
 RMB .OHMM            .70:   RESISTIVITY MUD AT BHT
 BHT .F                80:   BOTTOM HOLE TEMPERATURE
 TCS .HRS               1:   TIME CURCULATED STOPPED
 MRT .F                80:   MAXIMUM RECORDED TEMPERATURE
 LUN .               2552:   LOGGING UNIT NUMBER
 LUL .                RIV:   LOGGING UNIT LOCATION
 ENGI.             RANDLE:   RECORDING ENGINEER
 WITN.          VORGENSON:   WITNESSED BY
 CLNT.            A2DTECH:   CLIENT CODE
 ORIG.       2", 5" PRINT:   ORIGIN OF DATA
 UWI .       490250636700:   UNIQUE WELL ID
 DICO. A2D Technologies, Inc.:   DIGITIZING COMPANY
~OTHER INFORMATION
~A   DEPT      SPR        ILD        ASN        CILD        GR   
# ...
  527.0000   -37.3572     7.6139     8.5515   140.2003  -999.2500
  527.5000   -37.3628     7.6275     8.5816   140.2008  -999.2500
  528.0000   -37.4382     7.6411     8.6143   140.1998  -999.2500
  528.5000   -37.5392     7.6546     8.5980   140.1962  -999.2500
  529.0000   -37.5939     7.6682     8.5714   140.1942  -999.2500
  529.5000   -37.5439     7.6817     8.5467   140.2010  -999.2500
  530.0000   -37.4715     7.6956     8.5211   139.7758  -999.2500
  530.5000   -37.4058     7.7087     8.5189   139.3854  -999.2500
  531.0000   -37.3377     7.7233     8.5122   138.9950  -999.2500
  531.5000   -37.2708     7.7350     8.4941   138.6046  -999.2500
  532.0000   -37.2029     7.7533     8.4823   138.1909  -999.2500
  532.5000   -37.1381     7.7459     8.4509   140.2010  -999.2500
  533.0000   -37.1337     7.6224     8.4051   141.5075  -999.2500
  533.5000   -37.1148     7.5047     8.3419   142.2111  -999.2500
  534.0000   -36.9251     7.3861     8.2743   145.4039  -999.2500
  534.5000   -36.9161     7.2677     8.1973   148.1368  -999.2500
  535.0000   -37.0311     7.1504     8.0842   149.5334  -999.2500
  535.5000   -37.1335     7.0293     7.9677   150.2513  -999.2500
  536.0000   -37.2374     6.9154     7.8522   152.6169  -999.2500
  536.5000   -37.3432     6.7879     7.7346   154.9594  -999.2500
  537.0000   -37.4430     6.6841     7.6211   159.2533  -999.2500
  537.5000   -37.5540     6.4733     7.4711   166.2774  -999.2500
  538.0000   -37.5518     6.0637     7.2702   174.3012  -999.2500
  538.5000   -37.4734     5.8159     7.0767   180.1729  -999.2500
  539.0000   -37.4129     5.7330     6.8721   186.4540  -999.2500
  539.5000   -37.3441     5.6627     6.7103   188.4982  -999.2500
  540.0000   -37.2800     5.6999     6.5873   188.1930  -999.2500
  540.5000   -37.2131     5.7537     6.4777   187.7351  -999.2500
  541.0000   -37.1480     5.8092     6.4848   187.4372  -999.2500
  541.5000   -37.0814     5.8491     6.5919   185.3078  -999.2500
  542.0000   -37.0166     5.8717     6.8135   181.3015  -999.2500
  542.5000   -36.9484     6.0373     7.0988   175.4648  -999.2500
  543.0000   -36.8834     6.2501     7.3534   169.6281  -999.2500
  543.5000   -36.7058     6.4731     7.4190   163.7915  -999.2500
  544.0000   -36.5277     6.6917     7.4669   159.8492  -999.2500
  544.5000   -36.3531     6.9284     7.5173   157.3116  -999.2500
  545.0000   -36.1754     6.9663     7.5719   155.2764  -999.2500
  545.5000   -36.0146     6.9511     7.6017   155.2764  -999.2500
  546.0000   -36.0091     6.9706     7.5865   154.6270  -999.2500
  546.5000   -36.0906     6.9232     7.5823   153.0653  -999.2500
  547.0000   -36.1838     6.9284     7.5996   151.2563  -999.2500
  547.5000   -36.2464     7.0433     7.6233   152.4212  -999.2500
  548.0000   -36.3705     6.8907     7.5696   153.8054  -999.2500
  548.5000   -36.5128     6.7720     7.4406   156.7634  -999.2500
  549.0000   -36.6463     6.6295     7.3194   159.9384  -999.2500
  549.5000   -36.7898     6.5099     7.1934   163.1569  -999.2500
  550.0000   -36.8897     6.3471     7.0655   166.4284  -999.2500
  550.5000   -36.7446     6.2302     6.9545   169.7285  -999.2500
  551.0000   -36.5402     5.9981     6.8436   172.6352  -999.2500
  551.5000   -36.4299     5.8033     6.7234   183.4486  -999.2500
  552.0000   -36.3899     5.4366     6.6280   191.6660  -999.2500
  552.5000   -36.3487     5.0696     6.4224   210.5471  -999.2500
  553.0000   -36.2947     4.6595     6.2164   227.1042  -999.2500
  553.5000   -36.2717     4.4334     5.8595   247.5706  -999.2500
  554.0000   -36.0412     4.4472     5.5317   250.8917  -999.2500
  554.5000   -35.8314     4.4133     5.1275   252.8432  -999.2500
  555.0000   -35.7179     4.3730     5.0450   251.2670  -999.2500
  555.5000   -35.5682     4.4043     5.0702   249.2876  -999.2500
  556.0000   -35.6359     4.5718     5.2355   243.3629  -999.2500
  556.5000   -35.7499     4.8380     5.5559   235.9045  -999.2500
  557.0000   -35.8564     5.2090     6.0758   220.5807  -999.2500
  557.5000   -35.9668     5.5362     6.4681   197.4595  -999.2500
  558.0000   -36.0741     5.8722     6.7431   180.6030  -999.2500
  558.5000   -36.1854     6.2350     7.0118   170.1194  -999.2500
  559.0000   -36.2905     6.5738     7.1506   162.3116  -999.2500
  559.5000   -36.4070     6.7142     7.2952   160.0754  -999.2500
  560.0000   -36.4608     6.8393     7.4441   157.5377  -999.2500
  560.5000   -36.4580     6.9545     7.5878   155.0000  -999.2500
  561.0000   -36.4970     7.0844     7.7390   153.1084  -999.2500
  561.5000   -36.5315     7.1853     7.8252   151.4770  -999.2500
  562.0000   -36.5672     7.2931     7.9119   149.8457  -999.2500
  562.5000   -36.6049     7.3636     7.9927   148.2143  -999.2500
  563.0000   -36.6361     7.4771     8.0772   146.5829  -999.2500
  563.5000   -36.6832     7.5535     8.1592   145.2261  -999.2500
  564.0000   -36.6742     7.5086     8.2413   144.8308  -999.2500
  564.5000   -36.7013     7.4781     8.3247   144.4925  -999.2500
  565.0000   -36.4923     7.4570     8.3814   144.2211  -999.2500
  565.5000   -36.2641     7.5179     8.4274   142.9544  -999.2500
  566.0000   -36.1331     7.5947     8.4823   141.8970  -999.2500
  566.5000   -35.9791     7.6699     8.5280   140.8396  -999.2500
  567.0000   -35.8261     7.7502     8.5881   139.7822  -999.2500
  567.5000   -35.8177     7.7507     8.6811   139.1960  -999.2500
  568.0000   -36.0004     7.7167     8.7579   139.4940  -999.2500
  568.5000   -36.1701     7.6845     8.7745   139.8441  -999.2500
  569.0000   -36.3503     7.6526     8.7624   140.1941  -999.2500
  569.5000   -36.5242     7.6175     8.7495   140.5441  -999.2500
  570.0000   -36.6805     7.5893     8.6823   140.8941  -999.2500
  570.5000   -36.6187     7.5524     8.5597   141.2060  -999.2500
  571.0000   -36.4661     7.6285     8.4287   140.4020  -999.2500
  571.5000   -36.3278     7.7509     8.3018   139.6770  -999.2500
  572.0000   -36.1824     7.7780     8.1651   138.9519  -999.2500
  572.5000   -36.0408     7.8188     8.0663   138.1909  -999.2500
  573.0000   -35.8974     7.8433     7.9794   138.7538  -999.2500
  573.5000   -35.7546     7.8604     7.8625   140.2010  -999.2500
  574.0000   -35.6126     7.5347     7.6959   143.6851  -999.2500
  574.5000   -35.4675     7.1153     7.4981   148.2412  -999.2500
  575.0000   -35.3389     6.7251     7.2370   156.4641  -999.2500
  575.5000   -35.3238     6.3074     6.8842   166.3317  -999.2500
  576.0000   -35.3321     5.8701     6.5567   172.0060  -999.2500
  576.5000   -35.3021     5.3331     6.1975   188.6237  -999.2500
  577.0000   -35.0911     4.8430     5.7299   209.7771  -999.2500
  577.5000   -34.9021     4.2291     5.2067   243.1677  -999.2500
  578.0000   -34.8399     3.6479     4.8832   289.5335  -999.2500
  578.5000   -34.7760     3.0272     4.4055   348.8528  -999.2500
  579.0000   -34.6930     2.6289     3.9317   411.1950  -999.2500
  579.5000   -34.6481     2.4632     3.5116   450.8963  -999.2500
  580.0000   -34.6278     2.3083     3.3367   497.9900  -999.2500
  580.5000   -34.5406     2.2423     3.1622   497.9900  -999.2500
  581.0000   -34.4683     2.2511     3.0659   497.9900  -999.2500
  581.5000   -34.3793     2.2906     3.0178   497.9900  -999.2500
  582.0000   -34.0420     2.3560     3.0111   497.9900  -999.2500
  582.5000   -33.7397     2.5780     3.2214   449.2821  -999.2500
  583.0000   -33.9542     3.2060     3.7660   392.8643  -999.2500
  583.5000   -34.1367     3.9169     4.3597   330.8254  -999.2500
  584.0000   -34.2262     4.6115     4.9660   280.6823  -999.2500
  584.5000   -34.3461     5.3751     5.3874   231.5701  -999.2500
  585.0000   -34.4531     5.7534     5.8854   200.2823  -999.2500
  585.5000   -34.5625     5.9429     6.1016   181.7153  -999.2500
  586.0000   -34.6582     6.0805     6.1175   176.6843  -999.2500
  586.5000   -34.5607     6.1684     6.1133   172.5844  -999.2500
  587.0000   -34.3508     6.1567     6.1410   171.2005  -999.2500
  587.5000   -34.1078     6.1645     6.2591   173.0653  -999.2500
