~VERSION INFORMATION
 VERS.                2.0:   CWLS LOG ASCII STANDARD - VERSION 2.0
 WRAP.                 NO:   ONE LINE PER DEPTH STEP
~WELL INFORMATION
#MNEM.UNIT      DATA TYPE    INFORMATION
#----------   ------------   ------------------------------
 STRT.F            0.0000:   START DEPTH
 STOP.F          537.0000:   STOP DEPTH
 STEP.F            0.5000:   STEP LENGTH
 NULL.          -999.2500:   NO VALUE
 COMP.   FLUOR DANIEL INC:   COMPANY
 WELL. NAVAL PETROLEUM RESERVE 73 X-10 #8-10:   WELL
 FLD .             TEAPOT:   FIELD
 LOC .      S10 T37N R78W:   LOCATION
 CNTY.            NATRONA:   COUNTY
 STAT.            WYOMING:   STATE
 CTRY. UNITED STATES OF AMERICA:   COUNTRY
 SRVC.      Western Atlas:   SERVICE COMPANY
 DATE.        01-MAY-1996:   LOGDATE
 API .       490252278200:   API NUMBER
~CURVE INFORMATION
#MNEM.UNIT       API CODE    CURVE DESCRIPTION
#----------   ------------   ------------------------------
 DEPT.F                  :   
 GRR .GAPI   07 310 01 00:   GAMMA RAY FROM RES. LOG.
 ILM .OHMM   07 120 44 00:   INDUCTION LOG MEDIUM
 ILD .OHMM   07 120 46 00:   INDUCTION LOG DEEP
~PARAMETER INFORMATION
#MNEM.UNIT          VALUE    DESCRIPTION
#----------   ------------   ------------------------------
 PD  .                 GL:   PERMANENT DATUM
 EPD .F              5161:   ELEVATION PERMANENT DATUM
 LMF .                 KB:   LOG MEASURED FROM
 DAPD.F                10:   FEET ABOVE PERMANENT DATUM
 DMF .                 KB:   DRILLING MEASURED FROM
 EKB .F              5171:   KELLING BUSHING
 EDF .F              5170:   DRILLING FLOOR
 EGL .F              5161:   GROUND LEVEL
 DATE.         MAY-1-1996:   RUN DATE
 RUN .                  1:   RUN NUMBER
 DD  .F               545:   DEPTH DRILLER
 DL  .F               542:   DEPTH LOGGER
 BLI .F               542:   BOTTOM LOG INTERVAL
 CS  .IN            9.625:   CASING SIZE
 CBD .F                95:   CASING BOTTOM DRILLER
 BS  .IN             8.75:   BIT SIZE
 BSD .F               545:   BIT SIZE AT DEPTH
 DFT .                AIR:   DRILLING FLUID TYPE
 BHT .F                80:   BOTTOM HOLE TEMPERATURE
 MRT .F                80:   MAXIMUM RECORDED TEMPERATURE
 LUN .            HL-6530:   LOGGING UNIT NUMBER
 LUL .             CASPER:   LOGGING UNIT LOCATION
 ENGI.           BROWNLOW:   RECORDING ENGINEER
 WITN.             LEBEAU:   WITNESSED BY
 CLNT.            A2DTECH:   CLIENT CODE
 ORIG.       2"  5" PRINT:   ORIGIN OF DATA
 UWI .       490252278200:   UNIQUE WELL ID
 DICO. A2D Technologies, Inc.:   DIGITIZING COMPANY
~OTHER INFORMATION
~A    DEPT       GRR      ILM        ILD   
# ...
  182.0000   129.8470     6.0571     5.3997
  182.5000   131.0344     6.3747     5.6701
  183.0000   131.1432     6.6935     6.0212
  183.5000   130.6264     6.9457     6.3951
  184.0000   130.3663     7.2075     6.7892
  184.5000   130.6350     7.4508     7.0364
  185.0000   131.0502     7.5665     7.1595
  185.5000   131.0964     7.6840     7.2847
  186.0000   130.1431     7.8036     7.3771
  186.5000   129.5290     7.9254     7.4550
  187.0000   130.3033     8.0171     7.5338
  187.5000   133.4646     8.1102     7.6133
  188.0000   134.6958     8.2045     7.6938
  188.5000   135.5618     8.2998     7.7696
  189.0000   137.0593     8.3895     7.8448
  189.5000   140.0223     8.4544     7.9207
  190.0000   138.9907     8.5197     7.9974
  190.5000   133.7903     8.5860     8.0729
  191.0000   130.9691     8.6769     8.1644
  191.5000   131.0521     8.7851     8.2548
  192.0000   131.4419     8.8938     8.3462
  192.5000   130.7997     8.9343     8.4386
  193.0000   129.4816     8.9338     8.4534
  193.5000   129.9108     8.9337     8.4534
  194.0000   130.5259     8.9336     8.4533
  194.5000   129.9248     8.9338     8.4536
  195.0000   127.8459     8.9362     8.4544
  195.5000   127.0712     8.8069     8.3945
  196.0000   126.3784     8.6889     8.3481
  196.5000   125.1034     8.5725     8.3019
  197.0000   125.2009     8.4577     8.2557
  197.5000   130.0450     8.3759     8.2111
  198.0000   133.6920     8.3759     8.1670
  198.5000   134.7504     8.3759     8.1236
  199.0000   134.9219     8.3759     8.0804
  199.5000   135.4602     8.2806     8.0374
  200.0000   133.9360     8.0911     7.9712
  200.5000   132.4062     7.8132     7.6862
  201.0000   132.7101     7.4581     7.3690
  201.5000   133.4965     7.1179     6.9619
  202.0000   133.8412     6.6710     6.5796
  202.5000   135.1877     6.2060     6.0958
  203.0000   135.9156     5.7744     5.5543
  203.5000   133.5587     5.3723     5.0037
  204.0000   128.1519     4.6885     4.3991
  204.5000   123.3507     4.0151     3.8140
  205.0000   125.7912     3.4385     3.3061
  205.5000   129.3277     2.9828     3.0014
  206.0000   128.6666     2.7179     2.7561
  206.5000   127.1145     2.5529     2.6046
  207.0000   124.5786     2.5832     2.5195
  207.5000   119.5642     2.7026     2.4833
  208.0000   114.5069     2.8867     2.6151
  208.5000   113.0144     3.0692     2.7104
  209.0000   117.0516     3.5128     2.9805
  209.5000   123.9335     3.9855     3.3064
  210.0000   130.9935     4.5227     3.7189
  210.5000   136.2372     5.1343     4.3219
  211.0000   137.3193     5.7416     5.0299
  211.5000   135.9523     6.0790     5.4884
  212.0000   136.3013     6.2654     5.8693
  212.5000   139.4836     6.3831     6.1717
  213.0000   142.6170     6.5318     6.3213
  213.5000   142.6365     6.5203     6.3752
  214.0000   141.2884     6.5005     6.4125
  214.5000   140.3561     6.4820     6.2476
  215.0000   141.0935     6.3528     6.0399
  215.5000   143.3717     6.0556     5.8103
  216.0000   145.1120     5.7306     5.4329
  216.5000   146.4746     5.4238     5.2086
  217.0000   147.5894     5.1337     4.9972
  217.5000   147.3380     4.8199     4.7949
  218.0000   146.7469     4.8491     4.6602
  218.5000   143.9953     4.8844     4.5997
  219.0000   141.6239     4.9625     4.6971
  219.5000   140.3206     5.1586     4.8076
  220.0000   140.8858     5.3831     4.9207
  220.5000   141.7214     5.6135     5.1394
  221.0000   142.2398     5.8807     5.4165
  221.5000   141.5036     6.1741     5.7076
  222.0000   140.7966     6.5784     6.0142
  222.5000   140.0910     7.0312     6.3537
  223.0000   139.3796     7.2772     6.6101
  223.5000   139.1765     7.5456     6.8913
  224.0000   139.8809     7.8250     7.1825
  224.5000   141.5706     8.0012     7.4336
  225.0000   142.9883     7.9786     7.6624
  225.5000   143.5831     7.9606     7.7096
  226.0000   142.8300     7.9434     7.7009
  226.5000   141.5036     7.9249     7.6612
  227.0000   141.3092     7.7497     7.5683
  227.5000   140.8274     7.5813     7.4086
  228.0000   139.6474     7.4170     7.2524
  228.5000   137.9124     7.2564     7.0994
  229.0000   138.4172     7.0995     6.9497
  229.5000   140.5485     6.9455     6.6473
  230.0000   142.8825     6.8180     6.2901
  230.5000   145.0387     6.5245     5.9521
  231.0000   144.3878     6.0523     5.6537
  231.5000   143.6714     5.6142     5.2394
  232.0000   145.0159     5.2079     4.8564
  232.5000   150.3357     4.8279     4.6264
  233.0000   152.7447     4.5997     4.5176
  233.5000   153.9721     4.6013     4.5904
  234.0000   153.4892     4.9896     4.6870
  234.5000   151.3825     5.3098     4.7520
  235.0000   147.1486     5.7204     4.9207
  235.5000   142.5658     6.1626     5.0937
  236.0000   139.3816     6.6036     5.5766
  236.5000   136.0072     6.9410     6.1000
  237.0000   136.7638     7.2954     6.6100
  237.5000   143.1711     7.5776     6.9506
  238.0000   149.6369     7.7559     7.3066
  238.5000   150.8545     7.9256     7.4555
  239.0000   145.6468     7.9434     7.4995
  239.5000   140.2704     8.0094     7.5337
  240.0000   137.6807     8.0756     7.5727
  240.5000   137.2211     8.1476     7.6120
  241.0000   138.0194     8.1200     7.6389
  241.5000   141.8381     8.0899     7.6114
  242.0000   143.7531     8.0598     7.5906
  242.5000   142.7902     8.0298     7.5692
  243.0000   140.7496     7.9990     7.5370
  243.5000   140.1238     7.9801     7.4952
  244.0000   139.1531     7.9606     7.4535
  244.5000   137.1094     7.9412     7.4120
  245.0000   135.1665     7.9253     7.3707
  245.5000   135.0677     7.9256     7.3626
  246.0000   136.7923     7.9256     7.3626
  246.5000   140.9416     7.9256     7.3626
  247.0000   145.0036     7.9256     7.3629
  247.5000   148.7658     7.9278     7.3642
  248.0000   148.7417     7.9286     7.3679
  248.5000   147.1611     7.6824     7.1427
  249.0000   143.6269     7.4307     6.9411
  249.5000   141.0781     6.9788     6.6369
  250.0000   143.4901     6.5846     6.2375
  250.5000   146.6566     6.2127     5.8654
  251.0000   148.3488     5.8807     5.6630
  251.5000   150.6807     5.6889     5.5947
  252.0000   153.8847     5.8528     5.5186
  252.5000   156.8645     6.0122     5.4097
  253.0000   154.7302     6.0133     5.3177
  253.5000   151.3100     6.0117     5.2018
  254.0000   149.5145     6.0147     5.0885
  254.5000   147.0352     5.4868     4.9776
  255.0000   144.5050     5.1340     4.9321
  255.5000   142.9260     4.9889     4.9094
  256.0000   140.5436     4.9548     4.9349
  256.5000   135.0496     5.0455     4.9606
  257.0000   130.4561     5.1884     4.9854
  257.5000   133.1001     5.5114     5.0576
  258.0000   139.7900     5.8570     5.1888
  258.5000   144.6926     6.1239     5.4016
  259.0000   145.7662     6.6518     5.8834
  259.5000   146.0890     7.0694     6.3571
  260.0000   144.2069     7.1792     6.7136
  260.5000   141.5565     7.2343     6.6576
  261.0000   140.0912     7.2951     6.5460
  261.5000   135.5891     7.1563     6.3535
  262.0000   131.7631     6.9411     6.0043
  262.5000   133.1414     6.3246     5.6763
  263.0000   137.0968     5.8075     5.4145
  263.5000   139.2198     5.3660     5.2108
  264.0000   142.1811     5.1884     5.0453
  264.5000   149.2870     5.2364     5.0326
  265.0000   151.1533     5.3583     5.0175
  265.5000   148.6705     5.4844     5.0007
  266.0000   146.0452     5.6764     5.0726
  266.5000   146.8315     6.1149     5.2921
  267.0000   147.8867     6.5605     5.6743
  267.5000   144.9467     6.9470     6.1127
  268.0000   139.9309     7.3563     6.5001
  268.5000   135.4909     7.5870     6.8965
  269.0000   137.8257     7.9236     7.2096
  269.5000   141.0303     8.2752     7.4829
  270.0000   142.5724     8.5455     7.7666
  270.5000   139.2849     8.5924     7.8925
  271.0000   136.4653     8.6395     7.9492
  271.5000   136.7009     8.6902     8.0063
  272.0000   137.1436     8.6902     8.0638
  272.5000   137.5296     8.6902     8.1217
