~VERSION INFORMATION
 VERS.                2.0:   CWLS LOG ASCII STANDARD - VERSION 2.0
 WRAP.                 NO:   ONE LINE PER DEPTH STEP
~WELL INFORMATION
#MNEM.UNIT      DATA TYPE    INFORMATION
#----------   ------------   ------------------------------
 STRT.F           30.0000:   START DEPTH
 STOP.F          620.0000:   STOP DEPTH
 STEP.F            0.5000:   STEP LENGTH
 NULL.          -999.2500:   NO VALUE
 COMP. FENIX & SCISSON INC:   COMPANY
 WELL.       NPR-3 #62-15:   WELL
 FLD .             TEAPOT:   FIELD
 LOC .      S15 T38N R78W:   LOCATION
 CNTY.            NATRONA:   COUNTY
 STAT.            WYOMING:   STATE
 CTRY. UNITED STATES OF AMERICA:   COUNTRY
 SRVC.           BIRDWELL:   SERVICE COMPANY
 DATE.        08-JUN-1978:   LOGDATE
 API .       490251063700:   API NUMBER
~CURVE INFORMATION
#MNEM.UNIT       API CODE    CURVE DESCRIPTION
#----------   ------------   ------------------------------
 DEPT.F                  :   
 SPR .MV     05 010 01 00:   SPONTANEOUS POTENTIAL FROM RES.
 SN  .OHMM   05 040 16 00:   SHORT NORMAL 16"
 ILD .OHMM   05 120 46 00:   INDUCTION LOG DEEP
 CALD.IN     45 280 60 00:   CALIPER FROM DENSITY LOG
 GRD .GAPI   45 310 01 00:   GAMMA RAY FROM DENSITY LOG
 CORR.G/C3   45 356 01 00:   DENSITY CORRECTION
 DPHI.DEC    45 890 12 00:   DENSITY POROSITY SANDSTONE
 DEN .G/C3   45 350 01 00:   DENSITY
~PARAMETER INFORMATION
#MNEM.UNIT          VALUE    DESCRIPTION
#----------   ------------   ------------------------------
 PD  .                 GL:   PERMANENT DATUM
 EPD .F              5246:   ELEVATION PERMANENT DATUM
 LMF .                 KB:   LOG MEASURED FROM
 DAPD.F                 4:   FEET ABOVE PERMANENT DATUM
 DMF .                 KB:   DRILLING MEASURED FROM
 EKB .F              5250:   KELLING BUSHING
 EGL .F              5246:   GROUND LEVEL
 DATE.        08-JUN-1978:   RUN DATE
 RUN .                  1:   RUN NUMBER
 DD  .F               620:   DEPTH DRILLER
 DL  .F               627:   DEPTH LOGGER
 BLI .F               620:   BOTTOM LOG INTERVAL
 TLI .F                42:   TOP LOG INTERVAL
 CS  .IN            8.625:   CASING SIZE
 CBD .F                40:   CASING BOTTOM DRILLER
 CBL .F                42:   CASING BOTTOM LOGGER
 BS  .IN            7.875:   BIT SIZE
 BSD .F               620:   BIT SIZE AT DEPTH
 DFT .                KCL:   DRILLING FLUID TYPE
 DFD .                8.7:   DRILLING FLUID DENSITY
 DFV .                 31:   DRILLING FLUID VISCOSITY
 DFPH.               10.5:   DRILLING FLUID PH
 DFL .                 10:   DRILLING FLUID LOSS
 MSS .           FLOWLINE:   MUD SAMPLE SOURCE
 RMS .OHMM            .26:   RESISTIVITY MUD SAMPLE
 MST .F                76:   MUD SAMPLE TEMPERATURE
 RMF .OHMM            .28:   RESISTIVITY MUD FILTRATE SAMPLE
 MFST.F                76:   MUD FILTRATE SAMPLE TEMPERATURE
 RMC .OHMM            .40:   RESISTIVITY MUD CAKE
 MCST.F                77:   MUD CAKE SAMPLE TEMPERATURE
 MFSS.               MEAS:   MUD FILTRATE SAMPLE SOURCE
 MCSS.               MEAS:   MUD CAKE SAMPLE SOURCE
 RMB .OHMM            .28:   RESISTIVITY MUD AT BHT
 BHT .F                70:   BOTTOM HOLE TEMPERATURE
 TCS .HRS            0400:   TIME CURCULATED STOPPED
 MRT .F                70:   MAXIMUM RECORDED TEMPERATURE
 LUN .               2958:   LOGGING UNIT NUMBER
 LUL .               CASP:   LOGGING UNIT LOCATION
 ENGI.             MILLER:   RECORDING ENGINEER
 WITN.           MCGINLEY:   WITNESSED BY
 CLNT.            A2DTECH:   CLIENT CODE
 ORIG.           5" PRINT:   ORIGIN OF DATA
 UWI .       490251063700:   UNIQUE WELL ID
 DICO. A2D Technologies, Inc.:   DIGITIZING COMPANY
~OTHER INFORMATION
~A   DEPT      SPR         SN        ILD       CALD        GRD       CORR       DPHI        DEN   
# ...
  556.5000   -32.2335    11.8136     8.0792     7.8385    63.2292     0.0456     0.1090     2.4915
  557.0000   -32.6588    11.8216     8.0276     7.8229    63.0739     0.0396     0.1084     2.4923
  557.5000   -32.9440    11.8297     8.0343     7.8223    63.0694     0.0320     0.1159     2.4946
  558.0000   -33.0747    11.7559     7.9842     7.8217    67.0344     0.0260     0.1183     2.4802
  558.5000   -32.9013    11.7658     7.9897     7.8211    69.2444     0.0244     0.1135     2.4847
  559.0000   -32.7326    11.6907     7.9952     7.8192    68.5974     0.0244     0.1117     2.4892
  559.5000   -32.7136    11.5380     7.9454     7.7881    67.4088     0.0243     0.1115     2.4905
  560.0000   -33.1437    11.4662     7.9520     7.7189    66.9683     0.0227     0.1103     2.4860
  560.5000   -33.4241    11.4759     7.9013     7.6530    67.2656     0.0212     0.1142     2.4844
  561.0000   -33.4004    11.4836     7.9079     7.7455    67.4120     0.0166     0.1160     2.4814
  561.5000   -33.5359    11.4122     7.8033     7.7573    68.0097     0.0136     0.1160     2.4791
  562.0000   -33.5121    11.4993     7.7548     7.7415    71.4742     0.0105     0.1211     2.4790
  562.5000   -33.4931    11.5087     7.7070     7.7409    74.9388     0.0090     0.1229     2.4760
  563.0000   -33.4741    11.5164     7.6599     7.7555    74.6327     0.0104     0.1199     2.4744
  563.5000   -33.4552    11.5241     7.6123     7.7699    72.3657     0.0133     0.1145     2.4811
  564.0000   -33.4362    11.5319     7.6187     7.7692    71.0038     0.0163     0.1190     2.4819
  564.5000   -33.4172    11.4582     7.6238     7.7686    70.8484     0.0192     0.1166     2.4811
  565.0000   -33.3982    11.4678     7.6289     7.7832    70.9948     0.0222     0.1154     2.4817
  565.5000   -33.3638    11.4755     7.6340     7.7976    71.7444     0.0251     0.1169     2.4825
  566.0000   -33.0561    11.3257     7.6391     7.8121    72.4941     0.0250     0.1127     2.4862
  566.5000   -32.8874    11.2552     7.6443     7.8114    73.2437     0.0250     0.1061     2.4892
  567.0000   -33.1678    11.1852     7.6494     7.8260    73.6928     0.0234     0.1079     2.4824
  567.5000   -33.5979    11.1157     7.6547     7.8252    73.3855     0.0203     0.1085     2.4817
  568.0000   -34.1777    11.2021     7.6610     7.8398    71.8727     0.0188     0.1082     2.4839
  568.5000   -34.6126    11.2097     7.6133     7.8090    71.4169     0.0172     0.1067     2.4892
  569.0000   -34.5889    11.2172     7.6184     7.7632    72.9196     0.0142     0.1079     2.4951
  569.5000   -34.5699    11.2247     7.6236     7.7475    74.4234     0.0111     0.1121     2.4974
  570.0000   -34.4012    11.2323     7.5749     7.7469    74.1172     0.0111     0.1160     2.4831
  570.5000   -34.6816    11.1624     7.5278     7.7615    74.8668     0.0125     0.1169     2.4801
  571.0000   -34.8123    11.0166     7.4307     7.7608    75.6176     0.0140     0.1172     2.4801
  571.5000   -35.0880    10.9481     7.3845     7.7754    74.2545     0.0169     0.1211     2.4778
  572.0000   -35.0690    10.8800     7.3895     7.7899    73.4959     0.0213     0.1190     2.4763
  572.5000   -35.3494    10.7397     7.2942     7.8194    74.0947     0.0243     0.1151     2.4853
  573.0000   -35.6298    10.7469     7.2488     7.8488    75.2968     0.0272     0.1127     2.4883
  573.5000   -35.7606    10.7541     7.2537     7.8632    74.9907     0.0301     0.1121     2.4913
  574.0000   -35.8960    10.6872     7.2073     7.8626    73.3271     0.0331     0.1097     2.4943
  574.5000   -36.0225    10.6945     7.1144     7.8620    71.8143     0.0375     0.1055     2.4988
  575.0000   -36.1527    10.7019     7.0702     7.8313    71.7848     0.0404     0.1019     2.5040
  575.5000   -36.1332    10.6351     7.0261     7.8006    73.3136     0.0419     0.1002     2.5092
  576.0000   -36.2644    10.6210     7.0309     7.7699    76.0240     0.0388     0.0996     2.5137
  576.5000   -36.3904    10.5050     6.9402     7.7994    75.8687     0.0342     0.0990     2.5190
  577.0000   -36.3714    10.3678     6.8959     7.8891    74.0542     0.0282     0.0984     2.5182
  577.5000   -36.5069    10.2306     6.8542     7.9337    73.7406     0.0221     0.0996     2.5114
  578.0000   -36.4831    10.0987     6.8588     7.9331    74.7994     0.0176     0.1026     2.5062
  578.5000   -36.6138     9.9668     6.8150     7.9024    76.0015     0.0160     0.1044     2.5047
  579.0000   -36.5949     9.8366     6.7726     7.8259    77.5114     0.0160     0.1062     2.5031
  579.5000   -36.5759     9.7081     6.7315     7.7644    77.4942     0.0159     0.1083     2.4994
  580.0000   -36.5569     9.5829     6.6437     7.7189    76.7321     0.0174     0.1119     2.4911
  580.5000   -36.6876     9.4562     6.5015     7.6878    76.1206     0.0188     0.1164     2.4836
  581.0000   -36.8183     9.2061     6.1243     7.6735    75.8282     0.0217     0.1158     2.4828
  581.5000   -36.9443     9.0233     5.7193     7.6729    76.6189     0.0247     0.1125     2.4858
  582.0000   -36.9253     8.6627     5.1954     7.6723    77.9789     0.0261     0.1170     2.4873
  582.5000   -36.9063     8.3165     4.8855     7.6717    79.8189     0.0260     0.1194     2.4806
  583.0000   -36.8873     8.0377     4.8209     7.6710    81.5406     0.0409     0.1164     2.4828
  583.5000   -35.8204     7.7559     4.8249     7.7005    82.1405     0.0588     0.1074     2.4910
  584.0000   -35.0529     7.3093     4.8281     7.7151    67.6560     0.0708     0.0864     2.5323
  584.5000   -35.1837     7.6766     4.8331     7.7597    64.9366     0.0482     0.0751     2.5510
  585.0000   -35.1647     7.7887     4.8683     7.8041    65.9879     0.0362     0.0804     2.5480
  585.5000   -35.1457     8.4094     5.2208     7.8487    69.7542     0.0437     0.0828     2.5405
  586.0000   -35.2764     9.0795     5.7549     7.8784    70.3592     0.0331     0.0852     2.5330
  586.5000   -35.2527     9.6686     6.3000     7.8174    72.4878     0.0300     0.0870     2.5300
  587.0000   -35.3881     9.7421     6.7552     7.7114    75.0648     0.0270     0.0876     2.5307
  587.5000   -35.3668    10.1090     6.9974     7.6355    77.4409     0.0254     0.0873     2.5314
  588.0000   -35.4999    10.5273     7.0506     7.8608    77.8764     0.0239     0.0873     2.5322
  588.5000   -35.4761    10.5344     7.1043     7.8754    73.3408     0.0253     0.0879     2.5299
  589.0000   -35.4571    10.5415     7.1584     7.7993    71.5326     0.0283     0.0888     2.5269
  589.5000   -35.4381    10.5486     7.2140     7.7385    72.6904     0.0342     0.0895     2.5254
  590.0000   -35.4192    10.6288     7.3700     7.7228    76.3490     0.0386     0.0864     2.5306
  590.5000   -35.3997    10.7097     7.4776     7.7523    76.0429     0.0416     0.0820     2.5374
  591.0000   -35.3764    10.8660     7.5868     7.8421    71.3630     0.0415     0.0790     2.5419
  591.5000   -35.3575    11.0247     7.6445     7.9168    68.3419     0.0384     0.0769     2.5448
  592.0000   -35.3385    11.1190     7.7027     7.9272    70.9015     0.0354     0.0766     2.5463
  592.5000   -35.3195    11.2726     7.7078     7.9459    76.3269     0.0368     0.0763     2.5471
  593.0000   -35.3005    11.3583     7.7131     7.9451    77.3793     0.0428     0.0751     2.5441
  593.5000   -35.2815    11.4448     7.7184     7.9295    69.6814     0.0382     0.0733     2.5448
  594.0000   -35.2625    11.4525     7.7782     7.9138    67.7173     0.0321     0.0784     2.5425
  594.5000   -35.2435    11.5396     7.7835     7.8680    74.3481     0.0321     0.0805     2.5373
  595.0000   -35.2245    11.6274     7.7887     7.7620    74.6464     0.0320     0.0811     2.5403
  595.5000   -35.2051    11.6352     7.8480     7.7313    72.5292     0.0305     0.0868     2.5402
  596.0000   -35.1818    11.6432     7.8532     7.7307    70.7147     0.0304     0.0877     2.5365
  596.5000   -35.1628    11.6528     7.8042     7.7452    70.8611     0.0289     0.0898     2.5312
