~VERSION INFORMATION
 VERS.                2.0:   CWLS LOG ASCII STANDARD - VERSION 2.0
 WRAP.                 NO:   ONE LINE PER DEPTH STEP
~WELL INFORMATION
#MNEM.UNIT      DATA TYPE    INFORMATION
#----------   ------------   ------------------------------
 STRT.F           46.0000:   START DEPTH
 STOP.F         2100.0000:   STOP DEPTH
 STEP.F            0.5000:   STEP LENGTH
 NULL.          -999.2500:   NO VALUE
 COMP. LAWRENCE/ALLISON INC:   COMPANY
 WELL.    58-21 SX #10-10:   WELL
 FLD .             TEAPOT:   FIELD
 LOC .      S10 T38N R78W:   LOCATION
 CNTY.            NATRONA:   COUNTY
 STAT.            WYOMING:   STATE
 CTRY. UNITED STATES OF AMERICA:   COUNTRY
 SRVC.           Gearhart:   SERVICE COMPANY
 DATE.        06-JUL-1987:   LOGDATE
 API .       490251114400:   API NUMBER
~CURVE INFORMATION
#MNEM.UNIT       API CODE    CURVE DESCRIPTION
#----------   ------------   ------------------------------
 DEPT.F                  :   
 GR  .GAPI   81 310 01 00:   GAMMA RAY
 TGAS.UNITS  91 830 01 00:   TOTAL GAS FROM HOTWIRE
 ROP .MIN/FT 91 810 01 00:   RAT OF DRILLING PENETRATION
~PARAMETER INFORMATION
#MNEM.UNIT          VALUE    DESCRIPTION
#----------   ------------   ------------------------------
 PD  .                 GL:   PERMANENT DATUM
 EPD .F              5219:   ELEVATION PERMANENT DATUM
 LMF .                 KB:   LOG MEASURED FROM
 DAPD.F                 8:   FEET ABOVE PERMANENT DATUM
 DMF .                 KB:   DRILLING MEASURED FROM
 EKB .F              5227:   KELLING BUSHING
 EDF .F              5225:   DRILLING FLOOR
 EGL .F              5219:   GROUND LEVEL
 DATE.             7-6-87:   RUN DATE
 RUN .                  1:   RUN NUMBER
 DD  .F               610:   DEPTH DRILLER
 DL  .F             531.5:   DEPTH LOGGER
 BLI .F               526:   BOTTOM LOG INTERVAL
 TLI .F                50:   TOP LOG INTERVAL
 BS  .IN            7.875:   BIT SIZE
 BSD .F               610:   BIT SIZE AT DEPTH
 DFT .              WATER:   DRILLING FLUID TYPE
 LUN .               6084:   LOGGING UNIT NUMBER
 LUL .           GILLETTE:   LOGGING UNIT LOCATION
 ENGI.                COX:   RECORDING ENGINEER
 WITN.               LOWE:   WITNESSED BY
 CLNT.            A2DTECH:   CLIENT CODE
 ORIG.           5" PRINT:   ORIGIN OF DATA
 UWI .       490251114400:   UNIQUE WELL ID
 DICO. A2D Technologies, Inc.:   DIGITIZING COMPANY
~OTHER INFORMATION
~A   DEPT        GR      TGAS        ROP   
# ...
  774.0000  -999.2500     1.8740     0.2812
  774.5000  -999.2500     1.8784     0.2812
  775.0000  -999.2500     1.8828     0.2812
  775.5000  -999.2500     1.8873     0.2812
  776.0000  -999.2500     1.8917     0.2812
  776.5000  -999.2500     1.8961     0.2812
  777.0000  -999.2500     1.9006     0.2812
  777.5000  -999.2500     1.9050     0.2812
  778.0000  -999.2500     1.9094     0.2812
  778.5000  -999.2500     1.9139     0.2812
  779.0000  -999.2500     1.9183     0.2812
  779.5000  -999.2500     1.9227     0.2812
  780.0000  -999.2500     1.9272     0.2812
  780.5000  -999.2500     1.9316     0.2812
  781.0000  -999.2500     1.9360     0.2812
  781.5000  -999.2500     1.9405     0.2812
  782.0000  -999.2500     1.9449     0.2812
  782.5000  -999.2500     1.9493     0.2812
  783.0000  -999.2500     1.9538     0.2812
  783.5000  -999.2500     1.9582     0.2812
  784.0000  -999.2500     1.9626     0.2813
  784.5000  -999.2500     1.9671     0.2812
  785.0000  -999.2500     1.9715     0.2815
  785.5000  -999.2500     1.9759     0.2681
  786.0000  -999.2500     1.9804     0.2493
  786.5000  -999.2500     1.9848     0.2323
  787.0000  -999.2500     1.9892     0.2187
  787.5000  -999.2500     1.9937     0.2170
  788.0000  -999.2500     1.9981     0.2155
  788.5000  -999.2500     2.0025     0.2141
  789.0000  -999.2500     2.0070     0.2127
  789.5000  -999.2500     2.0114     0.2113
  790.0000  -999.2500     2.0158     0.2099
  790.5000  -999.2500     2.0203     0.2085
  791.0000  -999.2500     2.0247     0.2071
  791.5000  -999.2500     2.0291     0.2057
  792.0000  -999.2500     2.0336     0.2042
  792.5000  -999.2500     2.0380     0.2028
  793.0000  -999.2500     2.0424     0.2014
  793.5000  -999.2500     2.0469     0.2000
  794.0000  -999.2500     2.0513     0.1986
  794.5000  -999.2500     2.0557     0.1972
  795.0000  -999.2500     2.0602     0.1958
  795.5000  -999.2500     2.0646     0.1944
  796.0000  -999.2500     2.0690     0.1929
  796.5000  -999.2500     2.0735     0.1915
  797.0000  -999.2500     2.0779     0.1901
  797.5000  -999.2500     2.0823     0.1887
  798.0000  -999.2500     2.0868     0.1873
  798.5000  -999.2500     2.0912     0.1859
  799.0000  -999.2500     2.0956     0.1845
  799.5000  -999.2500     2.1001     0.1831
  800.0000  -999.2500     2.1045     0.1817
  800.5000  -999.2500     2.1089     0.1803
  801.0000  -999.2500     2.1134     0.1788
  801.5000  -999.2500     2.1178     0.1774
  802.0000  -999.2500     2.1222     0.1760
  802.5000  -999.2500     2.1267     0.1746
  803.0000  -999.2500     2.1311     0.1732
  803.5000  -999.2500     2.1355     0.1718
  804.0000  -999.2500     2.1400     0.1704
  804.5000  -999.2500     2.1444     0.1682
  805.0000  -999.2500     2.1488     0.1869
  805.5000  -999.2500     2.1532     0.2088
  806.0000  -999.2500     2.1577     0.2309
  806.5000  -999.2500     2.1621     0.2470
  807.0000  -999.2500     2.1665     0.2558
  807.5000  -999.2500     2.1710     0.2580
  808.0000  -999.2500     2.1754     0.2606
  808.5000  -999.2500     2.1799     0.2632
  809.0000  -999.2500     2.1843     0.2659
  809.5000  -999.2500     2.1887     0.2685
  810.0000  -999.2500     2.1932     0.2711
  810.5000  -999.2500     2.1976     0.2738
  811.0000  -999.2500     2.2020     0.2764
  811.5000  -999.2500     2.2064     0.2788
  812.0000  -999.2500     2.2109     0.2843
  812.5000  -999.2500     2.2153     0.2994
  813.0000  -999.2500     2.2197     0.3440
  813.5000  -999.2500     2.2242     0.4196
  814.0000  -999.2500     2.2286     0.4945
  814.5000  -999.2500     2.2331     0.5445
  815.0000  -999.2500     2.2375     0.5436
  815.5000  -999.2500     2.2419     0.5443
  816.0000  -999.2500     2.2464     0.5221
  816.5000  -999.2500     2.2508     0.4702
  817.0000  -999.2500     2.2526     0.4049
  817.5000  -999.2500     2.2471     0.3389
  818.0000  -999.2500     2.3815     0.2720
  818.5000  -999.2500     2.7373     0.2689
  819.0000  -999.2500     2.7469     0.2703
  819.5000  -999.2500     2.7363     0.2713
  820.0000  -999.2500     2.7267     0.2723
  820.5000  -999.2500     2.7180     0.2733
  821.0000  -999.2500     2.7093     0.2742
  821.5000  -999.2500     2.7006     0.2752
  822.0000  -999.2500     2.6919     0.2761
  822.5000  -999.2500     2.6832     0.2771
  823.0000  -999.2500     2.6745     0.2781
  823.5000  -999.2500     2.6658     0.2790
  824.0000  -999.2500     2.6571     0.2800
  824.5000  -999.2500     2.6484     0.2809
  825.0000  -999.2500     2.6397     0.2819
  825.5000  -999.2500     2.6310     0.2828
  826.0000  -999.2500     2.6223     0.2838
  826.5000  -999.2500     2.6136     0.2848
  827.0000  -999.2500     2.6049     0.2857
  827.5000  -999.2500     2.5962     0.2867
  828.0000  -999.2500     2.5875     0.2876
  828.5000  -999.2500     2.5788     0.2886
  829.0000  -999.2500     2.5701     0.2895
  829.5000  -999.2500     2.5614     0.2905
  830.0000  -999.2500     2.5527     0.2914
  830.5000  -999.2500     2.5440     0.2924
  831.0000  -999.2500     2.5353     0.2934
  831.5000  -999.2500     2.5266     0.2943
  832.0000  -999.2500     2.5179     0.2953
  832.5000  -999.2500     2.5092     0.2962
  833.0000  -999.2500     2.5005     0.2972
  833.5000  -999.2500     2.4918     0.2981
  834.0000  -999.2500     2.4831     0.2991
  834.5000  -999.2500     2.4744     0.3000
  835.0000  -999.2500     2.4657     0.3010
  835.5000  -999.2500     2.4570     0.3020
  836.0000  -999.2500     2.4483     0.3029
  836.5000  -999.2500     2.4396     0.3039
  837.0000  -999.2500     2.4309     0.3048
  837.5000  -999.2500     2.4222     0.3058
  838.0000  -999.2500     2.4135     0.3067
  838.5000  -999.2500     2.4048     0.3077
  839.0000  -999.2500     2.3961     0.3087
  839.5000  -999.2500     2.3874     0.3096
  840.0000  -999.2500     2.3787     0.3106
  840.5000  -999.2500     2.3700     0.3115
  841.0000  -999.2500     2.3613     0.3125
  841.5000  -999.2500     2.3526     0.3135
  842.0000  -999.2500     2.3439     0.3144
  842.5000  -999.2500     2.3352     0.3154
  843.0000  -999.2500     2.3265     0.3163
  843.5000  -999.2500     2.3178     0.3173
  844.0000  -999.2500     2.3091     0.3184
  844.5000  -999.2500     2.3004     0.3306
  845.0000  -999.2500     2.2917     0.3570
  845.5000  -999.2500     2.2830     0.3831
  846.0000  -999.2500     2.2713     0.4095
  846.5000  -999.2500     2.2419     0.4186
  847.0000  -999.2500     2.3540     0.4180
  847.5000  -999.2500     3.6677     0.4173
  848.0000  -999.2500     5.1194     0.4166
  848.5000  -999.2500     8.1007     0.4159
  849.0000  -999.2500    30.7117     0.4151
  849.5000  -999.2500    72.7242     0.4144
  850.0000  -999.2500   111.1386     0.4137
  850.5000  -999.2500   107.4157     0.4130
  851.0000  -999.2500    82.2625     0.4123
  851.5000  -999.2500    58.3588     0.4116
  852.0000  -999.2500    34.3540     0.4109
  852.5000  -999.2500    21.7317     0.4101
  853.0000  -999.2500    18.6193     0.4094
  853.5000  -999.2500    17.6111     0.4087
  854.0000  -999.2500    16.6134     0.4080
  854.5000  -999.2500    16.2994     0.4073
  855.0000  -999.2500    16.2933     0.4066
  855.5000  -999.2500    16.3398     0.4059
  856.0000  -999.2500    16.4071     0.4051
  856.5000  -999.2500    16.4746     0.4044
  857.0000  -999.2500    16.5422     0.4037
  857.5000  -999.2500    16.6096     0.4030
  858.0000  -999.2500    16.6771     0.4023
  858.5000  -999.2500    16.7446     0.4016
  859.0000  -999.2500    16.8121     0.4008
  859.5000  -999.2500    16.8796     0.4001
  860.0000  -999.2500    16.9471     0.3994
  860.5000  -999.2500    17.0146     0.3987
  861.0000  -999.2500    17.0820     0.3980
  861.5000  -999.2500    17.1495     0.3973
  862.0000  -999.2500    17.2172     0.3966
  862.5000  -999.2500    17.2859     0.3959
  863.0000  -999.2500    17.2985     0.3951
  863.5000  -999.2500    17.2987     0.3943
  864.0000  -999.2500    17.2943     0.3946
  864.5000  -999.2500    17.0500     0.4139
