~VERSION INFORMATION
 VERS.                2.0:   CWLS LOG ASCII STANDARD - VERSION 2.0
 WRAP.                 NO:   ONE LINE PER DEPTH STEP
~WELL INFORMATION
#MNEM.UNIT      DATA TYPE    INFORMATION
#----------   ------------   ------------------------------
 STRT.F           28.0000:   START DEPTH
 STOP.F          461.0000:   STOP DEPTH
 STEP.F            0.5000:   STEP LENGTH
 NULL.          -999.2500:   NO VALUE
 COMP. FENIX & SCISSON INC:   COMPANY
 WELL.       NPR-3 #47S-3:   WELL
 FLD .             TEAPOT:   FIELD
 LOC .       S3 T38N R78W:   LOCATION
 CNTY.            NATRONA:   COUNTY
 STAT.            WYOMING:   STATE
 CTRY. UNITED STATES OF AMERICA:   COUNTRY
 SRVC.            Unknown:   SERVICE COMPANY
 DATE.        06-JUL-1978:   LOGDATE
 API .       490251066400:   API NUMBER
~CURVE INFORMATION
#MNEM.UNIT       API CODE    CURVE DESCRIPTION
#----------   ------------   ------------------------------
 DEPT.F                  :   
 SPR .MV     05 010 01 00:   SPONTANEOUS POTENTIAL FROM RES.
 ILD .OHMM   05 120 46 00:   INDUCTION LOG DEEP
 SN  .OHMM   05 040 16 00:   SHORT NORMAL 16"
 GRD .GAPI   45 310 01 00:   GAMMA RAY FROM DENSITY LOG
 CALD.IN     45 280 60 00:   CALIPER FROM DENSITY LOG
 CORR.G/C3   45 356 01 00:   DENSITY CORRECTION
 DEN .G/C3   45 350 01 00:   DENSTIY
 DPHI.DEC    45 890 12 00:   DENSITY POROSITY SANDSTONE
~PARAMETER INFORMATION
#MNEM.UNIT          VALUE    DESCRIPTION
#----------   ------------   ------------------------------
 PD  .                 GL:   PERMANENT DATUM
 EPD .F              5202:   ELEVATION PERMANENT DATUM
 LMF .                 KB:   LOG MEASURED FROM
 DAPD.F                 4:   FEET ABOVE PERMANENT DATUM
 DMF .                 KB:   DRILLING MEASURED FROM
 EKB .F              5206:   KELLING BUSHING
 EGL .F              5202:   GROUND LEVEL
 DATE.        06-JUL-1978:   RUN DATE
 RUN .                  1:   RUN NUMBER
 DD  .F               460:   DEPTH DRILLER
 DL  .F               461:   DEPTH LOGGER
 BLI .F               461:   BOTTOM LOG INTERVAL
 TLI .F                40:   TOP LOG INTERVAL
 CS  .IN            8.625:   CASING SIZE
 CBD .F                40:   CASING BOTTOM DRILLER
 CBL .F                40:   CASING BOTTOM LOGGER
 BS  .IN            7.875:   BIT SIZE
 BSD .F               460:   BIT SIZE AT DEPTH
 DFT .                KCL:   DRILLING FLUID TYPE
 DFD .                8.6:   DRILLING FLUID DENSITY
 DFV .                 33:   DRILLING FLUID VISCOSITY
 DFPH.                9.5:   DRILLING FLUID PH
 MSS .           FLOWLINE:   MUD SAMPLE SOURCE
 TCS .HRS               1:   TIME CURCULATED STOPPED
 LUN .               2858:   LOGGING UNIT NUMBER
 LUL .               CASP:   LOGGING UNIT LOCATION
 ENGI.           REYNOLDS:   RECORDING ENGINEER
 WITN.           MCGENLEY:   WITNESSED BY
 CLNT.            A2DTECH:   CLIENT CODE
 ORIG.           5" PRINT:   ORIGIN OF DATA
 UWI .       490251066400:   UNIQUE WELL ID
 DICO. A2D Technologies, Inc.:   DIGITIZING COMPANY
~OTHER INFORMATION
~A   DEPT      SPR        ILD         SN         GRD      CALD       CORR        DEN       DPHI   
# ...
  149.5000   -55.0785     8.1690     9.8370   104.3008     7.7174     0.0312     2.4644     0.1303
  150.0000   -55.0593     8.1796     9.8420   103.2478     7.7180     0.0313     2.4560     0.1340
  150.5000   -55.0370     8.2930     9.7776   100.6305     7.7186     0.0315     2.4522     0.1349
  151.0000   -55.0148     8.2986     9.7210    99.9045     7.7192     0.0316     2.4522     0.1355
  151.5000   -54.9925     8.3041     9.7292   100.8402     7.7198     0.0302     2.4546     0.1305
  152.0000   -54.9702     8.2513     9.7357   102.6913     7.7204     0.0274     2.4609     0.1256
  152.5000   -55.0957     8.1454     9.7422   101.9391     7.7210     0.0260     2.4617     0.1299
  153.0000   -55.9668     8.0948     9.6803   102.1058     7.7216     0.0261     2.4610     0.1283
  153.5000   -57.2857     7.9896     9.5543   102.4255     7.7222     0.0247     2.4611     0.1267
  154.0000   -57.7242     7.9951     9.4313   102.5922     7.7228     0.0233     2.4619     0.1292
  154.5000   -57.8359     8.0004     9.3731   102.1429     7.7234     0.0220     2.4620     0.1241
  155.0000   -57.8087     7.8976     9.3795   101.7003     7.7240     0.0206     2.4621     0.1232
  155.5000   -57.7869     7.9029     9.3860   101.4075     7.7246     0.0207     2.4629     0.1235
  156.0000   -57.7651     7.9082     9.3936   101.2679     7.7252     0.0208     2.4607     0.1263
  156.5000   -57.7433     7.9136     9.3355   100.9561     7.7257     0.0210     2.4576     0.1309
  157.0000   -57.7215     7.9189     9.3417    99.9200     7.7263     0.0226     2.4553     0.1327
  157.5000   -57.6997     7.8685     9.2823    99.6238     7.7270     0.0243     2.4524     0.1342
  158.0000   -57.6779     7.7675     9.2901    99.7938     7.7365     0.0288     2.4493     0.1305
  158.5000   -57.9539     7.5616     9.2310    98.8885     7.7380     0.0334     2.4479     0.1289
  159.0000   -58.3784     7.2599     9.0499    97.6768     7.7395     0.0365     2.4557     0.1277
  159.5000   -58.5298     7.0681     8.9938    98.7623     7.7410     0.0381     2.4619     0.1261
  160.0000   -58.7812     6.9295     8.8769   100.4603     7.7425     0.0397     2.4604     0.1283
  160.5000   -58.9082     6.8854     8.8219   102.0052     7.7440     0.0383     2.4566     0.1320
  161.0000   -58.7322     6.8428     8.7673   101.4061     7.7455     0.0385     2.4536     0.1335
  161.5000   -58.5616     6.8015     8.7130   100.0414     7.7470     0.0371     2.4521     0.1279
  162.0000   -58.5398     6.8061     8.6590    99.2892     7.7485     0.0357     2.4607     0.1260
  162.5000   -58.5180     6.8107     8.7261   102.2639     7.7500     0.0358     2.4608     0.1269
  163.0000   -58.3474     6.8624     8.7923   104.0668     7.7515     0.0345     2.4601     0.1300
  163.5000   -58.3256     6.8670     8.8590   104.8460     7.7533     0.0346     2.4601     0.1315
  164.0000   -58.9048     7.2108     9.0499   105.0127     7.7391     0.0332     2.4548     0.1327
  164.5000   -59.1749     7.4192     8.9938   105.3324     7.7253     0.0333     2.4588     0.1262
  165.0000   -59.1476     7.4735     9.0000   104.1208     7.7272     0.0334     2.4642     0.1215
  165.5000   -60.0187     7.4271     9.0074   102.4498     7.7287     0.0321     2.4697     0.1202
  166.0000   -62.3778     7.4333     8.9501   101.8507     7.7302     0.0322     2.4705     0.1230
  166.5000   -62.0584     7.4383     8.9576   101.5579     7.7163     0.0323     2.4644     0.1289
  167.0000   -62.4831     7.3910     8.9637   101.1120     7.7178     0.0309     2.4599     0.1298
  167.5000   -63.3596     7.3453     8.9697   100.8142     7.7193     0.0311     2.4568     0.1313
  168.0000   -63.3323     7.2497     8.9141   100.5264     7.7209     0.0297     2.4569     0.1266
  168.5000   -63.3105     7.2048     8.8589   101.1558     7.7073     0.0268     2.4585     0.1251
  169.0000   -63.4375     7.1613     8.8039   102.0881     7.7088     0.0240     2.4617     0.1287
  169.5000   -63.4152     7.0683     8.6895   103.3234     7.7103     0.0241     2.4602     0.1392
  170.0000   -63.3885     6.9732     8.6357   102.1151     7.7118     0.0242     2.4540     0.1445
  170.5000   -63.3667     6.8310     8.5248   102.2818     7.7133     0.0288     2.4444     0.1392
  171.0000   -63.3449     6.5672     8.4705   102.6015     7.7148     0.0334     2.4388     0.1373
  171.5000   -63.3231     6.2195     8.4181   103.0744     7.7163     0.0365     2.4443     0.1354
  172.0000   -63.3013     6.0546     8.2516   102.1691     7.7178     0.0396     2.4482     0.1320
  172.5000   -63.2795     5.9339     8.2004   101.1106     7.7193     0.0412     2.4514     0.1272
  173.0000   -63.4120     5.9389     8.0951   100.3584     7.7209     0.0398     2.4615     0.1222
  173.5000   -63.3847     5.9429     7.9896    99.4307     7.7227     0.0384     2.4700     0.1192
  174.0000   -63.5118     5.9879     7.8858    97.5313     7.7242     0.0341     2.4709     0.1177
  174.5000   -63.4792     6.0333     7.8370    93.8172     7.7257     0.0312     2.4725     0.1192
  175.0000   -63.3185     6.1634     7.8425    92.1462     7.7272     0.0284     2.4733     0.1198
  175.5000   -63.2921     6.3045     8.0680    90.3220     7.7287     0.0270     2.4734     0.1253
  176.0000   -63.2703     6.7972     8.4138    93.5514     7.7302     0.0286     2.4704     0.1278
  176.5000   -63.5461     7.1375     8.6545   101.6813     7.7317     0.0287     2.4612     0.1265
  177.0000   -63.6786     7.3925     8.7201   104.6045     7.7332     0.0303     2.4613     0.1299
  177.5000   -63.8056     7.6039     8.8469   104.1585     7.7347     0.0319     2.4613     0.1320
  178.0000   -64.0760     7.7678     8.9756   103.8428     7.7362     0.0321     2.4614     0.1261
  178.5000   -64.6494     7.8267     9.0437   105.2575     7.7377     0.0352     2.4615     0.1244
  179.0000   -65.9669     7.8320     9.0497   104.8076     7.7395     0.0428     2.4677     0.1174
  179.5000   -66.2480     7.7833     9.1246   103.8892     7.7410     0.0459     2.4817     0.1103
  180.0000   -66.3698     7.8426     9.3164   104.2293     7.7425     0.0460     2.4918     0.1106
  180.5000   -66.3425     7.9021     9.3871   104.2428     7.7440     0.0461     2.4911     0.1118
  181.0000   -66.3207     7.9075     9.5236   104.1032     7.7455     0.0447     2.4904     0.1114
  181.5000   -66.4477     7.9687     9.5958   103.8104     7.7470     0.0449     2.4920     0.1086
  182.0000   -66.4260     8.0846     9.6023   103.3645     7.7485     0.0450     2.4960     0.1055
  182.5000   -66.5530     8.1459     9.6087   102.7654     7.7500     0.0451     2.4983     0.1046
  183.0000   -66.6800     8.2077     9.6152   102.1663     7.7515     0.0452     2.4992     0.1070
  183.5000   -66.8125     8.2699     9.6216   101.8702     7.7531     0.0453     2.5001     0.1070
  184.0000   -66.9345     8.2755     9.6281   101.8870     7.7549     0.0454     2.5032     0.1051
  184.5000   -66.9122     8.2811     9.6347   102.0537     7.7564     0.0456     2.5040     0.1032
  185.0000   -66.8899     8.2867     9.6426   103.0170     7.7579     0.0457     2.5033     0.1026
  185.5000   -66.8632     8.2922     9.7157   103.1526     7.7594     0.0443     2.5026     0.1100
  186.0000   -66.8414     8.2979     9.7894   105.1603     7.7452     0.0429     2.4981     0.1115
  186.5000   -66.8196     8.3036     9.8637   104.8641     7.7470     0.0430     2.4927     0.1087
  187.0000   -66.9466     8.2534     9.8703   105.0341     7.7485     0.0402     2.4912     0.1065
  187.5000   -66.9248     8.2589     9.9451   104.1288     7.7500     0.0403     2.4921     0.1056
  188.0000   -66.9030     8.2078     9.9518   102.1515     7.7515     0.0375     2.4922     0.1092
  188.5000   -66.8812     8.1556    10.0965   101.0896     7.7531     0.0376     2.4899     0.1108
  189.0000   -66.7106     8.1051    10.1732   100.7968     7.7549     0.0362     2.4892     0.1089
  189.5000   -66.6888     8.1119    10.1802   100.8137     7.7564     0.0333     2.4900     0.1052
