~VERSION INFORMATION
 VERS.                2.0:   CWLS LOG ASCII STANDARD - VERSION 2.0
 WRAP.                 NO:   ONE LINE PER DEPTH STEP
~WELL INFORMATION
#MNEM.UNIT      DATA TYPE    INFORMATION
#----------   ------------   ------------------------------
 STRT.F           90.0000:   START DEPTH
 STOP.F          712.0000:   STOP DEPTH
 STEP.F            0.5000:   STEP LENGTH
 NULL.          -999.2500:   NO VALUE
 COMP. U S NAVY-INTEX OIL:   COMPANY
 WELL. RES 3 TEAPOT DOM #76S-34:   WELL
 FLD .             TEAPOT:   FIELD
 LOC .      S34 T39N R78W:   LOCATION
 CNTY.            NATRONA:   COUNTY
 STAT.            WYOMING:   STATE
 CTRY. UNITED STATES OF AMERICA:   COUNTRY
 SRVC.       Schlumberger:   SERVICE COMPANY
 DATE.        08-AUG-1961:   LOGDATE
 API .       490250651700:   API NUMBER
~CURVE INFORMATION
#MNEM.UNIT       API CODE    CURVE DESCRIPTION
#----------   ------------   ------------------------------
 DEPT.F                  :   
 SPR .MV     05 010 01 00:   SPONTANEOUS POTENTIAL FROM RES.
 ASN .OHMM   05 041 16 00:   AMPLIFIED SHORT NORMAL 16"
 CILD.MMHO   05 110 46 00:   CONDUCTIVITY INDUCTION LOG DEEP
 ILD .OHMM   05 120 46 00:   INDUCTION LOG DEEP
~PARAMETER INFORMATION
#MNEM.UNIT          VALUE    DESCRIPTION
#----------   ------------   ------------------------------
 LMF .                 KB:   LOG MEASURED FROM
 DMF .                 KB:   DRILLING MEASURED FROM
 EKB .F              5092:   KELLING BUSHING
 EGL .F              5087:   GROUND LEVEL
 DATE.        08-AUG-1961:   RUN DATE
 RUN .                  1:   RUN NUMBER
 DD  .F               710:   DEPTH DRILLER
 DL  .F               713:   DEPTH LOGGER
 BLI .F               712:   BOTTOM LOG INTERVAL
 TLI .F               100:   TOP LOG INTERVAL
 BS  .IN             6.75:   BIT SIZE
 BSD .F               710:   BIT SIZE AT DEPTH
 DFT .       OIL EMULSION:   DRILLING FLUID TYPE
 DFD .               10.4:   DRILLING FLUID DENSITY
 DFV .                 45:   DRILLING FLUID VISCOSITY
 RMS .OHMM           1.21:   RESISTIVITY MUD SAMPLE
 MST .F                78:   MUD SAMPLE TEMPERATURE
 TCS .HRS               1:   TIME CURCULATED STOPPED
 LUN .               2544:   LOGGING UNIT NUMBER
 LUL .                 NC:   LOGGING UNIT LOCATION
 ENGI.             QUINBY:   RECORDING ENGINEER
 WITN.          JORGENSON:   WITNESSED BY
 CLNT.            A2DTECH:   CLIENT CODE
 ORIG.      2" , 5" PRINT:   ORIGIN OF DATA
 UWI .       490250651700:   UNIQUE WELL ID
 DICO. A2D Technologies, Inc.:   DIGITIZING COMPANY
~OTHER INFORMATION
~A   DEPT      SPR        ASN       CILD        ILD   
# ...
  455.0000   -38.7969     7.9999   142.6239     7.1987
  455.5000   -38.8016     7.9993   140.7566     7.1987
  456.0000   -38.8062     7.8887   139.2470     7.1987
  456.5000   -38.8109     7.6212   139.2664     7.1987
  457.0000   -38.6458     7.7148   139.2818     7.1987
  457.5000   -38.1771     7.8398   139.2973     7.1987
  458.0000   -37.7311     7.9490   139.3128     7.1987
  458.5000   -37.3958     7.9799   139.3283     7.1205
  459.0000   -37.1154     7.8222   142.4688     6.8858
  459.5000   -37.1212     7.6175   144.0935     6.7293
  460.0000   -37.1259     7.4859   150.4164     6.4945
  460.5000   -37.1305     7.3373   160.0257     6.1033
  461.0000   -37.1352     7.1830   174.4372     5.4773
  461.5000   -37.1398     7.0100   191.5364     5.0078
  462.0000   -36.9870     6.7899   206.6281     4.8513
  462.5000   -36.9929     6.5542   212.8935     4.7731
  463.0000   -36.8401     6.3812   217.5965     4.6166
  463.5000   -36.6885     5.9413   216.0495     4.5383
  464.0000   -36.5369     5.4857   214.4986     4.4601
  464.5000   -36.3853     5.1400   211.3930     4.5383
  465.0000   -36.2337     5.2685   205.1584     4.8513
  465.5000   -36.0833     5.7413   194.2364     5.1643
  466.0000   -36.0879     6.1683   181.7519     5.4773
  466.5000   -36.0926     6.7530   169.2674     5.8059
  467.0000   -36.0972     7.1872   159.9079     6.3589
  467.5000   -36.2581     7.3721   150.5484     6.7423
  468.0000   -36.2628     7.5110   144.3138     7.0423
  468.5000   -36.4234     7.6335   141.2005     7.0423
  469.0000   -36.4283     7.7431   138.0909     7.1205
  469.5000   -36.5893     7.8370   136.5439     7.1987
  470.0000   -36.7502     8.0094   135.0008     7.3552
  470.5000   -37.0673     8.2131   135.0163     7.3552
  471.0000   -37.2282     8.4169   131.9067     7.4335
  471.5000   -37.5454     8.5893   131.9222     7.5117
  472.0000   -37.7063     8.7146   131.9377     7.5900
  472.5000   -37.7109     8.7142   130.3906     7.6682
  473.0000   -37.7156     8.7768   130.4062     7.7465
  473.5000   -37.5521     8.8079   128.8592     7.7465
  474.0000   -37.2396     8.7761   128.8020     7.7465
  474.5000   -36.6358     8.8229   127.2265     7.8247
  475.0000   -36.3021     8.9168   125.7806     7.9030
  475.5000   -35.8650     8.9636   124.2375     7.9030
  476.0000   -35.5571     8.9947   124.2529     7.9030
  476.5000   -35.4044     9.0101   121.1434     7.9030
  477.0000   -35.2528     9.0097   119.5925     7.9812
  477.5000   -35.1012     9.0094   119.6119     7.9812
  478.0000   -35.1070     8.9934   119.6274     7.9812
  478.5000   -35.1117     8.8832   119.6429     8.0595
  479.0000   -35.1163     8.7102   121.2208     8.1377
  479.5000   -35.1210     8.7099   121.2363     8.0595
  480.0000   -35.1256     8.6939   121.2518     7.9812
  480.5000   -35.2865     8.5994   121.2673     7.8221
  481.0000   -35.4474     8.4421   122.8453     7.7413
  481.5000   -35.4521     8.2063   124.4233     7.6604
  482.0000   -35.7692     7.8920   127.5637     7.4230
  482.5000   -36.0864     7.7033   132.2667     7.1075
  483.0000   -36.0910     7.5146   140.0947     6.5728
  483.5000   -36.4082     7.1375   151.0477     6.1541
  484.0000   -36.5691     6.5721   165.1257     5.4773
  484.5000   -36.5737     6.0694   197.9537     4.4601
  485.0000   -36.5784     5.5667   237.1163     3.5994
  485.5000   -36.1143     5.0640   285.0967     3.2081
  486.0000   -35.8064     4.5287   333.0771     2.8951
  486.5000   -35.4984     4.1169   380.8294     2.4257
  487.0000   -35.0344     3.7093   407.4073     2.1909
  487.5000   -34.7267     3.3948   429.2979     2.1127
  488.0000   -34.7313     3.2033   444.9383     2.0344
  488.5000   -34.5797     3.0821   451.2038     2.0344
  489.0000   -34.5844     3.0524   454.3443     2.1127
  489.5000   -34.5891     3.0521   451.2348     2.2692
  490.0000   -34.5938     3.1459   407.5002     2.5822
  490.5000   -34.5984     3.3968   350.7896     3.2081
  491.0000   -34.6097     4.1657   297.0682     3.9124
  491.5000   -34.7641     4.4166   254.4230     4.4601
  492.0000   -34.7687     4.4791   224.7510     4.9296
  492.5000   -34.7743     4.9968   199.7665     5.3991
  493.0000   -34.7790     5.9541   181.0320     5.7903
  493.5000   -34.7837     6.4562   166.9849     6.1033
  494.0000   -34.7883     6.5971   156.0629     6.2598
  494.5000   -34.9492     6.6753   149.8284     6.3380
  495.0000   -35.1101     6.7378   146.7189     6.4163
  495.5000   -35.2710     6.7689   146.7344     6.4163
  496.0000   -35.4319     6.7529   148.3752     6.4945
  496.5000   -35.5928     6.7526   153.1354     6.4163
  497.0000   -35.5975     6.8621   157.7188     6.2494
  497.5000   -35.7584     6.9403   163.9844     5.9990
  498.0000   -35.7630     6.9557   168.9793     5.6338
  498.5000   -35.6103     6.9554   176.5186     5.3991
  499.0000   -35.4587     6.8766   187.4716     5.1643
  499.5000   -35.1508     6.7664   198.4246     4.8513
  500.0000   -34.8430     6.0971   209.3776     4.6166
  500.5000   -34.3789     5.6894   218.7681     4.3036
  501.0000   -34.0722     5.5951   226.5960     4.1471
  501.5000   -33.7643     5.5322   232.8615     4.0689
  502.0000   -33.8384     5.2498   237.5645     4.0689
  502.5000   -33.9221     5.0458   237.5800     4.0689
  503.0000   -33.7682     5.2493   234.4705     4.2254
  503.5000   -33.3033     5.4329   226.6735     4.4601
  504.0000   -33.3064     5.5982   217.3139     4.6948
  504.5000   -33.6220     5.5827   206.3919     4.9296
  505.0000   -33.9376     5.8025   193.9074     5.2426
  505.5000   -34.2532     6.2104   181.4229     5.5942
  506.0000   -34.2564     6.6496   171.1171     5.8714
  506.5000   -34.1031     6.9007   158.3092     6.1487
  507.0000   -33.9500     7.1674   145.5014     6.4259
  507.5000   -33.7969     7.4342   137.5000     6.7032
  508.0000   -33.8001     7.6226   132.8125     6.9804
  508.5000   -34.1157     7.7953   129.6875     7.2076
  509.0000   -34.4313     7.9210   129.6875     7.4335
  509.5000   -34.5906     8.0311   131.2500     7.4335
  510.0000   -34.5938     8.1568   131.2500     7.4335
  510.5000   -34.7531     8.0160   132.8125     7.2660
  511.0000   -34.6000     7.7342   139.0625     6.9525
  511.5000   -34.6031     7.5307   143.7500     6.7173
  512.0000   -34.3667     7.4684   151.5625     6.4037
  512.5000   -33.9843     7.0925   160.9375     6.0902
  513.0000   -33.8156     6.7166   170.3125     5.6849
  513.5000   -33.6599     6.5759   182.8125     5.2144
  514.0000   -33.3686     6.5448   201.5625     4.7439
  514.5000   -33.6844     6.4981   220.3125     4.3036
  515.0000   -34.0260     6.2006   229.6875     4.2254
  515.5000   -34.3155     5.7464   234.3750     4.2254
  516.0000   -33.8506     5.2922   232.8125     4.1471
  516.5000   -33.5405     5.0887   228.1250     4.1471
  517.0000   -33.5443     5.1831   223.4375     4.2254
  517.5000   -34.0162     5.2931   215.6250     4.5383
  518.0000   -34.3318     5.3718   203.1250     5.3208
  518.5000   -34.3349     6.1872   184.3750     6.1815
  519.0000   -34.4943     6.8458   162.5000     6.4945
  519.5000   -34.4974     7.2379   145.3125     6.7293
  520.0000   -34.3435     7.5204   135.9375     6.8075
  520.5000   -34.1904     7.6777   134.3750     6.8858
  521.0000   -34.0375     7.7880   134.3750     6.9640
  521.5000   -33.8841     7.8983   135.9375     6.9640
  522.0000   -33.7309     7.9939   135.9375     6.9640
  522.5000   -33.4223     8.1045   137.5000     6.9640
  523.0000   -33.4254     8.1806   137.5000     6.9640
  523.5000   -33.1161     8.2961   137.5000     6.9640
  524.0000   -32.8067     8.4832   137.5000     6.9640
  524.5000   -32.6527     8.5420   137.5000     6.9640
  525.0000   -32.6566     8.4744   137.5000     6.9640
  525.5000   -33.1285     8.3673   139.0625     6.9640
  526.0000   -33.7566     8.2921   139.0625     6.9640
  526.5000   -34.3847     8.2611   140.6250     6.8858
  527.0000   -34.7003     8.3399   143.7500     6.8858
  527.5000   -34.7034     8.3871   145.3125     6.8075
