~VERSION INFORMATION
 VERS.                2.0:   CWLS LOG ASCII STANDARD - VERSION 2.0
 WRAP.                 NO:   ONE LINE PER DEPTH STEP
~WELL INFORMATION
#MNEM.UNIT      DATA TYPE    INFORMATION
#----------   ------------   ------------------------------
 STRT.F           34.0000:   START DEPTH
 STOP.F          517.0000:   STOP DEPTH
 STEP.F            0.5000:   STEP LENGTH
 NULL.          -999.2500:   NO VALUE
 COMP.    FENIX & SCISSON:   COMPANY
 WELL.       NPR #77-S-10:   WELL
 FLD .             TEAPOT:   FIELD
 LOC .      S10 T38N R78W:   LOCATION
 CNTY.            NATRONA:   COUNTY
 STAT.            WYOMING:   STATE
 CTRY. UNITED STATES OF AMERICA:   COUNTRY
 SRVC.              Welex:   SERVICE COMPANY
 DATE.        16-APR-1977:   LOGDATE
 API .       490251033600:   API NUMBER
~CURVE INFORMATION
#MNEM.UNIT       API CODE    CURVE DESCRIPTION
#----------   ------------   ------------------------------
 DEPT.F                  :   
 SPR .MV     07 010 01 00:   SPONTANEOUS POTENTIAL
 ILD .OHMM   07 120 46 00:   INDUCTION LOG DEEP
 ILM .OHMM   07 120 44 00:   INDUCTION LOG MEDIUM
 SGRD.OHMM   07 221 05 00:   SHALLOW SHORT GUARD RESISTIVITY
 CALD.IN     45 280 60 00:   CALIPER FROM DENSITY LOG
 GRD .GAPI   45 310 01 00:   GAMMA RAY FROM DENSITY LOG
 CORR.G/C3   45 356 01 00:   DENSITY CORRECTION
 RHOB.G/C3   45 350 01 00:   BULK DENSITY
 DPHI.DEC    45 890 12 00:   DENSITY POROSITY SANDSTONE
~PARAMETER INFORMATION
#MNEM.UNIT          VALUE    DESCRIPTION
#----------   ------------   ------------------------------
 PD  .                 GL:   PERMANENT DATUM
 EPD .F              5210:   ELEVATION PERMANENT DATUM
 LMF .                 GL:   LOG MEASURED FROM
 DMF .                 GL:   DRILLING MEASURED FROM
 EGL .F              5210:   GROUND LEVEL
 DATE.        16-APR-1977:   RUN DATE
 RUN .                  1:   RUN NUMBER
 DD  .F               525:   DEPTH DRILLER
 DL  .F               519:   DEPTH LOGGER
 BLI .F               517:   BOTTOM LOG INTERVAL
 TLI .F                30:   TOP LOG INTERVAL
 CS  .IN            8.625:   CASING SIZE
 BS  .IN            7.875:   BIT SIZE
 BSD .F               525:   BIT SIZE AT DEPTH
 DFT .            KCL MUD:   DRILLING FLUID TYPE
 DFD .                8.9:   DRILLING FLUID DENSITY
 BHT .F                61:   BOTTOM HOLE TEMPERATURE
 TCS .HRS            0300:   TIME CURCULATED STOPPED
 MRT .F                61:   MAXIMUM RECORDED TEMPERATURE
 ENGI.               DOAK:   RECORDING ENGINEER
 WITN.      B. HARRINGTON:   WITNESSED BY
 CLNT.            A2DTECH:   CLIENT CODE
 ORIG.           5" PRINT:   ORIGIN OF DATA
 UWI .       490251033600:   UNIQUE WELL ID
 DICO. A2D Technologies, Inc.:   DIGITIZING COMPANY
~OTHER INFORMATION
~A   DEPT      SPR        ILD        ILM       SGRD       CALD        GRD       CORR       RHOB       DPHI   
# ...
  253.0000   -45.7321     6.9177     8.2419    10.4643     7.8367   118.9029     0.0222     2.4599     0.1101
  253.5000   -45.8647     6.8736     8.1344    10.2569     7.8518   119.0762     0.0206     2.4554     0.1110
  254.0000   -45.8485     6.7841     8.0262    10.0536     7.8519   119.8179     0.0205     2.4546     0.1123
  254.5000   -45.8324     6.6051     7.8645     9.9226     7.8521   120.2678     0.0205     2.4546     0.1151
  255.0000   -45.9690     6.4286     7.7062     9.7260     7.8522   120.2692     0.0204     2.4509     0.1186
  255.5000   -45.9488     6.1732     7.5510     9.5332     7.8524   119.9717     0.0203     2.4456     0.1222
  256.0000   -46.0854     5.9269     7.3605     9.4090     7.8376   118.7774     0.0188     2.4396     0.1246
  256.5000   -46.0652     5.6124     7.2145     9.3507     7.8228   118.0314     0.0187     2.4329     0.1264
  257.0000   -46.3507     5.3147     7.0714     9.1024     7.8081   118.9746     0.0187     2.4306     0.1282
  257.5000   -46.4833     5.1380     6.8835     8.8607     7.8082   121.4726     0.0186     2.4239     0.1312
  258.0000   -46.6159     5.0016     6.5632     8.6851     7.8084   124.4636     0.0171     2.4134     0.1402
  258.5000   -46.7485     4.8687     6.0455     8.4544     7.8085   126.8567     0.0155     2.3984     0.1474
  259.0000   -47.0259     4.7394     5.6460     7.8419     7.7788   128.2034     0.0154     2.3894     0.1523
  259.5000   -47.0097     4.6776     5.4950     6.5136     7.7640   128.8027     0.0154     2.3841     0.1550
  260.0000   -46.9935     4.7133     5.6148     6.1256     7.7642   127.3094     0.0153     2.3834     0.1559
  260.5000   -46.9773     4.7820     6.2317     6.9883     7.7643   123.3572     0.0168     2.3857     0.1553
  261.0000   -46.9611     4.9192     6.8216     8.8736     7.7645   121.7820     0.0167     2.3923     0.1493
  261.5000   -46.9449     5.1306     6.9212     9.5135     7.7497   120.7371     0.0181     2.4028     0.1409
  262.0000   -46.6310     5.3158     7.1198     9.9568     7.7499   122.2333     0.0196     2.4170     0.1323
  262.5000   -46.4658     5.5110     7.5293    10.3486     7.7500   124.6264     0.0195     2.4350     0.1254
  263.0000   -46.4494     5.7463     7.8531    10.6831     7.7651   127.1689     0.0195     2.4380     0.1266
  263.5000   -46.2842     5.9539     8.1909    10.6904     7.7652   129.2929     0.0194     2.4342     0.1272
  264.0000   -46.1159     6.2033     8.2547    10.6241     7.7654   131.0586     0.0193     2.4412     0.1245
  264.5000   -45.9509     6.5147     8.2020    10.0605     7.7655   130.3126     0.0208     2.4485     0.1222
  265.0000   -45.7859     6.7479     8.3834     9.9981     7.7657   129.2677     0.0222     2.4492     0.1210
  265.5000   -45.6209     6.9415     8.5675    10.7196     7.7658   127.6249     0.0252     2.4500     0.1204
  266.0000   -45.6047     7.0427     8.6955    10.8759     7.7510   126.4306     0.0266     2.4514     0.1201
  266.5000   -45.5885     7.0476     8.7532    10.9587     7.7512   125.5351     0.0281     2.4522     0.1195
  267.0000   -45.5723     7.0524     8.6975    11.0421     7.7514   124.1764     0.0280     2.4529     0.1192
  267.5000   -45.5561     7.0572     8.6435    11.1261     7.7515   123.5948     0.0249     2.4544     0.1187
  268.0000   -45.5399     7.0620     8.5308    11.2107     7.7516   124.6430     0.0234     2.4567     0.1181
  268.5000   -45.5237     7.0668     8.4793    11.1413     7.7518   127.0360     0.0203     2.4544     0.1187
  269.0000   -45.5061     7.0716     8.4267    11.1488     7.7520   125.9911     0.0187     2.4507     0.1196
  269.5000   -45.4913     6.9315     8.3745    11.1564     7.7521   123.0030     0.0157     2.4506     0.1204
  270.0000   -45.4751     6.9362     8.3802    10.7855     7.7523   119.4170     0.0141     2.4506     0.1208
  270.5000   -45.4589     6.8921     8.4440    10.4991     7.7374   117.9237     0.0110     2.4476     0.1223
  271.0000   -45.4427     6.8980     8.4498    10.4349     7.7376   118.0750     0.0095     2.4370     0.1247
  271.5000   -45.4252     6.9505     8.5141    10.4420     7.7527   118.3754     0.0079     2.4364     0.1251
  272.0000   -45.4103     6.9073     8.5199    10.3773     7.7529   119.7221     0.0079     2.4394     0.1245
  272.5000   -45.3941     6.9600     8.4088    10.3843     7.7530   121.3678     0.0093     2.4401     0.1234
  273.0000   -45.5268     6.9168     8.2992    10.3923     7.7531   123.1630     0.0092     2.4409     0.1227
  273.5000   -45.5104     6.9216     8.1346    10.3994     7.7533   125.8850     0.0077     2.4453     0.1221
  274.0000   -45.4940     6.9264     8.0284    10.4065     7.7534   128.3979     0.0061     2.4498     0.1191
  274.5000   -45.4777     6.9311     8.0340    10.4136     7.7536   129.4457     0.0061     2.4393     0.1234
  275.0000   -45.4613     6.9359     8.0395    10.4207     7.7537   129.5966     0.0045     2.4333     0.1261
  275.5000   -45.4417     6.8465     8.1008    10.4278     7.7539   129.7475     0.0029     2.4258     0.1296
  276.0000   -45.4255     6.8029     8.1625    10.5071     7.7540   130.0479     0.0029     2.4333     0.1276
  276.5000   -45.4094     6.6234     8.1682    10.5143     7.7691   130.3483     0.0028     2.4371     0.1261
  277.0000   -45.3932     6.3155     8.1738    10.5215     7.7842   130.8132     0.0028     2.4356     0.1261
  277.5000   -45.3770     6.1044     8.0128    10.5286     7.7993   131.5474     0.0042     2.4287     0.1273
  278.0000   -45.6584     6.1096     7.2795    10.3920     7.7994   132.4457     0.0056     2.4191     0.1301
  278.5000   -45.7951     6.0707     6.8456    10.0465     7.7548   133.1945     0.0056     2.4161     0.1339
  279.0000   -45.9236     5.9927     6.7552    10.0533     7.7549   133.6444     0.0085     2.4115     0.1352
  279.5000   -46.0603     5.9146     7.0469     9.9910     7.7551   132.7489     0.0088     2.4041     0.1376
  280.0000   -46.1929     5.6786     7.1498     9.9291     7.7552   131.4051     0.0114     2.3936     0.1409
  280.5000   -46.3255     5.4898     7.0080     9.9359     7.7554   130.7862     0.0129     2.3943     0.1424
  281.0000   -46.3053     5.2708     6.7748     9.9426     7.7555   130.6606     0.0143     2.4096     0.1361
  281.5000   -46.4419     5.0605     6.5043     9.9494     7.7557   130.3634     0.0172     2.4205     0.1328
  282.0000   -46.4217     4.9261     6.2017     9.9568     7.7558   129.7670     0.0187     2.4220     0.1341
  282.5000   -46.4055     4.8285     5.7919    10.0320     7.7560   128.5726     0.0216     2.4130     0.1371
  283.0000   -46.2405     4.8318     5.1897    10.1083     7.7561   126.9298     0.0231     2.3928     0.1482
  283.5000   -46.2243     4.9362     5.3019    10.1152     7.7563   125.7354     0.0155     2.3718     0.1599
  284.0000   -46.0593     5.0778     6.3488    10.1922     7.7564   126.0362     0.0094     2.3740     0.1620
  284.5000   -45.7455     5.3327     6.9497    10.2706     7.7566   126.4860     0.0049     2.3820     0.1583
  285.0000   -45.5754     5.6030     6.9545    10.2776     7.7567   127.0854     0.0048     2.4017     0.1464
  285.5000   -45.2664     5.8041     6.9113    10.3558     7.7569   126.9370     0.0108     2.4182     0.1324
  286.0000   -45.1012     5.9674     7.3102    10.3637     7.7570   126.6395     0.0137     2.4287     0.1285
  286.5000   -45.0848     6.0129     7.5225    10.3708     7.7572   126.1928     0.0166     2.4362     0.1258
  287.0000   -44.9164     6.0178     7.5239    10.3065     7.7573   125.5665     0.0181     2.4444     0.1231
  287.5000   -44.9002     6.0220     7.4256    10.3849     7.7575   123.5055     0.0180     2.4451     0.1231
  288.0000   -45.0369     5.9836     7.4320    10.3920     7.7576   123.2076     0.0180     2.4410     0.1247
  288.5000   -45.1655     5.7857     7.3338    10.3991     7.7578   123.0600     0.0164     2.4309     0.1289
  289.0000   -45.4509     5.5548     7.0422    10.4062     7.7430   122.6130     0.0147     2.4196     0.1331
