~VERSION INFORMATION
 VERS.                2.0:   CWLS LOG ASCII STANDARD - VERSION 2.0
 WRAP.                 NO:   ONE LINE PER DEPTH STEP
~WELL INFORMATION
#MNEM.UNIT      DATA TYPE    INFORMATION
#----------   ------------   ------------------------------
 STRT.F            8.0000:   START DEPTH
 STOP.F          664.0000:   STOP DEPTH
 STEP.F            0.5000:   STEP LENGTH
 NULL.          -999.2500:   NO VALUE
 COMP. LAWRENCE/ALLISON INC:   COMPANY
 WELL.    13-61 SX #11-11:   WELL
 FLD .             TEAPOT:   FIELD
 LOC .      S11 T38N R78W:   LOCATION
 CNTY.            NATRONA:   COUNTY
 STAT.            WYOMING:   STATE
 CTRY. UNITED STATES OF AMERICA:   COUNTRY
 SRVC.           Gearhart:   SERVICE COMPANY
 DATE.        22-JUN-1986:   LOGDATE
 API .       490251109700:   API NUMBER
~CURVE INFORMATION
#MNEM.UNIT       API CODE    CURVE DESCRIPTION
#----------   ------------   ------------------------------
 DEPT.F                  :   
 GRR .GAPI   07 310 01 00:   GAMMA RAY FROM RES. LOG.
 ILM .OHMM   07 120 44 00:   INDUCTION LOG MEDIUM
 ILD .OHMM   07 120 46 00:   INDUCTION LOG DEEP
~PARAMETER INFORMATION
#MNEM.UNIT          VALUE    DESCRIPTION
#----------   ------------   ------------------------------
 PD  .                 GL:   PERMANENT DATUM
 EPD .F              5154:   ELEVATION PERMANENT DATUM
 LMF .                 KB:   LOG MEASURED FROM
 DAPD.F                 5:   FEET ABOVE PERMANENT DATUM
 DMF .                 KB:   DRILLING MEASURED FROM
 EKB .F              5159:   KELLING BUSHING
 EGL .F              5154:   GROUND LEVEL
 DATE.            6-22-86:   RUN DATE
 RUN .                  1:   RUN NUMBER
 DD  .F               675:   DEPTH DRILLER
 DL  .F               673:   DEPTH LOGGER
 BLI .F               664:   BOTTOM LOG INTERVAL
 CS  .IN            8.625:   CASING SIZE
 CBD .F                44:   CASING BOTTOM DRILLER
 CBL .F                46:   CASING BOTTOM LOGGER
 BS  .IN            7.875:   BIT SIZE
 BSD .F               675:   BIT SIZE AT DEPTH
 DFT .                AIR:   DRILLING FLUID TYPE
 TCS .HRS            1830:   TIME CURCULATED STOPPED
 MRT .F                69:   MAXIMUM RECORDED TEMPERATURE
 LUN .               7609:   LOGGING UNIT NUMBER
 LUL .           GILLETTE:   LOGGING UNIT LOCATION
 ENGI.            WANGLER:   RECORDING ENGINEER
 WITN.              DAVIS:   WITNESSED BY
 CLNT.            A2DTECH:   CLIENT CODE
 ORIG.       2", 5" PRINT:   ORIGIN OF DATA
 UWI .       490251109700:   UNIQUE WELL ID
 DICO. A2D Technologies, Inc.:   DIGITIZING COMPANY
~OTHER INFORMATION
~A    DEPT      GRR       ILM        ILD   
# ...
   99.0000   115.2414     7.1280     7.1726
   99.5000   116.6840     7.2124     7.3170
  100.0000   114.2942     7.2977     7.4166
  100.5000   105.9745     7.3841     7.5175
  101.0000   102.5908     7.4714     7.6198
  101.5000   104.1367     7.5598     7.7234
  102.0000   108.1217     7.6493     7.8285
  102.5000   111.6700     7.7398     7.9350
  103.0000   112.4592     7.8314     8.0430
  103.5000   113.3094     7.9240     8.1524
  104.0000   114.5984     8.0178     8.2633
  104.5000   115.9259     8.1127     8.3757
  105.0000   115.4831     8.2087     8.4897
  105.5000   112.3623     8.3058     8.6052
  106.0000   105.4086     8.4041     8.7222
  106.5000    98.2601     8.5035     8.8409
  107.0000    95.4307     8.6042     8.9054
  107.5000    98.8563     8.6575     8.8220
  108.0000   104.2074     8.4573     8.8244
  108.5000   109.6780     8.3242     8.6469
  109.0000   114.4953     8.1931     8.4573
  109.5000   119.3133     8.0642     8.2705
  110.0000   121.6627     7.9372     8.0878
  110.5000   119.8182     7.8121     7.9091
  111.0000   117.0970     7.6893     7.7349
  111.5000   115.9659     7.5875     7.6092
  112.0000   116.4967     7.5780     7.5181
  112.5000   117.4701     7.5685     7.5279
  113.0000   116.2749     7.5590     7.5378
  113.5000   112.3731     7.5496     7.5478
  114.0000   108.3974     7.5401     7.5578
  114.5000   105.8741     7.5307     7.5679
  115.0000   108.4390     7.5211     7.5779
  115.5000   111.0974     7.5169     7.5863
  116.0000   113.4979     7.5891     7.6650
  116.5000   113.8608     7.6876     7.7519
  117.0000   112.4442     7.7796     7.8402
  117.5000   107.2003     7.8802     7.9297
  118.0000   105.0311     7.8730     7.9596
  118.5000   105.6724     7.8632     7.9665
  119.0000   110.4988     7.8533     7.9734
  119.5000   115.4059     7.8435     7.9803
  120.0000   116.3131     7.8337     7.9872
  120.5000   114.5099     7.8239     7.9942
  121.0000   112.5878     7.8144     8.0011
  121.5000   111.2311     7.8058     8.0080
  122.0000   111.2987     7.8670     8.0149
  122.5000   111.8586     7.9272     8.0222
  123.0000   111.7960     7.9878     8.0272
  123.5000   110.3929     8.0488     8.0971
  124.0000   110.3767     8.1104     8.1765
  124.5000   113.4905     8.1724     8.2568
  125.0000   115.2118     8.2349     8.3378
  125.5000   116.6948     8.2978     8.4196
  126.0000   116.3768     8.3613     8.5023
  126.5000   115.9223     8.4252     8.5856
  127.0000   115.5274     8.4896     8.6663
  127.5000   115.7042     8.5545     8.7267
  128.0000   115.9250     8.6199     8.7875
  128.5000   116.1518     8.6858     8.8487
  129.0000   116.3093     8.7523     8.9103
  129.5000   114.8300     8.8192     8.9724
  130.0000   113.7108     8.8866     9.0349
  130.5000   113.2558     8.9545     9.0979
  131.0000   112.7986     9.0230     9.1612
  131.5000   112.3723     9.1099     9.2251
  132.0000   110.8746     9.2570     9.3264
  132.5000   109.2437     9.4047     9.5006
  133.0000   107.7868     9.5552     9.6790
  133.5000   108.2211     9.7080     9.8747
  134.0000   109.8626     9.8633    10.0070
  134.5000   110.4663    10.0211    10.1515
  135.0000   110.2158    10.1814    10.2990
  135.5000   111.1599    10.3520    10.4486
  136.0000   112.3229    10.5097    10.6005
  136.5000   110.6739    10.6778    10.7545
  137.0000   108.5690    10.8506    10.8754
  137.5000   108.1581    10.7887    10.9529
  138.0000   109.0082    10.7265    10.8986
  138.5000   110.0587    10.6647    10.8314
  139.0000   111.1308    10.6032    10.7642
  139.5000   109.0240    10.5420    10.6976
  140.0000   106.5996    10.4812    10.6483
  140.5000   105.0412    10.4208    10.6483
  141.0000   107.3286    10.3607    10.5846
  141.5000   113.0072    10.3009    10.5255
  142.0000   116.0372    10.2415    10.4667
  142.5000   113.2528    10.1825    10.4083
  143.0000   109.4732    10.1237    10.3502
  143.5000   106.2084    10.0654    10.2924
  144.0000   106.6297    10.0073    10.2349
  144.5000   108.7043     9.9496    10.1777
  145.0000   113.6994     9.8922    10.1209
  145.5000   118.6819     9.8352    10.0643
  146.0000   119.5325     9.7785    10.0081
  146.5000   113.7268     9.7220     9.9522
  147.0000   110.6630     9.6660     9.8964
  147.5000   110.8982     9.6102     9.8298
  148.0000   113.4769     9.6015     9.7558
  148.5000   116.0027     9.6014     9.6828
  149.0000   117.1934     9.6014     9.6015
  149.5000   118.1471     9.6015     9.6649
  150.0000   118.8230     9.6015     9.7378
  150.5000   117.8316     9.6015     9.8112
  151.0000   116.7384     9.6014     9.8763
  151.5000   115.6357     9.6015     9.7830
  152.0000   116.0308     9.5625     9.7004
  152.5000   119.1903     9.4901     9.6184
  153.0000   122.5172     9.4182     9.5373
  153.5000   119.6228     9.3469     9.4567
  154.0000   116.6781     9.2761     9.3376
  154.5000   118.2150     9.1346     9.1905
  155.0000   120.6923     8.9457     9.0835
  155.5000   122.2957     8.7606     8.8925
  156.0000   123.3070     8.5799     8.7055
  156.5000   126.6316     8.3969     8.5224
  157.0000   131.1970     8.1881     8.3431
  157.5000   133.0451     8.1153     8.1677
  158.0000   130.7603     8.0298     7.9959
  158.5000   126.3358     8.0439     7.8278
  159.0000   123.8123     8.0652     7.7333
  159.5000   123.6500     8.0865     7.8140
  160.0000   124.0918     8.1057     7.8692
  160.5000   121.5998     8.1791     7.9248
  161.0000   118.2151     8.2613     7.9804
  161.5000   113.5808     8.3444     8.0521
  162.0000   111.1495     8.4317     8.2277
  162.5000   113.0427     8.5415     8.4076
  163.0000   115.7941     8.6531     8.5910
  163.5000   116.3785     8.7659     8.7803
  164.0000   115.9009     8.8810     8.8220
  164.5000   112.6619     8.9236     8.8220
  165.0000   108.5162     8.9476     8.8158
  165.5000   103.3592     8.9710     8.7848
  166.0000   102.3107     8.9895     8.7540
  166.5000   104.8903     8.9082     8.7233
  167.0000   108.7727     8.8292     8.6926
  167.5000   112.6414     8.7394     8.6575
  168.0000   116.1576     8.8054     8.7077
  168.5000   118.4003     8.8836     8.7670
  169.0000   120.0272     8.9624     8.8267
  169.5000   119.6563     9.0420     8.8868
  170.0000   117.7911     9.1223     8.9473
  170.5000   113.6663     9.2033     9.0083
  171.0000   109.6440     9.2850     9.0696
  171.5000   108.5357     9.3683     9.1314
  172.0000   111.1045     9.4221     9.1603
  172.5000   116.2666     9.3407     9.1603
  173.0000   120.3298     9.2793     9.1042
  173.5000   122.1351     9.2187     9.0453
  174.0000   123.1620     9.1585     8.9867
  174.5000   121.5284     9.0987     8.9290
  175.0000   117.8793     9.0660     8.9050
  175.5000   114.3443     9.0516     8.9053
  176.0000   112.6168     9.0373     8.9053
  176.5000   112.7445     9.0230     8.9054
  177.0000   114.6010     9.0089     8.9054
  177.5000   116.3033     8.9942     8.9054
  178.0000   115.1998     8.9486     8.9054
  178.5000   111.6954     8.8863     8.9054
  179.0000   108.5637     8.8244     8.9050
  179.5000   107.8441     8.7630     8.9054
  180.0000   109.3993     8.7020     8.8509
  180.5000   110.9660     8.6414     8.8144
  181.0000   111.2907     8.5774     8.7777
  181.5000   111.6721     8.5886     8.7395
  182.0000   112.3711     8.6025     8.7713
  182.5000   111.9947     8.6162     8.8064
  183.0000   110.7607     8.6299     8.8414
  183.5000   109.5319     8.6436     8.8763
  184.0000   108.6186     8.6571     8.9054
  184.5000   111.0399     8.6240     8.8583
  185.0000   114.3075     8.5899     8.8186
  185.5000   117.6247     8.5560     8.7791
  186.0000   120.9498     8.5222     8.7397
  186.5000   124.0173     8.4885     8.7005
  187.0000   123.0678     8.4549     8.6615
  187.5000   123.4856     8.4215     8.6226
  188.0000   124.1803     8.3883     8.5840
  188.5000   124.9394     8.3551     8.5455
  189.0000   122.1285     8.3221     8.5072
  189.5000   119.8924     8.2892     8.4690
