~VERSION INFORMATION
 VERS.                2.0:   CWLS LOG ASCII STANDARD - VERSION 2.0
 WRAP.                 NO:   ONE LINE PER DEPTH STEP
~WELL INFORMATION
#MNEM.UNIT      DATA TYPE    INFORMATION
#----------   ------------   ------------------------------
 STRT.F            8.5000:   START DEPTH
 STOP.F          642.0000:   STOP DEPTH
 STEP.F            0.5000:   STEP LENGTH
 NULL.          -999.2500:   NO VALUE
 COMP. FENIX & SCISSON INC:   COMPANY
 WELL. 26-36 S11 W1 #26-36 SX11:   WELL
 FLD .             TEAPOT:   FIELD
 LOC .      S11 T38N R78W:   LOCATION
 CNTY.            NATRONA:   COUNTY
 STAT.            WYOMING:   STATE
 CTRY. UNITED STATES OF AMERICA:   COUNTRY
 SRVC.      Dresser Atlas:   SERVICE COMPANY
 DATE.        16-JUL-1980:   LOGDATE
 API .       490251083500:   API NUMBER
~CURVE INFORMATION
#MNEM.UNIT       API CODE    CURVE DESCRIPTION
#----------   ------------   ------------------------------
 DEPT.F                  :   
 NPHI.DEC    42 890 03 00:   NEUTRON POROSITY SANDSTONE
 RHOB.G/C3   45 350 01 00:   BULK DENSITY
 CORR.G/C3   45 356 01 00:   DENSITY CORRECTION
 GRD .GAPI   45 310 01 00:   GAMMA RAY FROM DENSITY LOG
 CALD.IN     45 280 60 00:   CALIPER
 SPR .MV     07 010 01 00:   SPONTANEOUS POTENTIAL
 SFL .OHMM   07 220 01 00:   SHALLOW FOCUSED LOG RESISTIVITY
 ILD .OHMM   07 120 46 00:   INDUCTION LOG DEEP
 ILM .OHMM   07 120 44 00:   INDUCTION LOG MEDIUM
 DPHI.DEC    45 890 12 00:   DENSITY POROSITY SANDSTONE
~PARAMETER INFORMATION
#MNEM.UNIT          VALUE    DESCRIPTION
#----------   ------------   ------------------------------
 PD  .                 GL:   PERMANENT DATUM
 EPD .F              5184:   ELEVATION PERMANENT DATUM
 LMF .                 KB:   LOG MEASURED FROM
 DAPD.F                 5:   FEET ABOVE PERMANENT DATUM
 DMF .                 KB:   DRILLING MEASURED FROM
 EKB .F              5189:   KELLING BUSHING
 EGL .F              5184:   GROUND LEVEL
 DATE.            7-16-80:   RUN DATE
 RUN .                  1:   RUN NUMBER
 DD  .F               630:   DEPTH DRILLER
 DL  .F               637:   DEPTH LOGGER
 BLI .F               635:   BOTTOM LOG INTERVAL
 TLI .F                 8:   TOP LOG INTERVAL
 BS  .IN            7.875:   BIT SIZE
 BSD .F               630:   BIT SIZE AT DEPTH
 DFT .           CHEM GEL:   DRILLING FLUID TYPE
 DFD .                9.2:   DRILLING FLUID DENSITY
 DFV .                 65:   DRILLING FLUID VISCOSITY
 DFPH.                 10:   DRILLING FLUID PH
 DFL .                  8:   DRILLING FLUID LOSS
 MSS .           FLOWLINE:   MUD SAMPLE SOURCE
 RMS .OHMM            .61:   RESISTIVITY MUD SAMPLE
 MST .F                60:   MUD SAMPLE TEMPERATURE
 RMC .OHMM            .62:   RESISTIVITY MUD CAKE
 MCST.F                58:   MUD CAKE SAMPLE TEMPERATURE
 MFSS.               MEAS:   MUD FILTRATE SAMPLE SOURCE
 MCSS.               MEAS:   MUD CAKE SAMPLE SOURCE
 RMB .OHMM            .41:   RESISTIVITY MUD AT BHT
 BHT .F                90:   BOTTOM HOLE TEMPERATURE
 TCS .HRS               5:   TIME CURCULATED STOPPED
 MRT .F                90:   MAXIMUM RECORDED TEMPERATURE
 LUN .               6109:   LOGGING UNIT NUMBER
 LUL .              GLTTE:   LOGGING UNIT LOCATION
 ENGI.            GARONER:   RECORDING ENGINEER
 WITN.              AMEND:   WITNESSED BY
 CLNT.            A2DTECH:   CLIENT CODE
 ORIG.           5" PRINT:   ORIGIN OF DATA
 UWI .       490251083500:   UNIQUE WELL ID
 DICO. A2D Technologies, Inc.:   DIGITIZING COMPANY
~OTHER INFORMATION
~A    DEPT    NPHI       RHOB       CORR        GRD       CALD        SPR        SFL          ILD      ILM       DPHI   
# ...
  611.5000     0.2491     2.5380     0.0140    82.4979     7.6700   -35.5437    14.8858    10.6624    11.3919     0.1024
  612.0000     0.2497     2.5302     0.0075    82.4992     7.6700   -35.5435    14.8858    10.7652    11.4883     0.1068
  612.5000     0.2540     2.5180     0.0019    82.3557     7.6700   -35.5409    14.8858    10.8690    11.5856     0.1093
  613.0000     0.2541     2.5068     0.0016    81.9184     7.6700   -35.5549    15.0298    10.9738    11.6837     0.1061
  613.5000     0.2518     2.4994    -0.0015    81.4867     7.6700   -35.4225    15.2303    11.0796    11.7826     0.1227
  614.0000     0.2494     2.4991    -0.0047    81.0496     7.6700   -35.2048    15.4456    11.1864    11.8824     0.1167
  614.5000     0.2470     2.4833    -0.0060    80.9021     7.6700   -35.0002    15.2526    11.2943    11.9830     0.1053
  615.0000     0.2482     2.4775    -0.0020    80.9045     7.6700   -34.7998    14.9030    11.4031    12.0845     0.1064
  615.5000     0.2523     2.4983     0.0044    81.1709     7.6700   -34.5973    14.6136    11.4961    12.1868     0.1032
  616.0000     0.2543     2.5055     0.0080    81.7186     7.6700   -34.3926    14.6136    11.4961    12.2900     0.1022
  616.5000     0.2498     2.5058     0.0080    82.2577     7.6700   -34.3332    15.0260    11.4961    12.3769     0.1023
  617.0000     0.2478     2.5111     0.0108    82.6059     7.6700   -34.3360    15.4679    11.4953    12.3769     0.1047
  617.5000     0.2495     2.5102     0.0166    81.9755     7.6700   -34.3373    15.9228    11.4957    12.3769     0.1034
  618.0000     0.2452     2.5063     0.0162    81.4778     7.6700   -34.3369    16.3250    11.4962    12.3769     0.0992
  618.5000     0.2480     2.5075     0.0118    82.2223     7.6700   -34.3374    15.8858    11.4971    12.3777     0.0926
  619.0000     0.2440     2.5202     0.0161    83.3076     7.6700   -34.3371    15.4499    11.4977    12.3774     0.0885
  619.5000     0.2424     2.5322     0.0196    84.4451     7.6700   -34.3398    15.0259    11.4467    12.3768     0.0951
  620.0000     0.2460     2.5259     0.0108    85.0582     7.6700   -34.3352    14.6136    11.3604    12.3770     0.0983
  620.5000     0.2492     2.5180     0.0060    85.0296     7.6700   -34.3287    14.8413    11.2741    12.3745     0.1001
  621.0000     0.2495     2.5123     0.0060    84.8767     7.6700   -34.1473    15.0725    11.1897    12.3818     0.0932
  621.5000     0.2494     2.5165     0.0060    84.1628     7.6700   -33.9687    15.3073    11.1058    12.3101     0.1001
  622.0000     0.2491     2.5201     0.0058    83.4199     7.6701   -33.7838    15.4456    11.0226    12.1886     0.1035
  622.5000     0.2488     2.5102     0.0049    82.6808     7.6677   -33.5881    15.3874    10.9401    12.0732     0.1044
  623.0000     0.2477     2.5003     0.0040    82.2557     7.6650   -33.5950    15.1301    10.8581    11.9589     0.1031
  623.5000     0.2457     2.5001     0.0040    81.7974     7.6623   -33.7199    14.8771    10.7767    11.8457     0.1037
  624.0000     0.2436     2.5067     0.0040    81.3598     7.6596   -33.8336    14.6283    10.6960    11.7335     0.1053
  624.5000     0.2490     2.5016     0.0040    80.9290     7.6569   -33.9442    14.3463    10.6161    11.6224     0.1060
  625.0000     0.2539     2.5026     0.0040    80.4616     7.6542   -34.0582    14.3463    10.5368    11.5124     0.1040
  625.5000     0.2571     2.5072     0.0011    80.2935     7.6515   -34.1705    15.1631    10.4581    11.4034     0.1122
  626.0000     0.2559     2.5016    -0.0029    80.6578     7.6499   -34.2880    14.7923    10.3799    11.2954     0.1179
  626.5000     0.2581     2.4908    -0.0072    80.4110     7.6465   -34.3423    14.0132    10.2918    11.1885     0.0964
  627.0000     0.2623     2.4849    -0.0084    79.3270     7.6392   -34.3373    13.3253    10.2917    11.0826     0.0829
  627.5000     0.2603     2.5296     0.0104    79.8491     7.6316   -34.3375    13.5767    10.2915    10.9776     0.0904
  628.0000     0.2575     2.5419     0.0235    80.8626     7.6321   -34.3383    13.9598    10.2913    10.8737     0.1080
  628.5000     0.2594     2.5041     0.0116    81.6739     7.6348   -34.3375    14.0840    10.2909    10.7708     0.1025
  629.0000     0.2635     2.5009    -0.0004    81.3780     7.6376   -34.3376    13.8296    10.2909    10.6779     0.0937
  629.5000     0.2604     2.5143    -0.0009    81.1020     7.6404   -34.3375    13.4484    10.2909    10.6480     0.0848
  630.0000     0.2574     2.5296     0.0115    80.8953     7.6432   -34.3373    13.2658    10.2909    10.6206     0.0817
  630.5000     0.2567     2.5433     0.0234    80.8981     7.6460   -34.3373    13.0861    10.2909    10.5932     0.0872
  631.0000     0.2583     2.5363     0.0201    80.9032     7.6488   -34.3373    12.9092    10.2909    10.5660     0.0932
  631.5000     0.2521     2.5244     0.0132    81.1759     7.6494   -34.3373    12.7348    10.2909    10.5388     0.0883
  632.0000     0.2491     2.5249     0.0153    81.4760     7.6350   -34.3373    12.5627    10.2909    10.5117     0.0817
  632.5000     0.2539     2.5452     0.0237    81.7763     7.6300   -34.3373    12.3800    10.2909    10.4846     0.0823
  633.0000     0.2577     2.5471     0.0300    82.0748     7.6309   -34.3373    12.6454    10.2909    10.4576     0.0902
  633.5000     0.2601     2.5325     0.0298    82.3050     7.5917   -34.3373    12.9420    10.2909    10.4307     0.0886
  634.0000     0.2623     2.5287     0.0340    82.2851     7.5477   -34.3373    13.2757    10.2909    10.4038     0.0998
  634.5000     0.2591     2.5063     0.0423    82.2027     7.5044   -34.3373    13.1735    10.2909    10.3770     0.1072
  635.0000     0.2556     2.4785     0.0480    82.1918     7.4597   -34.3373    12.9714    10.2909    10.3502     0.1076
  635.5000  -999.2500     2.4871     0.0513    74.9972     7.4501   -34.3373    12.7724    10.2909    10.3239  -999.2500
  636.0000  -999.2500     2.4987  -999.2500    77.2648     7.4499   -34.3373    12.6075    10.2909    10.2972  -999.2500
  636.5000  -999.2500  -999.2500  -999.2500    80.2042  -999.2500   -34.3373    12.6075    10.2909    10.2904  -999.2500
  637.0000  -999.2500  -999.2500  -999.2500  -999.2500  -999.2500   -34.3373    12.6075    10.2909    10.2907  -999.2500
  637.5000  -999.2500  -999.2500  -999.2500  -999.2500  -999.2500   -34.3373    12.6075    10.2909    10.2909  -999.2500
  638.0000  -999.2500     2.4985     0.0457    80.7009  -999.2500   -34.3373    12.6075    10.2909    10.2907  -999.2500
  638.5000  -999.2500     2.4985     0.0457    80.7000  -999.2500   -34.3373    12.6075    10.2909    10.2908  -999.2500
  639.0000  -999.2500     2.4985     0.0457    80.7000  -999.2500   -34.3373    12.6075    10.2909    10.2908  -999.2500
  639.5000  -999.2500     2.4985     0.0457    80.7000  -999.2500   -34.3373    12.6075    10.2909    10.2909  -999.2500
  640.0000  -999.2500     2.4985     0.0457    80.7000  -999.2500   -34.3373    12.6075    10.2909    10.2909  -999.2500
  640.5000  -999.2500     2.4985     0.0457    80.7000  -999.2500  -999.2500  -999.2500  -999.2500  -999.2500  -999.2500
  641.0000  -999.2500     2.4985     0.0457    80.7000  -999.2500  -999.2500  -999.2500  -999.2500  -999.2500  -999.2500
  641.5000  -999.2500     2.4985     0.0457    80.7000  -999.2500  -999.2500  -999.2500  -999.2500  -999.2500  -999.2500
  642.0000  -999.2500     2.4985     0.0457    80.7000  -999.2500  -999.2500  -999.2500  -999.2500  -999.2500  -999.2500
