~VERSION INFORMATION
 VERS.                2.0:   CWLS LOG ASCII STANDARD - VERSION 2.0
 WRAP.                 NO:   ONE LINE PER DEPTH STEP
~WELL INFORMATION
#MNEM.UNIT      DATA TYPE    INFORMATION
#----------   ------------   ------------------------------
 STRT.F           10.0000:   START DEPTH
 STOP.F         2599.5000:   STOP DEPTH
 STEP.F            0.5000:   STEP LENGTH
 NULL.          -999.2500:   NO VALUE
 COMP. FENIX & SCISSON INC:   COMPANY
 WELL.   34-SHX-33 #34-33:   WELL
 FLD .             TEAPOT:   FIELD
 LOC .      S33 T39N R78W:   LOCATION
 CNTY.            NATRONA:   COUNTY
 STAT.            WYOMING:   STATE
 CTRY. UNITED STATES OF AMERICA:   COUNTRY
 SRVC.           BIRDWELL:   SERVICE COMPANY
 DATE.        20-FEB-1978:   LOGDATE
 API .       490251058400:   API NUMBER
~CURVE INFORMATION
#MNEM.UNIT       API CODE    CURVE DESCRIPTION
#----------   ------------   ------------------------------
 DEPT.F                  :   
 GR  .GAPI   30 310 01 00:   GAMMA RAY
 CALI.IN     70 280 01 00:   CALIPER
~PARAMETER INFORMATION
#MNEM.UNIT          VALUE    DESCRIPTION
#----------   ------------   ------------------------------
 PD  .                 GL:   PERMANENT DATUM
 EPD .F              5174:   ELEVATION PERMANENT DATUM
 LMF .                 KB:   LOG MEASURED FROM
 DAPD.F                10:   FEET ABOVE PERMANENT DATUM
 DMF .                 KB:   DRILLING MEASURED FROM
 EKB .F              5184:   KELLING BUSHING
 EGL .F              5174:   GROUND LEVEL
 DATE.            2-20-78:   RUN DATE
 RUN .                  1:   RUN NUMBER
 DD  .F              2590:   DEPTH DRILLER
 DL  .F              2600:   DEPTH LOGGER
 BLI .F              2600:   BOTTOM LOG INTERVAL
 CS  .IN            8.625:   CASING SIZE
 CBD .F               737:   CASING BOTTOM DRILLER
 BS  .IN            8.625:   BIT SIZE
 BSD .F              2590:   BIT SIZE AT DEPTH
 TCS .HRS               2:   TIME CURCULATED STOPPED
 LUL .             CASPER:   LOGGING UNIT LOCATION
 ENGI.             MILLER:   RECORDING ENGINEER
 WITN.           MCGINLEY:   WITNESSED BY
 CLNT.            A2DTECH:   CLIENT CODE
 ORIG.           5" PRINT:   ORIGIN OF DATA
 UWI .       490251058400:   UNIQUE WELL ID
 DICO. A2D Technologies, Inc.:   DIGITIZING COMPANY
~OTHER INFORMATION
~A   DEPT        GR      CALI   
# ...
 2075.5000   210.3419     8.7491
 2076.0000   213.9933     8.4569
 2076.5000   214.2482     8.5939
 2077.0000   214.4370     8.8191
 2077.5000   216.0415     8.8579
 2078.0000   217.3279     8.8627
 2078.5000   212.5812     8.8626
 2079.0000   200.0578     8.8626
 2079.5000   188.1749     8.8626
 2080.0000   185.7048     8.8624
 2080.5000   187.4255     8.8624
 2081.0000   187.9671     8.8408
 2081.5000   191.2778     8.8029
 2082.0000   194.2304     8.7645
 2082.5000   195.3319     8.7627
 2083.0000   196.7978     8.7629
 2083.5000   200.4162     8.7629
 2084.0000   201.2076     8.7630
 2084.5000   195.5357     8.7657
 2085.0000   191.4927     8.7689
 2085.5000   188.1231     8.7721
 2086.0000   184.3995     8.7753
 2086.5000   177.4440     8.7784
 2087.0000   175.2819     8.7818
 2087.5000   174.7672     8.7626
 2088.0000   176.2034     8.7133
 2088.5000   183.2193     8.6360
 2089.0000   190.4388     8.5944
 2089.5000   190.2552     8.6006
 2090.0000   180.8594     8.6709
 2090.5000   172.6796     8.8674
 2091.0000   164.3622     8.9714
 2091.5000   159.3502     8.9913
 2092.0000   158.1854     8.9647
 2092.5000   160.3406     8.8915
 2093.0000   162.8461     8.8845
 2093.5000   165.3682     8.8868
 2094.0000   172.1063     8.8892
 2094.5000   179.5477     8.8916
 2095.0000   179.8830     8.8939
 2095.5000   177.7827     8.8963
 2096.0000   178.5270     8.8986
 2096.5000   184.9334     8.9009
 2097.0000   191.3089     8.8974
 2097.5000   196.6135     8.8836
 2098.0000   202.2957     8.8699
 2098.5000   224.6904     8.8562
 2099.0000   270.8664     8.8426
 2099.5000   293.5563     8.8289
 2100.0000   268.7359     8.8152
 2100.5000   242.4898     8.8029
 2101.0000   215.3265     8.8028
 2101.5000   204.4504     8.8024
 2102.0000   199.1521     8.8226
 2102.5000   193.6938     8.8525
 2103.0000   184.2235     8.8553
 2103.5000   177.8686     8.8454
 2104.0000   185.9223     8.8118
 2104.5000   190.6297     8.7833
 2105.0000   186.6149     8.8166
 2105.5000   181.9466     8.8631
 2106.0000   176.0261     8.9276
 2106.5000   173.5116     8.9789
 2107.0000   171.8602     8.9467
 2107.5000   168.4183     8.9161
 2108.0000   166.1321     8.9025
 2108.5000   167.6136     8.9024
 2109.0000   175.5639     8.9025
 2109.5000   185.8638     8.9021
 2110.0000   191.1853     8.8780
 2110.5000   188.6195     8.8527
 2111.0000   187.6454     8.7259
 2111.5000   183.9867     8.5564
 2112.0000   179.0652     8.4001
 2112.5000   175.0818     8.6277
 2113.0000   172.5669     8.8698
 2113.5000   172.1262     8.8697
 2114.0000   174.5451     8.8753
 2114.5000   180.8766     8.8816
 2115.0000   183.3610     8.8776
 2115.5000   185.0968     8.8717
 2116.0000   177.4079     8.8657
 2116.5000   172.5801     8.8597
 2117.0000   172.1154     8.8538
 2117.5000   171.5096     8.8478
 2118.0000   168.0151     8.8383
 2118.5000   164.1905     8.8076
 2119.0000   158.4200     8.7777
 2119.5000   151.4674     8.7414
 2120.0000   149.0001     8.4876
 2120.5000   149.4760     8.6653
 2121.0000   153.4162     8.2097
 2121.5000   155.4192     9.1458
 2122.0000   154.6093     8.8270
 2122.5000   158.2641     9.0078
 2123.0000   166.0608     9.0020
 2123.5000   174.9457     8.9948
 2124.0000   178.7393     8.9837
 2124.5000   180.0796     8.9914
 2125.0000   180.3626     9.0025
 2125.5000   176.3560     9.0138
 2126.0000   171.3646     9.0251
 2126.5000   173.7988     9.0363
 2127.0000   179.1379     9.0477
 2127.5000   183.2545     9.0596
 2128.0000   179.2517     9.0445
 2128.5000   175.0088     9.0220
 2129.0000   170.7056     9.0055
 2129.5000   166.1250     9.0325
 2130.0000   160.9422     9.0601
 2130.5000   152.2325     9.0099
 2131.0000   143.2923     8.9519
 2131.5000   134.6774     8.8941
 2132.0000   128.2901     8.8622
 2132.5000   125.8712     8.8597
 2133.0000   128.1619     8.8571
 2133.5000   136.2889     8.8547
 2134.0000   162.4106     8.8523
 2134.5000   174.5912     8.8499
 2135.0000   184.8578     8.8475
 2135.5000   190.9672     8.8452
 2136.0000   190.3207     8.8418
 2136.5000   186.8760     8.8107
 2137.0000   183.1240     8.7820
 2137.5000   179.1841     8.7793
 2138.0000   173.5300     8.7747
 2138.5000   165.1274     8.7699
 2139.0000   161.3191     8.7652
 2139.5000   156.6463     8.7605
 2140.0000   149.8807     8.7558
 2140.5000   142.5499     8.7511
 2141.0000   146.8302     8.7464
 2141.5000   156.4257     8.7417
 2142.0000   175.4968     8.7371
 2142.5000   173.9809     8.7325
 2143.0000   170.2385     8.7275
 2143.5000   166.4708     8.7237
 2144.0000   164.5954     8.6320
 2144.5000   164.3831     8.3764
 2145.0000   164.2564     8.0188
 2145.5000   164.5553     9.0987
 2146.0000   167.3014     8.8778
 2146.5000   170.5983     8.9673
 2147.0000   169.6690     8.9727
 2147.5000   167.1843     8.9778
 2148.0000   164.4135     8.9835
 2148.5000   163.7807     8.9895
 2149.0000   163.2232     8.9956
 2149.5000   159.0886     9.0015
 2150.0000   154.9011     8.9822
 2150.5000   150.7935     8.9604
 2151.0000   150.7807     8.9378
 2151.5000   152.7766     8.9013
 2152.0000   153.8722     8.8240
 2152.5000   153.0352     8.8327
 2153.0000   148.1838     8.8391
 2153.5000   143.2986     8.8216
 2154.0000   143.7344     8.8047
 2154.5000   147.6201     8.7878
 2155.0000   152.6613     8.7710
 2155.5000   157.5815     8.7541
 2156.0000   158.0613     8.7371
 2156.5000   159.4493     8.7087
 2157.0000   159.4059     8.6248
 2157.5000   159.1830     8.5386
 2158.0000   154.5040     8.2397
 2158.5000   149.0260     8.3787
 2159.0000   143.4257     8.6595
 2159.5000   140.5338     8.9506
 2160.0000   141.3618     9.0212
 2160.5000   142.2752     9.0227
 2161.0000   143.5529     9.0230
 2161.5000   145.6273     9.0247
 2162.0000   147.9004     9.1568
 2162.5000   147.0654     9.1237
 2163.0000   145.7560     9.0673
 2163.5000   145.4431     8.9152
 2164.0000   145.3177     9.2321
 2164.5000   145.1936     9.0658
 2165.0000   145.2565     9.1015
 2165.5000   145.4324     9.1125
 2166.0000   145.9122     9.0617
 2166.5000   147.2760     9.0880
 2167.0000   152.0473     9.1173
 2167.5000   160.2950     9.0556
 2168.0000   167.3834     8.9817
 2168.5000   165.4912     9.0096
 2169.0000   162.9820     9.0404
 2169.5000   159.1199     9.0394
 2170.0000   153.9923     8.9472
 2170.5000   148.8624     8.9209
 2171.0000   143.7480     8.9252
 2171.5000   139.6222     8.9281
 2172.0000   138.9114     8.9306
 2172.5000   139.4214     8.9331
 2173.0000   138.8782     8.9356
 2173.5000   136.2919     8.9381
 2174.0000   133.8665     8.9406
 2174.5000   131.4371     8.9431
 2175.0000   130.7028     8.9456
 2175.5000   132.4308     8.9481
 2176.0000   135.3730     8.9506
 2176.5000   137.2684     8.9531
 2177.0000   137.5302     8.9556
 2177.5000   138.2642     8.9581
 2178.0000   138.3637     8.9607
 2178.5000   135.2576     8.9632
 2179.0000   131.8739     8.9657
 2179.5000   128.4842     8.9682
 2180.0000   125.3536     8.9707
 2180.5000   123.3138     8.9732
 2181.0000   123.3072     8.9757
 2181.5000   124.7246     8.9782
 2182.0000   129.4567     8.9807
 2182.5000   134.1005     8.9817
 2183.0000   138.7560     8.9809
 2183.5000   140.8736     8.9801
 2184.0000   140.0458     8.9793
 2184.5000   136.6370     8.9785
 2185.0000   133.3633     8.9777
 2185.5000   133.7116     8.9768
 2186.0000   134.4215     8.9761
 2186.5000   132.0789     8.9752
 2187.0000   129.4260     8.9744
 2187.5000   129.3779     8.9736
 2188.0000   132.5753     8.9728
 2188.5000   136.0734     8.9720
 2189.0000   138.7572     8.9712
 2189.5000   136.8172     8.9704
 2190.0000   134.5687     8.9696
 2190.5000   134.7970     8.9688
 2191.0000   135.8954     8.9680
 2191.5000   136.9414     8.9672
 2192.0000   139.9689     8.9663
 2192.5000   142.9245     8.9655
 2193.0000   144.3301     8.9647
 2193.5000   142.0749     8.9639
 2194.0000   141.9648     8.9631
 2194.5000   141.8179     8.9623
 2195.0000   140.5766     8.9626
 2195.5000   137.4662     8.9632
 2196.0000   136.5278     8.9638
 2196.5000   137.1408     8.9644
