~VERSION INFORMATION
 VERS.                2.0:   CWLS LOG ASCII STANDARD - VERSION 2.0
 WRAP.                 NO:   ONE LINE PER DEPTH STEP
~WELL INFORMATION
#MNEM.UNIT      DATA TYPE    INFORMATION
#----------   ------------   ------------------------------
 STRT.F          520.5000:   START DEPTH
 STOP.F         2062.0000:   STOP DEPTH
 STEP.F            0.5000:   STEP LENGTH
 NULL.          -999.2500:   NO VALUE
 COMP. LAWRENCE-ALLISON &AS:   COMPANY
 WELL.     NPR 3 #18-X-28:   WELL
 FLD .             TEAPOT:   FIELD
 LOC .      S28 T39N R78W:   LOCATION
 CNTY.            NATRONA:   COUNTY
 STAT.            WYOMING:   STATE
 CTRY. UNITED STATES OF AMERICA:   COUNTRY
 SRVC.            Unknown:   SERVICE COMPANY
 DATE.        08-DEC-1987:   LOGDATE
 API .       490251119700:   API NUMBER
~CURVE INFORMATION
#MNEM.UNIT       API CODE    CURVE DESCRIPTION
#----------   ------------   ------------------------------
 DEPT.F                  :   
 ROP .MIN/FT 91 810 01 00:   RAT OF DRILLING PENETRATION
 TGAS.UNITS  91 830 01 00:   TOTAL GAS FROM HOTWIRE
~PARAMETER INFORMATION
#MNEM.UNIT          VALUE    DESCRIPTION
#----------   ------------   ------------------------------
 EKB .F              5090:   KELLING BUSHING
 EGL .F              5080:   GROUND LEVEL
 DATE.            12-8-87:   RUN DATE
 DD  .F              2062:   DEPTH DRILLER
 CS  .IN                7:   CASING SIZE
 CBD .F               513:   CASING BOTTOM DRILLER
 TCS .HRS            1000:   TIME CURCULATED STOPPED
 TLAB.HRS            0432:   TIME LOGGER AT BOTTOM
 ENGI.              TOWER:   RECORDING ENGINEER
 WITN.               HUSK:   WITNESSED BY
 CLNT.            A2DTECH:   CLIENT CODE
 ORIG.           5" PRINT:   ORIGIN OF DATA
 UWI .       490251119700:   UNIQUE WELL ID
 DICO. A2D Technologies, Inc.:   DIGITIZING COMPANY
~OTHER INFORMATION
~A   DEPT      ROP         TGAS 
# ...
 1249.5000     0.3776     0.0004
 1250.0000     0.3779     0.0004
 1250.5000     0.3885     0.0004
 1251.0000     0.3887     0.0004
 1251.5000     0.3993     0.0004
 1252.0000     0.3996     0.0004
 1252.5000     0.4102     0.0004
 1253.0000     0.4209     0.0004
 1253.5000     0.4211     0.0004
 1254.0000     0.4109     0.0004
 1254.5000     0.3595     0.0004
 1255.0000     0.3183     0.0004
 1255.5000     0.2772     0.0004
 1256.0000     0.2671     0.0004
 1256.5000     0.2673     0.0004
 1257.0000     0.2676     0.0004
 1257.5000     0.2679     0.0004
 1258.0000     0.2682     0.0004
 1258.5000     0.2788     0.0004
 1259.0000     0.2790     0.0004
 1259.5000     0.2793     0.0004
 1260.0000     0.2899     0.0004
 1260.5000     0.2901     0.0004
 1261.0000     0.2904     0.0004
 1261.5000     0.2906     0.0004
 1262.0000     0.3013     0.0004
 1262.5000     0.3015     0.0004
 1263.0000     0.3018     0.0004
 1263.5000     0.3020     0.0004
 1264.0000     0.3126     0.0004
 1264.5000     0.3129     0.0004
 1265.0000     0.3131     0.0004
 1265.5000     0.3134     0.0004
 1266.0000     0.3241     0.0004
 1266.5000     0.3243     0.0004
 1267.0000     0.3246     0.0004
 1267.5000     0.3248     0.0004
 1268.0000     0.3354     0.0004
 1268.5000     0.3357     0.0004
 1269.0000     0.3463     0.0004
 1269.5000     0.3569     0.0004
 1270.0000     0.3580     0.0004
 1270.5000     0.3678     0.0004
 1271.0000     0.3681     0.0004
 1271.5000     0.3683     0.0004
 1272.0000     0.3686     0.0004
 1272.5000     0.3688     0.0004
 1273.0000     0.3691     0.0004
 1273.5000     0.3693     0.0004
 1274.0000     0.3696     0.0004
 1274.5000     0.3595     0.0004
 1275.0000     0.3598     0.0004
 1275.5000     0.3496     0.0004
 1276.0000     0.3395     0.0004
 1276.5000     0.3398     0.0004
 1277.0000     0.3401     0.0004
 1277.5000     0.3403     0.0004
 1278.0000     0.3406     0.0004
 1278.5000     0.3408     0.0004
 1279.0000     0.3411     0.0004
 1279.5000     0.3310     0.3829
 1280.0000     0.3106     0.0004
 1280.5000     0.3310     0.4306
 1281.0000     0.3204     0.4409
 1281.5000     0.3098     0.4512
 1282.0000     0.2992     0.4614
 1282.5000     0.2989     0.0506
 1283.0000     0.2987     0.0634
 1283.5000     0.3088     0.0737
 1284.0000     0.3189     0.0840
 1284.5000     0.3392     0.0943
 1285.0000     0.3598     0.1047
 1285.5000     0.3802     0.1151
 1286.0000     0.3903     0.1256
 1286.5000     0.4004     0.0004
 1287.0000     0.4105     0.0004
 1287.5000     0.4102     0.0004
 1288.0000     0.4203     0.0004
 1288.5000     0.4200     0.0004
 1289.0000     0.4198     0.0004
 1289.5000     0.4195     0.0004
 1290.0000     0.4192     0.0004
 1290.5000     0.4190     0.0004
 1291.0000     0.4187     0.0004
 1291.5000     0.4185     0.0004
 1292.0000     0.4182     0.0004
 1292.5000     0.4179     0.0004
 1293.0000     0.4177     0.0004
 1293.5000     0.4071     0.0004
 1294.0000     0.4068     0.0004
 1294.5000     0.4066     0.0004
 1295.0000     0.4063     0.0004
 1295.5000     0.4060     0.0004
 1296.0000     0.4058     0.0004
 1296.5000     0.3951     0.0004
 1297.0000     0.3949     0.0004
 1297.5000     0.3946     0.0004
 1298.0000     0.3944     0.0004
 1298.5000     0.3838     0.0004
 1299.0000     0.3835     0.0004
 1299.5000     0.3833     0.0004
 1300.0000     0.3830     0.0004
 1300.5000     0.3828     0.0004
 1301.0000     0.3825     0.0004
 1301.5000     0.3926     0.0004
 1302.0000     0.3923     0.0004
 1302.5000     0.3817     0.0004
 1303.0000     0.3814     0.0004
 1303.5000     0.3812     0.0004
 1304.0000     0.3809     0.0004
 1304.5000     0.3911     0.0004
 1305.0000     0.3908     0.0004
 1305.5000     0.3905     0.0004
 1306.0000     0.4006     0.0004
 1306.5000     0.4004     0.0004
 1307.0000     0.4001     0.0004
 1307.5000     0.3998     0.0004
 1308.0000     0.3995     0.0004
 1308.5000     0.4096     0.0004
 1309.0000     0.4094     0.0004
 1309.5000     0.4091     0.0004
 1310.0000     0.4089     0.0004
 1310.5000     0.4086     0.0004
 1311.0000     0.4084     0.0004
 1311.5000     0.4081     0.0004
 1312.0000     0.4079     0.0004
 1312.5000     0.4076     0.0004
 1313.0000     0.4073     0.0004
 1313.5000     0.4070     0.0004
 1314.0000     0.4068     0.0004
 1314.5000     0.4170     0.0004
 1315.0000     0.4166     0.0004
 1315.5000     0.3957     0.0004
 1316.0000     0.3540     0.0004
 1316.5000     0.3227     0.0004
 1317.0000     0.3121     0.0004
 1317.5000     0.3015     0.0004
 1318.0000     0.3012     0.0004
 1318.5000     0.3010     0.0004
 1319.0000     0.3007     0.0004
 1319.5000     0.3108     0.0004
 1320.0000     0.3064     0.0004
 1320.5000     0.3102     0.0471
 1321.0000     0.3097     0.5214
 1321.5000     0.3093     0.5670
 1322.0000     0.3089     0.6127
 1322.5000     0.3086     0.6583
 1323.0000     0.3082     0.7040
 1323.5000     0.3078     0.7497
 1324.0000     0.3074     0.7953
 1324.5000     0.3071     0.8424
 1325.0000     0.3170     0.8981
 1325.5000     0.3166     0.5137
 1326.0000     0.3162     0.5708
 1326.5000     0.3158     0.6165
 1327.0000     0.3154     0.2321
 1327.5000     0.3150     0.2892
 1328.0000     0.3147     0.3349
 1328.5000     0.3143     0.3820
 1329.0000     0.3244     0.4376
 1329.5000     0.3342     0.0533
 1330.0000     0.3339     0.1104
 1330.5000     0.3335     0.1560
 1331.0000     0.3330     0.2017
 1331.5000     0.3326     0.2474
 1332.0000     0.3322     0.2930
 1332.5000     0.3319     0.0004
 1333.0000     0.3315     0.0004
 1333.5000     0.3311     0.0228
 1334.0000     0.3307     0.0685
 1334.5000     0.3303     0.1142
 1335.0000     0.3300     0.0004
 1335.5000     0.3296     0.0004
 1336.0000     0.3291     0.0004
 1336.5000     0.3287     0.0004
 1337.0000     0.3284     0.0004
 1337.5000     0.3280     0.0004
 1338.0000     0.3276     0.0004
 1338.5000     0.3272     0.0004
 1339.0000     0.3268     0.0004
 1339.5000     0.3265     0.0004
 1340.0000     0.3364     0.0004
 1340.5000     0.3361     0.0004
 1341.0000     0.3252     0.0004
 1341.5000     0.3042     0.0004
 1342.0000     0.2934     0.0004
 1342.5000     0.2827     0.0004
 1343.0000     0.2616     0.0004
 1343.5000     0.2612     0.0004
 1344.0000     0.2609     0.0004
 1344.5000     0.2605     0.0004
 1345.0000     0.2601     0.0004
 1345.5000     0.2711     0.0004
 1346.0000     0.2800     0.0004
 1346.5000     0.3106     0.0004
 1347.0000     0.3517     0.0004
 1347.5000     0.3927     0.0004
 1348.0000     0.4131     0.0004
 1348.5000     0.4126     0.0004
 1349.0000     0.4122     0.0004
 1349.5000     0.4119     0.0004
 1350.0000     0.4115     0.0004
 1350.5000     0.4111     0.0004
 1351.0000     0.4106     0.0004
 1351.5000     0.4103     0.0004
 1352.0000     0.4099     0.0004
 1352.5000     0.4095     0.0004
 1353.0000     0.4091     0.0004
 1353.5000     0.4087     0.0004
 1354.0000     0.4084     0.0004
 1354.5000     0.4080     0.0004
 1355.0000     0.4076     0.0004
 1355.5000     0.4072     0.0004
 1356.0000     0.4068     0.0004
 1356.5000     0.4064     0.0004
 1357.0000     0.4060     0.0004
 1357.5000     0.4056     0.0004
 1358.0000     0.4052     0.0004
 1358.5000     0.4049     0.0004
 1359.0000     0.4045     0.0004
 1359.5000     0.4041     0.0004
 1360.0000     0.4037     0.0004
 1360.5000     0.4025     0.0419
 1361.0000     0.3936     0.5106
 1361.5000     0.3938     0.5515
 1362.0000     0.3835     0.5923
 1362.5000     0.3733     0.6332
 1363.0000     0.3735     1.0927
 1363.5000     0.3632     1.1336
 1364.0000     0.3634     1.1745
 1364.5000     0.3635     1.2154
 1365.0000     0.3636     1.2562
 1365.5000     0.3638     1.2977
 1366.0000     0.3639     1.3395
 1366.5000     0.3640     0.9603
 1367.0000     0.3641     1.0114
 1367.5000     0.3643     1.0523
 1368.0000     0.3644     0.6745
 1368.5000     0.3749     0.7154
 1369.0000     0.3750     0.3275
 1369.5000     0.3751     0.0004
 1370.0000     0.3753     0.0009
 1370.5000     0.3857     0.0004
