~VERSION INFORMATION
 VERS.                2.0:   CWLS LOG ASCII STANDARD - VERSION 2.0
 WRAP.                 NO:   ONE LINE PER DEPTH STEP
~WELL INFORMATION
#MNEM.UNIT      DATA TYPE    INFORMATION
#----------   ------------   ------------------------------
 STRT.F            0.0000:   START DEPTH
 STOP.F         1110.0000:   STOP DEPTH
 STEP.F            0.5000:   STEP LENGTH
 NULL.          -999.2500:   NO VALUE
 COMP. FENIX & SCISSON INC:   COMPANY
 WELL. NAVAL PETROLEUM RESERVE 3 SX-1 #63-14:   WELL
 FLD .       TEA POT DOME:   FIELD
 LOC .      S14 T38N R78W:   LOCATION
 CNTY.            NATRONA:   COUNTY
 STAT.            WYOMING:   STATE
 CTRY. UNITED STATES OF AMERICA:   COUNTRY
 SRVC.            Unknown:   SERVICE COMPANY
 DATE.        15-APR-1978:   LOGDATE
 API .       490251061500:   API NUMBER
~CURVE INFORMATION
#MNEM.UNIT       API CODE    CURVE DESCRIPTION
#----------   ------------   ------------------------------
 DEPT.F                  :   
 NPHI.DEC    42 890 03 00:   NEUTRON POROSITY SANDSTONE
 GRD .GAPI   45 310 01 00:   GAMMA RAY FROM DENSITY LOG
 CALD.IN     45 280 60 00:   CALIPER FROM DENSITY LOG
 RHOB.G/C3   45 350 01 00:   BULK DENSITY
 DPHI.DEC    45 890 12 00:   DENSITY POROSITY SANDSTONE
 CORR.G/C3   45 356 01 00:   DENSITY CORRECTION
 SPR .MV     05 010 01 00:   SPONTANEOUS POTENTIAL FROM RES.
 SN  .OHMM   05 040 16 00:   SHORT NORMAL 16"
 ILD .OHMM   05 120 46 00:   INDUCTION LOG DEEP
~PARAMETER INFORMATION
#MNEM.UNIT          VALUE    DESCRIPTION
#----------   ------------   ------------------------------
 PD  .                 GL:   PERMANENT DATUM
 EPD .F              5253:   ELEVATION PERMANENT DATUM
 LMF .                 KB:   LOG MEASURED FROM
 DAPD.F                 4:   FEET ABOVE PERMANENT DATUM
 DMF .                 KB:   DRILLING MEASURED FROM
 EKB .F              5257:   KELLING BUSHING
 EGL .F              5253:   GROUND LEVEL
 DATE.          4-15-1978:   RUN DATE
 RUN .                  1:   RUN NUMBER
 DD  .F              1095:   DEPTH DRILLER
 DL  .F              1102:   DEPTH LOGGER
 BLI .F              1100:   BOTTOM LOG INTERVAL
 TLI .F               850:   TOP LOG INTERVAL
 CS  .IN            9.625:   CASING SIZE
 CBD .F                40:   CASING BOTTOM DRILLER
 CBL .F                40:   CASING BOTTOM LOGGER
 BS  .IN            7.875:   BIT SIZE
 BSD .F              1095:   BIT SIZE AT DEPTH
 DFT .                KCL:   DRILLING FLUID TYPE
 DFD .                8.6:   DRILLING FLUID DENSITY
 DFV .                 30:   DRILLING FLUID VISCOSITY
 DFPH.                 10:   DRILLING FLUID PH
 DFL .                  8:   DRILLING FLUID LOSS
 MSS .           FLOWLINE:   MUD SAMPLE SOURCE
 RMS .OHMM            .46:   RESISTIVITY MUD SAMPLE
 MST .F                58:   MUD SAMPLE TEMPERATURE
 RMF .OHMM             .5:   RESISTIVITY MUD FILTRATE SAMPLE
 MFST.F                60:   MUD FILTRATE SAMPLE TEMPERATURE
 RMC .OHMM             .5:   RESISTIVITY MUD CAKE
 MCST.F                60:   MUD CAKE SAMPLE TEMPERATURE
 MFSS.           MEASURED:   MUD FILTRATE SAMPLE SOURCE
 RMB .OHMM            .33:   RESISTIVITY MUD AT BHT
 BHT .F                80:   BOTTOM HOLE TEMPERATURE
 TCS .HRS               6:   TIME CURCULATED STOPPED
 MRT .F                80:   MAXIMUM RECORDED TEMPERATURE
 LUN .               2958:   LOGGING UNIT NUMBER
 LUL .               CASP:   LOGGING UNIT LOCATION
 ENGI.             MILLER:   RECORDING ENGINEER
 WITN.           MCGINLEY:   WITNESSED BY
 CLNT.            A2DTECH:   CLIENT CODE
 ORIG.      2" & 5" PRINT:   ORIGIN OF DATA
 UWI .       490251061500:   UNIQUE WELL ID
 DICO. A2D Technologies, Inc.:   DIGITIZING COMPANY
~OTHER INFORMATION
~A    DEPT    NPHI         GRD      CALD       RHOB       DPHI       CORR        SPR         SN        ILD   
# ...
  438.0000  -999.2500    94.5750     7.9598     2.3925     0.1441     0.0657   -50.7628     2.8565     2.8723
  438.5000  -999.2500    90.9462     7.9911     2.3917     0.1496     0.0658   -50.7485     3.4291     3.2875
  439.0000  -999.2500    88.3363     8.0350     2.4045     0.1456     0.0635   -50.7338     4.1165     3.7626
  439.5000  -999.2500    88.9546     7.9779     2.4213     0.1381     0.0647   -50.7192     4.6403     4.3064
  440.0000  -999.2500    94.7225     7.8448     2.4215     0.1305     0.0758   -50.7046     4.8267     4.6930
  440.5000  -999.2500   100.2860     7.6538     2.4207     0.1260     0.0822   -50.6900     4.8294     4.7053
  441.0000  -999.2500   102.3908     7.5061     2.4200     0.1360     0.0847   -50.6754     4.8499     4.7177
  441.5000  -999.2500    99.8207     7.3594     2.4216     0.1307     0.0846   -50.6607     4.8626     4.7301
  442.0000  -999.2500    97.1457     7.2109     2.4234     0.1264     0.0846   -50.6461     5.0230     4.8488
  442.5000  -999.2500    96.2434     7.1844     2.4219     0.1278     0.0846   -50.6315     5.2135     4.9883
  443.0000  -999.2500    96.2230     7.2179     2.4188     0.1292     0.0846   -50.6169     5.4112     5.1317
  443.5000  -999.2500    96.2828     7.1776     2.4045     0.1345     0.0832   -50.6022     5.6164     5.2793
  444.0000  -999.2500    97.3339     7.1556     2.3905     0.1445     0.0746   -50.5876     5.8295     5.4311
  444.5000  -999.2500    97.8226     7.2074     2.3867     0.1475     0.0657   -50.5730     6.0506     5.5873
  445.0000  -999.2500    97.6198     7.2602     2.3876     0.1479     0.0565   -50.5583     6.1806     5.7416
  445.5000  -999.2500    96.0967     7.3563     2.3917     0.1483     0.0533   -50.5437     6.1597     5.7388
  446.0000  -999.2500    95.5986     7.4206     2.4032     0.1458     0.0544   -50.5291     6.1428     5.7361
  446.5000  -999.2500    94.9517     7.4204     2.4078     0.1410     0.0596   -50.5145     6.1259     5.7335
  447.0000  -999.2500    93.3170     7.4348     2.4079     0.1363     0.0620   -50.4998     6.1091     5.7309
  447.5000  -999.2500    91.9924     7.5165     2.4072     0.1316     0.0639   -50.4852     6.0924     5.7282
  448.0000  -999.2500    92.2125     7.5969     2.4055     0.1360     0.0634   -50.4706     6.0757     5.7256
  448.5000  -999.2500    96.2221     7.6773     2.4038     0.1373     0.0581   -50.4560     6.0590     5.7229
  449.0000  -999.2500    97.4154     7.7575     2.4021     0.1378     0.0513   -50.4413     6.0424     5.7203
  449.5000  -999.2500    99.0111     7.8374     2.4018     0.1374     0.0485   -50.4266     6.0258     5.7176
  450.0000  -999.2500   103.0609     7.8578     2.4056     0.1360     0.0446   -50.4119     6.0093     5.7150
  450.5000  -999.2500   105.6323     7.8155     2.4085     0.1344     0.0364   -50.4037     5.9928     5.7123
  451.0000  -999.2500    97.6312     7.7764     2.4040     0.1363     0.0344   -50.4454     5.9763     5.7097
  451.5000  -999.2500    95.8230     7.7662     2.4025     0.1377     0.0340   -50.4871     5.9599     5.7070
  452.0000  -999.2500    95.2243     7.7648     2.4036     0.1352     0.0338   -50.5287     5.9436     5.7044
  452.5000  -999.2500    92.8915     7.8083     2.4048     0.1348     0.0335   -50.5702     5.9273     5.7018
  453.0000  -999.2500    91.9274     7.8517     2.3957     0.1408     0.0332   -50.6117     5.9110     5.6991
  453.5000  -999.2500   100.3495     7.8951     2.3867     0.1471     0.0330   -50.6532     5.8948     5.6965
  454.0000  -999.2500   104.6334     7.9373     2.3933     0.1495     0.0327   -50.6947     5.8786     5.6938
  454.5000  -999.2500   104.6792     7.9482     2.3997     0.1459     0.0348   -50.7362     5.8625     5.6911
  455.0000  -999.2500   101.7028     7.9578     2.4060     0.1431     0.0407   -50.7777     5.8483     5.6886
  455.5000  -999.2500   104.9523     7.9675     2.4135     0.1405     0.0464   -50.8193     5.8917     5.7170
  456.0000  -999.2500   105.7384     7.9772     2.4261     0.1323     0.0522   -50.8608     5.9390     5.7477
  456.5000  -999.2500   102.2181     7.9872     2.4330     0.1265     0.0580   -50.9023     5.9868     5.7785
  457.0000  -999.2500    96.8486     7.9981     2.4329     0.1235     0.0639   -50.9438     6.0350     5.8095
  457.5000  -999.2500    92.0109     7.9503     2.4325     0.1206     0.0646   -50.9853     6.0835     5.8407
  458.0000  -999.2500    91.9902     7.8950     2.4218     0.1248     0.0634   -51.0268     6.1324     5.8720
  458.5000  -999.2500    96.3011     7.8970     2.4161     0.1316     0.0586   -51.0683     6.1817     5.9035
  459.0000  -999.2500    97.2704     7.9329     2.4163     0.1313     0.0548   -51.1098     6.2315     5.9351
  459.5000  -999.2500    96.7960     7.9551     2.4166     0.1303     0.0580   -51.1513     6.2816     5.9570
  460.0000  -999.2500    92.7318     7.9431     2.4170     0.1303     0.0612   -51.1928     6.2955     5.9028
  460.5000  -999.2500    88.3575     7.9620     2.4111     0.1323     0.0626   -51.2344     6.2955     5.8618
  461.0000  -999.2500    88.4961     8.0052     2.4029     0.1368     0.0625   -51.2759     6.2801     5.8211
  461.5000  -999.2500    88.5484     8.0500     2.3860     0.1444     0.0604   -51.3174     6.1951     5.7806
  462.0000  -999.2500    88.5922     8.0270     2.3814     0.1463     0.0548   -51.3589     6.1113     5.7405
  462.5000  -999.2500    88.6370     7.9664     2.3766     0.1482     0.0573   -51.4004     6.0286     5.7006
  463.0000  -999.2500    88.6254     7.9057     2.3719     0.1500     0.0602   -51.4419     5.9470     5.6610
  463.5000  -999.2500    86.4128     7.8450     2.3577     0.1623     0.0629   -51.4834     5.8665     5.6216
  464.0000  -999.2500    81.1624     7.7847     2.3219     0.1769     0.0600   -51.5249     5.7875     5.5826
  464.5000  -999.2500    77.5192     7.7416     2.2879     0.1948     0.0492   -51.5664     5.7101     5.5438
  465.0000  -999.2500    77.2715     7.7601     2.2392     0.2170     0.0384   -51.6079     5.3709     5.1417
  465.5000  -999.2500    77.7515     7.7786     2.1887     0.2501     0.0284   -51.6495     4.9702     4.6579
  466.0000  -999.2500    83.7017     7.7167     2.1388     0.2709     0.0264   -51.6915     4.5990     4.1006
  466.5000  -999.2500    97.1796     7.7015     2.1182     0.2833     0.0368   -51.7330     4.1089     3.4252
  467.0000  -999.2500   110.8410     7.7489     2.1089     0.2958     0.0500   -51.7698     3.4947     2.8611
  467.5000  -999.2500   118.7898     7.7230     2.1135     0.2994     0.0615   -51.5523     2.9721     2.4245
  468.0000  -999.2500   120.6012     7.6189     2.1472     0.2991     0.0658   -51.0160     2.5265     2.1386
  468.5000  -999.2500   111.0627     7.4666     2.2060     0.2670     0.0705   -50.4838     2.1522     1.9908
  469.0000  -999.2500   102.6067     7.4587     2.2730     0.2152     0.0793   -49.9472     1.9908     1.9545
  469.5000  -999.2500    95.1003     7.4979     2.3453     0.1750     0.0911   -49.1314     2.0655     1.9545
  470.0000  -999.2500    88.3838     7.5650     2.3616     0.1525     0.0934   -47.7561     2.2000     2.0278
  470.5000  -999.2500    81.7194     7.6323     2.3613     0.1567     0.0597   -46.4464     2.3610     2.2514
  471.0000  -999.2500    74.9566     7.6997     2.3608     0.1673     0.0418   -46.4281     2.6604     2.5238
  471.5000  -999.2500    73.1090     7.7686     2.3600     0.1640     0.0410   -46.4655     3.2115     2.8512
  472.0000  -999.2500    72.9281     7.7442     2.3644     0.1577     0.0448   -46.4972     3.8769     3.8143
  472.5000  -999.2500    72.4854     7.7360     2.3690     0.1633     0.0484   -46.5272     4.6826     5.0390
  473.0000  -999.2500    72.0339     7.7764     2.3735     0.1596     0.0467   -46.5572     5.6427     6.1701
  473.5000  -999.2500    71.5733     7.6839     2.3770     0.1540     0.0509   -46.5872     6.3007     6.9538
  474.0000  -999.2500    72.3491     7.5719     2.3768     0.1505     0.0560   -46.6172     6.5371     7.5689
