~VERSION INFORMATION
 VERS.                2.0:   CWLS LOG ASCII STANDARD - VERSION 2.0
 WRAP.                 NO:   ONE LINE PER DEPTH STEP
~WELL INFORMATION
#MNEM.UNIT      DATA TYPE    INFORMATION
#----------   ------------   ------------------------------
 STRT.F            0.0000:   START DEPTH
 STOP.F         3139.0000:   STOP DEPTH
 STEP.F            0.5000:   STEP LENGTH
 NULL.          -999.2500:   NO VALUE
 COMP. BROWN JOHN E&C INC:   COMPANY
 WELL.       TX-10 #63-10:   WELL
 FLD .             TEAPOT:   FIELD
 LOC .      S10 T38N R78W:   LOCATION
 CNTY.            NATRONA:   COUNTY
 STAT.            WYOMING:   STATE
 CTRY. UNITED STATES OF AMERICA:   COUNTRY
 SRVC.       Schlumberger:   SERVICE COMPANY
 DATE.        05-OCT-1982:   LOGDATE
 API .       490251090100:   API NUMBER
~CURVE INFORMATION
#MNEM.UNIT       API CODE    CURVE DESCRIPTION
#----------   ------------   ------------------------------
 DEPT.F                  :   
 DPHI.DEC    45 890 12 00:   DENSITY POROSITY  SANDSTONE
 GRD .GAPI   45 310 01 00:   GAMMA RAY FROM DENSITY LOG
 NPHI.DEC    42 890 03 00:   NEUTRON POROSITY SANDSTONE
 CALD.IN     45 280 60 00:   CALIPER FROM DENSITY LOG
 CORR.G/C3   45 356 01 00:   DENSITY CORRECTION
 RHOB.G/C3   45 350 01 00:   BULK DENSITY
 ILD .OHMM   07 120 46 00:   INDUCTION LOG DEEP
 ILM .OHMM   07 120 44 00:   INDUCTION LOG MEDIUM
 SFLU.OHMM   07 220 01 00:   SPHERICALLY FOCUSED LOG UNAVERAGED RESISTIVITY
 SPR .MV     07 010 01 00:   SPONTANEOUS POTENTIAL
~PARAMETER INFORMATION
#MNEM.UNIT          VALUE    DESCRIPTION
#----------   ------------   ------------------------------
 PD  .                 GL:   PERMANENT DATUM
 EPD .F              5189:   ELEVATION PERMANENT DATUM
 LMF .                 KB:   LOG MEASURED FROM
 DAPD.F                10:   FEET ABOVE PERMANENT DATUM
 DMF .                 KB:   DRILLING MEASURED FROM
 EKB .F              5199:   KELLING BUSHING
 EGL .F              5189:   GROUND LEVEL
 DATE.        05-OCT-1982:   RUN DATE
 RUN .                  1:   RUN NUMBER
 DD  .F              3200:   DEPTH DRILLER
 DL  .F              3142:   DEPTH LOGGER
 BLI .F              3139:   BOTTOM LOG INTERVAL
 TLI .F               484:   TOP LOG INTERVAL
 CS  .IN            9.625:   CASING SIZE
 CBD .F               482:   CASING BOTTOM DRILLER
 CBL .F               484:   CASING BOTTOM LOGGER
 BS  .IN            7.875:   BIT SIZE
 BSD .F              3200:   BIT SIZE AT DEPTH
 DFT .        KCL/POLYMER:   DRILLING FLUID TYPE
 DFD .                8.6:   DRILLING FLUID DENSITY
 DFV .                 38:   DRILLING FLUID VISCOSITY
 DFPH.                8.5:   DRILLING FLUID PH
 DFL .                6.8:   DRILLING FLUID LOSS
 MSS .           MUD TANK:   MUD SAMPLE SOURCE
 RMS .OHMM            .40:   RESISTIVITY MUD SAMPLE
 MST .F                64:   MUD SAMPLE TEMPERATURE
 RMF .OHMM            .34:   RESISTIVITY MUD FILTRATE SAMPLE
 MFST.F                64:   MUD FILTRATE SAMPLE TEMPERATURE
 RMC .OHMM            .36:   RESISTIVITY MUD CAKE
 MCST.F                64:   MUD CAKE SAMPLE TEMPERATURE
 MFSS.               MEAS:   MUD FILTRATE SAMPLE SOURCE
 MCSS.               CALC:   MUD CAKE SAMPLE SOURCE
 RMB .OHMM             .2:   RESISTIVITY MUD AT BHT
 BHT .F               125:   BOTTOM HOLE TEMPERATURE
 TCS .HRS            2300:   TIME CURCULATED STOPPED
 TLAB.HRS            0500:   TIME LOGGER AT BOTTOM
 MRT .F               125:   MAXIMUM RECORDED TEMPERATURE
 LUN .               8043:   LOGGING UNIT NUMBER
 LUL .                GLT:   LOGGING UNIT LOCATION
 ENGI.            NEUFFER:   RECORDING ENGINEER
 WITN.             STRONG:   WITNESSED BY
 CLNT.            A2DTECH:   CLIENT CODE
 ORIG.           5" PRINT:   ORIGIN OF DATA
 UWI .       490251090100:   UNIQUE WELL ID
 DICO. A2D Technologies, Inc.:   DIGITIZING COMPANY
~OTHER INFORMATION
~A    DEPT    DPHI          GRD     NPHI       CALD       CORR       RHOB        ILD        ILM       SFLU        SPR   
# ...
 2043.5000     0.1269    78.2092     0.2908    11.3473     0.0204     2.4384     8.0128     6.5529     8.4405   -80.1649
 2044.0000     0.1219    77.6164     0.2867    11.3468     0.0242     2.4466     7.8439     6.3293     7.9840   -80.1706
 2044.5000     0.1154    77.6130     0.2838    11.3464     0.0310     2.4564     7.5239     6.1133     7.7104   -80.3283
 2045.0000     0.1091    78.2002     0.2817    11.3460     0.0348     2.4713     7.1176     6.0698     7.3942   -80.4873
 2045.5000     0.1029    80.2624     0.2841    11.3455     0.0385     2.4788     7.0189     6.1109     7.3409   -80.4930
 2046.0000     0.0967    85.2744     0.2903    11.3450     0.0399     2.4908     7.4174     6.4564     7.3894   -80.4987
 2046.5000     0.0933    84.9759     0.2950    11.3446     0.0407     2.4975     7.8930     6.7281     7.8069   -80.5046
 2047.0000     0.0900    84.0882     0.2903    11.3442     0.0406     2.5043     7.9468     7.1085     8.7159   -80.5115
 2047.5000     0.0877    82.6105     0.2826    11.3436     0.0436     2.5117     7.8363     7.4077    10.0043   -80.5172
 2048.0000     0.0935    80.5422     0.2820    11.3432     0.0420     2.5110     7.6743     7.5613    10.6427   -80.5229
 2048.5000     0.1027    76.4097     0.2826    11.3580     0.0374     2.4914     7.3610     7.3033    10.7186   -80.5300
 2049.0000     0.1141    71.6871     0.2794    11.3727     0.0305     2.4674     6.5887     6.4482     9.4563   -80.5357
 2049.5000     0.1174    71.7116     0.2699    11.3722     0.0297     2.4636     5.5798     5.6935     7.8444   -80.2375
 2050.0000     0.1127    80.5548     0.2672    11.4174     0.0441     2.4745     4.9943     5.0971     6.5524   -80.0912
 2050.5000     0.1103    84.3598     0.2894    11.4319     0.0980     2.4681     5.0983     4.7761     5.1068   -80.0983
 2051.0000     0.1277    84.0579     0.3177    11.5847     0.0972     2.4365     5.6551     4.9896     4.9615   -80.1755
 2051.5000     0.1471    82.5774     0.3295    11.6431     0.0705     2.4102     5.5767     5.1993     5.3176   -80.2686
 2052.0000     0.1453    83.1618     0.3252    11.4755     0.0332     2.4140     5.4193     5.2706     5.8550   -80.3617
 2052.5000     0.1344    84.9262     0.3043    11.3687     0.0172     2.4327     5.4605     5.2689     6.9080   -80.4413
 2053.0000     0.1226    86.6891     0.3035    11.3530     0.0263     2.4529     5.7308     5.2312     7.5018   -80.2979
 2053.5000     0.1119    86.0936     0.3027    11.3522     0.0460     2.4709     5.9318     5.1936     6.8534   -80.4605
 2054.0000     0.1073    84.0232     0.3018    11.3517     0.0596     2.4825     5.8899     5.1211     6.2187   -80.4690
 2054.5000     0.1126    83.4277     0.3181    11.3511     0.0634     2.4693     5.8892     5.1194     6.0884   -80.4776
 2055.0000     0.1153    85.7806     0.3163    11.3505     0.0580     2.4633     5.9293     5.1181     6.0020   -80.3341
 2055.5000     0.1144    90.7898     0.3136    11.3348     0.0587     2.4678     5.9697     5.1883     5.9987   -80.4968
 2056.0000     0.1129    95.5040     0.3293    11.3340     0.0579     2.4676     6.0941     5.2587     5.9960   -80.5046
 2056.5000     0.1260    96.6785     0.3434    11.3335     0.0517     2.4460     6.2642     5.4046     6.2903   -80.3617
 2057.0000     0.1391    96.6715     0.3473    11.3329     0.0167     2.4227     6.5289     5.6313     6.8302   -80.2184
 2057.5000     0.1435    96.0760     0.3307    11.3020     0.0076     2.4212     6.8518     6.0323     7.4687   -80.0750
 2058.0000     0.1382    94.8905     0.3091    11.3013     0.0090     2.4271     7.2409     6.5281     8.6910   -79.7817
 2058.5000     0.1312    91.6401     0.2956    11.3007     0.0188     2.4376     7.7052     7.0182    10.0510   -79.7903
 2059.0000     0.1232    82.4886     0.2926    11.3001     0.0211     2.4473     8.0308     7.0160     9.8319   -79.8009
 2059.5000     0.1173    75.1084     0.2921    11.2995     0.0210     2.4615     7.9741     6.9180     7.9327   -79.8094
 2060.0000     0.1126    72.7430     0.2977    11.2686     0.0186     2.4728     7.8093     6.7274     7.5547   -79.9699
 2060.5000     0.1097    75.0973     0.3007    11.2679     0.0164     2.4750     7.6478     6.5877     7.4475   -80.1307
 2061.0000     0.1126    81.2851     0.3039    11.2673     0.0125     2.4727     7.5939     6.5407     7.3413   -80.1398
 2061.5000     0.1129    81.8709     0.3036    11.2364     0.0117     2.4719     7.5929     6.6300     7.5436   -80.1496
 2062.0000     0.1102    80.0940     0.3013    11.2206     0.0147     2.4779     7.5919     6.6278     7.8594   -80.1581
 2062.5000     0.1079    75.9587     0.2995    11.2352     0.0196     2.4809     7.5909     6.6724     8.4168   -80.3207
 2063.0000     0.1123    68.8721     0.2965    11.2345     0.0161     2.4673     7.6955     6.7166     9.0774   -80.3293
 2063.5000     0.1197    66.5067     0.2838    11.2339     0.0039     2.4636     7.7481     6.8349     9.2644   -80.3374
 2064.0000     0.1126    66.7961     0.2612    11.2322     0.0114     2.4725     7.9094     6.9010     8.7422   -80.3465
 2064.5000     0.1026    68.8726     0.2573    11.2176     0.0167     2.4883     8.0743     6.9952     8.4016   -80.5090
 2065.0000     0.0984    74.7482     0.2626    11.2169     0.0235     2.5018     8.1857     7.0901     8.5147   -80.3634
 2065.5000     0.0955    78.5775     0.2691    11.2316     0.0295     2.5047     8.2415     7.1869     8.7483   -80.3741
 2066.0000     0.0984    80.0483     0.2762    11.2309     0.0325     2.4822     8.1833     7.2849     9.1135   -80.2327
 2066.5000     0.1064    80.6313     0.2827    11.2455     0.0256     2.4754     8.0139     7.0354     9.3646   -80.2413
 2067.0000     0.1134    80.9194     0.2901    11.2296     0.0263     2.4686     7.7404     6.6950     9.6227   -80.2498
 2067.5000     0.1008    81.7988     0.2992    11.2442     0.0430     2.4791     7.4246     6.2960     9.2256   -80.1038
 2068.0000     0.0943    82.6782     0.2974    11.2740     0.0733     2.5045     7.1672     5.9974     8.2573   -79.8109
 2068.5000     0.0919    83.5692     0.2921    11.2734     0.0885     2.5060     6.7839     5.7525     7.1388   -79.5176
 2069.0000     0.0935    84.7320     0.2942    11.2752     0.0869     2.5030     6.4623     5.4793     6.6134   -79.3721
 2069.5000     0.1037    85.9050     0.2986    11.3026     0.0861     2.4902     6.2417     5.2195     6.1161   -79.0788
 2070.0000     0.1078    88.2593     0.3028    11.3172     0.0898     2.4797     6.0703     5.0760     5.8745   -79.0894
 2070.5000     0.1087    91.2650     0.3075    11.3318     0.1080     2.4759     6.1117     5.1460     5.7513   -79.0973
 2071.0000     0.1173    92.9680     0.3155    11.3159     0.1057     2.4639     6.1961     5.5494     6.2457   -79.1064
 2071.5000     0.1337    92.3711     0.3217    11.3305     0.0653     2.4333     6.2833     5.7432     7.3681   -79.1242
 2072.0000     0.1496    87.0558     0.3157    11.3298     0.0232     2.4060     6.4123     5.5850     7.8916   -79.2776
 2072.5000     0.1422    86.7553     0.3001    11.3292     0.0181     2.4158     6.4115     5.3569     7.4638   -79.4382
 2073.0000     0.1237    90.5831     0.2928    11.3287     0.0211     2.4495     6.3665     5.2818     6.8611   -79.5988
 2073.5000     0.1158    95.2973     0.2984    11.3280     0.0355     2.4660     6.3654     5.2444     6.5843   -79.7613
 2074.0000     0.1122    98.2416     0.3131    11.3274     0.0593     2.4757     6.4535     5.3525     6.4463   -79.7698
 2074.5000     0.1113    97.0327     0.3300    11.3268     0.0665     2.4772     6.5424     5.5387     6.4880   -79.7784
 2075.0000     0.1211    96.1643     0.3247    11.3262     0.0665     2.4651     6.6788     5.7715     6.5746   -79.7890
 2075.5000     0.1284    95.8637     0.3217    11.3408     0.0657     2.4463     6.9128     5.9726     6.9932   -79.6434
 2076.0000     0.1290    93.2033     0.3303    11.3401     0.0649     2.4411     7.1059     6.1427     7.4901   -79.5000
 2076.5000     0.1261    88.3953     0.3415    11.3395     0.0656     2.4485     7.2042     6.5750     8.1340   -79.2067
