~VERSION INFORMATION
 VERS.                2.0:   CWLS LOG ASCII STANDARD - VERSION 2.0
 WRAP.                 NO:   ONE LINE PER DEPTH STEP
~WELL INFORMATION
#MNEM.UNIT      DATA TYPE    INFORMATION
#----------   ------------   ------------------------------
 STRT.F          131.0000:   START DEPTH
 STOP.F         1085.0000:   STOP DEPTH
 STEP.F            0.5000:   STEP LENGTH
 NULL.          -999.2500:   NO VALUE
 COMP. U S NAVY-INTEX OIL:   COMPANY
 WELL.     UPR #3 #66-S-2:   WELL
 FLD .             TEAPOT:   FIELD
 LOC .       S2 T38N R78W:   LOCATION
 CNTY.            NATRONA:   COUNTY
 STAT.            WYOMING:   STATE
 CTRY. UNITED STATES OF AMERICA:   COUNTRY
 SRVC.       Schlumberger:   SERVICE COMPANY
 DATE.        18-JUL-1964:   LOGDATE
 API .       490250641300:   API NUMBER
~CURVE INFORMATION
#MNEM.UNIT       API CODE    CURVE DESCRIPTION
#----------   ------------   ------------------------------
 DEPT.F                  :   
 ASN .OHMM   05 041 16 00:   AMPLIFIED SHORT NORMAL 16"
 CILD.MMHO   05 110 46 00:   CONDUCTIVITY INDUCTION LOG DEEP
 ILD .OHMM   05 120 46 00:   INDUCTION LOG DEEP
 SPR .MV     05 010 01 00:   SPONTANEOUS POTENTIAL FROM RES.
 GR  .GAPI   30 310 01 00:   GAMMA RAY
 CALS.IN     60 280 50 00:   CALIPER FROM SONIC LOG
 DT  .US/F   60 520 33 00:   INTERVAL TRANSIT TIME
~PARAMETER INFORMATION
#MNEM.UNIT          VALUE    DESCRIPTION
#----------   ------------   ------------------------------
 PD  .                 GL:   PERMANENT DATUM
 EPD .F              5204:   ELEVATION PERMANENT DATUM
 LMF .                 KB:   LOG MEASURED FROM
 DAPD.F                 5:   FEET ABOVE PERMANENT DATUM
 DMF .                 KB:   DRILLING MEASURED FROM
 EKB .F              5209:   KELLING BUSHING
 EGL .F              5204:   GROUND LEVEL
 DATE.          7-18-1964:   RUN DATE
 RUN .                  1:   RUN NUMBER
 DD  .F              1085:   DEPTH DRILLER
 DL  .F              1086:   DEPTH LOGGER
 BLI .F              1085:   BOTTOM LOG INTERVAL
 TLI .F               131:   TOP LOG INTERVAL
 CS  .IN            8.625:   CASING SIZE
 CBD .F                10:   CASING BOTTOM DRILLER
 BS  .IN             6.75:   BIT SIZE
 BSD .F              5204:   BIT SIZE AT DEPTH
 DFT .                GEL:   DRILLING FLUID TYPE
 DFD .                9.5:   DRILLING FLUID DENSITY
 DFV .                 47:   DRILLING FLUID VISCOSITY
 DFL .                 10:   DRILLING FLUID LOSS
 MSS .           FLOWLINE:   MUD SAMPLE SOURCE
 RMS .OHMM           2.58:   RESISTIVITY MUD SAMPLE
 MST .F                93:   MUD SAMPLE TEMPERATURE
 RMF .OHMM           2.27:   RESISTIVITY MUD FILTRATE SAMPLE
 MFST.F                93:   MUD FILTRATE SAMPLE TEMPERATURE
 MFSS.                 FP:   MUD FILTRATE SAMPLE SOURCE
 TCS .HRS             1.5:   TIME CURCULATED STOPPED
 LUN .               3527:   LOGGING UNIT NUMBER
 LUL .              CSPR.:   LOGGING UNIT LOCATION
 ENGI.            WINKLER:   RECORDING ENGINEER
 WITN.          JORGENSEN:   WITNESSED BY
 CLNT.            A2DTECH:   CLIENT CODE
 ORIG.    1" , 2.5" PRINT:   ORIGIN OF DATA
 UWI .       490250641300:   UNIQUE WELL ID
 DICO. A2D Technologies, Inc.:   DIGITIZING COMPANY
~OTHER INFORMATION
~A   DEPT      ASN       CILD        ILD        SPR         GR       CALS         DT   
# ...
  722.5000     8.5067   135.1492     7.8720   -32.6709    84.9415     6.4349    99.4650
  723.0000     8.5370   135.1343     8.0238   -31.7766    84.8019     6.4975    99.0829
  723.5000     8.7527   133.6269     8.1756   -31.4775    83.1471     6.6360    99.0017
  724.0000     8.7972   133.6119     8.1786   -32.0713    84.5226     6.7138    99.1478
  724.5000     8.6866   133.5970     8.2344   -32.6651    87.5648     6.7308    99.4413
  725.0000     8.6870   133.5821     8.3333   -32.9613    89.5435     6.7022    99.8869
  725.5000     8.6874   135.0625     8.3363   -32.6622    81.9826     6.6280   100.1819
  726.0000     8.6582   134.8664     8.3393   -32.0655    80.1763     6.5842   100.4770
  726.5000     8.5696   134.2388     8.1935   -32.0640    81.4003     6.5860   100.7000
  727.0000     8.5107   135.7015     8.1969   -32.1339    82.7759     6.6044   100.9250
  727.5000     8.3924   137.1642     8.0510   -32.7455    82.1768     6.6375   101.2252
  728.0000     8.3300   138.6224     7.9051   -32.5476    82.3778     6.6830   101.5053
  728.5000     8.2692   140.0860     7.9080   -32.0580    82.8121     6.7000   101.6499
  729.0000     8.2085   140.0570     7.9108   -32.4970    82.3719     6.6862   101.7944
  729.5000     8.1387   143.0131     7.7649   -32.8110    82.0778     6.6124   102.0143
  730.0000     8.0574   144.4767     7.7679   -33.2440    84.8200     6.5534   102.3093
  730.5000     7.9966   145.9403     7.6219   -33.2423    82.7107     6.4944   102.6796
  731.0000     7.9359   148.8963     7.6250   -33.2409    83.3286     6.4502   103.1252
  731.5000     7.8455   150.5275     7.4789   -32.9418    85.1587     6.3916   103.4955
  732.0000     7.7437   152.0795     7.3329   -32.9404    88.9585     6.3626   103.8658
  732.5000     7.6848   154.7795     7.3363   -33.2365    89.8765     6.3344   104.3113
  733.0000     7.5665   154.7463     7.2793   -33.2351    89.1338     6.3210   104.7569
  733.5000     7.5373   154.7164     7.1935   -33.2277    88.6909     6.3228   104.5969
  734.0000     7.5335   154.6866     7.1964   -32.9345    88.8546     6.3094   103.8279
  734.5000     7.5975   153.9502     7.2000   -32.6354    90.2485     6.2960   103.1220
  735.0000     7.7463   152.3383     7.2029   -32.6339    90.6970     6.2826   102.3992
  735.5000     7.8978   151.6060     7.3546   -32.2574    88.5902     6.2997   101.7913
  736.0000     7.9909   150.0845     7.3575   -32.0357    82.8446     6.3779   101.1834
  736.5000     8.0494   148.5630     7.5092   -32.0342    81.1868     6.4860   101.4032
  737.0000     8.0813   145.5490     7.6609   -32.0327    81.0472     6.5330   101.9240
  737.5000     8.1046   144.0274     7.6638   -32.1801    79.8500     6.4440   101.6924
  738.0000     8.1452   142.5059     7.8155   -32.3274    75.0134     6.5218   101.1598
  738.5000     8.2068   140.9844     7.9673   -32.0280    78.9647     6.6756   100.7024
  739.0000     8.2684   139.4627     7.9702   -32.0266    82.0069     6.8142   100.3202
  739.5000     8.3438   137.9403     7.9732   -32.0251    84.4430     6.8307    99.9381
  740.0000     8.4036   136.4179     7.9762   -32.0237    81.2731     6.6354    99.4055
  740.5000     8.4634   136.3880     7.9792   -32.0222    78.1032     6.6372    98.5714
  741.0000     8.4639   136.3582     7.9821   -32.0208    74.6303     6.6542    97.9474
  741.5000     8.4643   136.3284     7.9851   -32.0193    76.4999     6.5344    97.1194
  742.0000     8.4350   136.2985     7.9881   -32.0298    78.1394     6.3690    97.5745
  742.5000     8.4058   137.7612     7.9911   -32.6117    76.9417     6.4324    98.3210
  743.0000     8.3766   137.7313     7.9946   -32.2649    77.2566     6.5754    98.7665
  743.5000     8.3464   139.1940     7.9975   -32.0134    76.3594     6.6990    99.2121
  744.0000     8.2857   139.1586     8.0003   -32.0952    76.2168     6.8174    99.6576
  744.5000     8.2295   142.1147     8.0032   -32.6059    70.3226     6.7584   100.1032
  745.0000     8.2300   142.0857     8.0061   -32.7232    68.2133     6.6685   100.4735
  745.5000     8.2304   143.5493     8.0090   -32.9003    70.4979     6.7772   100.8438
  746.0000     8.2605   143.5203     8.0119   -32.7440    76.1159     6.6878   101.2141
  746.5000     8.2491   143.4913     8.0149   -32.4271    73.5520     6.5680   101.5844
  747.0000     8.2180   141.9698     7.8689   -32.3003    72.6549     6.5389   101.9547
  747.5000     8.2181   140.4478     7.8720   -32.5967    70.8486     6.5412   102.3250
  748.0000     8.3148   138.9254     7.8750   -32.8929    66.4666     6.5734   102.7745
  748.5000     8.4946   137.1741     7.8780   -32.5936    67.1020     6.5904   102.8399
  749.0000     8.6107   135.2433     7.8810   -31.9969    67.3994     6.5940   101.7038
  749.5000     8.6805   132.4577     8.0327   -31.9955    62.5658     6.5939   100.7950
  750.0000     8.8032   129.8507     8.1101   -32.2917    52.8808     6.5805   100.1871
  750.5000     8.9258   129.2339     8.2527   -32.5878    51.9836     6.5824    99.9570
  751.0000     9.1343   126.1293     8.3398   -32.6220    51.5409     6.5233   100.0236
  751.5000     9.3641   124.5174     8.4915   -33.1802    51.1031     6.4337    99.7887
  752.0000     9.5478   122.9053     8.9408   -33.2500    47.0256     6.2682    99.7061
  752.5000     9.7360   120.7410     9.2413   -33.7725    41.7360     5.9963    99.4731
  753.0000     9.8850   117.7269     9.6907   -34.0687    40.2342     5.6484    99.0895
  753.5000     9.7074   114.7128    10.1400   -34.0670    40.0928     5.5279    98.6150
  754.0000     9.8742   110.2063    10.4405   -33.4821    42.9883     5.4996    97.7939
  754.5000    10.2062   105.6997    10.7574   -32.8497    52.0926     5.5017    96.5074
  755.0000    10.6340   102.6856    11.2078   -32.5741    53.0152     5.6097    95.2962
  755.5000    11.1312    99.6715    11.6664   -33.4655    52.8470     5.8393    93.2573
  756.0000    11.5422    96.4976    11.9762   -34.3569    49.0626     6.0841    92.8003
  756.5000    11.7881    93.4729    12.2411   -34.9509    53.2103     6.3289    93.0187
  757.0000    11.8688    90.6269    12.2440   -34.6517    56.5570     6.3609    92.4828
  757.5000    11.7127    90.5970    12.0350   -34.3526    62.3280     6.2106    91.1211
  758.0000    11.5565    92.4977    11.8075   -34.0535    63.0956     5.8778    93.3378
  758.5000    11.3454    94.0499    11.5762   -34.0521    59.0215     5.9119    95.0944
  759.0000    11.0493    97.0946    11.3631   -34.0506    58.2773     6.1284    94.3328
  759.5000    10.9016    99.4328    11.0689   -34.0491    59.0483     6.2783    93.7235
  760.0000    10.7537   100.1990    11.0718   -33.9881    60.4254     6.3255    93.5657
  760.5000    10.4576   102.3523    10.9256   -33.7485    61.3479     6.4639    93.4079
  761.0000    10.3098   102.3233    10.7798   -33.7470    60.7552     6.5567    93.1749
  761.5000    10.1620   103.7869    10.4852   -33.7455    59.2535     6.5888    92.5656
  762.0000     9.8659   105.2505    10.4881   -33.7440    60.1760     6.5904    93.6117
  762.5000     9.8541   106.7140    10.3422   -33.7426    62.4621     6.5920    94.5134
  763.0000     9.7187   108.1791    10.1963   -33.7411    63.2333     6.5936    94.9496
  763.5000     9.7193   109.6418    10.1994   -33.4417    64.9436     6.6105    95.1699
  764.0000     9.5714   111.1047    10.2024   -33.1426    63.5663     6.6446    95.2378
  764.5000     9.7205   111.0746    10.0561   -32.8436    61.0040     6.7509    95.1534
  765.0000     9.8694   109.5522    10.0595   -32.2469    59.5022     6.7222    94.9956
  765.5000    10.0812   108.0299    10.1238   -31.9478    60.2732     6.6630    94.6873
  766.0000    10.3098   106.1294    10.2143   -32.2440    62.4078     6.6186    94.1532
  766.5000    10.6239   104.5175    10.2173   -32.2425    63.4819     6.6359    93.3182
  767.0000    11.0589   101.9701    10.3696   -31.9316    65.7680     6.6527    92.6225
  767.5000    10.9111   101.9403    10.5213   -31.3467    64.8723     6.6239    90.0662
