~VERSION INFORMATION
 VERS.                2.0:   CWLS LOG ASCII STANDARD - VERSION 2.0
 WRAP.                 NO:   ONE LINE PER DEPTH STEP
~WELL INFORMATION
#MNEM.UNIT      DATA TYPE    INFORMATION
#----------   ------------   ------------------------------
 STRT.F           11.0000:   START DEPTH
 STOP.F          807.0000:   STOP DEPTH
 STEP.F            0.5000:   STEP LENGTH
 NULL.          -999.2500:   NO VALUE
 COMP. BROWN JOHN E&C INC:   COMPANY
 WELL. NPR 3 SHX-34 #77-1-34:   WELL
 FLD .             TEAPOT:   FIELD
 LOC .      S34 T39N R79W:   LOCATION
 CNTY.            NATRONA:   COUNTY
 STAT.            WYOMING:   STATE
 CTRY. UNITED STATES OF AMERICA:   COUNTRY
 SRVC.     Atlas Wireline:   SERVICE COMPANY
 DATE.        07-DEC-1991:   LOGDATE
 API .       490252248000:   API NUMBER
~CURVE INFORMATION
#MNEM.UNIT       API CODE    CURVE DESCRIPTION
#----------   ------------   ------------------------------
 DEPT.F                  :   
 CALD.IN     45 280 60 00:   CALIPER FROM DENSITY LOG
 CORR.G/C3   45 356 01 00:   DENSITY CORRECTION
 DEN .G/C3   45 350 01 00:   COMPENSATED BULK DENSTIY
 GRD .GAPI   45 310 01 00:   GAMMA RAY FROM DENSITY LOG
 PORD.DEC    45 890 12 00:   POROSITY DENSITY SANDSTONE
 GRR .GAPI   07 310 01 00:   GAMMA RAY FROM RESISTIVITY
 RILD.OHMM   07 120 46 00:   RESISTIVITY INDUCTION LOG DEEP
 RILM.OHMM   07 120 44 00:   RESITIVITY INDUCTION LOG MEDIUM
~PARAMETER INFORMATION
#MNEM.UNIT          VALUE    DESCRIPTION
#----------   ------------   ------------------------------
 PD  .                 GL:   PERMANENT DATUM
 EPD .F              5098:   ELEVATION PERMANENT DATUM
 LMF .                 KB:   LOG MEASURED FROM
 DAPD.F                10:   FEET ABOVE PERMANENT DATUM
 DMF .                 KB:   DRILLING MEASURED FROM
 EKB .F              5108:   KELLING BUSHING
 EDF .F              5107:   DRILLING FLOOR
 EGL .F              5098:   GROUND LEVEL
 DATE.        07-DEC-1991:   RUN DATE
 RUN .                  1:   RUN NUMBER
 DD  .F               810:   DEPTH DRILLER
 DL  .F               810:   DEPTH LOGGER
 BLI .F               808:   BOTTOM LOG INTERVAL
 CS  .IN            9.625:   CASING SIZE
 CBD .F                85:   CASING BOTTOM DRILLER
 CBL .F                97:   CASING BOTTOM LOGGER
 BS  .IN             8.75:   BIT SIZE
 BSD .F               810:   BIT SIZE AT DEPTH
 DFT .                AIR:   DRILLING FLUID TYPE
 BHT .F                90:   BOTTOM HOLE TEMPERATURE
 MRT .F                90:   MAXIMUM RECORDED TEMPERATURE
 LUN .            HL 6274:   LOGGING UNIT NUMBER
 LUL .             CASPER:   LOGGING UNIT LOCATION
 ENGI.       P. RASMUSSEN:   RECORDING ENGINEER
 WITN.        GARY STRONG:   WITNESSED BY
 CLNT.            A2DTECH:   CLIENT CODE
 ORIG.           5" PRINT:   ORIGIN OF DATA
 UWI .       490252248000:   UNIQUE WELL ID
 DICO. A2D Technologies, Inc.:   DIGITIZING COMPANY
~OTHER INFORMATION
~A   DEPT     CALD       CORR        DEN        GRD       PORD         GRR      RILD       RILM   
# ...
  416.0000     9.2192     0.0065     2.4294   141.3974     0.1287   116.2273     7.8747     8.0285
  416.5000     9.2185     0.0079     2.4324   143.7460     0.1305   121.0234     7.8747     8.0285
  417.0000     9.2029     0.0075     2.4256   141.6325     0.1347   126.4202     7.8747     8.0285
  417.5000     9.1874     0.0063     2.4192   140.1196     0.1395   123.9940     7.9842     8.0285
  418.0000     9.1704     0.0033     2.4141   139.4875     0.1408   120.3004     8.0395     8.0842
  418.5000     9.1561     0.0002     2.4133   138.8929     0.1408   118.2838     8.0952     8.1403
  419.0000     9.1556     0.0002     2.4148   138.8816     0.1396   119.7766     8.2646     8.3109
  419.5000     9.1550     0.0001     2.4178   138.6899     0.1384   121.5719     8.3795     8.4851
  420.0000     9.1544     0.0031     2.4208   137.6786     0.1366   119.7592     8.4999     8.6033
  420.5000     9.1689     0.0045     2.4223   137.1670     0.1354   113.7445     8.6738     8.7836
  421.0000     9.1833     0.0060     2.4253   138.9605     0.1336   111.3213     8.7944     8.9677
  421.5000     9.1711     0.0060     2.4282   143.2683     0.1324   109.7738     9.0407     9.0926
  422.0000     9.1603     0.0059     2.4297   144.0489     0.1318   107.7102     9.2299     9.3485
  422.5000     9.1514     0.0059     2.4267   141.3358     0.1336   105.8997     9.4884     9.6097
  423.0000     9.1508     0.0028     2.4222   140.7107     0.1354   107.0922     9.7541     9.8792
  423.5000     9.1653    -0.0002     2.4199   140.4161     0.1378   111.8883     9.8264    10.0168
  424.0000     9.1797    -0.0003     2.4191   139.8072     0.1390   114.5823    10.0272    10.2268
  424.5000     9.1790     0.0027     2.4191   136.7797     0.1390   114.8739    10.2371    10.4411
  425.0000     9.1934     0.0071     2.4191   131.0797     0.1372   111.7117    10.3794    10.4411
  425.5000     9.1928     0.0116     2.4229   127.4677     0.1327   107.6471    10.5966    10.5865
  426.0000     9.1922     0.0131     2.4281   129.2612     0.1312   105.2360    10.8184    10.6681
  426.5000     9.1915     0.0130     2.4311   132.2538     0.1318   104.0283    11.0448    10.8834
  427.0000     9.2061     0.0115     2.4266   132.2454     0.1336   105.8193    11.2817    11.0350
  427.5000     9.2054     0.0114     2.4251   130.4353     0.1330   103.4081    11.5120    11.3445
  428.0000     9.2047     0.0099     2.4311   128.0225     0.1312   103.3995    11.5917    11.5822
  428.5000     9.2041     0.0083     2.4333   126.2123     0.1309   104.5920    11.5917    11.6626
  429.0000     9.2036     0.0053     2.4310   125.3031     0.1318   103.3799    11.5120    11.6626
  429.5000     9.2030     0.0052     2.4265   124.3918     0.1340   101.5694    11.4328    11.6626
  430.0000     9.2023     0.0022     2.4195   125.5846     0.1362   100.3595    11.2760    11.6626
  430.5000     9.2018     0.0006     2.4122   127.9787     0.1397   101.8523    11.1213    11.5822
  431.0000     9.2012    -0.0009     2.4091   130.9712     0.1433   103.0448    10.9688    11.5822
  431.5000     9.2005    -0.0010     2.4115   132.1662     0.1436   103.9370    10.8184    11.5024
  432.0000     9.1850     0.0020     2.4174   132.1558     0.1409   104.5289    10.6700    11.4232
  432.5000     9.1694     0.0050     2.4159   131.5465     0.1415   104.5180    10.5966    11.3445
  433.0000     9.1687     0.0109     2.4113   130.9358     0.1428   103.6084    10.5237    11.1871
  433.5000     9.1682     0.0109     2.4068   130.9274     0.1452   102.0982    10.3794    10.8834
  434.0000     9.1676     0.0108     2.4068   130.9189     0.1458   104.1916    10.3080    10.6600
  434.5000     9.1669     0.0078     2.4098   128.5063     0.1446   105.3841    10.2371    10.4411
  435.0000     9.1663     0.0047     2.4128   127.8973     0.1422   105.6757    10.2371    10.2977
  435.5000     9.1809     0.0032     2.4158   130.6076     0.1410    97.5568    10.2371    10.2977
  436.0000     9.1952     0.0016     2.4173   131.4843     0.1398    97.2499    10.3794    10.2977
  436.5000     9.1945     0.0031     2.4158   127.8702     0.1401    98.4403    10.6700    10.4411
  437.0000     9.1940     0.0046     2.4157   123.0449     0.1392    98.7341    10.9688    10.5949
  437.5000     9.1934     0.0075     2.4172   120.0437     0.1365    94.5190    11.2049    10.8834
  438.0000     9.1928     0.0135     2.4338   120.0353     0.1302    92.4082    11.2760    11.2663
  438.5000     9.1922     0.0165     2.4420   120.0270     0.1271    94.2122    11.2760    11.4232
  439.0000     9.1916     0.0134     2.4488   122.7192     0.1241    94.7932    10.9688    11.3445
  439.5000     9.1909     0.0103     2.4372   126.9151     0.1235    96.5841    10.6700    11.1887
  440.0000     9.1903     0.0088     2.4179   129.0090     0.1281   100.1790    10.3794    10.9589
  440.5000     9.1898     0.0103     2.4028   127.1966     0.1477   102.8730    10.2371    10.6549
  441.0000     9.1891     0.0102     2.3975   126.5877     0.1507   104.6661     9.9582    10.2977
  441.5000     9.1885     0.0087     2.3968   127.1800     0.1513   103.1559     9.8216    10.0168
  442.0000     9.1880     0.0041     2.4005   127.7722     0.1507   101.3333     9.6203     9.7436
  442.5000     9.1874     0.0025     2.4058   128.3624     0.1486   101.3367     9.4884     9.4778
  443.0000     9.1717     0.0040     2.4110   128.3540     0.1453   101.0256     9.3583     9.3476
  443.5000     9.1712     0.0100     2.4140   129.5448     0.1435   100.1160     9.2939     9.2832
  444.0000     9.1706     0.0160     2.4125   130.4374     0.1432    96.2034     9.2299     9.2192
  444.5000     9.1549     0.0159     2.4057   131.3320     0.1453    93.4920     9.2299     9.2088
  445.0000     9.1544     0.0114     2.4020   132.2225     0.1477    95.2851     9.1664     9.0926
  445.5000     9.1538     0.0068     2.4019   131.3112     0.1489    97.4044     9.1664     9.0926
  446.0000     9.1531     0.0037     2.4034   128.2998     0.1492    98.2707     9.0407     9.1557
  446.5000     9.1526     0.0022     2.4019   125.8609     0.1489    97.3611     9.0407     9.0926
  447.0000     9.1520     0.0022     2.3996   124.3772     0.1492    98.8517     9.0407     9.0299
  447.5000     9.1514     0.0021     2.3974   122.8673     0.1502   100.6448     9.0407     8.9888
  448.0000     9.1507     0.0006     2.3966   117.4213     0.1523   100.6361     9.0407     8.9677
  448.5000     9.1502     0.0005     2.3958   116.8425     0.1526    98.8256     9.0407     8.9677
  449.0000     9.1496     0.0005     2.3973   117.4348     0.1520    98.5166     9.0407     8.9677
  449.5000     9.1489     0.0034     2.4018   118.9319     0.1487   103.9111     9.0407     8.9677
  450.0000     9.1484     0.0079     2.4063   119.8205     0.1445   104.8055     9.1244     8.9677
  450.5000     9.1478     0.0124     2.4153   119.8101     0.1387    99.0890     9.1664     9.0299
  451.0000     9.1471     0.0168     2.4319   119.5014     0.1327    96.0772     9.1664     9.0299
  451.5000     9.1466     0.0108     2.4409   119.1907     0.1282    95.1677     9.1726     9.0299
  452.0000     9.1460     0.0032     2.4454   120.3836     0.1285    93.6575     9.2299     9.0926
  452.5000     9.1453    -0.0029     2.4228   121.5764     0.1388    93.9941     9.2299     9.0926
  453.0000     9.1448    -0.0014     2.4122   121.5660     0.1418    97.5418     9.2299     9.0926
  453.5000     9.1442     0.0001     2.4137   119.7559     0.1412    99.6352     9.1664     9.0926
  454.0000     9.1436     0.0002     2.4152   117.9457     0.1433   100.8277     9.0407     9.0299
  454.5000     9.1429     0.0030     2.4092   120.3377     0.1466   101.7199     8.9167     8.8445
  455.0000     9.1424     0.0060     2.4047   125.1342     0.1484   101.1106     8.6620     8.6013
  455.5000     9.1418     0.0074     2.4001   129.3300     0.1494    99.6004     8.2077     8.3490
  456.0000     9.1563     0.0058     2.3994   128.7190     0.1497    98.6908     7.8747     8.0842
