~VERSION INFORMATION
 VERS.                2.0:   CWLS LOG ASCII STANDARD - VERSION 2.0
 WRAP.                 NO:   ONE LINE PER DEPTH STEP
~WELL INFORMATION
#MNEM.UNIT      DATA TYPE    INFORMATION
#----------   ------------   ------------------------------
 STRT.F           15.0000:   START DEPTH
 STOP.F          692.0000:   STOP DEPTH
 STEP.F            0.5000:   STEP LENGTH
 NULL.          -999.2500:   NO VALUE
 COMP.    FENIX & SCISSON:   COMPANY
 WELL. S 15 NPR #3 #73-15:   WELL
 FLD .             TEAPOT:   FIELD
 LOC .      S15 T38N R78W:   LOCATION
 CNTY.            NATRONA:   COUNTY
 STAT.            WYOMING:   STATE
 CTRY. UNITED STATES OF AMERICA:   COUNTRY
 SRVC.              Welex:   SERVICE COMPANY
 DATE.        23-FEB-1977:   LOGDATE
 API .       490251057900:   API NUMBER
~CURVE INFORMATION
#MNEM.UNIT       API CODE    CURVE DESCRIPTION
#----------   ------------   ------------------------------
 DEPT.F                  :   
 SPR .MV     07 010 01 00:   SPONTANEOUS POTENTIAL
 SGRD.OHMM   07 220 05 00:   SHALLOW GUARD RESISTIVITY
 ILD .OHMM   07 120 46 00:   INDUCTION LOG DEEP
 ILM .OHMM   07 120 44 00:   INDUCTION LOG MEDIUM
 CALD.IN     45 280 60 00:   CALIPER
 GRD .GAPI   45 310 01 00:   GAMMA RAY FROM DENSITY LOG
 CORR.G/C3   45 356 01 00:   DENSITY CORRECTION
 DPHI.DEC    45 890 10 00:   DENSITY POROSITY SANDSTONE
 RHOB.G/C3   45 350 01 00:   BULK DENSITY
~PARAMETER INFORMATION
#MNEM.UNIT          VALUE    DESCRIPTION
#----------   ------------   ------------------------------
 PD  .                 GL:   PERMANENT DATUM
 EPD .F              5251:   ELEVATION PERMANENT DATUM
 LMF .                 GL:   LOG MEASURED FROM
 DMF .                 GL:   DRILLING MEASURED FROM
 EGL .F              5251:   GROUND LEVEL
 DATE.            2-23-77:   RUN DATE
 RUN .                  1:   RUN NUMBER
 DD  .F               686:   DEPTH DRILLER
 DL  .F               695:   DEPTH LOGGER
 BLI .F               693:   BOTTOM LOG INTERVAL
 TLI .F                42:   TOP LOG INTERVAL
 CS  .IN            8.625:   CASING SIZE
 CBD .F                42:   CASING BOTTOM DRILLER
 CBL .F                42:   CASING BOTTOM LOGGER
 BS  .IN            7.875:   BIT SIZE
 BSD .F               686:   BIT SIZE AT DEPTH
 DFT .           CHEM GEL:   DRILLING FLUID TYPE
 DFD .                8.8:   DRILLING FLUID DENSITY
 DFV .                 33:   DRILLING FLUID VISCOSITY
 DFPH.                  7:   DRILLING FLUID PH
 DFL .               11.2:   DRILLING FLUID LOSS
 MSS .          FLOW LINE:   MUD SAMPLE SOURCE
 RMS .OHMM            .32:   RESISTIVITY MUD SAMPLE
 MST .F                68:   MUD SAMPLE TEMPERATURE
 RMF .OHMM            .28:   RESISTIVITY MUD FILTRATE SAMPLE
 MFST.F                68:   MUD FILTRATE SAMPLE TEMPERATURE
 RMC .OHMM            .61:   RESISTIVITY MUD CAKE
 MCST.F                68:   MUD CAKE SAMPLE TEMPERATURE
 MFSS.           MEASURED:   MUD FILTRATE SAMPLE SOURCE
 MCSS.           MEASURED:   MUD CAKE SAMPLE SOURCE
 RMB .OHMM           .410:   RESISTIVITY MUD AT BHT
 BHT .F                53:   BOTTOM HOLE TEMPERATURE
 TCS .HRS               2:   TIME CURCULATED STOPPED
 MRT .F                53:   MAXIMUM RECORDED TEMPERATURE
 LUN .               8611:   LOGGING UNIT NUMBER
 LUL .           GILLETTE:   LOGGING UNIT LOCATION
 ENGI.            C. DOAK:   RECORDING ENGINEER
 WITN.         STUEBINGER:   WITNESSED BY
 CLNT.            A2DTECH:   CLIENT CODE
 ORIG. 1", 2.5", 5" PRINT:   ORIGIN OF DATA
 UWI .       490251057900:   UNIQUE WELL ID
 DICO. A2D Technologies, Inc.:   DIGITIZING COMPANY
~OTHER INFORMATION
~A   DEPT      SPR       SGRD        ILD        ILM       CALD         GRD      CORR       DPHI       RHOB   
# ...
  307.0000   -48.6356    14.3309     9.5915    12.3519     8.2908   118.4957     0.0869     0.0747     2.5244
  307.5000   -48.7312    14.5793     9.6927    12.4494     8.2908   116.9737     0.0885     0.0703     2.5296
  308.0000   -48.8264    14.8351     9.7950    12.5475     8.2907   119.5243     0.0885     0.0684     2.5320
  308.5000   -48.9222    14.7477     9.8984    12.6464     8.2934   118.0484     0.0884     0.0688     2.5282
  309.0000   -49.0173    14.5745    10.0029    12.7461     8.3052   114.5025     0.0884     0.0674     2.5322
  309.5000   -49.1120    14.4020    10.1026    12.8424     8.3168   117.9549     0.0843     0.0655     2.5352
  310.0000   -49.2093    14.2316    10.0491    12.7785     8.3289   121.4956     0.0785     0.0642     2.5363
  310.5000   -49.3016    14.0630     9.9675    12.7183     8.3407   123.4165     0.0728     0.0797     2.5193
  311.0000   -49.3975    13.8324     9.8865    12.6583     8.3524   120.7171     0.0686     0.0905     2.5042
  311.5000   -49.4205    13.9976     9.8061    12.6075     8.3653   120.3663     0.0686     0.0905     2.4945
  312.0000   -49.4587    14.3326     9.7263    12.4799     8.3679   121.2346     0.0695     0.0881     2.5010
  312.5000   -49.4906    14.6089     9.6472    12.3698     8.3598   122.4988     0.0729     0.0879     2.5011
  313.0000   -49.5246    14.1354     9.5688    12.2606     8.3527   123.6804     0.0762     0.0889     2.5000
  313.5000   -49.5588    13.5629     9.4912    12.1530     8.3456   124.8529     0.0796     0.0878     2.5010
  314.0000   -49.5922    13.0136     9.4142    12.0461     8.3382   123.2745     0.0831     0.0865     2.5035
  314.5000   -49.6260    12.8424     9.3378    11.9293     8.3311   121.5841     0.0845     0.0853     2.5057
  315.0000   -49.6598    12.8424     9.2620    11.8787     8.3239   121.6729     0.0824     0.0841     2.5078
  315.5000   -49.6936    13.0244     9.2121    11.8225     8.3165   123.0740     0.0809     0.0829     2.5079
  316.0000   -49.7272    13.1896     9.1591    11.7665     8.3095   120.9971     0.0791     0.0817     2.5080
  316.5000   -49.7614    13.3568     9.1034    11.7108     8.3023   120.7140     0.0774     0.0822     2.5081
  317.0000   -49.8005    13.5262     9.0481    11.6555     8.2944   120.9696     0.0766     0.0830     2.5075
  317.5000   -49.8998    13.6977     8.9931    11.6005     8.2931   121.4203     0.0794     0.0810     2.5121
  318.0000   -50.0231    13.8264     8.9384    11.5457     8.3004   120.1781     0.0817     0.0748     2.5188
  318.5000   -50.1455    13.0816     8.8841    11.4909     8.3071   117.7248     0.0843     0.0618     2.5378
  319.0000   -50.2671    13.1193     8.8301    11.4361     8.3137   116.9777     0.0871     0.0649     2.5395
  319.5000   -50.3902    13.3253     8.7764    11.3815     8.3205   116.4036     0.0880     0.0705     2.5289
  320.0000   -50.5121    13.0695     8.7231    11.3273     8.3278   114.9094     0.0861     0.0760     2.5194
  320.5000   -50.6327    12.3686     8.6701    11.2831     8.3282   113.5102     0.0845     0.0803     2.5107
  321.0000   -50.7603    11.7102     8.6180    11.0987     8.3213   112.0421     0.0828     0.0828     2.5087
  321.5000   -50.8746    11.9070     8.5570    10.9424     8.3150   111.2432     0.0811     0.0849     2.5045
  322.0000   -50.9757    12.2329     8.5149    10.7122     8.3088   113.2707     0.0794     0.0913     2.4964
  322.5000   -50.7721    12.6075     8.4646    10.7240     8.3024   120.4169     0.0777     0.0968     2.4883
  323.0000   -50.5779    12.4825     8.4146    10.8942     8.2961   119.0526     0.0760     0.0984     2.4860
  323.5000   -50.3697    12.2322     8.3649    11.0794     8.2898   113.8183     0.0743     0.0998     2.4844
  324.0000   -50.1617    11.9870     8.3155    10.9284     8.2835   114.8637     0.0726     0.1012     2.4810
  324.5000   -49.9678    11.9284     8.2665    10.7682     8.2772   120.0056     0.0710     0.1024     2.4777
  325.0000   -49.8115    11.9284     8.2178    10.6103     8.2709   120.3229     0.0692     0.1045     2.4744
  325.5000   -50.2400    11.8390     8.1694    10.4548     8.2644   121.5578     0.0689     0.1063     2.4712
  326.0000   -50.7853    11.6257     8.1213    10.3016     8.2585   117.7713     0.0698     0.1081     2.4681
  326.5000   -51.3370    11.4164     8.0735    10.1506     8.2516   110.8063     0.0706     0.1088     2.4692
  327.0000   -51.8910    11.2108     8.0260    10.1027     8.2560   111.7635     0.0714     0.1064     2.4714
  327.5000   -52.4157    10.8768     7.9787    10.1027     8.2617   113.4974     0.0722     0.1056     2.4715
  328.0000   -52.5501    10.8941     7.9317    10.1027     8.2678   115.0328     0.0730     0.1062     2.4692
  328.5000   -51.6250    10.9457     7.8850    10.1027     8.2737   116.8293     0.0737     0.1064     2.4679
  329.0000   -50.5796    10.9975     7.8386    10.1027     8.2796   115.2483     0.0745     0.1064     2.4680
  329.5000   -50.3010    11.0794     7.7892    10.1027     8.2856   113.4067     0.0753     0.1064     2.4681
  330.0000   -50.5878    11.0276     7.7281    10.1027     8.2915   111.3858     0.0761     0.1049     2.4682
  330.5000   -50.6170    10.9080     7.6674    10.0552     8.2975   109.4657     0.0769     0.1022     2.4739
  331.0000   -50.6898    10.7897     7.6073     9.9823     8.3034   108.7075     0.0777     0.0979     2.4813
  331.5000   -50.7707    10.6727     7.5476     9.9100     8.3094   111.0767     0.0784     0.0936     2.4888
  332.0000   -50.8479    10.4826     7.4884     9.8383     8.3153   113.1637     0.0792     0.0908     2.4939
  332.5000   -50.9272    10.5461     7.4297     9.7670     8.3212   115.3372     0.0800     0.0920     2.4932
  333.0000   -51.0067    10.7351     7.3714     9.7103     8.3277   115.9725     0.0808     0.0928     2.4923
  333.5000   -51.0850    11.0281     7.3136     9.6646     8.3290   112.2900     0.0816     0.0910     2.4960
  334.0000   -51.1622    11.0023     7.2468     9.6190     8.3232   109.4652     0.0825     0.0889     2.5002
  334.5000   -51.2431    10.6711     7.1754     9.5737     8.3180   106.7169     0.0833     0.0889     2.5020
  335.0000   -51.3183    10.3496     7.0176     9.3695     8.3127   110.5335     0.0843     0.0901     2.4983
  335.5000   -51.3814    10.0377     6.8633     9.0920     8.3074   118.8511     0.0830     0.0913     2.4946
  336.0000   -51.2937     9.7353     6.7124     8.8226     8.3021   121.6797     0.0801     0.0949     2.4877
  336.5000   -51.2136     9.4421     6.5665     8.5584     8.2967   121.0837     0.0774     0.0993     2.4810
  337.0000   -51.1261     9.1579     6.4223     8.3961     8.2914   119.6868     0.0747     0.1038     2.4742
  337.5000   -51.0412     9.0432     6.2494     8.4027     8.2861   116.7890     0.0721     0.1082     2.4672
  338.0000   -50.9571     9.0439     6.2536     8.4342     8.2808   113.3967     0.0693     0.1104     2.4637
  338.5000   -50.8713     9.2414     6.2497     8.5262     8.2755   114.8011     0.0707     0.1086     2.4684
  339.0000   -50.7855     9.4382     6.3451     8.6192     8.2701   117.6594     0.0739     0.1033     2.4746
  339.5000   -50.7043     9.6389     6.4201     8.7128     8.2649   120.5540     0.0768     0.0979     2.4805
  340.0000   -50.6171     9.7390     6.4961     8.8070     8.2596   123.4312     0.0802     0.0937     2.4880
  340.5000   -50.7298     9.7599     6.5733     8.9028     8.2539   124.5580     0.0791     0.0955     2.4881
  341.0000   -50.9281     9.7809     6.6514     8.9989     8.2513   123.4661     0.0775     0.0978     2.4829
  341.5000   -51.1235     9.8020     6.7305     9.0961     8.2535   122.5633     0.0758     0.1000     2.4782
  342.0000   -51.3160     9.8230     6.8104     9.2121     8.2552   126.9020     0.0741     0.0995     2.4790
  342.5000   -51.5114     9.8441     6.8913     9.2254     8.2569   126.0046     0.0724     0.0987     2.4824
  343.0000   -51.7048     9.8653     6.9732     9.2566     8.2587   125.0924     0.0707     0.0978     2.4860
