~VERSION INFORMATION
 VERS.                2.0:   CWLS LOG ASCII STANDARD - VERSION 2.0
 WRAP.                 NO:   ONE LINE PER DEPTH STEP
~WELL INFORMATION
#MNEM.UNIT      DATA TYPE    INFORMATION
#----------   ------------   ------------------------------
 STRT.F            2.5000:   START DEPTH
 STOP.F          548.0000:   STOP DEPTH
 STEP.F            0.5000:   STEP LENGTH
 NULL.          -999.2500:   NO VALUE
 COMP. LAWRENCE/ALLISON INC:   COMPANY
 WELL.    55-61 SX #10-10:   WELL
 FLD .           N.P.R #3:   FIELD
 LOC .      S10 T38N R78W:   LOCATION
 CNTY.            NATRONA:   COUNTY
 STAT.            WYOMING:   STATE
 CTRY. UNITED STATES OF AMERICA:   COUNTRY
 SRVC.            Unknown:   SERVICE COMPANY
 DATE.        05-SEP-1984:   LOGDATE
 API .       490251098100:   API NUMBER
~CURVE INFORMATION
#MNEM.UNIT       API CODE    CURVE DESCRIPTION
#----------   ------------   ------------------------------
 DEPT.F                  :   
 GRR .GAPI   07 310 01 00:   GAMMA RAY FROM RES
 SPR .MV     07 010 01 00:   SPONTANEOUS POTENTIAL
 RFOC.OHMM   07 220 04 00:   RESISTIVITY FOCUSED LOG
 RILD.OHMM   07 120 46 00:   INDUCTION LOG DEEP RESISTIVITY
 RILM.OHMM   07 120 44 00:   INDUCTION LOG MEDIUM RESISTIVITY
 CALD.IN     45 280 60 00:   CALIPER FROM DENSITY LOG
 DEN .G/C3   45 350 01 00:   COMPENSATED BULK DENSTIY
 CNC .DEC    42 890 03 00:   NEUTRON POROSITY SANDSTONE
 PORD.DEC    45 890 12 00:   POROSITY DENSITY SANDSTONE
 CORR.G/C3   45 356 01 00:   DENSITY CORRECTION
 AC  .US/F   60 520 00 00:   ACCOUSTIC SONIC
~PARAMETER INFORMATION
#MNEM.UNIT          VALUE    DESCRIPTION
#----------   ------------   ------------------------------
 PD  .                 GL:   PERMANENT DATUM
 EPD .F              5191:   ELEVATION PERMANENT DATUM
 LMF .                 KB:   LOG MEASURED FROM
 DAPD.F                12:   FEET ABOVE PERMANENT DATUM
 DMF .                 KB:   DRILLING MEASURED FROM
 EKB .F              5203:   KELLING BUSHING
 EGL .F              5191:   GROUND LEVEL
 DATE.         5-SEP-1984:   RUN DATE
 RUN .                  1:   RUN NUMBER
 DD  .F               540:   DEPTH DRILLER
 DL  .F               550:   DEPTH LOGGER
 BLI .F               548:   BOTTOM LOG INTERVAL
 CS  .IN            8.625:   CASING SIZE
 CBD .F                42:   CASING BOTTOM DRILLER
 CBL .F                54:   CASING BOTTOM LOGGER
 BS  .IN            7.875:   BIT SIZE
 BSD .F               540:   BIT SIZE AT DEPTH
 DFT .        KCL POLYMER:   DRILLING FLUID TYPE
 MSS .           FLOWLINE:   MUD SAMPLE SOURCE
 RMS .OHMM            .79:   RESISTIVITY MUD SAMPLE
 MST .F                74:   MUD SAMPLE TEMPERATURE
 RMF .OHMM            .59:   RESISTIVITY MUD FILTRATE SAMPLE
 MFST.F                74:   MUD FILTRATE SAMPLE TEMPERATURE
 RMC .OHMM            .99:   RESISTIVITY MUD CAKE
 MCST.F                74:   MUD CAKE SAMPLE TEMPERATURE
 MFSS.               CALC:   MUD FILTRATE SAMPLE SOURCE
 MCSS.               CALC:   MUD CAKE SAMPLE SOURCE
 RMB .OHMM            .65:   RESISTIVITY MUD AT BHT
 BHT .F                90:   BOTTOM HOLE TEMPERATURE
 TCS .HRS               3:   TIME CURCULATED STOPPED
 MRT .F                90:   MAXIMUM RECORDED TEMPERATURE
 LUN .               6274:   LOGGING UNIT NUMBER
 LUL .               GLTE:   LOGGING UNIT LOCATION
 ENGI.             RAUTIO:   RECORDING ENGINEER
 WITN.            JOHNSON:   WITNESSED BY
 CLNT.            A2DTECH:   CLIENT CODE
 ORIG. 2", 2.5", 5" PRINT:   ORIGIN OF DATA
 UWI .       490251098100:   UNIQUE WELL ID
 DICO. A2D Technologies, Inc.:   DIGITIZING COMPANY
~OTHER INFORMATION
~A    DEPT      GRR       SPR       RFOC       RILD       RILM       CALD        DEN        CNC       PORD       CORR         AC   
# ...
  185.5000   144.9240  -156.7860  -999.2500     6.0040     6.2090     8.0450     2.4450     0.0700     0.1390    -0.0180   119.3250
  186.0000   144.0680  -156.8680  -999.2500     5.6890     5.8310     8.0450     2.4480     0.0660     0.1420    -0.0120   119.1770
  186.5000   145.2340  -156.9220  -999.2500     5.3750     5.4520     8.0450     2.4410     0.0610     0.1500    -0.0060   118.3430
  187.0000   146.0530  -156.8630  -999.2500     5.1380     5.0910     8.0450     2.4320     0.0550     0.1620     0.0010   117.5100
  187.5000   146.6270  -156.8070  -999.2500     5.1380     5.1950     8.0450     2.4090     0.0530     0.1840     0.0070   116.5940
  188.0000   146.1610  -156.7490  -999.2500     5.1930     5.3170     8.0450     2.3770     0.0600     0.1940     0.0130   117.4940
  188.5000   141.8180  -156.7340  -999.2500     5.3150     5.4390     8.0450     2.3530     0.0670     0.1870     0.0080   118.4940
  189.0000   135.8130  -156.7330  -999.2500     5.4370     5.6380     8.0450     2.3750     0.0730     0.1680     0.0020   119.4940
  189.5000   135.2070  -156.7330  -999.2500     5.7900     6.0600     8.0450     2.4070     0.0750     0.1510    -0.0030   119.9800
  190.0000   138.3160  -156.7330  -999.2500     6.2640     6.4830     8.0450     2.4360     0.0740     0.1340    -0.0060   118.9840
  190.5000   141.1080  -156.7000  -999.2500     6.7370     6.9060     8.0450     2.4520     0.0730     0.1300     0.0050   119.5700
  191.0000   140.5860  -156.0640  -999.2500     7.0860     7.2170     8.0450     2.4670     0.0740     0.1260     0.0160   120.3820
  191.5000   140.4050  -155.4530  -999.2500     7.4920     7.5530     8.0450     2.4700     0.0740     0.1260     0.0170   121.1950
  192.0000   142.4230  -154.3820  -999.2500     7.7250     7.8690     8.0450     2.4670     0.0740     0.1300     0.0120   121.2180
  192.5000   145.7720  -152.9580  -999.2500     7.8310     7.9760     8.0450     2.4610     0.0740     0.1320     0.0140   120.5510
  193.0000   145.8350  -151.9100  -999.2500     7.9380     8.0740     8.0450     2.4630     0.0740     0.1280     0.0190   119.9800
  193.5000   143.6360  -150.9200  -999.2500     8.0440     8.1710     8.0450     2.4690     0.0740     0.1260     0.0120   115.8640
  194.0000   142.4750  -150.0170  -999.2500     8.0940     8.2690     8.0490     2.4720     0.0750     0.1240     0.0040   112.8090
  194.5000   141.8830  -149.7540  -999.2500     8.1480     8.3660     8.0530     2.4710     0.0750     0.1230    -0.0020   114.2030
  195.0000   139.6560  -149.4750  -999.2500     8.2010     8.4360     8.0580     2.4740     0.0750     0.1220     0.0090   116.4980
  195.5000   137.5020  -149.1770  -999.2500     8.2550     8.4100     8.0620     2.4770     0.0740     0.1210     0.0190   118.9840
  196.0000   136.8940  -148.3270  -999.2500     8.2830     8.3860     8.0650     2.4780     0.0720     0.1210     0.0300   118.1400
  196.5000   137.2240  -145.6220  -999.2500     8.2380     8.3620     8.0580     2.4750     0.0690     0.1230     0.0200   117.2650
  197.0000   137.6180  -142.9650  -999.2500     8.1960     8.3380     8.0500     2.4720     0.0690     0.1230     0.0090   116.1950
  197.5000   137.6310  -140.2650  -999.2500     8.1540     8.3140     8.0450     2.4730     0.0710     0.1230    -0.0010   116.1950
  198.0000   137.5920  -138.6240  -999.2500     8.1120     8.2830     8.0450     2.4730     0.0790     0.1220    -0.0110   116.6040
  198.5000   135.0340  -138.2580  -999.2500     8.0710     8.2880     8.0450     2.4750     0.0957     0.1220    -0.0080   117.0200
  199.0000   132.0880  -138.9180  -999.2500     8.0580     8.2950     8.0450     2.4710     0.1173     0.1240    -0.0050   116.7930
  199.5000   130.6230  -139.5690  -999.2500     8.0580     8.3030     8.0450     2.4670     0.1417     0.1270    -0.0080   115.7730
  200.0000   129.5790  -140.2100  -999.2500     8.0580     8.3100     8.0450     2.4630     0.2115     0.1310    -0.0110   114.4880
  200.5000   129.5800  -140.3310  -999.2500     8.0580     8.3180     8.0450     2.4640     0.2940     0.1290     0.0040   113.0080
  201.0000   130.1810  -138.9130  -999.2500     8.0580     8.3250     8.0450     2.4700     0.3081     0.1240     0.0070   114.3060
  201.5000   131.9380  -137.3870  -999.2500     8.0580     8.3320     8.0450     2.4760     0.3189     0.1200     0.0100   116.4480
  202.0000   133.6670  -134.0300  -999.2500     8.1040     8.3390     8.0450     2.4800     0.3251     0.1180     0.0170   118.9840
  202.5000   133.7950  -130.7650  -999.2500     8.1540     8.3480     8.0450     2.4850     0.3350     0.1160     0.0240   118.5760
  203.0000   133.6880  -127.5140  -999.2500     8.2070     8.3510     8.0450     2.4860     0.3349     0.1170     0.0280   118.0760
  203.5000   134.5010  -124.2690  -999.2500     8.2070     8.3580     8.0450     2.4830     0.3290     0.1180     0.0240   117.5900
  204.0000   133.8520  -121.0440  -999.2500     8.0510     8.0290     8.0450     2.4800     0.3235     0.1190     0.0190   117.9440
  204.5000   132.1680  -117.8930  -999.2500     7.9110     7.8100     8.0450     2.4770     0.3210     0.1200     0.0150   118.5060
  205.0000   133.0420  -115.9620  -999.2500     7.7180     7.5910     8.0450     2.4770     0.3225     0.1220     0.0110   119.0690
  205.5000   134.0390  -115.0380  -999.2500     7.4680     7.3710     8.0450     2.4770     0.3271     0.1230     0.0070   119.9830
  206.0000   135.0480  -114.3650  -999.2500     7.2170     7.1510     8.0460     2.4770     0.3333     0.1210     0.0030   121.3400
  206.5000   135.9430  -113.5870  -999.2500     7.1690     7.2170     8.0460     2.4770     0.3398     0.1190     0.0060   123.1670
  207.0000   136.7140  -112.6380  -999.2500     7.1090     7.0990     8.0460     2.4770     0.3258     0.1220     0.0090   122.6230
  207.5000   134.4080  -111.6940  -999.2500     6.9250     6.8090     8.0470     2.4720     0.3258     0.1250     0.0110   121.7900
  208.0000   132.0230  -110.7490  -999.2500     6.6640     6.5200     8.0470     2.4670     0.3302     0.1280     0.0040   120.9560
  208.5000   132.9850  -110.5950  -999.2500     6.4020     6.2300     8.0480     2.4640     0.3416     0.1280     0.0130   120.1790
  209.0000   134.4710  -111.5340  -999.2500     6.1410     5.9410     8.0480     2.4640     0.3508     0.1310     0.0230   117.6170
  209.5000   135.3760  -112.5040  -999.2500     5.8790     5.6520     8.0480     2.4520     0.3671     0.1410     0.0320   115.0000
  210.0000   133.9400  -112.0970  -999.2500     5.6180     5.3790     8.0490     2.4260     0.4113     0.1650     0.0240   116.1850
  210.5000   130.6070  -111.1140  -999.2500     5.5300     5.5050     8.0490     2.3740     0.4020     0.1870     0.0140   117.7890
  211.0000   127.3670  -110.1190  -999.2500     5.6760     5.6510     8.0500     2.3600     0.3804     0.1920     0.0050   117.5900
  211.5000   128.7610  -109.1120  -999.2500     5.8440     5.7970     8.0500     2.3690     0.3565     0.1750    -0.0030   116.8680
  212.0000   131.7520  -108.0730  -999.2500     6.0130     6.0340     8.0510     2.4060     0.3334     0.1520    -0.0030   116.0550
  212.5000   131.9890  -107.3760  -999.2500     6.1810     6.3130     8.0510     2.4480     0.3275     0.1310    -0.0020   115.2430
  213.0000   129.7420  -106.0250  -999.2500     6.4910     6.5910     8.0510     2.4630     0.3219     0.1290     0.0040   115.1990
  213.5000   130.3880  -104.6940  -999.2500     6.8610     6.8700     8.0520     2.4630     0.3182     0.1290     0.0100   116.3500
  214.0000   130.3040  -103.9892  -999.2500     7.2310     7.1480     8.0520     2.4630     0.3151     0.1280     0.0160   117.6230
  214.5000   128.0650  -103.0047  -999.2500     7.6260     7.4270     8.0530     2.4640     0.3191     0.1280     0.0080   118.8960
  215.0000   129.8770  -102.0203  -999.2500     7.6260     7.5560     8.0530     2.4650     0.3218     0.1280    -0.0030   120.7770
  215.5000   132.3430  -101.0358  -999.2500     7.4390     7.3580     8.0530     2.4660     0.3224     0.1270    -0.0140   119.9070
