~VERSION INFORMATION
 VERS.                2.0:   CWLS LOG ASCII STANDARD - VERSION 2.0
 WRAP.                 NO:   ONE LINE PER DEPTH STEP
~WELL INFORMATION
#MNEM.UNIT      DATA TYPE    INFORMATION
#----------   ------------   ------------------------------
 STRT.F           28.0000:   START DEPTH
 STOP.F          461.0000:   STOP DEPTH
 STEP.F            0.5000:   STEP LENGTH
 NULL.          -999.2500:   NO VALUE
 COMP. FENIX & SCISSON INC:   COMPANY
 WELL.       NPR-3 #47S-3:   WELL
 FLD .             TEAPOT:   FIELD
 LOC .       S3 T38N R78W:   LOCATION
 CNTY.            NATRONA:   COUNTY
 STAT.            WYOMING:   STATE
 CTRY. UNITED STATES OF AMERICA:   COUNTRY
 SRVC.            Unknown:   SERVICE COMPANY
 DATE.        06-JUL-1978:   LOGDATE
 API .       490251066400:   API NUMBER
~CURVE INFORMATION
#MNEM.UNIT       API CODE    CURVE DESCRIPTION
#----------   ------------   ------------------------------
 DEPT.F                  :   
 SPR .MV     05 010 01 00:   SPONTANEOUS POTENTIAL FROM RES.
 ILD .OHMM   05 120 46 00:   INDUCTION LOG DEEP
 SN  .OHMM   05 040 16 00:   SHORT NORMAL 16"
 GRD .GAPI   45 310 01 00:   GAMMA RAY FROM DENSITY LOG
 CALD.IN     45 280 60 00:   CALIPER FROM DENSITY LOG
 CORR.G/C3   45 356 01 00:   DENSITY CORRECTION
 DEN .G/C3   45 350 01 00:   DENSTIY
 DPHI.DEC    45 890 12 00:   DENSITY POROSITY SANDSTONE
~PARAMETER INFORMATION
#MNEM.UNIT          VALUE    DESCRIPTION
#----------   ------------   ------------------------------
 PD  .                 GL:   PERMANENT DATUM
 EPD .F              5202:   ELEVATION PERMANENT DATUM
 LMF .                 KB:   LOG MEASURED FROM
 DAPD.F                 4:   FEET ABOVE PERMANENT DATUM
 DMF .                 KB:   DRILLING MEASURED FROM
 EKB .F              5206:   KELLING BUSHING
 EGL .F              5202:   GROUND LEVEL
 DATE.        06-JUL-1978:   RUN DATE
 RUN .                  1:   RUN NUMBER
 DD  .F               460:   DEPTH DRILLER
 DL  .F               461:   DEPTH LOGGER
 BLI .F               461:   BOTTOM LOG INTERVAL
 TLI .F                40:   TOP LOG INTERVAL
 CS  .IN            8.625:   CASING SIZE
 CBD .F                40:   CASING BOTTOM DRILLER
 CBL .F                40:   CASING BOTTOM LOGGER
 BS  .IN            7.875:   BIT SIZE
 BSD .F               460:   BIT SIZE AT DEPTH
 DFT .                KCL:   DRILLING FLUID TYPE
 DFD .                8.6:   DRILLING FLUID DENSITY
 DFV .                 33:   DRILLING FLUID VISCOSITY
 DFPH.                9.5:   DRILLING FLUID PH
 MSS .           FLOWLINE:   MUD SAMPLE SOURCE
 TCS .HRS               1:   TIME CURCULATED STOPPED
 LUN .               2858:   LOGGING UNIT NUMBER
 LUL .               CASP:   LOGGING UNIT LOCATION
 ENGI.           REYNOLDS:   RECORDING ENGINEER
 WITN.           MCGENLEY:   WITNESSED BY
 CLNT.            A2DTECH:   CLIENT CODE
 ORIG.           5" PRINT:   ORIGIN OF DATA
 UWI .       490251066400:   UNIQUE WELL ID
 DICO. A2D Technologies, Inc.:   DIGITIZING COMPANY
~OTHER INFORMATION
~A   DEPT      SPR        ILD         SN         GRD      CALD       CORR        DEN       DPHI   
# ...
   68.5000   -34.2361     8.3480     9.9062   107.0316     7.9525     0.0823     2.5031     0.1071
   69.0000   -33.9120     8.2969     9.8544   108.4248     7.9543     0.0660     2.4999     0.1130
   69.5000   -33.7506     8.2461     9.9317   108.2829     7.9400     0.0616     2.4856     0.1222
   70.0000   -35.6609     8.1956    10.0078   108.1448     7.9112     0.0691     2.4600     0.1321
   70.5000   -35.7952     8.1454    10.2242   109.5380     7.8361     0.0796     2.4508     0.1373
   71.0000   -35.4733     8.0956    10.3025   106.9534     7.7609     0.0960     2.4477     0.1333
   71.5000   -35.7515     8.1591    10.4531   105.4369     7.6550     0.1184     2.4602     0.1243
   72.0000   -36.4761     8.1651    10.3872   105.1455     7.5338     0.1422     2.4710     0.1134
   72.5000   -36.6104     8.1151    10.3236   105.9418     7.4433     0.1438     2.4835     0.1048
   73.0000   -36.2934     8.0640    10.1919   106.8820     7.3834     0.1052     2.4974     0.0995
   73.5000   -37.6084     7.9596    10.1995   107.1851     7.3393     0.0756     2.5075     0.1189
   74.0000   -39.3747     7.9670    10.2071   107.5064     7.3101     0.0593     2.4891     0.1300
   74.5000   -40.6978     7.9182    10.2147   107.9770     7.2959     0.0475     2.4604     0.1325
   75.0000   -40.8240     7.9241    10.2223   105.3924     7.2820     0.0416     2.4548     0.1417
   75.5000   -40.9485     7.9300    10.1553   104.9442     7.2992     0.0402     2.4390     0.1398
   76.0000   -41.2267     7.9907    10.0886   106.0349     7.3774     0.0403     2.4445     0.1398
   76.5000   -42.6954     7.9967     9.9688   106.9650     7.4709     0.0418     2.4500     0.1373
   77.0000   -45.2057     8.0028     9.9762   105.2991     7.5798     0.0449     2.4500     0.1302
   77.5000   -45.3400     8.0654     9.9152   105.0000     7.6889     0.0479     2.4470     0.1234
   78.0000   -44.8742     8.0714     9.9226   107.9756     7.8012     0.0495     2.4679     0.1169
   78.5000   -49.4630     8.0774     9.8618   109.7851     7.9221     0.0510     2.4780     0.1193
   79.0000   -51.0805     8.0834     9.7342   110.2633     7.9542     0.0541     2.4796     0.1156
   79.5000   -51.8051     8.0339     9.6729   111.5033     7.9557     0.0557     2.4789     0.1162
   80.0000   -54.0179     8.0398     9.6137   111.2120     7.9572     0.0602     2.4790     0.1164
   80.5000   -56.6898     7.9891     9.6226   110.6107     7.9587     0.0736     2.4783     0.1143
   81.0000   -57.9531     7.9966     9.6298   110.4726     7.9602     0.0841     2.4845     0.1087
   81.5000   -59.6095     8.0025     9.6370   108.6536     7.9617     0.0857     2.4931     0.1049
   82.0000   -59.4413     8.0638     9.6442   108.0523     7.9632     0.0753     2.5001     0.1049
   82.5000   -59.1243     8.1255     9.7180   107.7647     7.9647     0.0665     2.4978     0.1074
   83.0000   -59.2585     8.1316     9.7925   107.4732     7.9663     0.0562     2.4940     0.1110
   83.5000   -61.1688     8.1378     9.8677   106.5604     7.9374     0.0503     2.4902     0.1150
   84.0000   -62.7863     8.1452     9.9448   105.4946     7.8775     0.0519     2.4849     0.1261
   84.5000   -63.9693     8.1512     9.9522   105.3744     7.8023     0.0611     2.4772     0.1298
   85.0000  -999.2500     8.1573     9.8895   105.3931     7.7118     0.0733     2.4665     0.1289
   85.5000  -999.2500     8.1633     9.8290   104.9487     7.6366     0.0967     2.4603     0.1220
   86.0000  -999.2500     8.1694     9.8381   104.3474     7.5461     0.1042     2.4695     0.1149
   86.5000  -999.2500     8.1179     9.7761   105.7443     7.4862     0.0938     2.4860     0.1078
   87.0000  -999.2500     8.0128     9.8528   106.0656     7.4417     0.0820     2.4945     0.1076
   87.5000  -999.2500     7.9638    10.0659   106.0806     7.4113     0.0672     2.4884     0.1170
   88.0000  -999.2500     7.9712    10.1429   106.0955     7.3834     0.0376     2.4777     0.1379
   88.5000  -999.2500     8.0322    10.1505   105.8039     7.3695     0.0302     2.4599     0.1425
   89.0000  -999.2500     8.0382    10.1581   105.8192     7.3714     0.0288     2.4399     0.1528
   89.5000  -999.2500     8.0442    10.1656   105.6811     7.3729     0.0289     2.4207     0.1558
   90.0000   -64.8065     8.0503    10.1034   105.8529     7.4051     0.0290     2.4223     0.1483
   90.5000    -0.2048     8.0576    10.0416   106.1742     7.4679     0.0290     2.4308     0.1406
   91.0000    -1.2475     8.2318    10.0493   106.3385     7.5768     0.0306     2.4519     0.1320
   91.5000    -2.2656     8.5264    10.1279   105.2853     7.6856     0.0322     2.4589     0.1292
   92.0000    -3.4623     8.7710    10.2055   103.3095     7.7487     0.0337     2.4612     0.1279
   92.5000    -4.0000     8.8992    10.2131   104.0901     7.7807     0.0353     2.4612     0.1288
   93.0000    -3.9770     8.9673    10.2207   105.9428     7.7978     0.0413     2.4613     0.1297
   93.5000    -6.9347     8.9740    10.2283   105.8046     7.8147     0.0533     2.4605     0.1216
   94.0000    -7.8549     8.9806    10.2359   105.0539     7.8162     0.0682     2.4738     0.1145
   94.5000    -7.6840     9.0494    10.2435   104.6095     7.8177     0.0831     2.4808     0.1074
   95.0000    -7.5130     9.2451    10.3220   104.6248     7.8192     0.0936     2.4862     0.1049
   95.5000    -8.6814     9.4450    10.3297   104.3369     7.8207     0.1041     2.4964     0.0974
   96.0000    -8.5104     9.6493    10.4088   104.5050     7.8221     0.1116     2.5150     0.0900
   96.5000    -8.0474     9.7321    10.4885   104.2137     7.8236     0.1053     2.5306     0.0837
   97.0000   -10.5495     9.8671    10.5688   103.6161     7.8252     0.0887     2.5360     0.0869
   97.5000   -10.0809     9.9426    10.7233   103.0148     7.8267     0.0770     2.5314     0.0933
   98.0000   -11.9933     9.9500    10.8105   104.1055     7.8285     0.0722     2.5121     0.1016
   98.5000   -14.9474     9.9574    10.9636   105.1924     7.8300     0.0711     2.5052     0.1022
   99.0000   -17.6038     9.9648    11.2025   104.2886     7.8315     0.0654     2.5061     0.0997
   99.5000   -17.8795    10.0411    11.3663   102.0065     7.8330     0.0566     2.5054     0.1006
  100.0000   -18.0060    10.0969    11.5409   100.1838     7.8345     0.0478     2.5031     0.1031
  100.5000   -19.0287    10.4038    11.6709   101.1179     7.8356     0.0405     2.5032     0.1071
  101.0000   -20.3421    10.7034    11.7890   100.9798     7.8521     0.0332     2.5001     0.1052
  101.5000   -21.6608    10.8682    11.8785   100.6723     7.8534     0.0303     2.4994     0.1067
  102.0000   -21.4913    11.1052    12.0513   100.0469     7.8546     0.0305     2.4995     0.1067
  102.5000   -21.6246    11.3317    12.2267    98.3946     7.8561     0.0352     2.4988     0.1057
  103.0000   -22.0452    11.4959    12.2350    96.7564     7.8113     0.0398     2.4973     0.1051
  103.5000   -22.6198    11.5824    12.3279    94.6276     7.7665     0.0459     2.4951     0.1081
  104.0000   -22.7531    11.6695    12.3363    95.5616     7.7214     0.0536     2.4928     0.1099
  104.5000   -23.1737    11.5170    12.2579    97.7208     7.6615     0.0597     2.4929     0.1065
  105.0000   -23.7483    11.3665    12.1006    98.0384     7.6318     0.0599     2.4930     0.1092
  105.5000   -24.1792    11.2162    12.1088    96.3729     7.6026     0.0570     2.4930     0.1099
  106.0000   -23.5581    10.9954    12.1170    96.8475     7.6038     0.0497     2.4923     0.1091
  106.5000   -24.2815    10.8501    12.1253    98.0877     7.5894     0.0409     2.4885     0.1169
  107.0000   -26.3442    10.7822    12.1336    97.1841     7.5909     0.0351     2.4755     0.1181
  107.5000   -27.9604    10.7905    12.0585    97.1993     7.5921     0.0308     2.4709     0.1221
  108.0000   -28.3869    10.7971    11.9732    97.8270     7.5933     0.0265     2.4640     0.1293
  108.5000   -28.3656    10.8784    11.7325    97.8422     7.5946     0.0237     2.4540     0.1340
