~VERSION INFORMATION
 VERS.                2.0:   CWLS LOG ASCII STANDARD - VERSION 2.0
 WRAP.                 NO:   ONE LINE PER DEPTH STEP
~WELL INFORMATION
#MNEM.UNIT      DATA TYPE    INFORMATION
#----------   ------------   ------------------------------
 STRT.F           30.0000:   START DEPTH
 STOP.F          637.0000:   STOP DEPTH
 STEP.F            0.5000:   STEP LENGTH
 NULL.          -999.2500:   NO VALUE
 COMP.    FENIX & SCISSON:   COMPANY
 WELL.        NPR #82-S-3:   WELL
 FLD .             TEAPOT:   FIELD
 LOC .       S3 T38N R78W:   LOCATION
 CNTY.            NATRONA:   COUNTY
 STAT.            WYOMING:   STATE
 CTRY. UNITED STATES OF AMERICA:   COUNTRY
 SRVC.              Welex:   SERVICE COMPANY
 DATE.        08-MAY-1977:   LOGDATE
 API .       490251035100:   API NUMBER
~CURVE INFORMATION
#MNEM.UNIT       API CODE    CURVE DESCRIPTION
#----------   ------------   ------------------------------
 DEPT.F                  :   
 SPR .MV     07 010 01 00:   SPONTANEOUS POTENTIAL FROM RES.
 ILD .OHMM   07 120 46 00:   INDUCTION LOG DEEP
 ILM .OHMM   07 120 44 00:   INDUCTION LOG MEDIUM
 SGRD.OHMM   07 220 05 00:   SHALLOW GUARD RESISTIVITY
 GRD .GAPI   45 310 01 00:   GAMMA RAY FROM DENSITY LOG
 CALD.IN     45 280 60 00:   CALIPER FROM DENSITY LOG
 CORR.G/C3   45 356 01 00:   DENSITY CORRECTION
 RHOB.G/C3   45 350 01 00:   BULK DENSITY
 DPHI.DEC    45 890 12 00:   DENSITY POROSITY SANDSTONE
~PARAMETER INFORMATION
#MNEM.UNIT          VALUE    DESCRIPTION
#----------   ------------   ------------------------------
 PD  .                 GL:   PERMANENT DATUM
 EPD .F              5100:   ELEVATION PERMANENT DATUM
 LMF .                 GL:   LOG MEASURED FROM
 DMF .                 GL:   DRILLING MEASURED FROM
 EGL .F              5100:   GROUND LEVEL
 DATE.        08-MAY-1977:   RUN DATE
 RUN .                  1:   RUN NUMBER
 DD  .F               635:   DEPTH DRILLER
 DL  .F               640:   DEPTH LOGGER
 BLI .F               638:   BOTTOM LOG INTERVAL
 TLI .F                30:   TOP LOG INTERVAL
 CS  .IN            8.625:   CASING SIZE
 CBD .F                40:   CASING BOTTOM DRILLER
 CBL .F                38:   CASING BOTTOM LOGGER
 BS  .IN            7.875:   BIT SIZE
 BSD .F               635:   BIT SIZE AT DEPTH
 DFT .            KCL MUD:   DRILLING FLUID TYPE
 DFD .                8.8:   DRILLING FLUID DENSITY
 DFV .                 32:   DRILLING FLUID VISCOSITY
 DFPH.                7.5:   DRILLING FLUID PH
 MSS .           FLOWLINE:   MUD SAMPLE SOURCE
 RMS .OHMM            .25:   RESISTIVITY MUD SAMPLE
 MST .F                80:   MUD SAMPLE TEMPERATURE
 RMF .OHMM            .22:   RESISTIVITY MUD FILTRATE SAMPLE
 MFST.F                80:   MUD FILTRATE SAMPLE TEMPERATURE
 RMC .OHMM            .31:   RESISTIVITY MUD CAKE
 MCST.F                80:   MUD CAKE SAMPLE TEMPERATURE
 MFSS.               MEAS:   MUD FILTRATE SAMPLE SOURCE
 MCSS.               MEAS:   MUD CAKE SAMPLE SOURCE
 RMB .OHMM            .23:   RESISTIVITY MUD AT BHT
 BHT .F                87:   BOTTOM HOLE TEMPERATURE
 TCS .HRS            0130:   TIME CURCULATED STOPPED
 MRT .F                87:   MAXIMUM RECORDED TEMPERATURE
 LUN .               8611:   LOGGING UNIT NUMBER
 LUL .             CASPER:   LOGGING UNIT LOCATION
 ENGI.            C. DOAK:   RECORDING ENGINEER
 WITN.            R. LYON:   WITNESSED BY
 CLNT.            A2DTECH:   CLIENT CODE
 ORIG.           5" PRINT:   ORIGIN OF DATA
 UWI .       490251035100:   UNIQUE WELL ID
 DICO. A2D Technologies, Inc.:   DIGITIZING COMPANY
~OTHER INFORMATION
~A   DEPT      SPR        ILD        ILM       SGRD         GRD      CALD        CORR        RHOB     DPHI   
   30.0000  -999.2500  -999.2500  -999.2500  -999.2500    91.8772  -999.2500    -0.0095     2.5633  -999.2500
   30.5000  -999.2500  -999.2500  -999.2500  -999.2500    94.1228  -999.2500    -0.2026     2.5553  -999.2500
   31.0000  -999.2500  -999.2500  -999.2500  -999.2500    93.8385  -999.2500    -0.2385     2.5469  -999.2500
   31.5000  -999.2500  -999.2500  -999.2500  -999.2500    92.3638  -999.2500    -0.2279     2.4417  -999.2500
   32.0000  -999.2500  -999.2500  -999.2500  -999.2500    91.3322     8.0432    -0.2158     2.4074     0.1926
   32.5000  -999.2500  -999.2500  -999.2500  -999.2500    93.7266     8.0440    -0.1918     2.3074     0.2276
   33.0000  -999.2500  -999.2500  -999.2500  -999.2500    92.2552     8.0450    -0.1707     2.2335     0.2694
   33.5000  -999.2500  -999.2500  -999.2500  -999.2500    89.5900     8.0461    -0.1527     2.1917     0.2885
   34.0000  -999.2500  -999.2500  -999.2500  -999.2500    89.4513     8.0471    -0.1271     2.1522     0.3000
   34.5000  -999.2500  -999.2500  -999.2500  -999.2500    88.4263     8.0630    -0.0866     2.1126     0.3000
   35.0000  -999.2500  -999.2500  -999.2500  -999.2500    86.9516     8.0789    -0.0221     2.0798     0.3000
   35.5000  -999.2500  -999.2500  -999.2500  -999.2500    85.6257     8.0799     0.0019     2.0829     0.3000
   36.0000  -999.2500  -999.2500  -999.2500  -999.2500    88.1689     8.0512     0.0065     2.1315     0.2965
   36.5000  -999.2500  -999.2500  -999.2500  -999.2500    92.2001     8.0671     0.0140     2.1846     0.2849
   37.0000  -999.2500  -999.2500  -999.2500  -999.2500    94.5945     8.0830     0.0156     2.2010     0.2750
   37.5000  -999.2500  -999.2500  -999.2500  -999.2500    95.3519     8.0989     0.0112     2.2093     0.2711
   38.0000   -12.1930     0.3486    10.8492    13.9412    95.6629     8.0551     0.0098     2.2168     0.2737
   38.5000   -12.7662     0.2612    11.2352    13.2008    95.9740     8.0116     0.0084     2.2064     0.2761
   39.0000   -13.3432     0.3689    10.7118    16.5849    96.5826     7.9978     0.0115     2.2072     0.2683
   39.5000   -14.0680     0.4603    10.2834    17.7763    97.4888     7.9991     0.0146     2.2237     0.2608
   40.0000   -14.7929     0.7619    11.2526    16.9485    99.2879     8.0001     0.0192     2.2506     0.2456
   40.5000   -15.6660     2.2197    12.4840    18.4235   101.6823     8.0012     0.0208     2.2679     0.2369
   41.0000   -16.6880     5.9531    12.2350    18.9495   104.6719     8.0022     0.0208     2.2746     0.2363
   41.5000   -17.7106    10.7025    11.3480    19.2236   110.1912     8.0032     0.0194     2.2762     0.2333
   42.0000   -18.8807    11.7952    10.5980    20.0470   113.9249     8.0043     0.0165     2.2815     0.2282
   42.5000   -20.3443    11.4035    10.1043    18.5910   115.1287     8.0053     0.0136     2.2957     0.2240
   43.0000   -21.6668    10.1494     9.7673    19.7924   119.0112     8.0064     0.0152     2.3055     0.2150
   43.5000   -23.2749     8.7876     9.8399    14.8273   124.6793     8.0074     0.0198     2.3160     0.2081
   44.0000   -24.4445     8.0399    10.2604    12.0640   127.0737     8.0084     0.0244     2.3355     0.1937
   44.5000   -25.3143     7.3559    10.4081    11.2652   126.4918     8.0095     0.0290     2.3572     0.1827
   45.0000   -25.7397     6.9660     9.9233    11.2733   124.2731     8.0105     0.0305     2.3774     0.1746
   45.5000   -25.8729     6.8742     8.8922    11.3578   125.1793     8.0115     0.0306     2.3842     0.1737
   46.0000   -26.1540     7.2204     7.9136    11.5221   123.7046     8.0126     0.0307     2.3790     0.1770
   46.5000   -26.1392     7.7411     7.9724    11.9331   121.7835     8.0136     0.0308     2.3775     0.1745
   47.0000   -26.2780     8.1858     8.3706    12.3587   120.6064     8.0147     0.0309     2.3850     0.1712
   47.5000   -26.2574     8.2467     8.9106    12.7115   120.3188     8.0157     0.0325     2.3903     0.1670
   48.0000   -26.0946     7.3606     9.2914    13.1649   121.6749     8.0167     0.0371     2.4016     0.1598
   48.5000   -26.2280     6.9438     9.4252    13.4477   121.9825     8.0178     0.0416     2.4061     0.1652
   49.0000   -26.6570     6.9079     9.1738    13.7366   120.2135     8.0037     0.0372     2.3950     0.1736
   49.5000   -26.6342     7.0597     8.7464    13.1876   120.0748     8.0050     0.0313     2.3778     0.1822
   50.0000   -26.1834     7.1164     8.3390    12.6605   123.6629     7.9912     0.0314     2.3659     0.1837
   50.5000   -25.7249     7.1694     8.0601    12.0710   123.9706     7.9922     0.0345     2.3653     0.1837
   51.0000   -25.4142     7.1731     7.8993    11.7494   122.9457     7.9932     0.0376     2.3668     0.1828
   51.5000   -25.1036     7.1768     7.7953    11.4364   121.6198     7.9943     0.0437     2.3714     0.1795
   52.0000   -24.7929     7.1805     7.7457    11.7629   119.9963     7.9953     0.0468     2.3811     0.1729
   52.5000   -24.4719     7.1876     7.6437    12.3516   117.4799     7.9964     0.0484     2.3859     0.1675
   53.0000   -24.3195     7.2877     7.6477    12.7043   115.4100     7.9974     0.0483     2.3970     0.1648
   53.5000   -24.3047     7.3418     7.6516    13.0670   114.0841     8.0133     0.0469     2.4008     0.1636
   54.0000   -24.5973     7.1915     7.7618    13.0745   113.9453     8.0143     0.0440     2.3954     0.1662
   54.5000   -25.0268     7.0517     7.9279    13.1725   114.1109     8.0154     0.0412     2.3917     0.1686
   55.0000   -25.5920     7.0555     8.0977    13.3631   114.2731     8.0164     0.0415     2.3895     0.1713
   55.5000   -26.0335     7.1121     8.3858    13.2770   116.0722     8.0175     0.0444     2.3859     0.1695
   56.0000   -26.6108     7.1606     8.6841    13.0146   118.4665     8.0333     0.0492     2.3995     0.1626
   56.5000   -27.1882     7.0619     8.8700    12.7537   121.1585     8.0344     0.0521     2.4020     0.1617
   57.0000   -28.0613     7.0214     8.9978    12.3304   122.0614     8.0354     0.0536     2.4063     0.1608
   57.5000   -28.7865     7.0737     8.9406    12.0832   119.3996     8.0365     0.0553     2.4018     0.1629
   58.0000   -29.2016     7.1312     8.9452    11.9246   118.0737     8.0375     0.0538     2.3952     0.1670
   58.5000   -29.1713     7.1843     8.8274    12.4371   119.7240     8.0385     0.0539     2.3930     0.1688
   59.0000   -29.0237     7.2826     8.7111    12.5304   120.9245     8.0245     0.0525     2.3900     0.1697
   59.5000   -29.0089     7.3422     8.5963    12.4514   118.8579     8.0258     0.0526     2.3893     0.1703
   60.0000   -29.1585     7.5514     8.4249    12.2880   115.7463     8.0117     0.0512     2.3872     0.1706
   60.5000   -29.4235     7.7727     8.2568    12.1267   116.5004     8.0130     0.0513     2.3932     0.1666
   61.0000   -29.5566     7.8720     8.0365    12.0486   112.4993     7.9991     0.0529     2.4015     0.1622
   61.5000   -29.8377     7.5971     7.8762    14.2267   111.3222     7.9853     0.0530     2.4038     0.1597
   62.0000   -29.8224     7.1931     7.7725    15.6750   114.4606     7.9864     0.0501     2.4023     0.1669
   62.5000   -29.8077     6.9170     7.8302    13.4788   113.5811     7.9874     0.0457     2.3807     0.1777
   63.0000   -29.7929     7.2754     7.9979    13.0296   115.3802     7.9885     0.0412     2.3725     0.1803
   63.5000   -29.7781     7.6322     8.3397    12.2528   117.1793     7.9746     0.0398     2.3823     0.1716
   64.0000   -29.7633     7.9039     8.9391    11.9247   119.5737     7.9757     0.0415     2.3921     0.1683
   64.5000   -29.8970     8.1291     9.5815    12.6971   118.6942     7.9618     0.0430     2.3921     0.1662
   65.0000   -29.8817     8.1255    10.0601    13.3325   117.2195     7.9629     0.0461     2.4004     0.1614
   65.5000   -30.0153     8.1378    10.0653    12.9755   116.4888     7.9639     0.0492     2.4057     0.1587
   66.0000   -30.0000     8.3039    10.0013    13.3478   115.1629     7.9650     0.0508     2.4102     0.1569
