~VERSION INFORMATION
 VERS.                2.0:   CWLS LOG ASCII STANDARD - VERSION 2.0
 WRAP.                 NO:   ONE LINE PER DEPTH STEP
~WELL INFORMATION
#MNEM.UNIT      DATA TYPE    INFORMATION
#----------   ------------   ------------------------------
 STRT.F           34.5000:   START DEPTH
 STOP.F          665.5000:   STOP DEPTH
 STEP.F            0.5000:   STEP LENGTH
 NULL.          -999.2500:   NO VALUE
 COMP. FENIX & SCISSON INC:   COMPANY
 WELL.    NPR-3 SX #14-14:   WELL
 FLD .        TEAPOT DOME:   FIELD
 LOC .      S14 T38N R78W:   LOCATION
 CNTY.            NATRONA:   COUNTY
 STAT.            WYOMING:   STATE
 CTRY. UNITED STATES OF AMERICA:   COUNTRY
 SRVC.            Unknown:   SERVICE COMPANY
 DATE.        01-JUN-1978:   LOGDATE
 API .       490251063100:   API NUMBER
~CURVE INFORMATION
#MNEM.UNIT       API CODE    CURVE DESCRIPTION
#----------   ------------   ------------------------------
 DEPT.F                  :   
 SPR .MV     05 010 01 00:   SPONTANEOUS POTENTIAL FROM RES.
 SN  .OHMM   05 040 16 00:   SHORT NORMAL 16"
 IL  .OHMM   05 120 00 00:   INDUCTION LOG
 GRD .GAPI   45 310 01 00:   GAMMA RAY FROM DENSITY LOG
 RHOB.G/C3   45 350 01 00:   BULK DENSITY
 DPHI.DEC    45 890 12 00:   DENSITY POROSITY SANDSTONE
 CORR.G/C3   45 356 01 00:   DENSITY CORRECTION
 CALD.IN     45 280 60 00:   CALIPER FROM DENSITY LOG
~PARAMETER INFORMATION
#MNEM.UNIT          VALUE    DESCRIPTION
#----------   ------------   ------------------------------
 PD  .                 GL:   PERMANENT DATUM
 EPD .F              5212:   ELEVATION PERMANENT DATUM
 LMF .                 KB:   LOG MEASURED FROM
 DAPD.F                 4:   FEET ABOVE PERMANENT DATUM
 DMF .                 KB:   DRILLING MEASURED FROM
 EKB .F              5216:   KELLING BUSHING
 EGL .F              5212:   GROUND LEVEL
 DATE.           6-1-1978:   RUN DATE
 RUN .                  1:   RUN NUMBER
 DD  .F               670:   DEPTH DRILLER
 DL  .F               670:   DEPTH LOGGER
 BLI .F               664:   BOTTOM LOG INTERVAL
 TLI .F                40:   TOP LOG INTERVAL
 CS  .IN            8.625:   CASING SIZE
 CBD .F                40:   CASING BOTTOM DRILLER
 BS  .IN            7.875:   BIT SIZE
 BSD .F               670:   BIT SIZE AT DEPTH
 DFT .                KCL:   DRILLING FLUID TYPE
 DFD .                8.7:   DRILLING FLUID DENSITY
 DFV .                 32:   DRILLING FLUID VISCOSITY
 DFPH.                 10:   DRILLING FLUID PH
 RMS .OHMM            .30:   RESISTIVITY MUD SAMPLE
 MST .F                66:   MUD SAMPLE TEMPERATURE
 BHT .F                75:   BOTTOM HOLE TEMPERATURE
 TCS .HRS               2:   TIME CURCULATED STOPPED
 MRT .F                75:   MAXIMUM RECORDED TEMPERATURE
 LUN .               2958:   LOGGING UNIT NUMBER
 LUL .              CSPR.:   LOGGING UNIT LOCATION
 ENGI.             MILLER:   RECORDING ENGINEER
 WITN.           MCGINLEY:   WITNESSED BY
 CLNT.            A2DTECH:   CLIENT CODE
 ORIG.      2" , 5" PRINT:   ORIGIN OF DATA
 UWI .       490251063100:   UNIQUE WELL ID
 DICO. A2D Technologies, Inc.:   DIGITIZING COMPANY
~OTHER INFORMATION
~A   DEPT      SPR         SN         IL         GRD      RHOB       DPHI       CORR       CALD   
# ...
  115.5000   -19.5960    12.6667    18.7633    69.9424     2.3866     0.1656     0.0768     8.0542
  116.0000   -19.4686    12.8019    18.9577    67.5223     2.4002     0.1652     0.0775     8.0428
  116.5000   -19.3414    12.9386    19.1541    65.1754     2.4003     0.1641     0.0783     8.0315
  117.0000   -19.2138    13.0767    19.3525    63.2706     2.4019     0.1617     0.0774     7.9851
  117.5000   -19.0845    13.2163    19.5529    63.4198     2.4080     0.1612     0.0752     7.9040
  118.0000   -19.0534    13.3573    19.7555    63.5050     2.4090     0.1650     0.0646     7.8239
  118.5000   -19.0430    13.4999    19.9601    62.6031     2.4002     0.1680     0.0540     7.7614
  119.0000   -19.0330    13.6440    20.1669    61.5948     2.4000     0.1702     0.0430     7.7441
  119.5000   -19.0228    13.7896    20.3757    61.1490     2.3900     0.1739     0.0385     7.7212
  120.0000   -19.0125    13.9368    20.5865    61.8891     2.3834     0.1747     0.0358     7.6717
  120.5000   -19.0022    14.0856    20.8001    62.7089     2.3849     0.1735     0.0331     7.6218
  121.0000   -18.9919    14.2359    20.9956    63.5258     2.3863     0.1721     0.0303     7.5716
  121.5000   -18.9816    14.3879    21.3787    64.3476     2.3878     0.1717     0.0284     7.5500
  122.0000   -18.9713    14.4840    21.7689    64.6029     2.3893     0.1746     0.0280     7.5528
  122.5000   -18.9611    14.4642    22.1661    64.4436     2.3843     0.1799     0.0277     7.5623
  123.0000   -18.9508    14.4498    22.5707    64.2758     2.3776     0.1787     0.0273     7.5717
  123.5000   -18.9405    14.4353    23.3937    64.1136     2.3755     0.1807     0.0269     7.5811
  124.0000   -18.9302    14.4208    23.1790    64.1502     2.3742     0.1827     0.0260     7.5904
  124.5000   -18.9199    14.4064    23.1790    64.1970     2.3705     0.1847     0.0226     7.5997
  125.0000   -18.9097    14.3920    23.0192    64.2421     2.3678     0.1831     0.0193     7.6094
  125.5000   -18.8994    14.3780    22.6299    64.2899     2.3712     0.1843     0.0159     7.6290
  126.0000   -18.8889    14.3632    22.1619    64.0960     2.3598     0.1829     0.0153     7.6490
  126.5000   -18.8784    14.3247    21.7036    63.7701     2.3653     0.1836     0.0176     7.6690
  127.0000   -18.8700    14.1573    21.2548    63.7844     2.3696     0.1871     0.0176     7.6890
  127.5000   -18.9659    13.9918    20.8152    65.2455     2.3657     0.1880     0.0143     7.7089
  128.0000   -19.2376    13.8283    20.5496    66.7106     2.3619     0.1872     0.0107     7.7289
  128.5000   -19.5067    13.6667    20.4964    65.3450     2.3633     0.1853     0.0072     7.7481
  129.0000   -19.7763    13.5070    20.4452    64.4064     2.3661     0.1847     0.0066     7.7591
  129.5000   -20.0455    13.3492    20.3935    66.3771     2.3685     0.1855     0.0066     7.7697
  130.0000   -20.3147    13.1932    20.3418    68.5543     2.3641     0.1922     0.0066     7.7803
  130.5000   -20.5851    13.0390    20.2902    68.4237     2.3590     0.1915     0.0069     7.7909
  131.0000   -21.1293    12.8689    20.2389    66.0615     2.3544     0.1896     0.0135     7.8015
  131.5000   -21.7761    12.6877    20.1851    64.3411     2.3559     0.1849     0.0199     7.8122
  132.0000   -22.4245    12.5081    19.4357    65.1388     2.3643     0.1803     0.0247     7.8228
  132.5000   -23.0707    12.3311    18.6816    66.8700     2.3742     0.1733     0.0247     7.8334
  133.0000   -23.5785    12.1566    17.9585    67.7965     2.3842     0.1683     0.0249     7.8442
  133.5000   -23.8744    11.9847    17.2692    68.6019     2.3942     0.1659     0.0250     7.8438
  134.0000   -24.1672    11.8250    16.6237    69.4249     2.4043     0.1549     0.0251     7.8392
  134.5000   -24.5021    11.2371    15.0559    69.4777     2.4211     0.1404     0.0253     7.8344
  135.0000   -25.6696    10.7086    13.7046    68.7608     2.4448     0.1256     0.0254     7.8296
  135.5000   -26.8134    10.2051    12.4746    67.1701     2.4620     0.1225     0.0256     7.8249
  136.0000   -27.9827     9.7252    11.3542    66.0533     2.4686     0.1233     0.0257     7.8201
  136.5000   -28.7017     9.2678    10.3375    69.4516     2.4738     0.1227     0.0258     7.8154
  137.0000   -29.0376     8.8320     9.4782    73.7354     2.4727     0.1250     0.0260     7.8107
  137.5000   -29.2884     8.4167     9.0270    78.0662     2.4755     0.1288     0.0261     7.8085
  138.0000   -29.4345     8.0285     8.5931    80.2807     2.4637     0.1302     0.0263     7.8114
  138.5000   -29.4431     7.7759     8.1800    80.9148     2.4590     0.1304     0.0264     7.8142
  139.0000   -29.4414     7.4576     7.8095    81.3702     2.4593     0.1305     0.0266     7.8171
  139.5000   -29.4411     7.4600     7.7778    81.7245     2.4558     0.1321     0.0266     7.8199
  140.0000   -29.4411     7.4635     7.7480    82.0752     2.4608     0.1341     0.0244     7.8228
  140.5000   -29.4411     7.4670     7.7183    82.2725     2.4558     0.1361     0.0216     7.8256
  141.0000   -29.4411     7.4705     7.6887    81.6743     2.4504     0.1357     0.0188     7.8282
  141.5000   -29.4411     7.4740     7.6593    81.9173     2.4465     0.1368     0.0159     7.8304
  142.0000   -29.4411     7.4775     7.6300    82.3335     2.4489     0.1393     0.0131     7.8325
  142.5000   -29.4411     7.4811     7.6007    81.1803     2.4447     0.1419     0.0103     7.8347
  143.0000   -29.4411     7.4846     7.5716    80.9711     2.4404     0.1444     0.0091     7.8368
  143.5000   -29.4411     7.4881     7.5426    80.9768     2.4361     0.1436     0.0103     7.8390
  144.0000   -29.4411     7.4916     7.5137    80.3402     2.4326     0.1399     0.0154     7.8411
  144.5000   -29.4411     7.4951     7.4849    79.3530     2.4418     0.1369     0.0211     7.8432
  145.0000   -29.4411     7.4987     7.4562    78.7718     2.4494     0.1353     0.0265     7.8454
  145.5000   -29.4411     7.5022     7.4277    79.4777     2.4498     0.1327     0.0266     7.8475
  146.0000   -29.4411     7.5057     7.3992    81.2700     2.4548     0.1304     0.0266     7.8497
  146.5000   -29.4411     7.5093     7.3709    83.0891     2.4607     0.1312     0.0266     7.8518
  147.0000   -29.4411     7.5128     7.3426    84.8720     2.4565     0.1303     0.0266     7.8540
  147.5000   -29.4411     7.5163     7.3145    84.3264     2.4585     0.1281     0.0266     7.8561
  148.0000   -29.4411     7.5199     7.2865    82.1550     2.4635     0.1298     0.0266     7.8583
  148.5000   -29.4411     7.5233     7.2542    80.1926     2.4602     0.1295     0.0266     7.8604
  149.0000   -29.4411     7.5246     7.3186    80.0261     2.4591     0.1250     0.0266     7.8626
  149.5000   -29.4411     7.6047     7.3957    79.9016     2.4680     0.1217     0.0266     7.8648
  150.0000   -29.4411     7.6799     7.4735    79.7224     2.4721     0.1210     0.0266     7.8668
  150.5000   -29.4411     7.7555     7.5523    79.1456     2.4748     0.1251     0.0266     7.8547
  151.0000   -29.4411     7.8318     7.6318    78.5620     2.4710     0.1287     0.0266     7.8408
  151.5000   -29.4411     7.9089     7.7123    77.9834     2.4633     0.1305     0.0266     7.8270
  152.0000   -29.4411     7.9866     7.7935    77.5944     2.4571     0.1325     0.0266     7.8131
  152.5000   -29.4411     8.0652     7.8756    78.2645     2.4547     0.1325     0.0266     7.7993
  153.0000   -29.4411     8.1446     7.9585    81.5478     2.4531     0.1297     0.0266     7.7872
  153.5000   -29.4411     8.2247     8.0428    82.3628     2.4585     0.1224     0.0288     7.7781
  154.0000   -29.4412     8.3057     8.1206    81.3935     2.4724     0.1257     0.0326     7.7681
  154.5000   -29.4413     8.3514     8.1841    80.3904     2.4689     0.1247     0.0365     7.7580
  155.0000   -29.4430     8.3817     8.3309    79.3849     2.4694     0.1229     0.0404     7.7481
  155.5000   -29.3594     8.4075     8.3214    78.3824     2.4710     0.1221     0.0443     7.7383
