~VERSION INFORMATION
 VERS.                2.0:   CWLS LOG ASCII STANDARD - VERSION 2.0
 WRAP.                 NO:   ONE LINE PER DEPTH STEP
~WELL INFORMATION
#MNEM.UNIT      DATA TYPE    INFORMATION
#----------   ------------   ------------------------------
 STRT.F            8.0000:   START DEPTH
 STOP.F          916.0000:   STOP DEPTH
 STEP.F            0.5000:   STEP LENGTH
 NULL.          -999.2500:   NO VALUE
 COMP. LAWRENCE/ALLISON INC:   COMPANY
 WELL.    41-66 SX #11-11:   WELL
 FLD .             NPR #3:   FIELD
 LOC .      S11 T38N R78W:   LOCATION
 CNTY.            NATRONA:   COUNTY
 STAT.            WYOMING:   STATE
 CTRY. UNITED STATES OF AMERICA:   COUNTRY
 SRVC.           Gearhart:   SERVICE COMPANY
 DATE.        13-MAY-1987:   LOGDATE
 API .       490251112600:   API NUMBER
~CURVE INFORMATION
#MNEM.UNIT       API CODE    CURVE DESCRIPTION
#----------   ------------   ------------------------------
 DEPT.F                  :   
 GRR .GAPI   07 310 01 00:   GAMMA RAY FROM RES. LOG.
 RILM.OHMM   07 120 44 00:   INDUCTION LOG MEDIUM RESISTIVITY
 RILD.OHMM   07 120 46 00:   INDUCTION LOG DEEP RESISTIVITY
~PARAMETER INFORMATION
#MNEM.UNIT          VALUE    DESCRIPTION
#----------   ------------   ------------------------------
 PD  .                 GL:   PERMANENT DATUM
 EPD .F              5166:   ELEVATION PERMANENT DATUM
 LMF .                 KB:   LOG MEASURED FROM
 DAPD.F                 8:   FEET ABOVE PERMANENT DATUM
 DMF .                 KB:   DRILLING MEASURED FROM
 EKB .F              5174:   KELLING BUSHING
 EDF .F              5174:   DRILLING FLOOR
 EGL .F              5166:   GROUND LEVEL
 DATE.            5-13-87:   RUN DATE
 RUN .                  1:   RUN NUMBER
 DD  .F               945:   DEPTH DRILLER
 DL  .F               930:   DEPTH LOGGER
 BLI .F               921:   BOTTOM LOG INTERVAL
 TLI .F                49:   TOP LOG INTERVAL
 CS  .IN            8.625:   CASING SIZE
 CBD .F                47:   CASING BOTTOM DRILLER
 CBL .F                49:   CASING BOTTOM LOGGER
 BS  .IN            7.875:   BIT SIZE
 BSD .F               945:   BIT SIZE AT DEPTH
 DFT .           AIR FOAM:   DRILLING FLUID TYPE
 TCS .HRS            2230:   TIME CURCULATED STOPPED
 TLAB.HRS            1105:   TIME LOGGER AT BOTTOM
 MRT .F                80:   MAXIMUM RECORDED TEMPERATURE
 LUN .               7597:   LOGGING UNIT NUMBER
 LUL .                GLT:   LOGGING UNIT LOCATION
 ENGI.            WANGLER:   RECORDING ENGINEER
 WITN.             STRONG:   WITNESSED BY
 CLNT.            A2DTECH:   CLIENT CODE
 ORIG.       2", 5" PRINT:   ORIGIN OF DATA
 UWI .       490251112600:   UNIQUE WELL ID
 DICO. A2D Technologies, Inc.:   DIGITIZING COMPANY
~OTHER INFORMATION
~A    DEPT      GRR      RILM       RILD   
# ...
  463.0000   100.0915     8.4691     8.2660
  463.5000   101.6115     8.4607     8.2453
  464.0000   107.1464     8.4523     8.2242
  464.5000   111.3108     8.4441     8.1986
  465.0000   110.3341     8.4342     8.2259
  465.5000   108.8392     8.4932     8.2611
  466.0000   108.6538     8.5670     8.2967
  466.5000   111.3475     8.6418     8.3324
  467.0000   111.2285     8.7171     8.3682
  467.5000   107.3863     8.7931     8.4041
  468.0000   102.0062     8.8414     8.4339
  468.5000   101.1653     8.7781     8.4206
  469.0000   103.1696     8.7320     8.4092
  469.5000   107.6378     8.6863     8.3979
  470.0000   109.5595     8.6408     8.3865
  470.5000   111.3641     8.5955     8.3752
  471.0000   113.0370     8.5505     8.3639
  471.5000   113.4335     8.5139     8.3546
  472.0000   113.0005     8.5139     8.3547
  472.5000   112.4881     8.5140     8.3547
  473.0000   111.9082     8.5139     8.3547
  473.5000   111.3414     8.5139     8.3547
  474.0000   111.6722     8.5139     8.3547
  474.5000   113.2582     8.5139     8.3547
  475.0000   114.5855     8.5139     8.3547
  475.5000   113.9053     8.5139     8.3547
  476.0000   113.1831     8.5139     8.3547
  476.5000   113.0261     8.5139     8.3547
  477.0000   114.4735     8.5139     8.3547
  477.5000   116.3444     8.5139     8.3547
  478.0000   116.2327     8.5139     8.3547
  478.5000   115.0317     8.5141     8.3546
  479.0000   112.2178     8.5128     8.3558
  479.5000   110.4890     8.4832     8.3123
  480.0000   109.8884     8.4538     8.2616
  480.5000   110.0776     8.4246     8.2116
  481.0000   110.7427     8.3954     8.1618
  481.5000   112.0793     8.3664     8.1124
  482.0000   113.2436     8.3448     8.0633
  482.5000   114.0711     8.3284     8.0376
  483.0000   115.0051     8.3120     8.0256
  483.5000   116.3969     8.2956     8.0136
  484.0000   117.8013     8.2793     8.0017
  484.5000   118.3224     8.2630     7.9897
  485.0000   118.3322     8.2467     7.9778
  485.5000   118.3308     8.2305     7.9658
  486.0000   118.6828     8.2143     7.9539
  486.5000   119.3815     8.1981     7.9421
  487.0000   119.9319     8.1820     7.9302
  487.5000   119.6502     8.1659     7.9183
  488.0000   117.6609     8.1499     7.9065
  488.5000   115.8435     8.1333     7.8958
  489.0000   116.5953     8.1218     7.9744
  489.5000   117.5342     8.2105     8.0541
  490.0000   117.8194     8.2833     8.1346
  490.5000   118.2350     8.3569     8.2158
  491.0000   118.6564     8.4310     8.2979
  491.5000   119.0951     8.5059     8.3809
  492.0000   118.5009     8.5814     8.4647
  492.5000   117.9329     8.6575     8.5491
  493.0000   117.8975     8.7344     8.5946
  493.5000   114.0266     8.8414     8.5301
  494.0000   110.9724     8.8116     8.4797
  494.5000   109.3700     8.7219     8.4296
  495.0000   110.1342     8.6331     8.3798
  495.5000   111.8644     8.5452     8.3302
  496.0000   113.4247     8.4583     8.2810
  496.5000   113.4559     8.3721     8.2321
  497.0000   113.1630     8.2852     8.1985
  497.5000   112.7636     8.2053     8.1061
  498.0000   112.3893     8.0503     8.0013
  498.5000   111.8914     7.9950     7.8980
  499.0000   112.6358     7.9053     7.7958
  499.5000   114.1877     7.8016     7.6950
  500.0000   117.4720     7.6997     7.5956
  500.5000   120.6449     7.5992     7.4974
  501.0000   119.7961     7.5000     7.4005
  501.5000   116.0704     7.4598     7.3048
  502.0000   112.6999     7.4985     7.2520
  502.5000   112.2266     7.5606     7.3597
  503.0000   113.3925     7.6227     7.4353
  503.5000   117.1519     7.6853     7.5117
  504.0000   120.7729     7.7484     7.5889
  504.5000   121.1387     7.8120     7.6669
  505.0000   117.6779     7.8762     7.7457
  505.5000   114.3446     7.9409     7.8253
  506.0000   111.8919     8.0061     7.9057
  506.5000   112.0615     8.0718     7.9869
  507.0000   114.7873     8.1381     8.0690
  507.5000   118.0802     8.2050     8.1520
  508.0000   119.9735     8.2723     8.2357
  508.5000   116.6482     8.3403     8.3203
  509.0000   113.4743     8.3816     8.3547
  509.5000   111.9542     8.4161     8.3026
  510.0000   110.5092     8.4506     8.2656
  510.5000   109.0768     8.4852     8.2288
  511.0000   107.9296     8.5139     8.1922
  511.5000   109.1688     8.4630     8.1557
  512.0000   111.5163     8.4199     8.1194
  512.5000   113.8629     8.3769     8.0833
  513.0000   115.8087     8.3342     8.0473
  513.5000   116.7536     8.2917     8.0115
  514.0000   117.5533     8.2494     7.9758
  514.5000   117.6283     8.2073     7.9403
  515.0000   117.7200     8.1655     7.8948
  515.5000   117.8144     8.1215     7.9451
  516.0000   117.9436     8.1693     8.0163
  516.5000   116.3947     8.2556     8.0452
  517.0000   114.4498     8.3429     8.0832
  517.5000   113.0320     8.4865     8.2369
  518.0000   112.1857     8.6413     8.3935
  518.5000   111.3363     8.7989     8.5531
  519.0000   110.8334     8.9594     8.7157
  519.5000   110.5468     9.1229     8.8814
  520.0000   110.2643     9.2893     9.0503
  520.5000   109.5799     9.4588     9.2224
  521.0000   108.7177     9.6314     9.3978
  521.5000   108.5354     9.8071     9.5765
  522.0000   107.6223     9.9860     9.7585
  522.5000   105.4906    10.1682     9.9441
  523.0000   104.5152    10.3537    10.1332
  523.5000   105.5390    10.5425    10.3258
  524.0000   108.5356    10.7349    10.5222
  524.5000   110.4123    10.9307    10.7222
  525.0000   108.9792    11.1301    10.9261
  525.5000   107.3376    11.3332    11.1339
  526.0000   105.6824    11.5399    11.3456
  526.5000   104.0984    11.7347    11.5297
  527.0000   103.7056    11.7347    11.5919
  527.5000   103.3443    11.7350    11.6247
  528.0000   103.8102    11.7347    11.6160
  528.5000   104.8684    11.7348    11.5528
  529.0000   105.0832    11.7347    11.4900
  529.5000   104.1921    11.7347    11.4275
  530.0000   102.7888    11.5756    11.3458
  530.5000   101.1609    11.3945    11.1357
  531.0000   100.8105    11.2162    10.9295
  531.5000   100.4443    11.0406    10.7270
  532.0000   100.8548    10.8675    10.5758
  532.5000   101.2386    10.7748    10.5683
  533.0000   101.6261    10.7661    10.5608
  533.5000   101.1015    10.7577    10.5533
  534.0000   100.3921    10.7491    10.5458
  534.5000    99.6963    10.7404    10.5383
  535.0000   100.1257    10.7318    10.5308
  535.5000   100.8071    10.7232    10.5233
  536.0000    99.5524    10.7146    10.5158
  536.5000    98.2052    10.7059    10.5083
  537.0000    97.9904    10.6974    10.5009
  537.5000    98.6327    10.6888    10.4934
  538.0000    99.1281    10.6816    10.4859
  538.5000    97.5946    10.5997    10.4821
  539.0000    96.1437    10.4962    10.3281
  539.5000    95.4978    10.3936    10.1772
  540.0000    95.7863    10.2410    10.0285
  540.5000    97.7958    10.0842     9.8819
  541.0000   100.3394     9.9291     9.7375
  541.5000   101.2190     9.7879     9.6251
  542.0000   102.0273     9.6926     9.5834
  542.5000   102.4767     9.5971     9.5426
  543.0000   101.5625     9.5337     9.5019
  543.5000   100.6004     9.5353     9.4615
  544.0000    99.8952     9.4590     9.3800
  544.5000    99.2418     9.4039     9.2716
  545.0000    98.4643     9.3491     9.1644
  545.5000    97.1851     9.2947     9.0585
  546.0000    95.9489     9.2405     8.9539
  546.5000    94.7094     9.1867     8.8502
  547.0000    93.4595     9.1332     8.7479
  547.5000    93.4422     9.0952     8.6754
  548.0000    95.4925     9.1058     8.7623
  548.5000    97.8641     9.1207     8.7537
  549.0000    97.9477     9.1357     8.8789
  549.5000    95.4021     9.1506     8.9198
  550.0000    93.3959     9.1656     8.9596
  550.5000    94.0184     9.1813     9.0097
  551.0000    97.9871     9.1815     8.9448
  551.5000    99.5348     9.0843     8.8580
  552.0000    98.2719     8.9196     8.7848
  552.5000    96.1593     8.7579     8.6518
  553.0000    95.9754     8.5946     8.5209
  553.5000    98.3229     8.3922     8.3384
