~VERSION INFORMATION
 VERS.                2.0:   CWLS LOG ASCII STANDARD - VERSION 2.0
 WRAP.                 NO:   ONE LINE PER DEPTH STEP
~WELL INFORMATION
#MNEM.UNIT      DATA TYPE    INFORMATION
#----------   ------------   ------------------------------
 STRT.F            0.5000:   START DEPTH
 STOP.F          696.0000:   STOP DEPTH
 STEP.F            0.5000:   STEP LENGTH
 NULL.          -999.2500:   NO VALUE
 COMP. LAWRENCE/ALLISON INC:   COMPANY
 WELL. SX 11 WP #26-44-11:   WELL
 FLD .             TEAPOT:   FIELD
 LOC .      S11 T38N R78W:   LOCATION
 CNTY.            NATRONA:   COUNTY
 STAT.            WYOMING:   STATE
 CTRY. UNITED STATES OF AMERICA:   COUNTRY
 SRVC.      Dresser Atlas:   SERVICE COMPANY
 DATE.        08-SEP-1984:   LOGDATE
 API .       490251097600:   API NUMBER
~CURVE INFORMATION
#MNEM.UNIT       API CODE    CURVE DESCRIPTION
#----------   ------------   ------------------------------
 DEPT.F                  :   
 AC  .US/F   60 520 00 00:   ACCOUSTIC
 SPR .MV     07 010 01 00:   SPONTANEOUS POTENTIAL FROM RES.
 RILD.OHMM   07 120 46 00:   RESISTIVITY INDUCTION LOG DEEP
 RILM.OHMM   07 120 44 00:   RESISTIVITY INDUCTION LOG MEDIUM
 RFOC.OHMM   07 220 04 00:   RESISTIVITY FOCUSED LOG
 GRR .GAPI   07 310 01 00:   GAMMA RAY FROM RESISTIVITY
 CALD.IN     45 280 60 00:   CALIPER FROM DENSITY LOG
 DEN .G/C3   45 350 01 00:   COMPENSATED BULK DENSTIY
 CORR.G/C3   45 356 01 00:   DENSITY CORRECTION
 PORD.DEC    45 890 12 00:   POROSITY DENSITY SANDSTONE
 CNC .DEC    42 890 03 00:   NEUTRON POROSITY SANDSTONE
~PARAMETER INFORMATION
#MNEM.UNIT          VALUE    DESCRIPTION
#----------   ------------   ------------------------------
 PD  .                 GL:   PERMANENT DATUM
 EPD .F              5186:   ELEVATION PERMANENT DATUM
 LMF .                 GL:   LOG MEASURED FROM
 DMF .                 GL:   DRILLING MEASURED FROM
 EGL .F              5186:   GROUND LEVEL
 DATE.         8-SEP-1984:   RUN DATE
 RUN .                  1:   RUN NUMBER
 DD  .F               712:   DEPTH DRILLER
 DL  .F               695:   DEPTH LOGGER
 BLI .F               693:   BOTTOM LOG INTERVAL
 CS  .IN            8.625:   CASING SIZE
 CBD .F                40:   CASING BOTTOM DRILLER
 CBL .F                45:   CASING BOTTOM LOGGER
 BS  .IN            7.875:   BIT SIZE
 BSD .F               712:   BIT SIZE AT DEPTH
 DFT .          KCL WATER:   DRILLING FLUID TYPE
 MSS .           FLOWLINE:   MUD SAMPLE SOURCE
 RMS .OHMM            .22:   RESISTIVITY MUD SAMPLE
 MST .F                72:   MUD SAMPLE TEMPERATURE
 RMF .OHMM            .17:   RESISTIVITY MUD FILTRATE SAMPLE
 MFST.F                72:   MUD FILTRATE SAMPLE TEMPERATURE
 RMC .OHMM            .28:   RESISTIVITY MUD CAKE
 MCST.F                72:   MUD CAKE SAMPLE TEMPERATURE
 MFSS.               CALC:   MUD FILTRATE SAMPLE SOURCE
 MCSS.               CALC:   MUD CAKE SAMPLE SOURCE
 RMB .OHMM            .18:   RESISTIVITY MUD AT BHT
 BHT .F                90:   BOTTOM HOLE TEMPERATURE
 TCS .HRS               3:   TIME CURCULATED STOPPED
 MRT .F                90:   MAXIMUM RECORDED TEMPERATURE
 LUN .               6274:   LOGGING UNIT NUMBER
 LUL .               GLTE:   LOGGING UNIT LOCATION
 ENGI.             RAUTIO:   RECORDING ENGINEER
 WITN.           JENNINGS:   WITNESSED BY
 CLNT.            A2DTECH:   CLIENT CODE
 ORIG. 1", 2', 2.5", 5" PRNT:   ORIGIN OF DATA
 UWI .       490251097600:   UNIQUE WELL ID
 DICO. A2D Technologies, Inc.:   DIGITIZING COMPANY
~OTHER INFORMATION
~A    DEPT      AC        SPR       RILD       RILM       RFOC         GRR      CALD        DEN       CORR       PORD        CNC   
# ...
  122.5000   110.0200   -13.2590     7.3410     7.4460     8.0140    92.3993     7.8890     2.4630     0.0240     0.1290     0.3162
  123.0000   109.5220   -13.2110     7.3250     7.4350     7.9520    90.3352     7.8910     2.4610     0.0250     0.1300     0.3057
  123.5000   109.0240   -13.1800     7.3100     7.4240     7.7940    90.0460     7.8910     2.4560     0.0210     0.1330     0.3001
  124.0000   109.0040   -13.3920     7.3100     7.4130     7.6350    93.6129     7.8910     2.4530     0.0160     0.1360     0.3087
  124.5000   109.3030   -13.6000     7.3100     7.4020     7.4770    93.0289     7.8910     2.4540     0.0080     0.1350     0.3154
  125.0000   109.6220   -13.8070     7.3100     7.3910     7.4450    92.4434     7.8910     2.4560    -0.0020     0.1330     0.3221
  125.5000   109.3820   -14.0130     7.3100     7.3770     7.4450    92.1585     7.8910     2.4580    -0.0110     0.1320     0.3237
  126.0000   109.2230   -14.1570     7.3800     7.4900     7.5760    91.8707     7.8890     2.4590    -0.0040     0.1320     0.3153
  126.5000   108.5170   -13.9410     7.4960     7.6310     7.7400    91.5815     7.8860     2.4560     0.0060     0.1320     0.3183
  127.0000   107.9280   -13.7030     7.6110     7.7720     7.9030    91.2937     7.8830     2.4530     0.0040     0.1340     0.3208
  127.5000   107.3400   -13.4640     7.7960     7.9400     8.0660    90.4148     7.8800     2.4530    -0.0060     0.1350     0.3194
  128.0000   106.6330   -13.2250     7.7380     7.8480     8.1620    90.1270     7.8760     2.4570    -0.0010     0.1340     0.3029
  128.5000   106.6330   -12.9810     7.5980     7.6970     8.2380    90.1370     7.8730     2.4620     0.0080     0.1310     0.3204
  129.0000   107.2310   -13.0520     7.4590     7.5460     8.0430    91.3321     7.8700     2.4640     0.0160     0.1290     0.3295
  129.5000   108.2270   -13.1610     7.3190     7.3950     7.8520    93.7110     7.8670     2.4620     0.0050     0.1290     0.3280
  130.0000   109.2230   -13.2720     7.1790     7.2430     7.6600    96.0899     7.8640     2.4500    -0.0100     0.1350     0.3215
  130.5000   110.2190   -13.3820     7.0390     7.0920     7.4680    94.9132     7.8600     2.4370    -0.0090     0.1420     0.3279
  131.0000   110.7170   -13.4930     6.9000     6.9410     7.2770    94.0343     7.8570     2.4390     0.0070     0.1440     0.3341
  131.5000   111.2150   -13.6030     6.7920     6.8460     7.1150    93.7437     7.8540     2.4450     0.0200     0.1410     0.3368
  132.0000   111.0790   -13.7140     6.7570     6.8270     7.1310    92.5684     7.8520     2.4510     0.0190     0.1370     0.3330
  132.5000   110.9430   -13.8240     6.7240     6.8070     7.1620    91.6881     7.8510     2.4570     0.0180     0.1330     0.3277
  133.0000   110.8080   -13.9340     6.6910     6.7880     7.1940    91.6994     7.8510     2.4620     0.0200     0.1300     0.3145
  133.5000   110.6720   -14.0450     6.6580     6.7680     7.2430    93.7820     7.8510     2.4580     0.0210     0.1300     0.3203
  134.0000   110.8040   -14.1530     6.6250     6.7490     7.2280    98.2350     7.8510     2.4490     0.0140     0.1370     0.3239
  134.5000   111.1160   -14.1070     6.5910     6.7290     7.1940    99.7250     7.8510     2.4400    -0.0070     0.1430     0.3236
  135.0000   111.4270   -13.9660     6.5580     6.7100     7.1600    98.2535     7.8510     2.4380    -0.0170     0.1440     0.3201
  135.5000   111.7380   -13.8270     6.5250     6.6900     7.1260    95.5953     7.8520     2.4380    -0.0200     0.1440     0.3143
  136.0000   112.0490   -13.6880     6.4860     6.6680     7.0920    93.2335     7.8540     2.4380    -0.0220     0.1450     0.3133
  136.5000   112.3610   -13.5480     6.5600     6.7630     7.0460    92.9443     7.8570     2.4410    -0.0140     0.1440     0.3191
  137.0000   112.6100   -13.4090     6.6470     6.8750     7.0650    95.0298     7.8600     2.4460    -0.0070     0.1410     0.3219
  137.5000   112.6100   -13.2690     6.7290     6.9870     7.0950    94.4457     7.8620     2.4500     0.0010     0.1380     0.3154
  138.0000   112.3110   -13.1300     6.8740     7.0990     7.1520    93.8602     7.8650     2.4510     0.0090     0.1360     0.3006
  138.5000   111.8130   -12.9900     7.0120     7.2120     7.2420    92.9798     7.8680     2.4510     0.0170     0.1360     0.3008
  139.0000   111.2650   -12.8510     7.1500     7.3240     7.3790    92.9912     7.8710     2.4490     0.0240     0.1370     0.3143
  139.5000   110.7170   -12.7110     7.2880     7.4360     7.6500    92.7006     7.8710     2.4470     0.0260     0.1380     0.3272
  140.0000   110.1690   -12.5770     7.4260     7.5480     8.0140    92.4157     7.8710     2.4460     0.0110     0.1390     0.3291
  140.5000   109.6220   -12.5350     7.4540     7.6540     8.0010    92.7205     7.8710     2.4450     0.0020     0.1400     0.3207
  141.0000   109.4350   -12.4970     7.4630     7.6640     7.9820    91.8387     7.8710     2.4490    -0.0040     0.1380     0.3179
  141.5000   109.2480   -12.4590     7.4730     7.6730     7.9620    90.6635     7.8710     2.4540    -0.0130     0.1350     0.3201
  142.0000   109.0240   -12.4210     7.4820     7.6830     7.9430    89.7845     7.8710     2.4590    -0.0230     0.1330     0.3224
  142.5000   108.3270   -12.3840     7.4920     7.6920     7.9240    89.1990     7.8710     2.4570    -0.0270     0.1320     0.3221
  143.0000   107.4550   -12.3130     7.5010     7.7020     7.9050    90.6919     7.8710     2.4540    -0.0090     0.1340     0.3153
  143.5000   106.5840   -12.2390     7.5130     7.7110     7.8850    92.4782     7.8710     2.4510     0.0080     0.1350     0.3034
  144.0000   106.4940   -12.1640     7.4510     7.7250     7.8680    92.7830     7.8710     2.4490     0.0230     0.1360     0.2998
  144.5000   106.9260   -12.0900     7.3570     7.6690     7.7830    91.9027     7.8710     2.4560     0.0310     0.1320     0.2875
  145.0000   107.3570   -12.0150     7.2640     7.5520     7.7040    91.9126     7.8710     2.4640     0.0400     0.1280     0.3161
  145.5000   107.7890   -11.9410     7.1700     7.4360     7.6260    91.6234     7.8710     2.4670     0.0390     0.1260     0.3234
  146.0000   108.2200   -11.8660     7.0770     7.3200     7.5470    90.4468     7.8710     2.4640     0.0290     0.1290     0.3246
  146.5000   108.6520   -11.7930     6.9830     7.2040     7.4680    91.6419     7.8710     2.4560     0.0130     0.1320     0.3236
  147.0000   108.7500   -11.8520     6.8890     7.0870     7.3900    95.5037     7.8720     2.4530     0.0030     0.1340     0.3230
  147.5000   108.6250   -11.9310     6.7960     6.9810     7.3110    98.7715     7.8810     2.4510    -0.0120     0.1350     0.3054
  148.0000   108.5010   -12.0110     6.7290     6.9180     7.2320    97.2985     7.8900     2.4480    -0.0160     0.1380     0.3095
  148.5000   108.4260   -12.0910     6.9330     7.0560     7.1770    95.2330     7.8990     2.4440    -0.0090     0.1420     0.3136
  149.0000   108.4260   -12.1710     7.0910     7.2550     7.1770    93.7600     7.9090     2.4470     0.0070     0.1410     0.3096
  149.5000   108.2930   -11.9990     7.2480     7.4540     7.1770    94.0663     7.8900     2.4580     0.0230     0.1320     0.3042
  150.0000   108.2270   -11.7900     7.4060     7.6540     7.3580    96.7414     7.8610     2.4690     0.0300     0.1190     0.3003
  150.5000   107.4470   -11.5570     7.5630     7.8530     7.5600    96.1574     7.8340     2.4760     0.0130     0.1210     0.2972
  151.0000   106.7970   -11.3100     7.7210     8.0520     7.7620    92.0192     7.8390     2.4710    -0.0040     0.1240     0.2996
  151.5000   106.1470   -11.0610     7.8780     8.2520     7.9630    89.3611     7.8430     2.4700    -0.0070     0.1260     0.2986
  152.0000   105.4970   -10.8130     8.0360     8.4680     8.1650    89.6660     7.8470     2.4720     0.0060     0.1250     0.3002
  152.5000   104.8470   -10.5650     8.1940     8.4680     8.3670    91.7472     7.8510     2.4780     0.0070     0.1210     0.3084
