~VERSION INFORMATION
 VERS.                2.0:   CWLS LOG ASCII STANDARD - VERSION 2.0
 WRAP.                 NO:   ONE LINE PER DEPTH STEP
~WELL INFORMATION
#MNEM.UNIT      DATA TYPE    INFORMATION
#----------   ------------   ------------------------------
 STRT.F          100.0000:   START DEPTH
 STOP.F          780.0000:   STOP DEPTH
 STEP.F            0.5000:   STEP LENGTH
 NULL.          -999.2500:   NO VALUE
 COMP. U S NAVY-INTEX OIL:   COMPANY
 WELL.        NPR #34-S-2:   WELL
 FLD .             TEAPOT:   FIELD
 LOC .       S2 T38N R78W:   LOCATION
 CNTY.            NATRONA:   COUNTY
 STAT.            WYOMING:   STATE
 CTRY. UNITED STATES OF AMERICA:   COUNTRY
 SRVC.       Schlumberger:   SERVICE COMPANY
 DATE.        16-JUL-1962:   LOGDATE
 API .       490250644000:   API NUMBER
~CURVE INFORMATION
#MNEM.UNIT       API CODE    CURVE DESCRIPTION
#----------   ------------   ------------------------------
 DEPT.F                  :   
 ASN .OHMM   05 041 16 00:   AMPLIFIED SHORT NORMAL 16"
 CILD.MMHO   05 110 46 00:   CONDUCTIVITY INDUCTION LOG DEEP
 ILD .OHMM   05 120 46 00:   INDUCTION LOG DEEP
 SPR .MV     05 010 01 00:   SPONTANEOUS POTENTIAL FROM RES.
 CALM.IN     15 280 01 00:   CALIPER FROM MICRO LOG
 GR  .GAPI   30 310 01 00:   GAMMA RAY
~PARAMETER INFORMATION
#MNEM.UNIT          VALUE    DESCRIPTION
#----------   ------------   ------------------------------
 LMF .                 KB:   LOG MEASURED FROM
 DMF .                 KB:   DRILLING MEASURED FROM
 EKB .F              5130:   KELLING BUSHING
 EGL .F              5125:   GROUND LEVEL
 DATE.        16-JUL-1962:   RUN DATE
 RUN .                  1:   RUN NUMBER
 DD  .F               780:   DEPTH DRILLER
 DL  .F               781:   DEPTH LOGGER
 BLI .F               780:   BOTTOM LOG INTERVAL
 TLI .F               100:   TOP LOG INTERVAL
 CBD .F                10:   CASING BOTTOM DRILLER
 BS  .IN             6.75:   BIT SIZE
 BSD .F               780:   BIT SIZE AT DEPTH
 DFT .       OIL EMULSION:   DRILLING FLUID TYPE
 DFD .               10.3:   DRILLING FLUID DENSITY
 DFV .                 43:   DRILLING FLUID VISCOSITY
 DFL .                4.6:   DRILLING FLUID LOSS
 RMS .OHMM              4:   RESISTIVITY MUD SAMPLE
 MST .F                82:   MUD SAMPLE TEMPERATURE
 RMF .OHMM            3.1:   RESISTIVITY MUD FILTRATE SAMPLE
 MFST.F                82:   MUD FILTRATE SAMPLE TEMPERATURE
 RMC .OHMM            4.3:   RESISTIVITY MUD CAKE
 MCST.F                82:   MUD CAKE SAMPLE TEMPERATURE
 TCS .HRS             0.5:   TIME CURCULATED STOPPED
 LUN .               2503:   LOGGING UNIT NUMBER
 LUL .               CSPR:   LOGGING UNIT LOCATION
 ENGI.           ELLERMAN:   RECORDING ENGINEER
 WITN.          JORGENSON:   WITNESSED BY
 CLNT.            A2DTECH:   CLIENT CODE
 ORIG.           5" PRINT:   ORIGIN OF DATA
 UWI .       490250644000:   UNIQUE WELL ID
 DICO. A2D Technologies, Inc.:   DIGITIZING COMPANY
~OTHER INFORMATION
~A   DEPT       ASN       CILD         ILD      SPR       CALM         GR   
# ...
  256.0000     7.3094   148.0240     7.2364   -49.2016  -999.2500  -999.2500
  256.5000     7.2945   146.5093     7.3130   -49.1972  -999.2500  -999.2500
  257.0000     7.3244   144.9976     7.4649   -49.1929  -999.2500  -999.2500
  257.5000     7.4141   143.4860     7.5415   -49.1885  -999.2500  -999.2500
  258.0000     7.5037   142.7265     7.6178   -49.1841  -999.2500  -999.2500
  258.5000     7.5187   144.2053     7.3938   -49.1797  -999.2500  -999.2500
  259.0000     7.4888   145.6877     7.1697   -49.1753  -999.2500  -999.2500
  259.5000     7.4439   146.4222     7.0959   -49.1710  -999.2500  -999.2500
  260.0000     7.3393   147.9039     7.0226   -49.1666  -999.2500  -999.2500
  260.5000     7.1133   148.6378     7.0241   -49.1622  -999.2500  -999.2500
  261.0000     6.9656   148.6228     7.0256   -49.1577  -999.2500  -999.2500
  261.5000     6.9806   147.8564     7.1023   -49.1533  -999.2500  -999.2500
  262.0000     7.0404   145.5963     7.1038   -49.1480  -999.2500  -999.2500
  262.5000     7.1151   143.3362     7.1899   -49.1443  -999.2500  -999.2500
  263.0000     7.1898   141.0761     7.3326   -49.1399  -999.2500  -999.2500
  263.5000     7.2795   139.5645     7.2589   -49.1354  -999.2500  -999.2500
  264.0000     7.3244   138.8013     7.2603   -49.1305  -999.2500  -999.2500
  264.5000     7.3393   139.5352     7.2617   -49.1261  -999.2500  -999.2500
  265.0000     7.2945   141.7661     7.1879   -49.1217  -999.2500  -999.2500
  265.5000     7.2347   143.9970     7.1466   -49.1176  -999.2500  -999.2500
  266.0000     7.1436   145.5489     7.0862   -49.1131  -999.2500  -999.2500
  266.5000     7.0703   147.7066     7.0421   -49.1086  -999.2500  -999.2500
  267.0000     7.0254   148.4442     7.0436   -49.2530  -999.2500  -999.2500
  267.5000     6.9955   149.1780     7.0451   -49.0997  -999.2500  -999.2500
  268.0000     6.9806   149.1598     7.0466   -49.0944  -999.2500  -999.2500
  268.5000     6.9806   149.1452     7.1233   -49.0900  -999.2500  -999.2500
  269.0000     6.9955   149.1305     7.1341   -49.0856  -999.2500  -999.2500
  269.5000     7.0105   148.3674     7.2096   -49.0812  -999.2500  -999.2500
  270.0000     7.0404   147.6043     7.2784   -49.0769  -999.2500  -999.2500
  270.5000     7.0703   146.0927     7.3551   -49.0725  -999.2500  -999.2500
  271.0000     7.1309   144.9326     7.4317   -49.0681  -999.2500  -999.2500
  271.5000     7.2394   143.7000     7.5084   -49.0637  -999.2500  -999.2500
  272.0000     7.5037   141.5542     7.5099   -49.0595  -999.2500  -999.2500
  272.5000     7.5635   140.0425     7.5865   -49.0550  -999.2500  -999.2500
  273.0000     7.4738   138.3658     7.5880   -49.0506  -999.2500  -999.2500
  273.5000     7.4141   136.2708     7.6647   -49.0461  -999.2500  -999.2500
  274.0000     7.4290   134.0107     7.6662   -49.0417  -999.2500  -999.2500
  274.5000     7.5187   132.4990     7.7429   -49.0364  -999.2500  -999.2500
  275.0000     7.6831   130.3643     7.8195   -49.0320  -999.2500  -999.2500
  275.5000     7.7877   128.7273     7.8962   -49.1775  -999.2500  -999.2500
  276.0000     7.8778   126.4571     8.0484   -49.0233  -999.2500  -999.2500
  276.5000     7.9559   124.2066     8.1250   -49.1688  -999.2500  -999.2500
  277.0000     8.0419   122.6918     8.2017   -49.4609  -999.2500  -999.2500
  277.5000     8.1166   121.1801     8.2784   -49.6054  -999.2500  -999.2500
  278.0000     8.1764   121.1655     8.3550   -49.8986  -999.2500  -999.2500
  278.5000     8.2063   122.6479     8.2061   -50.0432  -999.2500  -999.2500
  279.0000     8.2212   124.1850     8.1324   -50.3363  -999.2500  -999.2500
  279.5000     8.1913   126.3648     8.1124   -50.4807  -999.2500  -999.2500
  280.0000     8.1166   128.5921     8.0602   -50.4762  -999.2500  -999.2500
  280.5000     7.8774   130.8230     7.9113   -50.4709  -999.2500  -999.2500
  281.0000     7.7280   132.3054     7.9128   -50.3820  -999.2500  -999.2500
  281.5000     7.5907   133.1063     7.8360   -50.1645  -999.2500  -999.2500
  282.0000     7.4738   133.7725     7.7653   -50.1601  -999.2500  -999.2500
  282.5000     7.4290   133.7549     7.7672   -50.1557  -999.2500  -999.2500
  283.0000     7.4290   133.7425     7.6931   -50.1514  -999.2500  -999.2500
  283.5000     7.4439   133.7256     7.6949   -50.1470  -999.2500  -999.2500
  284.0000     7.4738   133.7110     7.6209   -50.1429  -999.2500  -999.2500
  284.5000     7.4738   133.6964     7.6226   -50.1382  -999.2500  -999.2500
  285.0000     7.4589   133.6826     7.6241   -50.1339  -999.2500  -999.2500
  285.5000     7.4141   134.4162     7.6256   -50.1295  -999.2500  -999.2500
  286.0000     7.3842   134.4010     7.6271   -50.1250  -999.2500  -999.2500
  286.5000     7.3842   134.3862     7.6286   -50.1205  -999.2500  -999.2500
  287.0000     7.4658   134.3712     7.6301   -49.9664  -999.2500  -999.2500
  287.5000     7.6084   133.6051     7.6316   -49.9621  -999.2500  -999.2500
  288.0000     7.6981   133.5904     7.6331   -49.9577  -999.2500  -999.2500
  288.5000     7.7130   132.8273     7.6346   -49.9533  -999.2500  -999.2500
  289.0000     7.7130   132.8127     7.6363   -49.9210  -999.2500  -999.2500
  289.5000     7.6532   132.0496     7.6378   -49.7954  -999.2500  -999.2500
  290.0000     7.5486   132.0350     7.6566   -49.7917  -999.2500  -999.2500
  290.5000     7.5037   131.2718     7.7158   -49.7870  -999.2500  -999.2500
  291.0000     7.4888   129.7602     7.7174   -49.7827  -999.2500  -999.2500
  291.5000     7.5041   128.9970     7.7941   -49.7782  -999.2500  -999.2500
  292.0000     7.5653   128.2335     7.8100   -49.7738  -999.2500  -999.2500
  292.5000     7.6383   127.4672     7.8722   -49.7693  -999.2500  -999.2500
  293.0000     7.7578   126.7041     7.9489   -49.7640  -999.2500  -999.2500
  293.5000     7.8924   125.9410     8.0256   -49.7604  -999.2500  -999.2500
  294.0000     8.0120   126.6748     8.1023   -49.7553  -999.2500  -999.2500
  294.5000     8.0568   128.1572     8.0285   -49.7515  -999.2500  -999.2500
  295.0000     8.0269   131.1366     7.9548   -49.7867  -999.2500  -999.2500
  295.5000     7.9223   133.3675     7.7311   -49.8914  -999.2500  -999.2500
  296.0000     7.6233   134.8503     7.6570   -49.8866  -999.2500  -999.2500
  296.5000     7.3991   137.8293     7.5101   -49.8822  -999.2500  -999.2500
  297.0000     7.2457   140.0602     7.3592   -49.8778  -999.2500  -999.2500
  297.5000     7.1151   142.2874     7.2855   -49.8735  -999.2500  -999.2500
  298.0000     7.0553   143.8773     7.1860   -49.8188  -999.2500  -999.2500
  298.5000     7.0254   146.0007     7.1381   -49.7158  -999.2500  -999.2500
  299.0000     7.0404   147.4868     7.0647   -49.8603  -999.2500  -999.2500
  299.5000     7.0703   149.1803     7.0662   -49.8557  -999.2500  -999.2500
  300.0000     7.0852   151.1964     7.0677   -49.8505  -999.2500  -999.2500
  300.5000     7.0703   152.6788     6.9940   -49.8461  -999.2500  -999.2500
  301.0000     7.0404   153.4132     7.0707   -49.6929  -999.2500  -999.2500
  301.5000     6.9955   154.8951     7.0725   -49.8373  -999.2500  -999.2500
  302.0000     6.9192   155.6289     7.0739   -49.8330  -999.2500  -999.2500
  302.5000     6.8288   155.6138     7.0754   -49.6798  -999.2500  -999.2500
  303.0000     6.7862   154.8475     7.1520   -49.6848  -999.2500  -999.2500
  303.5000     6.7713   153.3359     7.2287   -49.6811  -999.2500  -999.2500
  304.0000     6.8012   151.8243     7.3053   -49.5294  -999.2500  -999.2500
  304.5000     6.9208   148.8157     7.3820   -49.6760  -999.2500  -999.2500
  305.0000     7.1181   145.8071     7.4587   -49.5235  -999.2500  -999.2500
  305.5000     7.3904   138.9716     7.5741   -49.6694  -999.2500  -999.2500
  306.0000     7.4924   132.2131     7.6907   -49.6664  -999.2500  -999.2500
  306.5000     7.5077   128.4485     7.8391   -49.6635  -999.2500  -999.2500
  307.0000     7.5229   126.9294     7.9161   -49.8101  -999.2500  -999.2500
  307.5000     7.5382   126.1589     7.9176   -49.9554  -999.2500  -999.2500
