~VERSION INFORMATION
 VERS.                2.0:   CWLS LOG ASCII STANDARD - VERSION 2.0
 WRAP.                 NO:   ONE LINE PER DEPTH STEP
~WELL INFORMATION
#MNEM.UNIT      DATA TYPE    INFORMATION
#----------   ------------   ------------------------------
 STRT.F           14.0000:   START DEPTH
 STOP.F          608.0000:   STOP DEPTH
 STEP.F            0.1000:   STEP LENGTH
 NULL.          -999.2500:   NO VALUE
 COMP. FENIX & SCISSON INC:   COMPANY
 WELL. NAVAL PETROLEUM RESERVE 3 S-15 #72-15:   WELL
 FLD .             TEAPOT:   FIELD
 LOC .      S15 T38N R78W:   LOCATION
 CNTY.            NATRONA:   COUNTY
 STAT.            WYOMING:   STATE
 CTRY. UNITED STATES OF AMERICA:   COUNTRY
 SRVC.           BIRDWELL:   SERVICE COMPANY
 DATE.        21-JUL-1978:   LOGDATE
 API .       490251067300:   API NUMBER
~CURVE INFORMATION
#MNEM.UNIT       API CODE    CURVE DESCRIPTION
#----------   ------------   ------------------------------
 DEPT.F                  :   
 ILD .OHMM   05 120 46 00:   INDUCTION LOG DEEP
 SN  .OHMM   05 040 16 00:   SHORT NORMAL 16"
 SPR .MV     05 010 01 00:   SPONTANEOUS POTENTIAL FROM RES.
 CALD.IN     45 280 60 00:   CALIPER FROM DENSITY LOG
 DPHI.DEC    45 890 12 00:   DENSITY POROSITY SANDSTONE
 DRHO.G/C3   45 356 01 00:   DENSITY CORRECTION
 GRD .GAPI   45 310 01 00:   GAMMA RAY FROM DENSITY LOG
 RHOB.G/C3   45 350 01 00:   BULK DENSITY
~PARAMETER INFORMATION
#MNEM.UNIT          VALUE    DESCRIPTION
#----------   ------------   ------------------------------
 PD  .                 GL:   PERMANENT DATUM
 EPD .F              5238:   ELEVATION PERMANENT DATUM
 LMF .                 KB:   LOG MEASURED FROM
 DAPD.F                 4:   FEET ABOVE PERMANENT DATUM
 DMF .                 KB:   DRILLING MEASURED FROM
 EKB .F              5242:   KELLING BUSHING
 EGL .F              5238:   GROUND LEVEL
 DATE.        21-JUL-1978:   RUN DATE
 RUN .                  1:   RUN NUMBER
 DD  .F               597:   DEPTH DRILLER
 DL  .F               615:   DEPTH LOGGER
 BLI .F               608:   BOTTOM LOG INTERVAL
 TLI .F                35:   TOP LOG INTERVAL
 CS  .IN            8.625:   CASING SIZE
 CBD .F                40:   CASING BOTTOM DRILLER
 CBL .F                35:   CASING BOTTOM LOGGER
 BS  .IN            7.875:   BIT SIZE
 BSD .F               597:   BIT SIZE AT DEPTH
 DFT .                KCL:   DRILLING FLUID TYPE
 DFD .                8.6:   DRILLING FLUID DENSITY
 DFV .                 33:   DRILLING FLUID VISCOSITY
 DFPH.                9.0:   DRILLING FLUID PH
 MSS .            MUD PIT:   MUD SAMPLE SOURCE
 MFSS.               MEAS:   MUD FILTRATE SAMPLE SOURCE
 MCSS.               MEAS:   MUD CAKE SAMPLE SOURCE
 BHT .F                74:   BOTTOM HOLE TEMPERATURE
 TCS .HRS               2:   TIME CURCULATED STOPPED
 MRT .F                74:   MAXIMUM RECORDED TEMPERATURE
 LUN .               2958:   LOGGING UNIT NUMBER
 LUL .             CASPER:   LOGGING UNIT LOCATION
 ENGI.             MILLER:   RECORDING ENGINEER
 WITN.           MCGINLEY:   WITNESSED BY
 CLNT.            A2DTECH:   CLIENT CODE
 ORIG.           5" PRINT:   ORIGIN OF DATA
 UWI .       490251067300:   UNIQUE WELL ID
 DICO. A2D Technologies, Inc.:   DIGITIZING COMPANY
~OTHER INFORMATION
~A   DEPT      ILD         SN        SPR       CALD       DPHI       DRHO         GRD      RHOB   
# ...
  297.5000     6.3180     7.1002   -19.5877     7.8462     0.1236     0.0392    88.8084     2.4735
  297.6000     6.3178     7.1261   -19.5898     7.8435     0.1228     0.0385    88.9802     2.4754
  297.7000     6.3177     7.1258   -19.5919     7.8434     0.1224     0.0382    89.2274     2.4772
  297.8000     6.3175     7.1255   -19.5943     7.8432     0.1218     0.0370    89.4746     2.4785
  297.9000     6.3173     7.1252   -19.5961     7.8413     0.1209     0.0357    89.7217     2.4798
  298.0000     6.3171     7.1390   -19.5982     7.8278     0.1196     0.0355    90.0089     2.4810
  298.1000     6.3170     7.1590   -19.6003     7.8276     0.1185     0.0355    90.2160     2.4822
  298.2000     6.3168     7.1737   -19.6024     7.8275     0.1178     0.0350    90.4631     2.4836
  298.3000     6.3166     7.1734   -19.6045     7.8273     0.1174     0.0339    90.6595     2.4830
  298.4000     6.3164     7.1730   -19.6066     7.8272     0.1174     0.0339    90.8066     2.4824
  298.5000     6.3168     7.1728   -19.6087     7.8270     0.1180     0.0328    91.0588     2.4818
  298.6000     6.3526     7.1974   -19.6108     7.8269     0.1197     0.0324    91.1793     2.4812
  298.7000     6.3886     7.2381   -19.6129     7.8267     0.1217     0.0324    91.4923     2.4806
  298.8000     6.4036     7.2718   -19.6150     7.8266     0.1234     0.0321    91.7953     2.4793
  298.9000     6.4034     7.2714   -19.6173     7.8264     0.1252     0.0309    92.0424     2.4781
  299.0000     6.4085     7.3108   -19.6192     7.8263     0.1254     0.0309    92.2745     2.4769
  299.1000     6.4474     7.3212   -19.6213     7.8261     0.1257     0.0299    92.4089     2.4756
  299.2000     6.4813     7.3427   -19.6234     7.8260     0.1256     0.0293    92.7457     2.4745
  299.3000     6.4917     7.3714   -19.6255     7.8258     0.1255     0.0293    92.9451     2.4738
  299.4000     6.5098     7.3711   -19.6276     7.8257     0.1255     0.0293    93.1274     2.4732
  299.5000     6.5466     7.3707   -19.6300     7.8291     0.1255     0.0293    93.3745     2.4722
  299.6000     6.5858     7.3704   -19.6318     7.8405     0.1257     0.0293    93.6217     2.4715
  299.7000     6.6727     7.3975   -19.6339     7.8403     0.1259     0.0293    93.9099     2.4715
  299.8000     6.6726     7.4393   -19.6360     7.8402     0.1263     0.0293    94.1161     2.4715
  299.9000     6.6960     7.4721   -19.6117     7.8400     0.1268     0.0292    94.3632     2.4715
  300.0000     6.7339     7.4718   -19.4903     7.8399     0.1273     0.0292    94.6104     2.4710
  300.1000     6.7793     7.5140   -19.4924     7.8397     0.1280     0.0292    94.8339     2.4708
  300.2000     6.8586     7.5229   -19.4945     7.8396     0.1290     0.0292    94.9599     2.4705
  300.3000     6.8639     7.5468   -19.4258     7.8394     0.1294     0.0293    95.2010     2.4700
  300.4000     6.8693     7.5745   -19.3487     7.8381     0.1293     0.0295    95.3536     2.4700
  300.5000     6.8747     7.5770   -19.3538     7.8363     0.1293     0.0296    95.5444     2.4696
  300.6000     6.8800     7.5987   -19.3766     7.8345     0.1292     0.0298    95.7504     2.4693
  300.7000     6.8854     7.6205   -19.3993     7.8327     0.1292     0.0299    95.8734     2.4689
  300.8000     6.8908     7.6422   -19.4221     7.8309     0.1291     0.0301    96.0083     2.4685
  300.9000     6.8962     7.6639   -19.4448     7.8291     0.1291     0.0302    96.2307     2.4681
  301.0000     6.9027     7.6856   -19.4676     7.8273     0.1285     0.0304    96.4770     2.4677
  301.1000     6.9024     7.7074   -19.4904     7.8256     0.1277     0.0306    96.6625     2.4687
  301.2000     6.9020     7.7331   -19.5131     7.8238     0.1268     0.0306    96.7505     2.4700
  301.3000     6.9016     7.7330   -19.5359     7.8220     0.1259     0.0306    96.7487     2.4712
  301.4000     6.9012     7.7329   -19.5586     7.8202     0.1247     0.0304    96.7466     2.4725
  301.5000     6.9008     7.7328   -19.5814     7.8184     0.1237     0.0291    96.6390     2.4744
  301.6000     6.9004     7.7327   -19.6041     7.8166     0.1230     0.0291    96.4332     2.4762
  301.7000     6.9001     7.7326   -19.6269     7.8149     0.1221     0.0291    96.1294     2.4776
  301.8000     6.8997     7.7325   -19.6496     7.8131     0.1209     0.0289    95.7276     2.4788
  301.9000     6.8993     7.7324   -19.6724     7.8113     0.1198     0.0285    95.2285     2.4800
  302.0000     6.8989     7.7323   -19.6940     7.8095     0.1188     0.0280    94.7291     2.4812
  302.1000     6.8985     7.7322   -19.5474     7.8077     0.1180     0.0275    94.2297     2.4819
  302.2000     6.8982     7.7321   -19.5496     7.8059     0.1182     0.0275    93.8021     2.4830
  302.3000     6.8978     7.7319   -19.5523     7.8041     0.1187     0.0275    93.3818     2.4842
  302.4000     6.8974     7.7318   -19.5078     7.8024     0.1193     0.0275    92.9013     2.4849
  302.5000     6.8970     7.7317   -19.4074     7.8006     0.1200     0.0275    92.5037     2.4850
  302.6000     6.8966     7.7316   -19.4107     7.7988     0.1207     0.0275    92.1514     2.4856
  302.7000     6.9313     7.7315   -19.4132     7.7970     0.1219     0.0275    91.8668     2.4862
  302.8000     6.9436     7.7314   -19.4159     7.7952     0.1229     0.0275    91.6802     2.4863
  302.9000     6.9433     7.6887   -19.4186     7.7934     0.1239     0.0281    91.5916     2.4863
  303.0000     6.9429     7.6780   -19.4213     7.7918     0.1245     0.0290    91.5897     2.4859
  303.1000     6.9425     7.6546   -19.4172     7.7917     0.1250     0.0290    91.5877     2.4848
  303.2000     6.9421     7.6249   -19.2772     7.7917     0.1255     0.0296    91.5861     2.4848
  303.3000     6.9417     7.6248   -19.2795     7.7916     0.1260     0.0302    91.6669     2.4837
  303.4000     6.9413     7.6247   -19.2822     7.7915     0.1261     0.0304    91.7333     2.4829
  303.5000     6.9410     7.5866   -19.2849     7.7914     0.1263     0.0304    91.7315     2.4823
  303.6000     6.9428     7.5625   -19.2876     7.7913     0.1264     0.0304    91.7265     2.4816
  303.7000     6.9620     7.5481   -19.2904     7.7912     0.1264     0.0304    91.5767     2.4810
  303.8000     6.9813     7.5338   -19.2930     7.7911     0.1264     0.0293    91.4741     2.4795
  303.9000     6.9875     7.5195   -19.2957     7.7910     0.1262     0.0289    91.4226     2.4790
  304.0000     6.9871     7.5194   -19.2984     7.7909     0.1261     0.0289    91.3725     2.4780
  304.1000     6.9867     7.5193   -19.3011     7.7908     0.1261     0.0286    91.2464     2.4770
  304.2000     6.9863     7.5192   -19.3037     7.7908     0.1261     0.0274    91.1155     2.4764
  304.3000     6.9469     7.5191   -19.3069     7.7907     0.1261     0.0273    91.1137     2.4758
  304.4000     6.9375     7.5171   -19.4123     7.7906     0.1261     0.0273    91.0186     2.4746
  304.5000     6.9371     7.5028   -19.4618     7.7905     0.1267     0.0273    90.8924     2.4733
  304.6000     6.9367     7.4886   -19.4645     7.7904     0.1277     0.0269    90.7662     2.4724
  304.7000     6.9325     7.4743   -19.4672     7.7903     0.1290     0.0258    90.6540     2.4718
  304.8000     6.8882     7.4567   -19.4700     7.7902     0.1304     0.0258    90.6520     2.4711
  304.9000     6.8879     7.4355   -19.4726     7.7901     0.1309     0.0258    90.6504     2.4697
  305.0000     6.8622     7.4152   -19.4753     7.7900     0.1316     0.0258    90.7340     2.4692
  305.1000     6.8397     7.4151   -19.5407     7.7899     0.1323     0.0258    90.9156     2.4686
  305.2000     6.8394     7.4150   -19.6662     7.7898     0.1330     0.0258    91.1626     2.4677
  305.3000     6.8390     7.4065   -19.7832     7.7898     0.1333     0.0257    91.4095     2.4666
  305.4000     6.8386     7.3924   -19.7863     7.7897     0.1333     0.0243    91.6968     2.4659
  305.5000     6.8090     7.3783   -19.7886     7.7896     0.1322     0.0242    92.0076     2.4653
