~VERSION INFORMATION
 VERS.                2.0:   CWLS LOG ASCII STANDARD - VERSION 2.0
 WRAP.                 NO:   ONE LINE PER DEPTH STEP
~WELL INFORMATION
#MNEM.UNIT      DATA TYPE    INFORMATION
#----------   ------------   ------------------------------
 STRT.F           10.0000:   START DEPTH
 STOP.F         2599.5000:   STOP DEPTH
 STEP.F            0.5000:   STEP LENGTH
 NULL.          -999.2500:   NO VALUE
 COMP. FENIX & SCISSON INC:   COMPANY
 WELL.   34-SHX-33 #34-33:   WELL
 FLD .             TEAPOT:   FIELD
 LOC .      S33 T39N R78W:   LOCATION
 CNTY.            NATRONA:   COUNTY
 STAT.            WYOMING:   STATE
 CTRY. UNITED STATES OF AMERICA:   COUNTRY
 SRVC.           BIRDWELL:   SERVICE COMPANY
 DATE.        20-FEB-1978:   LOGDATE
 API .       490251058400:   API NUMBER
~CURVE INFORMATION
#MNEM.UNIT       API CODE    CURVE DESCRIPTION
#----------   ------------   ------------------------------
 DEPT.F                  :   
 GR  .GAPI   30 310 01 00:   GAMMA RAY
 CALI.IN     70 280 01 00:   CALIPER
~PARAMETER INFORMATION
#MNEM.UNIT          VALUE    DESCRIPTION
#----------   ------------   ------------------------------
 PD  .                 GL:   PERMANENT DATUM
 EPD .F              5174:   ELEVATION PERMANENT DATUM
 LMF .                 KB:   LOG MEASURED FROM
 DAPD.F                10:   FEET ABOVE PERMANENT DATUM
 DMF .                 KB:   DRILLING MEASURED FROM
 EKB .F              5184:   KELLING BUSHING
 EGL .F              5174:   GROUND LEVEL
 DATE.            2-20-78:   RUN DATE
 RUN .                  1:   RUN NUMBER
 DD  .F              2590:   DEPTH DRILLER
 DL  .F              2600:   DEPTH LOGGER
 BLI .F              2600:   BOTTOM LOG INTERVAL
 CS  .IN            8.625:   CASING SIZE
 CBD .F               737:   CASING BOTTOM DRILLER
 BS  .IN            8.625:   BIT SIZE
 BSD .F              2590:   BIT SIZE AT DEPTH
 TCS .HRS               2:   TIME CURCULATED STOPPED
 LUL .             CASPER:   LOGGING UNIT LOCATION
 ENGI.             MILLER:   RECORDING ENGINEER
 WITN.           MCGINLEY:   WITNESSED BY
 CLNT.            A2DTECH:   CLIENT CODE
 ORIG.           5" PRINT:   ORIGIN OF DATA
 UWI .       490251058400:   UNIQUE WELL ID
 DICO. A2D Technologies, Inc.:   DIGITIZING COMPANY
~OTHER INFORMATION
~A   DEPT        GR      CALI   
# ...
 1346.5000   139.8972     9.5728
 1347.0000   139.4457     9.6035
 1347.5000   136.6797     9.4837
 1348.0000   133.7194     9.3383
 1348.5000   136.0237     9.2419
 1349.0000   139.0745     9.2602
 1349.5000   139.4901     9.2837
 1350.0000   139.2081     9.6051
 1350.5000   138.2466     9.9569
 1351.0000   134.1893    10.0157
 1351.5000   130.8288    10.0372
 1352.0000   131.3462    10.1916
 1352.5000   132.5983    10.3072
 1353.0000   133.9224     9.8530
 1353.5000   132.2113     9.9757
 1354.0000   130.1502     9.6806
 1354.5000   129.7934     9.8147
 1355.0000   128.5322     9.9500
 1355.5000   127.0993    10.0255
 1356.0000   125.6479    10.2034
 1356.5000   125.9434    10.2570
 1357.0000   129.5303    10.0513
 1357.5000   133.1025    10.0988
 1358.0000   136.6211     9.4248
 1358.5000   138.9764     9.2189
 1359.0000   136.4510     9.2555
 1359.5000   133.0367     9.4393
 1360.0000   132.5078     9.7194
 1360.5000   135.5130     9.1058
 1361.0000   138.4345     9.0876
 1361.5000   142.2841     9.2698
 1362.0000   140.5381     9.8661
 1362.5000   138.5132     9.8066
 1363.0000   136.4088     9.9300
 1363.5000   134.9653     9.7445
 1364.0000   132.4489     9.7611
 1364.5000   129.6284     9.5657
 1365.0000   127.0760     9.3057
 1365.5000   126.9152     9.2354
 1366.0000   129.0659     9.0244
 1366.5000   131.1373     8.7747
 1367.0000   134.8316     8.8100
 1367.5000   138.8758     8.8808
 1368.0000   141.5304     9.5244
 1368.5000   141.1399     9.8193
 1369.0000   140.8123     9.8937
 1369.5000   140.7572     9.9174
 1370.0000   138.7609     9.8608
 1370.5000   137.4160     9.8966
 1371.0000   142.6041     9.9161
 1371.5000   147.6398     9.7715
 1372.0000   150.0181     9.6194
 1372.5000   143.3226     9.3047
 1373.0000   136.7003     8.9682
 1373.5000   132.1222     8.5974
 1374.0000   130.3029     8.4635
 1374.5000   128.5594     8.5104
 1375.0000   128.5018     8.8439
 1375.5000   128.4277     9.2135
 1376.0000   131.1648     9.4603
 1376.5000   133.1807     9.6725
 1377.0000   132.7848     9.6980
 1377.5000   136.1320     9.6963
 1378.0000   140.3798     9.7142
 1378.5000   142.4236    10.2941
 1379.0000   134.9919    10.1743
 1379.5000   128.4373     9.9027
 1380.0000   121.9296     9.5727
 1380.5000   116.9170     9.4960
 1381.0000   121.6104     9.7061
 1381.5000   126.9420     9.8611
 1382.0000   130.4636     9.9570
 1382.5000   131.8359    10.0463
 1383.0000   133.0860    10.1167
 1383.5000   132.3798    10.1306
 1384.0000   131.0253     9.8193
 1384.5000   131.3211     9.5527
 1385.0000   135.5018     9.3496
 1385.5000   139.4384     9.4174
 1386.0000   137.3481     9.4603
 1386.5000   137.7563     9.4337
 1387.0000   137.2983     9.4831
 1387.5000   134.1442     9.7794
 1388.0000   131.9829     9.8610
 1388.5000   134.3020     9.7582
 1389.0000   137.2715     9.6244
 1389.5000   140.2978     9.5068
 1390.0000   143.5530     8.9633
 1390.5000   139.1666     8.6093
 1391.0000   132.8602     9.1749
 1391.5000   126.6071     9.3843
 1392.0000   125.8388     8.9840
 1392.5000   130.4938     9.3303
 1393.0000   135.0179     9.6841
 1393.5000   138.2725     9.6526
 1394.0000   139.8282     9.6405
 1394.5000   141.3686     9.6785
 1395.0000   141.0574     9.6679
 1395.5000   136.3604     9.6150
 1396.0000   132.9328     9.4474
 1396.5000   136.3866     9.1969
 1397.0000   139.2685     8.9774
 1397.5000   138.8394     9.0030
 1398.0000   139.7045     9.1444
 1398.5000   140.5978     9.2600
 1399.0000   138.9367     9.2057
 1399.5000   137.2969     9.1456
 1400.0000   138.0786     9.2633
 1400.5000   142.6866     9.3629
 1401.0000   146.0459     9.3441
 1401.5000   142.3980     9.2351
 1402.0000   135.5740     8.5793
 1402.5000   135.1440     8.6819
 1403.0000   137.1926     8.9666
 1403.5000   139.0934     9.3809
 1404.0000   137.1119     9.7570
 1404.5000   135.0180     9.8517
 1405.0000   132.9520     9.8696
 1405.5000   130.8265     9.8192
 1406.0000   130.9467     9.8109
 1406.5000   132.7986     9.8300
 1407.0000   132.0460     9.8481
 1407.5000   131.1885     9.8733
 1408.0000   130.3512     9.8957
 1408.5000   129.5531     9.5151
 1409.0000   130.4906     9.1407
 1409.5000   135.0801     8.9497
 1410.0000   139.7287     9.4793
 1410.5000   140.1055     9.6687
 1411.0000   139.2438     9.7289
 1411.5000   138.8511     9.7875
 1412.0000   141.3476     9.9186
 1412.5000   144.1321     9.9245
 1413.0000   145.5159     9.9338
 1413.5000   143.4295    10.0733
 1414.0000   141.1075    10.0683
 1414.5000   141.2143    10.2460
 1415.0000   142.9249     9.8778
 1415.5000   142.4358     9.7035
 1416.0000   143.8062     9.5697
 1416.5000   144.7166     9.6329
 1417.0000   144.1952     9.7111
 1417.5000   143.7067     9.8011
 1418.0000   143.4255     9.8946
 1418.5000   144.7328     9.9909
 1419.0000   144.6545     9.7968
 1419.5000   142.3786     9.8251
 1420.0000   140.1749     9.5705
 1420.5000   137.9418     9.5016
 1421.0000   135.6822     9.4857
 1421.5000   133.9879     9.3564
 1422.0000   132.9699     9.4710
 1422.5000   133.7724     9.2521
 1423.0000   134.2676     9.4528
 1423.5000   132.8073     8.8107
 1424.0000   133.5201     8.6915
 1424.5000   136.2466     9.0651
 1425.0000   139.0918     9.4931
 1425.5000   140.6404     9.6934
 1426.0000   142.1979     9.7324
 1426.5000   143.7717     9.6809
 1427.0000   145.4433     9.6457
 1427.5000   146.2883     9.6631
 1428.0000   144.2704     9.6799
 1428.5000   143.1683     9.6971
 1429.0000   146.1931     9.7148
 1429.5000   150.4581     9.7175
 1430.0000   155.2582     9.7155
 1430.5000   152.3174     9.7133
 1431.0000   147.0278     9.7112
 1431.5000   141.5602     9.7090
 1432.0000   137.5976     9.7069
 1432.5000   134.1480     9.7047
 1433.0000   134.6066     9.7028
 1433.5000   135.2824     9.7018
 1434.0000   134.0560     9.6929
 1434.5000   135.1529     9.4980
 1435.0000   136.8790     9.4408
 1435.5000   138.4437     9.4198
 1436.0000   138.6590     9.4210
 1436.5000   138.4891     9.4780
 1437.0000   137.2829     9.5628
 1437.5000   136.0948     9.5455
 1438.0000   137.5207     9.5301
 1438.5000   137.5617     9.5044
 1439.0000   136.0686     9.3901
 1439.5000   136.8485     9.2756
 1440.0000   134.8910     9.0508
 1440.5000   131.6867     8.8388
 1441.0000   132.8442     8.8622
 1441.5000   134.1653     9.1669
 1442.0000   138.3465     9.4331
 1442.5000   142.5342     9.6774
 1443.0000   146.7038     9.6479
 1443.5000   148.2562     9.6283
 1444.0000   141.5990     9.5571
 1444.5000   135.9677     9.4363
 1445.0000   135.5265     9.2284
 1445.5000   139.2797     9.1023
 1446.0000   142.9880     9.1840
 1446.5000   142.1677     9.2675
 1447.0000   139.6685     9.3509
 1447.5000   137.2053     9.4345
 1448.0000   135.6299     9.5200
 1448.5000   136.9987     9.5345
 1449.0000   139.2208     9.5288
 1449.5000   138.1762     9.5223
 1450.0000   137.3697     9.5171
 1450.5000   141.3238     9.4515
 1451.0000   142.3593     9.3879
 1451.5000   141.3801     9.3548
 1452.0000   135.0956     9.2426
 1452.5000   128.8137     9.0355
 1453.0000   126.9152     9.0042
 1453.5000   128.6479     9.1012
 1454.0000   130.0516     9.2318
 1454.5000   130.7868     9.2868
 1455.0000   133.1411     9.2988
 1455.5000   138.3816     9.2948
 1456.0000   141.2741     9.2873
 1456.5000   140.7333     9.2807
 1457.0000   139.2051     9.2809
 1457.5000   138.4474     9.2809
 1458.0000   138.8851     9.2809
 1458.5000   138.9905     9.2808
 1459.0000   138.4006     9.2805
 1459.5000   139.6790     9.2829
 1460.0000   141.6318     9.0564
 1460.5000   141.9095     9.0193
 1461.0000   140.8011     9.0459
 1461.5000   139.6999     9.1566
 1462.0000   139.4794     9.2952
 1462.5000   141.5179     9.4063
 1463.0000   143.9812     9.4169
 1463.5000   145.8667     9.4299
 1464.0000   144.1001     9.4405
 1464.5000   140.5553     9.4402
 1465.0000   137.0095     9.4417
 1465.5000   133.4494     9.4177
 1466.0000   130.1427     9.3532
 1466.5000   130.5177     9.2839
 1467.0000   131.4709     9.1594
 1467.5000   137.6356     8.9258
