~VERSION INFORMATION
 VERS.                2.0:   CWLS LOG ASCII STANDARD - VERSION 2.0
 WRAP.                 NO:   ONE LINE PER DEPTH STEP
~WELL INFORMATION
#MNEM.UNIT      DATA TYPE    INFORMATION
#----------   ------------   ------------------------------
 STRT.F           33.0000:   START DEPTH
 STOP.F          957.0000:   STOP DEPTH
 STEP.F            0.5000:   STEP LENGTH
 NULL.          -999.2500:   NO VALUE
 COMP. TESORO PETROLEUM CORP:   COMPANY
 WELL.  NPR #3 46-S-14 #3:   WELL
 FLD .             TEAPOT:   FIELD
 LOC .      S14 T38N R78W:   LOCATION
 CNTY.            NATRONA:   COUNTY
 STAT.            WYOMING:   STATE
 CTRY. UNITED STATES OF AMERICA:   COUNTRY
 SRVC.       Schlumberger:   SERVICE COMPANY
 DATE.        25-JUN-1970:   LOGDATE
 API .       490251023100:   API NUMBER
~CURVE INFORMATION
#MNEM.UNIT       API CODE    CURVE DESCRIPTION
#----------   ------------   ------------------------------
 DEPT.F                  :   
 SPR .MV     05 010 01 00:   SPONTANEOUS POTENTIAL FROM RES.
 ILD .OHMM   05 120 46 00:   INDUCTION LOG DEEP
 CILD.MMHO   05 110 46 00:   CONDUCTIVITY INDUCTION LOG DEEP
 ASN .OHMM   05 041 16 00:   AMPLIFIED SHORT NORMAL 16"
 GR  .GAPI   30 310 01 00:   GAMMA RAY
 CALD.IN     45 280 60 00:   CALIPER FROM DENSITY LOG
 CORR.G/C3   45 356 01 00:   DENSITY CORRECTION
 DPHI.DEC    45 890 12 00:   DENSITY POROSITY SANDSTONE
 RHOB.G/C3   45 350 01 00:   BULK DENSITY
~PARAMETER INFORMATION
#MNEM.UNIT          VALUE    DESCRIPTION
#----------   ------------   ------------------------------
 PD  .                 GL:   PERMANENT DATUM
 EPD .F              5271:   ELEVATION PERMANENT DATUM
 LMF .                 KB:   LOG MEASURED FROM
 DAPD.F                10:   FEET ABOVE PERMANENT DATUM
 DMF .                 KB:   DRILLING MEASURED FROM
 EKB .F              5281:   KELLING BUSHING
 EDF .F              5280:   DRILLING FLOOR
 EGL .F              5271:   GROUND LEVEL
 DATE.        25-JUN-1970:   RUN DATE
 RUN .                  1:   RUN NUMBER
 DD  .F               950:   DEPTH DRILLER
 DL  .F               958:   DEPTH LOGGER
 BLI .F               957:   BOTTOM LOG INTERVAL
 TLI .F                33:   TOP LOG INTERVAL
 CS  .IN            10.75:   CASING SIZE
 CBD .F                30:   CASING BOTTOM DRILLER
 CBL .F                33:   CASING BOTTOM LOGGER
 BS  .IN                9:   BIT SIZE
 BSD .F               950:   BIT SIZE AT DEPTH
 DFT .         MO-MAR MUD:   DRILLING FLUID TYPE
 DFD .                9.7:   DRILLING FLUID DENSITY
 DFV .                 62:   DRILLING FLUID VISCOSITY
 DFPH.                7.4:   DRILLING FLUID PH
 DFL .                5.6:   DRILLING FLUID LOSS
 MSS .           FLOWLINE:   MUD SAMPLE SOURCE
 RMS .OHMM           1.40:   RESISTIVITY MUD SAMPLE
 MST .F                85:   MUD SAMPLE TEMPERATURE
 RMF .OHMM           0.85:   RESISTIVITY MUD FILTRATE SAMPLE
 MFST.F                87:   MUD FILTRATE SAMPLE TEMPERATURE
 MFSS.               MEAS:   MUD FILTRATE SAMPLE SOURCE
 RMB .OHMM           1.06:   RESISTIVITY MUD AT BHT
 BHT .F               112:   BOTTOM HOLE TEMPERATURE
 TCS .HRS               1:   TIME CURCULATED STOPPED
 MRT .F               112:   MAXIMUM RECORDED TEMPERATURE
 LUN .               7037:   LOGGING UNIT NUMBER
 LUL .                GLT:   LOGGING UNIT LOCATION
 ENGI.           KNOSTMAN:   RECORDING ENGINEER
 WITN.                MAY:   WITNESSED BY
 CLNT.            A2DTECH:   CLIENT CODE
 ORIG.         2.5" PRINT:   ORIGIN OF DATA
 UWI .       490251023100:   UNIQUE WELL ID
 DICO. A2D Technologies, Inc.:   DIGITIZING COMPANY
~OTHER INFORMATION
~A   DEPT       SPR        ILD       CILD       ASN         GR       CALD       CORR       DPHI       RHOB   
# ...
  690.0000   -30.4858     5.8939   159.8756     6.6629  -999.2500     9.2656     0.0291     0.1261     2.4581
  690.5000   -30.4815     6.1549   155.3022     6.7607  -999.2500     9.2505     0.0231     0.1126     2.4732
  691.0000   -30.4772     6.3092   152.2486     6.8610  -999.2500     9.2343     0.0152     0.1175     2.4551
  691.5000   -30.4726     6.4727   149.1034     6.9916  -999.2500     9.2336     0.0245     0.1158     2.4793
  692.0000   -30.2675     6.6344   147.3353     7.1222  -999.2500     9.2331     0.0417     0.1017     2.5035
  692.5000   -30.1596     6.8005   145.5674     7.2699  -999.2500     9.2326     0.0197     0.1042     2.4809
  693.0000   -29.8502     6.9273   143.0699     7.3610  -999.2500     9.2018     0.0103     0.1130     2.4642
  693.5000   -29.8460     7.0823   143.0524     7.4535  -999.2500     9.2315     0.0266     0.1126     2.4744
  694.0000   -29.8417     7.0848   141.5185     7.5485  -999.2500     9.2310     0.0319     0.1090     2.4885
  694.5000   -29.8374     7.0879   141.5044     7.6442  -999.2500     9.2304     0.0257     0.1048     2.4976
  695.0000   -29.8328     7.2424   140.6281     7.7241  -999.2500     9.2602     0.0208     0.0993     2.5067
  695.5000   -29.8283     7.2455   139.9544     7.7862  -999.2500     9.2595     0.0117     0.1090     2.4885
  696.0000   -29.8237     7.2485   139.9392     7.8470  -999.2500     9.2590     0.0041     0.1115     2.4674
  696.5000   -29.8184     7.2521   138.4014     7.8775  -999.2500     9.2584     0.0148     0.1018     2.4851
  697.0000   -29.8146     7.2549   138.3873     7.9383  -999.2500     9.2578     0.0213     0.0975     2.4961
  697.5000   -29.8100     7.2576   136.8534     7.9760  -999.2500     9.2573     0.0145     0.0957     2.4901
  698.0000   -29.8055     7.2606   136.8389     7.9992  -999.2500     9.2567     0.0163     0.1079     2.4856
  698.5000   -29.8009     7.2636   136.8237     8.0297  -999.2500     9.2562     0.0228     0.1030     2.5007
  699.0000   -29.9860     7.2833   137.3557     8.0300  -999.2500     9.2557     0.0304     0.0992     2.5022
  699.5000   -30.3999     7.5735   138.3131     8.0604  -999.2500     9.2854     0.0408     0.0982     2.5038
  700.0000   -30.3951     7.7273   138.2955     8.0606  -999.2500     9.2848     0.0438     0.0952     2.5068
  700.5000   -30.0496     7.7295   139.8024     8.0562  -999.2500     9.2843     0.0484     0.0915     2.5083
  701.0000   -29.7751     7.7318   139.7870     8.0307  -999.2500     9.3140     0.0499     0.0885     2.5097
  701.5000   -29.6626     7.7344   139.7720     8.0006  -999.2500     9.3134     0.0375     0.1029     2.4953
  702.0000   -29.4590     7.7366   139.7568     7.9705  -999.2500     9.3128     0.0309     0.0988     2.4894
  702.5000   -29.1477     7.7387   139.7417     7.9353  -999.2500     9.3122     0.0283     0.0866     2.4975
  703.0000   -29.1420     7.7409   141.2433     7.8922  -999.2500     9.3116     0.0282     0.0769     2.5109
  703.5000   -29.1363     7.7432   142.7489     7.8491  -999.2500     9.3111     0.0513     0.1014     2.5262
  704.0000   -29.1305     7.7051   142.7348     7.8060  -999.2500     9.3106     0.0368     0.1080     2.4853
  704.5000   -29.1399     7.5958   144.2404     7.7629  -999.2500     9.3101     0.0343     0.1121     2.4701
  705.0000   -29.4732     7.5985   142.7052     7.7199  -999.2500     9.3095     0.0404     0.1042     2.4864
  705.5000   -29.7212     7.6008   142.6900     7.6642  -999.2500     9.3054     0.0650     0.0999     2.5063
  706.0000   -30.1398     7.6033   142.6748     7.6006  -999.2500     9.2782     0.0599     0.1169     2.4627
  706.5000   -30.3161     7.6055   145.6967     7.5207  -999.2500     9.2777     0.0541     0.1078     2.4911
  707.0000   -30.6129     7.4561   147.2023     7.3722  -999.2500     9.2771     0.0618     0.1060     2.4862
  707.5000   -30.6072     7.2942   153.2672     7.2213  -999.2500     9.2766     0.0556     0.1126     2.4660
  708.0000   -30.6014     7.0058   161.5814     6.8582  -999.2500     9.2760     0.0648     0.1163     2.4561
  708.5000   -30.5957     6.6093   175.0714     6.3105  -999.2500     9.3057     0.0693     0.1169     2.4727
  709.0000   -30.5897     5.9702   203.6455     5.7448  -999.2500     9.3051     0.0904     0.1140     2.4848
  709.5000   -30.5836     5.3311   238.4447     5.3603  -999.2500     9.3045     0.1135     0.1072     2.4893
  710.0000   -30.2736     4.5913   274.0610     4.9454  -999.2500     9.3040     0.0917     0.1150     2.4511
  710.5000   -30.2675     3.9874   315.0951     4.4416  -999.2500     9.2733     0.0338     0.1342     2.4151
  711.0000   -29.7852     3.5350   348.6563     3.8316  -999.2500     9.3030     0.0153     0.1594     2.3848
  711.5000   -29.6465     3.2316   405.2677     3.3474  -999.2500     9.3024     0.0060     0.1647     2.3630
  712.0000   -29.0329     3.0646   454.4073     2.9540  -999.2500     9.3018     0.0162     0.1889     2.3473
  712.5000   -29.0271     2.7838   469.6049     2.7727  -999.2500     9.3013     0.0290     0.2076     2.3014
  713.0000   -28.4134     2.7308   477.2036     2.7430  -999.2500     9.2876     0.0375     0.2368     2.2605
  713.5000   -28.4073     2.4856   486.4491     2.7436  -999.2500     9.2700     0.0413     0.2465     2.2469
  714.0000   -28.4012     2.4883   492.4012     2.7442  -999.2500     9.2693     0.0335     0.2307     2.2717
  714.5000   -28.3951     2.4905   472.9629     2.7448  -999.2500     9.2386     0.0243     0.2175     2.3179
  715.0000   -28.3891     2.6441   418.6906     2.8257  -999.2500     9.2381     0.0258     0.1877     2.3557
  715.5000   -28.3819     2.9493   358.3468     3.1098  -999.2500     9.2375     0.0338     0.1762     2.3790
  716.0000   -28.6801     3.1232   302.4316     3.5346  -999.2500     9.2370     0.0384     0.1597     2.3889
  716.5000   -28.6743     3.5876   262.9179     4.2625  -999.2500     9.2365     0.0149     0.1359     2.4085
  717.0000   -28.9726     4.0621   234.0426     4.7521  -999.2500     9.2359     0.0102     0.1210     2.4478
  717.5000   -28.9666     4.4483   218.5295     5.0644  -999.2500     9.2354     0.0070     0.1155     2.4629
  718.0000   -28.9605     4.7081   205.9276     5.2194  -999.2500     9.2253     0.0025     0.1181     2.4449
  718.5000   -28.8581     4.9330   198.6448     5.3066  -999.2500     9.2041     0.0024     0.1232     2.4420
  719.0000   -28.5127     4.9351   197.5684     5.3564  -999.2500     9.1887     0.0024     0.1243     2.4673
  719.5000   -28.3343     4.9372   206.9400     5.3571  -999.2500     9.1728     0.0100     0.1258     2.4489
  720.0000   -28.3273     4.6364   218.8450     5.2970  -999.2500     9.1242     0.0116     0.1301     2.4319
  720.5000   -28.3216     4.3179   227.9635     5.1764  -999.2500     9.0808     0.0067     0.1421     2.4141
  721.0000   -28.3158     4.0346   237.0821     4.9346  -999.2500     9.0497     0.0018     0.1526     2.4020
  721.5000   -28.3100     3.9841   243.4135     4.7480  -999.2500     9.0188    -0.0009     0.1591     2.4020
  722.0000   -28.2837     3.8879   253.0399     4.6505  -999.2500     8.9879     0.0068     0.1579     2.4038
  722.5000   -27.9939     4.0421   258.3587     4.5726  -999.2500     8.9872     0.0129     0.1526     2.4131
  723.0000   -27.9878     4.1958   253.4193     4.6877  -999.2500     8.9864     0.0082     0.1458     2.4230
  723.5000   -27.9818     4.3494   242.9080     4.9280  -999.2500     8.9855     0.0051     0.1397     2.4260
  724.0000   -27.9745     4.6546   226.4438     5.2110  -999.2500     8.9848     0.0203     0.1349     2.4262
  724.5000   -27.9688     4.9750   212.7660     5.4540  -999.2500     8.9539     0.0297     0.1311     2.4315
  725.0000   -27.9630     5.4419   197.5684     5.7576  -999.2500     8.9230     0.0235     0.1278     2.4501
  725.5000   -27.9573     5.7649   185.1565     6.0655  -999.2500     8.8920     0.0157     0.1264     2.4470
  726.0000   -27.9514     6.0879   175.5315     6.3531  -999.2500     8.8610     0.0172     0.1251     2.4409
