~VERSION INFORMATION
 VERS.                2.0:   CWLS LOG ASCII STANDARD - VERSION 2.0
 WRAP.                 NO:   ONE LINE PER DEPTH STEP
~WELL INFORMATION
#MNEM.UNIT      DATA TYPE    INFORMATION
#----------   ------------   ------------------------------
 STRT.F         1000.5000:   START DEPTH
 STOP.F         2590.0000:   STOP DEPTH
 STEP.F            0.5000:   STEP LENGTH
 NULL.          -999.2500:   NO VALUE
 COMP. LAWRENCE/ALLISON INC:   COMPANY
 WELL.    LAWENCE #14x-10:   WELL
 FLD .               NONE:   FIELD
 LOC .      S10 T38N R78W:   LOCATION
 CNTY.            NATRONA:   COUNTY
 STAT.            WYOMING:   STATE
 CTRY. UNITED STATES OF AMERICA:   COUNTRY
 SRVC.            Unknown:   SERVICE COMPANY
 DATE.        13-SEP-1988:   LOGDATE
 API .       490251137000:   API NUMBER
~CURVE INFORMATION
#MNEM.UNIT       API CODE    CURVE DESCRIPTION
#----------   ------------   ------------------------------
 DEPT.F                  :   
 ROP .MIN/FT 91 810 01 00:   RATE OF DRILLING PENETRATION
 TGAS.UNITS  91 830 01 00:   TOTAL GAS FROM HOTWIRE
~PARAMETER INFORMATION
#MNEM.UNIT          VALUE    DESCRIPTION
#----------   ------------   ------------------------------
 EKB .F              5278:   KELLING BUSHING
 EGL .F              5268:   GROUND LEVEL
 DATE.         09-13-1988:   RUN DATE
 RUN .                  1:   RUN NUMBER
 DD  .F              2590:   DEPTH DRILLER
 BLI .F              2590:   BOTTOM LOG INTERVAL
 TLI .F              1000:   TOP LOG INTERVAL
 CS  .IN                7:   CASING SIZE
 CBD .F               991:   CASING BOTTOM DRILLER
 BSD .F              2590:   BIT SIZE AT DEPTH
 ENGI. R. HUSK D. PETERSON:   RECORDING ENGINEER
 CLNT.            A2DTECH:   CLIENT CODE
 ORIG.           5" PRINT:   ORIGIN OF DATA
 UWI .       490251137000:   UNIQUE WELL ID
 DICO. A2D Technologies, Inc.:   DIGITIZING COMPANY
~OTHER INFORMATION
~A  DEPT       ROP         TGAS 
# ...
 1486.5000     0.3383     3.3871
 1487.0000     0.2643     3.3870
 1487.5000     0.2326     3.3870
 1488.0000     0.2643     3.3869
 1488.5000     0.3277     3.3868
 1489.0000     0.4017     3.3867
 1489.5000     0.4651     3.3866
 1490.0000     0.4968     3.3865
 1490.5000     0.4651     3.3864
 1491.0000     0.4334     3.3864
 1491.5000     0.4118     3.3863
 1492.0000     0.3805     3.3862
 1492.5000     0.3805     3.3861
 1493.0000     0.3805     3.3860
 1493.5000     0.3777     3.3859
 1494.0000     0.3454     3.3858
 1494.5000     0.3131     3.3858
 1495.0000     0.2777     3.3857
 1495.5000     0.2309     3.3856
 1496.0000     0.2220     3.3855
 1496.5000     0.2622     3.3854
 1497.0000     0.3053     3.3853
 1497.5000     0.3484     3.3852
 1498.0000     0.3805     3.3852
 1498.5000     0.3805     3.3851
 1499.0000     0.3805     3.3850
 1499.5000     0.3772     3.3849
 1500.0000     0.3645     3.3874
 1500.5000     0.3479     3.4190
 1501.0000     0.3312     3.4506
 1501.5000     0.3146     3.4821
 1502.0000     0.2979     3.5137
 1502.5000     0.2812     3.5453
 1503.0000     0.2646     3.5769
 1503.5000     0.2273     3.6085
 1504.0000     0.1797     3.6401
 1504.5000     0.1927     3.6717
 1505.0000     0.2299     3.7033
 1505.5000     0.2684     3.7349
 1506.0000     0.3010     3.7665
 1506.5000     0.3281     3.7981
 1507.0000     0.3325     3.8297
 1507.5000     0.2914     3.8613
 1508.0000     0.2706     3.8929
 1508.5000     0.2881     3.9244
 1509.0000     0.3237     3.9560
 1509.5000     0.3527     3.9876
 1510.0000     0.3743     4.0192
 1510.5000     0.3728     4.0508
 1511.0000     0.3458     4.0824
 1511.5000     0.3383     4.1140
 1512.0000     0.3488     4.1456
 1512.5000     0.3700     4.1772
 1513.0000     0.3805     4.2088
 1513.5000     0.4017     4.2404
 1514.0000     0.4228     4.2720
 1514.5000     0.4228     4.3036
 1515.0000     0.4228     4.3352
 1515.5000     0.4228     4.3668
 1516.0000     0.4224     4.3983
 1516.5000     0.4110     4.4299
 1517.0000     0.3902     4.4615
 1517.5000     0.3805     4.4931
 1518.0000     0.3805     4.5247
 1518.5000     0.3823     4.5563
 1519.0000     0.3911     4.5879
 1519.5000     0.3911     4.6195
 1520.0000     0.3862     4.6511
 1520.5000     0.3660     4.6348
 1521.0000     0.3457     4.6029
 1521.5000     0.3255     4.5710
 1522.0000     0.3053     4.5391
 1522.5000     0.2959     4.5073
 1523.0000     0.3059     4.4754
 1523.5000     0.3203     4.4435
 1524.0000     0.3365     4.4116
 1524.5000     0.3562     4.3798
 1525.0000     0.3878     4.3479
 1525.5000     0.4088     4.3160
 1526.0000     0.4133     4.2841
 1526.5000     0.4126     4.2523
 1527.0000     0.4117     4.2204
 1527.5000     0.4109     4.1885
 1528.0000     0.4102     4.1567
 1528.5000     0.4094     4.1248
 1529.0000     0.4086     4.0929
 1529.5000     0.3933     4.0610
 1530.0000     0.3783     4.0292
 1530.5000     0.3667     3.9973
 1531.0000     0.3392     3.9654
 1531.5000     0.3224     3.9335
 1532.0000     0.2874     3.9017
 1532.5000     0.2760     3.8698
 1533.0000     0.2753     3.8379
 1533.5000     0.2745     3.8060
 1534.0000     0.2843     3.7742
 1534.5000     0.3152     3.7423
 1535.0000     0.3461     3.7104
 1535.5000     0.3665     3.6785
 1536.0000     0.3657     3.6467
 1536.5000     0.3650     3.6148
 1537.0000     0.3748     3.5829
 1537.5000     0.3634     3.5511
 1538.0000     0.3625     3.5192
 1538.5000     0.3618     3.4873
 1539.0000     0.3597     3.4554
 1539.5000     0.3481     3.4236
 1540.0000     0.3330     3.3891
 1540.5000     0.3059     3.4378
 1541.0000     0.3120     3.4908
 1541.5000     0.3172     3.5439
 1542.0000     0.3224     3.5969
 1542.5000     0.3275     3.6499
 1543.0000     0.3437     3.7030
 1543.5000     0.3631     3.7560
 1544.0000     0.3636     3.8090
 1544.5000     0.3807     3.8620
 1545.0000     0.3964     3.9151
 1545.5000     0.4033     3.9681
 1546.0000     0.4012     4.0211
 1546.5000     0.3763     4.0742
 1547.0000     0.3439     4.1272
 1547.5000     0.3195     4.1802
 1548.0000     0.2834     4.2332
 1548.5000     0.2733     4.2863
 1549.0000     0.2738     4.3393
 1549.5000     0.2744     4.3923
 1550.0000     0.2749     4.4475
 1550.5000     0.2859     4.4172
 1551.0000     0.3194     4.3857
 1551.5000     0.3529     4.3542
 1552.0000     0.3826     4.3227
 1552.5000     0.3505     4.2912
 1553.0000     0.2824     4.2597
 1553.5000     0.2524     4.2282
 1554.0000     0.2339     4.1966
 1554.5000     0.2201     4.1651
 1555.0000     0.2062     4.1336
 1555.5000     0.2067     4.1021
 1556.0000     0.2072     4.0706
 1556.5000     0.2177     4.0391
 1557.0000     0.2348     4.0076
 1557.5000     0.2638     3.9761
 1558.0000     0.2833     3.9445
 1558.5000     0.2705     3.9130
 1559.0000     0.2490     3.8815
 1559.5000     0.2351     3.8500
 1560.0000     0.2326     3.8135
 1560.5000     0.2302     3.8419
 1561.0000     0.2276     3.8757
 1561.5000     0.2250     3.9095
 1562.0000     0.2230     3.9434
 1562.5000     0.2262     3.9772
 1563.0000     0.2342     4.0110
 1563.5000     0.2344     4.0448
 1564.0000     0.2347     4.0787
 1564.5000     0.2349     4.1125
 1565.0000     0.2352     4.1463
 1565.5000     0.2313     4.1802
 1566.0000     0.2164     4.2140
 1566.5000     0.2043     4.2478
 1567.0000     0.2045     4.2816
 1567.5000     0.2099     4.3155
 1568.0000     0.2368     4.3493
 1568.5000     0.2912     4.3831
 1569.0000     0.3562     4.4169
 1569.5000     0.3974     4.4508
 1570.0000     0.4008     4.4846
 1570.5000     0.3711     4.5184
 1571.0000     0.3282     4.5523
 1571.5000     0.2922     4.5861
 1572.0000     0.2882     4.6199
 1572.5000     0.2920     4.6537
 1573.0000     0.2923     4.6876
 1573.5000     0.2925     4.7214
 1574.0000     0.2928     4.7552
 1574.5000     0.2850     4.7890
 1575.0000     0.2828     4.8229
 1575.5000     0.2514     4.8567
 1576.0000     0.2093     4.8905
 1576.5000     0.1356     4.9244
 1577.0000     0.1147     4.9582
 1577.5000     0.1361     4.9920
 1578.0000     0.1681     5.0258
 1578.5000     0.2001     5.0597
 1579.0000     0.2426     4.9666
 1579.5000     0.2746     4.6151
 1580.0000     0.2960     4.2635
 1580.5000     0.3111     3.9120
 1581.0000     0.3262     2.9249
 1581.5000     0.3413     2.1063
 1582.0000     0.3564     2.0737
 1582.5000     0.3847     2.0412
 1583.0000     0.4419     2.0086
 1583.5000     0.4849     1.9761
 1584.0000     0.4596     1.9435
 1584.5000     0.4018     1.9110
 1585.0000     0.3783     1.8784
 1585.5000     0.3718     1.8459
 1586.0000     0.3710     1.8133
 1586.5000     0.3812     1.7808
 1587.0000     0.3963     1.7482
 1587.5000     0.4003     1.7157
 1588.0000     0.3996     1.6999
 1588.5000     0.3988     1.7172
 1589.0000     0.3980     1.7345
 1589.5000     0.3767     1.7518
 1590.0000     0.3577     1.7691
 1590.5000     0.3243     1.7864
 1591.0000     0.3028     1.8037
 1591.5000     0.2835     1.8210
 1592.0000     0.2690     1.8383
 1592.5000     0.2656     1.8555
 1593.0000     0.2648     1.8728
 1593.5000     0.2744     1.8901
 1594.0000     0.3054     1.9074
 1594.5000     0.3469     1.9247
 1595.0000     0.3884     1.9420
 1595.5000     0.4299     1.9593
 1596.0000     0.4397     1.9766
 1596.5000     0.4495     1.9939
 1597.0000     0.4381     2.0111
 1597.5000     0.4268     2.0284
 1598.0000     0.4260     2.0457
 1598.5000     0.4036     2.0630
 1599.0000     0.3817     2.0803
 1599.5000     0.3694     2.0976
 1600.0000     0.3488     2.1176
 1600.5000     0.3839     2.1087
 1601.0000     0.4137     2.0979
 1601.5000     0.4228     2.0872
 1602.0000     0.4228     2.0765
 1602.5000     0.4228     2.0658
 1603.0000     0.4228     2.0551
 1603.5000     0.4228     2.0444
 1604.0000     0.4228     2.0337
 1604.5000     0.4228     2.0230
 1605.0000     0.4193     2.0123
 1605.5000     0.4047     2.0016
 1606.0000     0.3830     1.9909
 1606.5000     0.3571     1.9802
 1607.0000     0.3246     1.9694
 1607.5000     0.3017     1.9465
