~VERSION INFORMATION
 VERS.                2.0:   CWLS LOG ASCII STANDARD - VERSION 2.0
 WRAP.                 NO:   ONE LINE PER DEPTH STEP
~WELL INFORMATION
#MNEM.UNIT      DATA TYPE    INFORMATION
#----------   ------------   ------------------------------
 STRT.F           75.0000:   START DEPTH
 STOP.F          859.0000:   STOP DEPTH
 STEP.F            0.5000:   STEP LENGTH
 NULL.          -999.2500:   NO VALUE
 COMP. U S NAVY/INTEX OIL CO:   COMPANY
 WELL.     NPR ##3 14S-35:   WELL
 FLD .             TEAPOT:   FIELD
 LOC .      S35 T39N R78W:   LOCATION
 CNTY.            NATRONA:   COUNTY
 STAT.            WYOMING:   STATE
 CTRY. UNITED STATES OF AMERICA:   COUNTRY
 SRVC. Schlumberger Well Surveying Corp:   SERVICE COMPANY
 DATE.        27-FEB-1961:   LOGDATE
 API .       490251023000:   API NUMBER
~CURVE INFORMATION
#MNEM.UNIT       API CODE    CURVE DESCRIPTION
#----------   ------------   ------------------------------
 DEPT.F                  :   
 GRN .CPS    35 310 30 00:   GAMMA RAY
 SPR .MV     05 010 01 00:   SPONTANEOUS POTENTIAL FROM RES.
 ILD .OHMM   05 120 46 00:   INDUCTION LOG DEEP
 ASN .OHMM   05 041 16 00:   AMPLIFIED SHORT NORMAL 16"
 CILD.MMHO   05 110 46 00:   CONDUCTIVITY INDUCTION LOG DEEP
~PARAMETER INFORMATION
#MNEM.UNIT          VALUE    DESCRIPTION
#----------   ------------   ------------------------------
 PD  .                 GL:   PERMANENT DATUM
 EPD .F              5110:   ELEVATION PERMANENT DATUM
 LMF .                 KB:   LOG MEASURED FROM
 DAPD.F                 4:   FEET ABOVE PERMANENT DATUM
 DMF .                 KB:   DRILLING MEASURED FROM
 EKB .F              5114:   KELLING BUSHING
 EGL .F              5110:   GROUND LEVEL
 DATE.            2-27-61:   RUN DATE
 RUN .                  1:   RUN NUMBER
 DD  .F               862:   DEPTH DRILLER
 DL  .F               860:   DEPTH LOGGER
 BLI .F               859:   BOTTOM LOG INTERVAL
 TLI .F                84:   TOP LOG INTERVAL
 CBD .F                12:   CASING BOTTOM DRILLER
 BS  .IN            7.875:   BIT SIZE
 BSD .F               862:   BIT SIZE AT DEPTH
 DFT .       GEL-OIL EMUL:   DRILLING FLUID TYPE
 DFD .                9.4:   DRILLING FLUID DENSITY
 DFV .                 33:   DRILLING FLUID VISCOSITY
 DFPH.                  8:   DRILLING FLUID PH
 DFL .               19.4:   DRILLING FLUID LOSS
 MSS .          FLOW LINE:   MUD SAMPLE SOURCE
 RMS .OHMM            .76:   RESISTIVITY MUD SAMPLE
 MST .F                73:   MUD SAMPLE TEMPERATURE
 RMF .OHMM            .52:   RESISTIVITY MUD FILTRATE SAMPLE
 MFST.F                73:   MUD FILTRATE SAMPLE TEMPERATURE
 RMC .OHMM            1.7:   RESISTIVITY MUD CAKE
 MCST.F                73:   MUD CAKE SAMPLE TEMPERATURE
 MFSS.                  M:   MUD FILTRATE SAMPLE SOURCE
 MCSS.                  M:   MUD CAKE SAMPLE SOURCE
 RMB .OHMM            .73:   RESISTIVITY MUD AT BHT
 BHT .F                77:   BOTTOM HOLE TEMPERATURE
 TCS .HRS               1:   TIME CURCULATED STOPPED
 MRT .F                77:   MAXIMUM RECORDED TEMPERATURE
 LUN .               2523:   LOGGING UNIT NUMBER
 LUL .               CSPR:   LOGGING UNIT LOCATION
 ENGI.             KNOBEL:   RECORDING ENGINEER
 WITN.          JORGENSEN:   WITNESSED BY
 CLNT.            A2DTECH:   CLIENT CODE
 ORIG.       2", 5" PRINT:   ORIGIN OF DATA
 UWI .       490251023000:   UNIQUE WELL ID
 DICO. A2D Technologies, Inc.:   DIGITIZING COMPANY
~OTHER INFORMATION
~A   DEPT      GRN        SPR        ILD        ASN       CILD   
# ...
  685.0000    81.4036   -26.1036     5.4878     6.7767   198.6922
  685.5000    78.8934   -26.1848     5.4784     6.8149   196.1656
  686.0000    81.2442   -26.0481     5.7082     6.8804   193.9408
  686.5000    80.0059   -25.9136     5.9579     7.3617   190.4628
  687.0000    80.4773   -25.8179     6.4134     8.1458   177.9988
  687.5000    78.9704   -25.7111     7.0012     8.5617   163.5782
  688.0000    75.4821   -25.5423     7.5613     8.7087   154.0793
  688.5000    72.2921   -25.4014     7.8188     8.8261   146.1222
  689.0000    73.4897   -25.2497     7.5548     8.8606   144.1342
  689.5000    72.3161   -25.1034     7.2379     8.8705   148.9788
  690.0000    72.5966   -24.9526     6.9306     8.8506   155.2539
  690.5000    70.6849   -24.8293     6.5772     8.7209   161.5259
  691.0000    72.8095   -25.0531     6.3708     8.4943   167.8511
  691.5000    76.2564   -25.3495     6.4268     8.1158   170.5231
  692.0000    74.7553   -25.6194     6.4542     7.7431   169.1444
  692.5000    71.4908   -25.9197     6.4899     7.7928   167.3388
  693.0000    72.9812   -25.9314     6.5387     7.8611   165.5332
  693.5000    69.8889   -25.7562     6.5462     7.9548   163.7276
  694.0000    66.5956   -25.6234     6.8255     8.3944   159.6570
  694.5000    64.4759   -25.4713     7.3753     8.9324   150.4545
  695.0000    62.2144   -25.3288     7.8843     9.2589   141.2872
  695.5000    64.1958   -25.1811     8.4064     9.5080   132.1028
  696.0000    66.7873   -25.0359     8.9247     9.7418   123.3062
  696.5000    70.1372   -24.8894     9.1742     9.9230   118.2765
  697.0000    67.9894   -24.7444     9.2450    10.1346   117.2682
  697.5000    69.9471   -24.5969     9.3391    10.3424   116.1024
  698.0000    68.2885   -24.4545     9.4241    10.5231   114.9370
  698.5000    70.3745   -24.3012     9.5090    10.6661   113.7873
  699.0000    68.2394   -24.2013     9.6037    10.7977   112.4019
  699.5000    67.2749   -24.1892     9.6724    10.9256   110.6869
  700.0000    69.5802   -24.2062     9.7866    11.0613   108.9890
  700.5000    72.3308   -24.1709     9.7990    11.1443   107.1910
  701.0000    73.5279   -24.3927     9.8508    11.1777   108.2071
  701.5000    71.6620   -24.6592     9.3790    11.2024   118.4738
  702.0000    71.0688   -24.7179     8.4605    10.8993   131.2719
  702.5000    73.5075   -24.8302     7.6900    10.2673   144.0641
  703.0000    71.2082   -24.9154     6.8081    10.0615   156.8777
  703.5000    72.3845   -25.0148     6.4529     9.6022   169.4549
  704.0000    70.1646   -25.1079     6.5014     8.5259   169.1611
  704.5000    66.8378   -25.1951     6.6455     7.9328   166.0264
  705.0000    63.8285   -25.2022     6.8739     8.1403   162.9062
  705.5000    64.9035   -25.2013     7.0671     8.2080   159.7801
  706.0000    61.5382   -25.2011     7.3530     9.0035   156.6571
  706.5000    62.4852   -25.2012     8.2642    11.0170   143.3602
  707.0000    60.2015   -25.2006     9.2768    12.1515   129.3642
  707.5000    56.4743   -25.2012    10.2231    12.6362   112.9410
  708.0000    53.3379   -25.1996    11.2987    13.0381    96.0765
  708.5000    55.2216   -25.2019    11.8792    13.2275    90.4091
  709.0000    56.8091   -25.1967    11.7677    13.3889    86.0161
  709.5000    54.2071   -25.2317    11.7145    13.5512    88.3124
  710.0000    51.6769   -25.2852    11.6344    13.7134    93.1170
  710.5000    49.5654   -25.3366    11.7459    13.8822    97.0825
  711.0000    48.1125   -25.3775    11.9930    14.0415    93.9437
  711.5000    45.6007   -25.4771    12.3319    14.3134    88.7022
  712.0000    42.7465   -25.6203    12.6837    14.7308    83.4608
  712.5000    39.2167   -25.7444    13.6114    15.1608    78.4066
  713.0000    35.5955   -25.8789    14.4730    16.1188    73.7228
  713.5000    31.6595   -26.0039    15.4469    17.1285    69.0389
  714.0000    33.5928   -26.1426    16.4206    18.1470    64.3551
  714.5000    32.9637   -26.2220    17.5293    19.1653    59.6712
  715.0000    38.3395   -26.2388    18.7597    20.1837    54.9874
  715.5000    43.5433   -26.2667    20.2842    21.2020    50.3035
  716.0000    46.3847   -26.2887    21.8295    21.9819    45.6197
  716.5000    50.3705   -26.3144    23.4183    22.4902    40.9358
  717.0000    53.9761   -26.3374    24.0101    22.9020    36.7203
  717.5000    52.9596   -26.3628    24.1649    23.1729    37.3659
  718.0000    56.5078   -26.3860    24.3615    23.3248    38.2394
  718.5000    55.4401   -26.4031    24.5289    23.4814    38.6259
  719.0000    53.5395   -26.2924    24.7149    23.6364    38.1891
  719.5000    54.2684   -26.1322    24.8933    23.7891    37.7264
  720.0000    52.0432   -25.9804    25.0221    23.9439    37.9504
  720.5000    54.1102   -25.8237    25.1472    24.0979    38.1887
  721.0000    52.1114   -25.6722    25.2749    24.2522    38.4269
  721.5000    50.9964   -25.5126    25.4023    24.4061    38.6652
  722.0000    53.5879   -25.3671    25.5305    24.5612    38.0684
  722.5000    47.6284   -25.1961    25.6580    24.7165    37.1435
  723.0000    43.9742   -25.0770    25.7838    24.8691    36.2185
  723.5000    41.1157   -24.7311    25.9300    25.0278    35.4433
  724.0000    42.1912   -24.2334    26.3022    25.1167    34.8477
  724.5000    43.6903   -23.7996    26.6696    25.0142    34.2521
  725.0000    42.5698   -23.3412    27.0748    24.8596    33.6565
  725.5000    45.1269   -22.8869    27.2645    24.7357    33.0609
  726.0000    47.1238   -22.4427    27.4441    24.5752    32.4652
  726.5000    45.2898   -22.3471    27.6270    24.5213    31.8696
  727.0000    47.6328   -22.6127    27.8102    24.6206    31.2740
  727.5000    51.6850   -23.2409    28.0160    24.7184    30.6841
  728.0000    48.8263   -23.8129    28.1642    24.7790    30.6841
  728.5000    50.2438   -24.4528    27.8412    24.7482    30.6841
  729.0000    52.4070   -25.0604    27.1646    24.4425    32.1127
  729.5000    51.8736   -25.6882    26.5025    23.9876    33.6843
  730.0000    55.0916   -26.3006    25.4701    23.5554    35.4209
  730.5000    60.2936   -26.9314    24.4124    23.1417    37.6349
  731.0000    58.5140   -27.4415    23.4284    22.7336    39.8522
  731.5000    60.7991   -27.6511    22.7509    22.2978    41.7585
  732.0000    57.5004   -27.4112    22.2436    22.1190    43.1605
  732.5000    58.7624   -26.8991    21.7566    21.9302    44.3851
  733.0000    56.4737   -26.4468    21.2655    21.7501    45.6083
  733.5000    52.4566   -25.8441    20.7769    21.5703    46.8293
  734.0000    55.0362   -25.0545    20.2863    21.3867    48.0560
  734.5000    60.1930   -24.3532    19.7995    21.1493    49.2827
  735.0000    58.6411   -23.5429    19.3040    20.8260    50.5094
  735.5000    57.3130   -22.7452    18.7931    20.4864    51.7362
  736.0000    58.5608   -21.9425    18.2106    20.0732    52.8169
  736.5000    55.7219   -21.0884    17.6338    19.5165    55.8350
  737.0000    58.3261   -20.8130    17.1150    18.9460    57.8672
  737.5000    59.8013   -20.7512    16.5562    18.3534    60.4879
  738.0000    54.2467   -20.9601    16.0092    17.9634    63.1087
  738.5000    52.5813   -21.5018    15.8233    17.7894    63.8136
  739.0000    51.2531   -22.0992    15.8490    17.6483    63.7147
  739.5000    50.6104   -22.6916    15.8383    17.3748    63.6158
  740.0000    55.9090   -23.3389    15.8445    17.1532    63.5169
  740.5000    57.6758   -23.8216    15.8419    17.0913    63.4181
  741.0000    55.4908   -24.3429    15.8437    17.0505    63.3192
  741.5000    52.6853   -24.8605    15.8441    17.0717    63.2203
  742.0000    49.5634   -25.3831    15.8440    17.1113    63.1214
  742.5000    48.9767   -25.9003    15.8466    17.1497    63.0225
  743.0000    47.6702   -26.4139    15.8399    17.1888    62.9236
  743.5000    43.1319   -26.7710    15.8713    17.2268    62.6975
  744.0000    47.4400   -27.0359    16.0946    17.2669    62.3593
  744.5000    50.6272   -27.2919    16.3267    17.3030    62.0212
  745.0000    51.5267   -27.5792    16.3197    17.3456    61.6830
  745.5000    49.7459   -27.6188    16.2454    17.3298    61.3448
