~VERSION INFORMATION
 VERS.                2.0:   CWLS LOG ASCII STANDARD - VERSION 2.0
 WRAP.                 NO:   ONE LINE PER DEPTH STEP
~WELL INFORMATION
#MNEM.UNIT      DATA TYPE    INFORMATION
#----------   ------------   ------------------------------
 STRT.F           46.0000:   START DEPTH
 STOP.F          490.0000:   STOP DEPTH
 STEP.F            0.5000:   STEP LENGTH
 NULL.          -999.2500:   NO VALUE
 COMP.    FENIX & SCISSON:   COMPANY
 WELL.        NPR #55-S-3:   WELL
 FLD .              NPR 3:   FIELD
 LOC .       S3 T38N R78W:   LOCATION
 CNTY.            NATRONA:   COUNTY
 STAT.            WYOMING:   STATE
 CTRY. UNITED STATES OF AMERICA:   COUNTRY
 SRVC.      Dresser Atlas:   SERVICE COMPANY
 DATE.        12-MAR-1977:   LOGDATE
 API .       490251028700:   API NUMBER
~CURVE INFORMATION
#MNEM.UNIT       API CODE    CURVE DESCRIPTION
#----------   ------------   ------------------------------
 DEPT.F                  :   
 SPR .MV     07 010 01 00:   SPONTANEOUS POTENTIAL
 ILM .OHMM   07 120 44 00:   INDUCTION LOG MEDIUM
 ILD .OHMM   07 120 46 00:   INDUCTION LOG DEEP
 SFL .OHMM   07 220 01 00:   SHALLOW FOCUSED LOG RESISTIVITY
 CALD.IN     45 280 60 00:   CALIPER FROM DENSITY LOG
 GRD .GAPI   45 310 01 00:   GAMMA RAY FROM DENSITY LOG
 CORR.G/C3   45 356 01 00:   DENSITY CORRECTION
 DPHI.DEC    45 890 12 00:   DENSITY POROSITY SANDSTONE
 RHOB.G/C3   45 350 01 00:   BULK DENSITY
~PARAMETER INFORMATION
#MNEM.UNIT          VALUE    DESCRIPTION
#----------   ------------   ------------------------------
 PD  .                 GL:   PERMANENT DATUM
 EPD .F              5169:   ELEVATION PERMANENT DATUM
 LMF .                 GL:   LOG MEASURED FROM
 DMF .                 GL:   DRILLING MEASURED FROM
 EGL .F              5169:   GROUND LEVEL
 DATE.        12-MAR-1977:   RUN DATE
 RUN .                  1:   RUN NUMBER
 DD  .F               498:   DEPTH DRILLER
 DL  .F               492:   DEPTH LOGGER
 BLI .F               490:   BOTTOM LOG INTERVAL
 TLI .F               046:   TOP LOG INTERVAL
 CS  .IN            8.625:   CASING SIZE
 CBD .F                40:   CASING BOTTOM DRILLER
 CBL .F               046:   CASING BOTTOM LOGGER
 BS  .IN            7.875:   BIT SIZE
 BSD .F               498:   BIT SIZE AT DEPTH
 DFT .           CHEM GEL:   DRILLING FLUID TYPE
 DFD .                8.7:   DRILLING FLUID DENSITY
 DFV .                 35:   DRILLING FLUID VISCOSITY
 DFPH.                8.0:   DRILLING FLUID PH
 DFL .                7.2:   DRILLING FLUID LOSS
 MSS .           FLOWLINE:   MUD SAMPLE SOURCE
 RMS .OHMM            .35:   RESISTIVITY MUD SAMPLE
 MST .F                60:   MUD SAMPLE TEMPERATURE
 RMF .OHMM             .3:   RESISTIVITY MUD FILTRATE SAMPLE
 MFST.F                60:   MUD FILTRATE SAMPLE TEMPERATURE
 RMC .OHMM            .73:   RESISTIVITY MUD CAKE
 MCST.F                60:   MUD CAKE SAMPLE TEMPERATURE
 MFSS.               MEAS:   MUD FILTRATE SAMPLE SOURCE
 MCSS.               MEAS:   MUD CAKE SAMPLE SOURCE
 RMB .OHMM            .33:   RESISTIVITY MUD AT BHT
 BHT .F                63:   BOTTOM HOLE TEMPERATURE
 TCS .HRS            1400:   TIME CURCULATED STOPPED
 MRT .F                63:   MAXIMUM RECORDED TEMPERATURE
 LUN .               6134:   LOGGING UNIT NUMBER
 LUL .              GLTTE:   LOGGING UNIT LOCATION
 ENGI.              NOYER:   RECORDING ENGINEER
 WITN.         STUEBINGER:   WITNESSED BY
 CLNT.            A2DTECH:   CLIENT CODE
 ORIG.           5" PRINT:   ORIGIN OF DATA
 UWI .       490251028700:   UNIQUE WELL ID
 DICO. A2D Technologies, Inc.:   DIGITIZING COMPANY
~OTHER INFORMATION
~A   DEPT      SPR        ILM        ILD        SFL       CALD        GRD       CORR         DPHI       RHOB 
# ...
  301.5000   -43.1289    24.1950    21.5049    26.2591     7.7817    83.5836     0.0175     0.1796     2.3524
  302.0000   -42.9936    24.1990    21.2098    26.6171     7.7929    84.6390     0.0283     0.1657     2.3967
  302.5000   -42.7032    24.2022    21.0637    26.6110     7.7947    79.8904     0.0281     0.1522     2.4012
  303.0000   -42.4092    24.5423    20.9187    26.0580     7.7965    78.7104     0.0282     0.1582     2.3839
  303.5000   -42.2667    25.0597    21.0637    25.1676     7.7982    79.4759     0.0268     0.1578     2.3892
  304.0000   -42.1257    25.4119    21.3568    25.3365     7.8000    77.5548     0.0238     0.1619     2.4005
  304.5000   -42.1333    25.5922    21.5049    26.5862     7.8018    75.3356     0.0164     0.1681     2.3696
  305.0000   -42.3104    25.5957    21.6540    27.1370     7.8036    74.0065     0.0225     0.1716     2.3644
  305.5000   -42.5986    25.4220    21.6540    26.5742     7.8054    75.8152     0.0286     0.1749     2.3591
  306.0000   -42.7555    25.2503    21.5049    26.3841     7.8071    75.3803     0.0346     0.1797     2.3584
  306.5000   -42.7627    24.9079    21.3568    26.5940     7.8089    78.3813     0.0377     0.1633     2.3877
  307.0000   -42.6203    24.0653    21.0637    26.0441     7.8107    80.3350     0.0333     0.1519     2.3974
  307.5000   -42.4775    23.5748    20.6316    25.6832     7.8128    81.8416     0.0288     0.1508     2.4005
  308.0000   -42.0359    23.0731    20.3485    24.6370     7.8146    82.5990     0.0274     0.1501     2.4030
  308.5000   -42.1931    22.6242    19.7938    22.9891     7.8164    80.2348     0.0290     0.1400     2.4136
  309.0000   -42.2019    22.3167    19.3877    23.6302     7.8182    77.2705     0.0291     0.1433     2.4187
  309.5000   -42.3588    21.8618    19.1216    24.2985     7.8199    74.9023     0.0307     0.1465     2.4127
  310.0000   -42.3660    21.4162    18.7294    24.4543     7.8217    76.5579     0.0292     0.1511     2.4023
  310.5000   -42.3732    20.8352    18.6004    23.9486     7.8235    81.4922     0.0248     0.1567     2.3925
  311.0000   -42.2305    20.5520    18.6355    23.4542     7.8252    81.5558     0.0234     0.1588     2.3821
  311.5000   -42.3937    20.2633    18.6339    22.8118     7.8117    78.9913     0.0235     0.1615     2.3829
  312.0000   -42.8458    19.8601    18.6326    22.4957     7.8139    75.4308     0.0220     0.1591     2.3890
  312.5000   -43.3021    19.4552    18.7607    22.0313     7.7855    73.8077     0.0221     0.1531     2.4011
  313.0000   -43.6087    19.1908    18.7594    22.3441     7.7723    76.6757     0.0222     0.1462     2.4086
  313.5000   -43.9153    18.7996    18.8883    22.7996     7.7746    79.7243     0.0223     0.1509     2.3982
  314.0000   -43.7711    18.5441    18.8871    23.1138     7.7763    82.9475     0.0227     0.1628     2.3847
  314.5000   -43.6302    18.5466    18.8936    23.1099     7.7628    81.6225     0.0231     0.1638     2.3823
  315.0000   -43.4781    18.4213    19.2801    23.1068     7.7650    82.2349     0.0236     0.1605     2.3810
  315.5000   -43.1957    18.5516    19.5472    23.1037     7.7668    81.0358     0.0241     0.1650     2.3743
  316.0000   -42.9053    18.5546    19.8184    23.1007     7.7834    80.3301     0.0242     0.1689     2.3714
  316.5000   -42.9126    18.5571    19.9546    23.2577     7.7852    79.3072     0.0242     0.1719     2.3705
  317.0000   -43.0695    18.4312    20.0917    24.0712     7.7869    78.2803     0.0228     0.1737     2.3624
  317.5000   -43.3761    18.3073    19.9516    24.5721     7.7887    78.5946     0.0184     0.1766     2.3589
  318.0000   -43.2336    17.9342    19.9503    24.3997     7.7905    81.1445     0.0169     0.1901     2.3430
  318.5000   -43.0773    17.5686    19.8112    23.7314     7.7774    83.2431     0.0245     0.1766     2.3747
  319.0000   -42.9487    17.2026    19.8098    23.2414     7.7792    81.7691     0.0291     0.1625     2.3860
  319.5000   -42.9577    16.6288    19.6720    22.7616     7.7660    82.3856     0.0247     0.1658     2.3808
  320.0000   -42.9649    16.5160    19.5352    22.4358     7.7827    83.2960     0.0232     0.1673     2.3756
  320.5000   -42.9721    16.4045    19.2656    21.8314     7.7845    83.6063     0.0308     0.1552     2.3998
  321.0000   -43.4285    16.2937    18.9997    22.4395     7.7867    80.6460     0.0309     0.1564     2.3908
  321.5000   -43.7351    16.0722    18.4802    22.9072     7.7884    78.2778     0.0280     0.1636     2.3871
  322.0000   -43.7425    15.8543    18.2050    22.9034     7.7902    78.2941     0.0265     0.1669     2.3811
  322.5000   -43.5998    15.8564    17.8495    22.4305     7.7622    80.0988     0.0311     0.1647     2.3895
  323.0000   -43.6088    15.8586    17.5775    21.6659     7.7640    82.9466     0.0357     0.1555     2.4023
  323.5000   -43.7658    16.0819    17.2406    21.2185     7.7504    82.3668     0.0403     0.1444     2.4092
  324.0000   -44.2221    16.3078    17.0027    21.2151     7.7526    83.1283     0.0418     0.1413     2.4227
  324.5000   -44.8281    16.7671    16.7680    21.2123     7.7693    80.9091     0.0359     0.1458     2.4130
  325.0000   -45.4341    17.1206    16.7669    21.2094     7.7711    78.9879     0.0315     0.1491     2.4063
  325.5000   -45.4416    17.3611    16.7658    20.7716     7.7728    81.3887     0.0285     0.1539     2.3996
  326.0000   -45.4504    17.6050    16.8810    20.3427     7.7746    83.1934     0.0256     0.1572     2.3921
  326.5000   -45.4576    17.8607    16.8796    19.9227     7.7764    84.9940     0.0240     0.1509     2.3960
  327.0000   -45.4648    18.2294    16.8785    19.5113     7.7628    82.7789     0.0213     0.1514     2.3975
  327.5000   -45.3205    18.4855    16.8773    19.6434     7.7650    81.9010     0.0214     0.1529     2.3991
  328.0000   -45.3296    19.0061    17.1112    20.6141     7.7668    82.5134     0.0200     0.1577     2.3967
  328.5000   -45.4946    19.2731    17.2288    21.7827     7.7686    81.9335     0.0200     0.1700     2.3735
  329.0000   -46.2440    19.4093    17.3472    22.0836     7.7703    78.5221     0.0231     0.1754     2.3688
  329.5000   -46.5506    19.4119    17.2262    21.7769     7.7721    79.7306     0.0277     0.1721     2.3730
  330.0000   -46.7076    19.2808    16.9885    20.7459     7.7739    82.4295     0.0382     0.1586     2.4032
  330.5000   -46.8645    19.2835    16.8703    20.1671     7.7756    84.5322     0.0368     0.1384     2.4273
  331.0000   -47.1711    19.2866    16.7529    19.8975     7.7774    82.3130     0.0309     0.1426     2.4146
  331.5000   -47.4777    19.1558    16.5217    19.7578     7.7792    81.7313     0.0250     0.1501     2.4049
  332.0000   -47.7844    19.2918    16.5206    19.7552     7.7810    80.8376     0.0146     0.1561     2.3876
  332.5000   -47.9431    19.5629    16.5309    19.7526     7.7827    79.6498     0.0101     0.1567     2.3952
  333.0000   -48.2497    20.1138    16.9814    20.1636     7.7845    77.5540     0.0147     0.1449     2.4344
  333.5000   -48.5563    20.9680    17.3362    21.4544     7.7863    75.4501     0.0223     0.1065     2.5082
  334.0000   -48.5635    21.8891    17.9448    22.8659     7.7881    73.9159     0.0313     0.0548     2.5624
  334.5000   -48.7204    23.7520    18.4469    24.7972     7.7902    75.0020     0.0404     0.0349     2.6001
  335.0000   -49.0271    25.1052    19.2270    26.0225     7.7920    75.7369     0.0450     0.0203     2.6197
  335.5000   -49.1841    25.8122    19.9020    27.1204     7.7785    71.5844     0.0391     0.0266     2.6070
  336.0000   -49.4924    25.2861    21.0443    27.8776     7.7807    69.6632     0.0331     0.0467     2.5784
  336.5000   -49.7990    23.7647    20.8859    28.2608     7.7824    77.7259     0.0332     0.0415     2.5845
  337.0000   -49.8063    20.4162    18.9575    26.0086     7.7842    81.1699     0.0333     0.0478     2.5695
  337.5000   -49.8135    17.5394    17.9361    22.4992     7.7860    82.8255     0.0274     0.0754     2.5245
