~VERSION INFORMATION
 VERS.                2.0:   CWLS LOG ASCII STANDARD - VERSION 2.0
 WRAP.                 NO:   ONE LINE PER DEPTH STEP
~WELL INFORMATION
#MNEM.UNIT      DATA TYPE    INFORMATION
#----------   ------------   ------------------------------
 STRT.F           27.0000:   START DEPTH
 STOP.F          670.0000:   STOP DEPTH
 STEP.F            0.5000:   STEP LENGTH
 NULL.          -999.2500:   NO VALUE
 COMP. LAWRENCE/ALLISON INC:   COMPANY
 WELL. SX 11 WP 26 #26-11:   WELL
 FLD .           N.P.R #3:   FIELD
 LOC .      S11 T38N R78W:   LOCATION
 CNTY.            NATRONA:   COUNTY
 STAT.            WYOMING:   STATE
 CTRY. UNITED STATES OF AMERICA:   COUNTRY
 SRVC.            Unknown:   SERVICE COMPANY
 DATE.        11-SEP-1984:   LOGDATE
 API .       490251097700:   API NUMBER
~CURVE INFORMATION
#MNEM.UNIT       API CODE    CURVE DESCRIPTION
#----------   ------------   ------------------------------
 DEPT.F                  :   
 CNC .DEC    42 890 03 00:   NEUTRON POROSITY SANDSTONE
 AC  .US/F   60 520 00 00:   ACCOUSTIC SONIC
 SPR .MV     07 010 01 00:   SPONTANEOUS POTENTIAL
 RILD.OHMM   07 120 46 00:   INDUCTION LOG DEEP RESISTIVITY
 RILM.OHMM   07 120 44 00:   INDUCTION LOG MEDIUM RESISTIVITY
 RFOC.OHMM   07 220 04 00:   RESISTIVITY FOCUSED LOG
 GRD .GAPI   45 310 01 00:   GAMMA RAY FROM DENSITY LOG
 CALD.IN     45 280 60 00:   CALIPER FROM DENSITY LOG
 DEN .G/C3   45 350 01 00:   COMPENSATED BULK DENSTIY
 CORR.G/C3   45 356 01 00:   DENSITY CORRECTION
 PORD.DEC    45 890 12 00:   POROSITY DENSITY SANDSTONE
~PARAMETER INFORMATION
#MNEM.UNIT          VALUE    DESCRIPTION
#----------   ------------   ------------------------------
 PD  .                 GL:   PERMANENT DATUM
 EPD .F              5186:   ELEVATION PERMANENT DATUM
 LMF .                 GL:   LOG MEASURED FROM
 DMF .                 GL:   DRILLING MEASURED FROM
 EGL .F              5186:   GROUND LEVEL
 DATE.            9-11-84:   RUN DATE
 RUN .                  1:   RUN NUMBER
 DD  .F               672:   DEPTH DRILLER
 DL  .F               668:   DEPTH LOGGER
 BLI .F               668:   BOTTOM LOG INTERVAL
 TLI .F                45:   TOP LOG INTERVAL
 CS  .IN            8.625:   CASING SIZE
 CBD .F                42:   CASING BOTTOM DRILLER
 CBL .F                45:   CASING BOTTOM LOGGER
 BS  .IN            7.875:   BIT SIZE
 BSD .F               672:   BIT SIZE AT DEPTH
 DFT .          KCL WATER:   DRILLING FLUID TYPE
 MSS .               TANK:   MUD SAMPLE SOURCE
 RMS .OHMM            .36:   RESISTIVITY MUD SAMPLE
 MST .F                82:   MUD SAMPLE TEMPERATURE
 MFSS.                  C:   MUD FILTRATE SAMPLE SOURCE
 MCSS.                  C:   MUD CAKE SAMPLE SOURCE
 TCS .HRS               3:   TIME CURCULATED STOPPED
 MRT .F               100:   MAXIMUM RECORDED TEMPERATURE
 LUN .            HL 6307:   LOGGING UNIT NUMBER
 LUL .           GILLETTE:   LOGGING UNIT LOCATION
 ENGI.      FAHLSING/MACK:   RECORDING ENGINEER
 WITN.            JOHNSON:   WITNESSED BY
 CLNT.            A2DTECH:   CLIENT CODE
 ORIG.       2", 5" PRINT:   ORIGIN OF DATA
 UWI .       490251097700:   UNIQUE WELL ID
 DICO. A2D Technologies, Inc.:   DIGITIZING COMPANY
~OTHER INFORMATION
~A   DEPT      CNC          AC       SPR       RILD       RILM       RFOC        GRD       CALD        DEN       CORR       PORD   
# ...
  545.5000     0.2531    89.6910   -28.9030    10.3320    10.8400    14.4220    79.0740     7.7980     2.4570     0.0270     0.1320
  546.0000     0.2515    89.6550   -28.8000    10.3520    10.9870    14.2900    78.2030     7.7980     2.4600     0.0300     0.1300
  546.5000     0.2484    89.6190   -28.8310    10.2970    11.1040    14.0910    81.5570     7.7980     2.4630     0.0350     0.1290
  547.0000     0.2410    89.5840   -28.8830    10.2340    11.2200    13.8930    84.9030     7.7970     2.4610     0.0390     0.1320
  547.5000     0.2369    89.5520   -28.9360    10.1710    11.3370    13.6940    87.1890     7.7970     2.4570     0.0400     0.1350
  548.0000     0.2471    89.7340   -28.9880    10.2560    10.9030    13.4960    88.0470     7.7960     2.4520     0.0360     0.1370
  548.5000     0.2628    89.9000   -29.0410    10.3520    10.6360    13.2880    89.4030     7.7960     2.4480     0.0310     0.1390
  549.0000     0.2665    89.9790   -29.0940    10.3160    10.6220    13.3620    90.7200     7.7950     2.4430     0.0200     0.1400
  549.5000     0.2590    90.0350   -29.1460    10.2820    10.6090    13.4600    88.6880     7.7950     2.4390     0.0070     0.1410
  550.0000     0.2541    90.0920   -29.1870    10.2490    10.5950    13.5580    86.9660     7.7950     2.4350     0.0010     0.1450
  550.5000     0.2574    90.1490   -29.2460    10.2150    10.5820    13.6470    88.0400     7.7940     2.4310     0.0100     0.1470
  551.0000     0.2636    90.2060   -29.3030    10.1820    10.5680    13.4500    89.1210     7.7940     2.4320     0.0170     0.1460
  551.5000     0.2648    90.2620   -29.3600    10.1480    10.5550    13.2300    89.3470     7.7930     2.4360     0.0120     0.1440
  552.0000     0.2653    90.3190   -29.4170    10.1150    10.5410    13.0110    88.5730     7.7930     2.4410     0.0040     0.1430
  552.5000     0.2653    90.3760   -29.4740    10.0810    10.5280    12.7920    89.7410     7.7920     2.4450    -0.0030     0.1410
  553.0000     0.2618    90.4330   -29.5320    10.0480    10.5140    12.5730    91.1920     7.7920     2.4400    -0.0060     0.1430
  553.5000     0.2488    90.3680   -29.6100    10.0150    10.5010    12.3320    90.3780     7.7910     2.4350     0.0040     0.1470
  554.0000     0.2379    90.2160   -29.8360     9.9780    10.4870    12.4410    89.1700     7.7910     2.4370     0.0140     0.1440
  554.5000     0.2419    90.0640   -30.0650     9.9780    10.4740    12.5620    87.9640     7.7910     2.4410     0.0240     0.1420
  555.0000     0.2443    89.9120   -30.2940     9.9780    10.4600    12.6830    87.2150     7.7900     2.4450     0.0330     0.1390
  555.5000     0.2477    89.7510   -30.5230     9.9780    10.4480    12.8040    89.7610     7.7900     2.4490     0.0320     0.1360
  556.0000     0.2569    89.7920   -30.7510     9.9780    10.4320    12.9130    92.3850     7.7890     2.4530     0.0210     0.1350
  556.5000     0.2640    89.8670   -30.9800     9.9780    10.4080    13.0330    91.9980     7.7890     2.4510     0.0030     0.1380
  557.0000     0.2615    89.9420   -31.2080     9.9790    10.3850    12.9770    88.9340     7.7880     2.4470    -0.0090     0.1400
  557.5000     0.2587    90.0170   -31.4360     9.9780    10.3620    12.8970    85.8390     7.7880     2.4430     0.0020     0.1420
  558.0000     0.2565    90.1810   -31.6640     9.9850    10.3390    12.8170    87.1790     7.7880     2.4380     0.0170     0.1440
  558.5000     0.2552    90.4140   -31.7490     9.8800    10.3150    12.7370    89.9470     7.7870     2.4390     0.0050     0.1430
  559.0000     0.2638    90.6480   -31.6690     9.9150    10.2920    12.6580    92.1010     7.7870     2.4430     0.0160     0.1410
  559.5000     0.2659    90.4280   -31.5930     9.9480    10.2690    12.5780    91.5860     7.7860     2.4470     0.0290     0.1390
  560.0000     0.2668    89.8730   -31.5170     9.9780    10.2570    12.4980    91.0810     7.7860     2.4460     0.0210     0.1420
  560.5000     0.2649    90.0060   -31.4400     9.8490    10.1400    12.4180    90.5870     7.7850     2.4370    -0.0050     0.1460
  561.0000     0.2624    90.3320   -31.3640     9.7330    10.0090    12.3390    90.0880     7.7850     2.4280    -0.0060     0.1510
  561.5000     0.2611    90.6580   -31.2880     9.6160     9.8780    12.2590    90.6100     7.7840     2.4220     0.0000     0.1540
  562.0000     0.2645    90.9840   -31.2100     9.4990     9.7480    12.1790    91.5910     7.7840     2.4300     0.0060     0.1490
  562.5000     0.2647    91.2390   -31.1690     9.3820     9.6170    12.0990    92.4830     7.7840     2.4390     0.0110     0.1420
  563.0000     0.2650    91.2120   -31.4880     9.2660     9.4860    12.0200    92.7430     7.7830     2.4490     0.0110     0.1350
  563.5000     0.2631    91.1840   -31.8940     9.1000     9.3550    11.9400    93.0570     7.7830     2.4530     0.0140     0.1340
  564.0000     0.2618    91.1560   -32.3020     8.9540     9.2250    11.8290    93.5920     7.7820     2.4530     0.0220     0.1350
  564.5000     0.2605    91.3080   -32.7120     8.8210     9.0940    11.7180    95.0640     7.7820     2.4510     0.0290     0.1370
  565.0000     0.2599    91.5730   -33.1220     8.6880     8.9630    11.6070    96.5650     7.7810     2.4500     0.0240     0.1380
  565.5000     0.2530    91.8370   -33.5310     8.5550     8.8330    11.4950    98.0980     7.7810     2.4510     0.0180     0.1370
  566.0000     0.2505    92.1450   -33.9410     8.4220     8.7020    11.3840    97.6270     7.7810     2.4550     0.0180     0.1330
  566.5000     0.2523    92.6000   -34.3510     8.2890     8.6110    11.1670    96.6590     7.7800     2.4590     0.0240     0.1290
  567.0000     0.2606    93.0540   -34.7600     8.0880     8.3500    10.9040    95.6650     7.7800     2.4620     0.0300     0.1300
  567.5000     0.2751    93.5090   -35.1700     7.8890     8.1130    10.6410    95.6350     7.7790     2.4600     0.0230     0.1310
  568.0000     0.2819    93.9630   -35.5800     7.6900     7.8770    10.3520    96.9460     7.7790     2.4580     0.0070     0.1310
  568.5000     0.2840    94.4180   -35.9900     7.4900     7.6400    10.2720    99.4530     7.7790     2.4600    -0.0060     0.1290
  569.0000     0.2889    94.8720   -36.3990     7.0280     7.3630    10.1830   101.9000     7.7780     2.4620     0.0030     0.1280
  569.5000     0.2984    96.0100   -36.8090     6.4520     6.7650    10.0940   101.8920     7.7780     2.4640     0.0120     0.1270
  570.0000     0.3037    98.9020   -37.2190     5.8760     6.2210    10.0040   101.6470     7.7780     2.4670     0.0200     0.1260
  570.5000     0.3176   102.0270   -37.6280     5.3000     5.6780     9.6140   102.9490     7.7780     2.4680     0.0290     0.1270
  571.0000     0.3203   105.1520   -38.0360     4.7240     5.1350     8.7080   104.7600     7.7770     2.4660     0.0380     0.1360
  571.5000     0.3153   108.5730   -38.4440     4.4360     4.6450     7.4140   106.5600     7.7770     2.4370     0.0280     0.1540
  572.0000     0.3134   107.0690   -38.8590     4.7220     4.9900     6.1200   113.3810     7.7770     2.4000     0.0150     0.1790
  572.5000     0.3084   103.0350   -38.5800     4.9550     5.3030     4.9550   120.0370     7.7760     2.3620     0.0290     0.1990
  573.0000     0.2904    99.0020   -37.9880     5.0160     5.5850     6.3990   116.9130     7.7760     2.3470     0.0310     0.1890
  573.5000     0.2712    95.1220   -37.3930     5.0940     6.1190     8.4620   105.2380     7.7760     2.3850     0.0210     0.1670
  574.0000     0.2671    92.2410   -36.7960     5.4210     6.6050    10.5250    93.5090     7.7760     2.4250     0.0110     0.1440
  574.5000     0.2587    92.3670   -36.1920     6.0370     7.0910    11.7770    89.2870     7.7750     2.4640     0.0140     0.1220
  575.0000     0.2519    92.4820   -35.8240     6.7150     7.5670    11.2550    91.6410     7.7750     2.4900     0.0160     0.1130
  575.5000     0.2537    92.4460   -35.4740     7.1750     8.0210    10.7800    94.0100     7.7750     2.4880     0.0190     0.1160
