~VERSION INFORMATION
 VERS.                2.0:   CWLS LOG ASCII STANDARD - VERSION 2.0
 WRAP.                 NO:   ONE LINE PER DEPTH STEP
~WELL INFORMATION
#MNEM.UNIT      DATA TYPE    INFORMATION
#----------   ------------   ------------------------------
 STRT.F           70.0000:   START DEPTH
 STOP.F          806.0000:   STOP DEPTH
 STEP.F            0.5000:   STEP LENGTH
 NULL.          -999.2500:   NO VALUE
 COMP. U S NAVY/INTEX OIL CO:   COMPANY
 WELL. RES 3 TEAPOT DOME #33-S-2:   WELL
 FLD .             TEAPOT:   FIELD
 LOC .       S2 T38N R78W:   LOCATION
 CNTY.            NATRONA:   COUNTY
 STAT.            WYOMING:   STATE
 CTRY. UNITED STATES OF AMERICA:   COUNTRY
 SRVC.         Lane Wells:   SERVICE COMPANY
 DATE.        15-MAR-1980:   LOGDATE
 API .       490250644600:   API NUMBER
~CURVE INFORMATION
#MNEM.UNIT       API CODE    CURVE DESCRIPTION
#----------   ------------   ------------------------------
 DEPT.F                  :   
 GR  .GAPI   30 310 01 00:   GAMMA RAY
 SPR .MV     05 010 01 00:   SPONTANEOUS POTENTIAL FROM RES.
 CILD.MMHO   05 110 46 00:   CONDUCTIVITY INDUCTION LOG DEEP
 ASN .OHMM   05 041 16 00:   AMPLIFIED SHORT NORMAL 16"
 ILD .OHMM   05 120 46 00:   INDUCTION LOG DEEP
~PARAMETER INFORMATION
#MNEM.UNIT          VALUE    DESCRIPTION
#----------   ------------   ------------------------------
 PD  .                 GL:   PERMANENT DATUM
 EPD .F              5119:   ELEVATION PERMANENT DATUM
 LMF .                 KB:   LOG MEASURED FROM
 DAPD.F                 5:   FEET ABOVE PERMANENT DATUM
 DMF .                 KB:   DRILLING MEASURED FROM
 EKB .F              5124:   KELLING BUSHING
 EGL .F              5119:   GROUND LEVEL
 DATE.            3-15-60:   RUN DATE
 RUN .                  1:   RUN NUMBER
 DD  .F               810:   DEPTH DRILLER
 DL  .F               808:   DEPTH LOGGER
 BLI .F               806:   BOTTOM LOG INTERVAL
 TLI .F                70:   TOP LOG INTERVAL
 CS  .IN            8.625:   CASING SIZE
 CBD .F                12:   CASING BOTTOM DRILLER
 BS  .IN            7.875:   BIT SIZE
 BSD .F               810:   BIT SIZE AT DEPTH
 DFT .   GEL/OIL EMULSION:   DRILLING FLUID TYPE
 DFD .                6.8:   DRILLING FLUID DENSITY
 DFV .                 34:   DRILLING FLUID VISCOSITY
 DFPH.                7.6:   DRILLING FLUID PH
 DFL .                9.4:   DRILLING FLUID LOSS
 MSS .           FLOWLINE:   MUD SAMPLE SOURCE
 RMS .OHMM            4.2:   RESISTIVITY MUD SAMPLE
 MST .F                65:   MUD SAMPLE TEMPERATURE
 RMF .OHMM            3.3:   RESISTIVITY MUD FILTRATE SAMPLE
 MFST.F                68:   MUD FILTRATE SAMPLE TEMPERATURE
 RMC .OHMM              4:   RESISTIVITY MUD CAKE
 MCST.F                68:   MUD CAKE SAMPLE TEMPERATURE
 MFSS.                MUD:   MUD FILTRATE SAMPLE SOURCE
 MCSS.              PRESS:   MUD CAKE SAMPLE SOURCE
 RMB .OHMM            3.9:   RESISTIVITY MUD AT BHT
 BHT .F                71:   BOTTOM HOLE TEMPERATURE
 MRT .F                71:   MAXIMUM RECORDED TEMPERATURE
 LUN .             L-4474:   LOGGING UNIT NUMBER
 LUL .             CASPER:   LOGGING UNIT LOCATION
 ENGI.      GRIGGS/NELSON:   RECORDING ENGINEER
 WITN.   JORGENSEN/HUDSON:   WITNESSED BY
 CLNT.            A2DTECH:   CLIENT CODE
 ORIG. 1", 2.5", 5" PRINT:   ORIGIN OF DATA
 UWI .       490250644600:   UNIQUE WELL ID
 DICO. A2D Technologies, Inc.:   DIGITIZING COMPANY
~OTHER INFORMATION
~A   DEPT       GR        SPR        CILD         ASN        ILD 
# ...
  253.0000  -999.2500   -33.2673     0.0004    14.5638    11.9002
  253.5000  -999.2500   -33.8044     0.0004    14.6275    11.9764
  254.0000  -999.2500   -34.4322     0.0004    14.6617    12.0370
  254.5000  -999.2500   -34.6308     0.0004    14.6980    12.0965
  255.0000  -999.2500   -34.4020     0.0004    14.7869    12.1710
  255.5000  -999.2500   -34.1249     0.0004    14.9484    12.2423
  256.0000  -999.2500   -33.9545     0.0004    15.1354    12.2704
  256.5000  -999.2500   -33.7846     0.0004    15.2938    12.2661
  257.0000  -999.2500   -33.6451     0.0004    15.4687    12.3107
  257.5000  -999.2500   -33.7251     0.0004    15.6390    12.4595
  258.0000  -999.2500   -34.0447     0.0004    15.7676    12.6579
  258.5000  -999.2500   -34.3991     0.0004    15.9456    12.8124
  259.0000  -999.2500   -34.6136     0.0004    16.2365    12.9250
  259.5000  -999.2500   -34.6763     0.0004    16.5540    13.0811
  260.0000  -999.2500   -34.6613     0.0004    16.8262    13.3068
  260.5000  -999.2500   -34.6437     0.0004    17.0723    13.5306
  261.0000  -999.2500   -34.6613     0.0004    17.3333    13.7130
  261.5000  -999.2500   -34.6812     0.0004    17.6472    13.9106
  262.0000  -999.2500   -34.6514     0.0004    17.9720    14.1484
  262.5000  -999.2500   -34.6197     0.0004    18.1717    14.3242
  263.0000  -999.2500   -34.6721     0.0004    18.2054    14.3283
  263.5000  -999.2500   -34.7223     0.0004    18.1721    14.1970
  264.0000  -999.2500   -34.6203     0.0004    18.0686    14.0544
  264.5000  -999.2500   -34.5329     0.0004    17.9250    13.9498
  265.0000  -999.2500   -34.8407     0.0004    17.7600    13.8430
  265.5000  -999.2500   -35.4890     0.0004    17.5958    13.7149
  266.0000  -999.2500   -35.8669     0.0004    17.4347    13.5958
  266.5000  -999.2500   -35.6049     0.0004    17.2740    13.4916
  267.0000  -999.2500   -35.0731     0.0004    17.1219    13.3664
  267.5000  -999.2500   -34.7719     0.0004    16.9675    13.2133
  268.0000  -999.2500   -34.6445     0.0004    16.7895    13.0827
  268.5000  -999.2500   -34.3794     0.0004    16.6185    13.0179
  269.0000  -999.2500   -34.0524     0.0004    16.5166    12.9986
  269.5000  -999.2500   -34.0157     0.0004    16.4730    12.9677
  270.0000  -999.2500   -34.3461     0.0004    16.4158    12.9021
  270.5000  -999.2500   -34.7718     0.0004    16.3389    12.8316
  271.0000  -999.2500   -35.0176     0.0004    16.2876    12.7753
  271.5000  -999.2500   -34.9843     0.0004    16.2791    12.6754
  272.0000  -999.2500   -34.7509     0.0004    16.0968    12.4484
  272.5000  -999.2500   -34.6053     0.0004    16.0908    12.1072
  273.0000  -999.2500   -34.8543     0.0004    15.8731    11.7579
  273.5000  -999.2500   -35.3821     0.0004    15.6828    11.4436
  274.0000  -999.2500   -35.6261     0.0004    15.5120    11.0760
  274.5000  -999.2500   -35.2371     0.0004    14.8345    10.5774
  275.0000  -999.2500   -34.5224     1.0020    14.2154    10.0075
  275.5000  -999.2500   -33.9878     8.8076    13.8284     9.4773
  276.0000  -999.2500   -33.7131    16.6132    12.0443     8.9962
  276.5000  -999.2500   -33.4620    24.4188     9.7851     8.4886
  277.0000  -999.2500   -33.1400    32.2244     9.1365     7.9386
  277.5000  -999.2500   -32.8164    40.0301     8.5945     7.4509
  278.0000  -999.2500   -32.4863    47.8357     7.9531     7.1445
  278.5000  -999.2500   -32.1204    55.6413     7.6452     7.0158
  279.0000  -999.2500   -31.8372    60.0249     7.3043     6.9491
  279.5000  -999.2500   -31.7837    60.1141     7.2394     6.8592
  280.0000  -999.2500   -31.9159    61.9573     7.2726     6.7725
  280.5000  -999.2500   -32.0666    63.9095     7.4037     6.7460
  281.0000  -999.2500   -32.1662    63.8772     7.5370     6.7699
  281.5000  -999.2500   -32.2609    63.8932     7.6088     6.7936
  282.0000  -999.2500   -32.3759    63.8858     7.5950     6.8009
  282.5000  -999.2500   -32.4925    63.8811     7.5036     6.8095
  283.0000  -999.2500   -32.6094    63.8782     7.4124     6.8269
  283.5000  -999.2500   -32.7273    63.8625     7.3378     6.8432
  284.0000  -999.2500   -32.8157    63.8656     7.2349     6.8543
  284.5000  -999.2500   -32.8525    63.8512     7.1563     6.8663
  285.0000  -999.2500   -32.8550    63.8474     7.1830     6.8818
  285.5000  -999.2500   -32.8413    63.8466     7.2770     6.8960
  286.0000  -999.2500   -32.8256    63.8313     7.3597     6.9069
  286.5000  -999.2500   -32.8434    63.8277     7.4274     6.9197
  287.0000  -999.2500   -32.8812    63.8277     7.5063     6.9371
  287.5000  -999.2500   -32.8038    63.8277     7.5995     6.9496
  288.0000  -999.2500   -32.4939    64.1703     7.6535     6.9435
  288.5000  -999.2500   -32.0710    64.5606     7.6296     6.9168
  289.0000  -999.2500   -31.8122    64.9509     7.5564     6.8775
  289.5000  -999.2500   -31.8356    65.3412     7.4873     6.8322
  290.0000  -999.2500   -32.0038    65.7315     7.4344     6.7902
  290.5000  -999.2500   -32.1515    66.1217     7.3745     6.7696
  291.0000  -999.2500   -32.2571    66.5120     7.3039     6.7836
  291.5000  -999.2500   -32.3657    66.9023     7.2549     6.8219
  292.0000  -999.2500   -32.4921    67.2926     7.2566     6.8605
  292.5000  -999.2500   -32.6342    67.6353     7.3022     6.8886
  293.0000  -999.2500   -32.7677    65.9937     7.3635     6.9155
  293.5000  -999.2500   -32.8213    64.5306     7.4187     6.9536
  294.0000  -999.2500   -32.7657    63.0675     7.4640     7.0030
  294.5000  -999.2500   -32.6934    61.6044     7.5093     7.0543
  295.0000  -999.2500   -32.6703    60.1413     7.5678     7.1025
  295.5000  -999.2500   -32.5986    58.6782     7.6395     7.1517
  296.0000  -999.2500   -32.4537    57.2151     7.7098     7.2032
  296.5000  -999.2500   -32.5133    55.7520     7.7723     7.2501
  297.0000  -999.2500   -32.9780    54.2889     7.8405     7.2913
  297.5000  -999.2500   -33.4596    52.8258     7.9258     7.3429
  298.0000  -999.2500   -33.3447    51.3627     8.0203     7.4190
  298.5000  -999.2500   -32.6764    49.8996     8.1099     7.5067
  299.0000  -999.2500   -32.1618    48.4365     8.1908     7.5809
  299.5000  -999.2500   -32.2210    46.9734     8.2687     7.6427
  300.0000  -999.2500   -32.5401    45.5103     8.3512     7.7194
  300.5000  -999.2500   -32.7073    44.7896     8.4383     7.8137
  301.0000  -999.2500   -32.7853    44.7896     8.5099     7.8817
  301.5000  -999.2500   -32.9898    44.7896     8.5386     7.8823
  302.0000  -999.2500   -33.1844    44.7703     8.5231     7.8286
  302.5000  -999.2500   -33.0439    44.7643     8.4868     7.7665
  303.0000  -999.2500   -32.5720    44.7736     8.4372     7.7177
  303.5000  -999.2500   -32.1861    45.3459     8.3593     7.6707
  304.0000  -999.2500   -32.2726    46.3197     8.2528     7.6165
  304.5000  -999.2500   -32.7579    47.2894     8.1373     7.5626
  305.0000  -999.2500   -33.1757    48.2524     8.0175     7.5133
  305.5000  -999.2500   -33.1775    49.2380     7.8862     7.4620
  306.0000  -999.2500   -32.9276    50.1800     7.7657     7.4070
  306.5000  -999.2500   -32.8764    51.1908     7.7057     7.3566
  307.0000  -999.2500   -33.1686    52.1051     7.7261     7.3099
  307.5000  -999.2500   -33.4536    53.1434     7.7854     7.2536
  308.0000  -999.2500   -33.3504    54.0333     7.8234     7.1909
  308.5000  -999.2500   -32.9061    55.0891     7.8215     7.1535
  309.0000  -999.2500   -32.4553    56.1862     7.8146     7.1674
  309.5000  -999.2500   -32.1818    55.6734     7.8452     7.2193
  310.0000  -999.2500   -32.0134    54.8176     7.9140     7.2754
  310.5000  -999.2500   -31.8653    54.1118     7.9800     7.3214
  311.0000  -999.2500   -31.7869    53.2800     8.0135     7.3662
  311.5000  -999.2500   -31.8456    52.5463     8.0356     7.4161
  312.0000  -999.2500   -31.9985    51.7393     8.0838     7.4673
  312.5000  -999.2500   -32.1426    50.9864     8.1436     7.5152
  313.0000  -999.2500   -32.2550    50.1889     8.1510     7.5613
  313.5000  -999.2500   -32.3949    49.4380     8.0797     7.6098
