~VERSION INFORMATION
 VERS.                2.0:   CWLS LOG ASCII STANDARD - VERSION 2.0
 WRAP.                 NO:   ONE LINE PER DEPTH STEP
~WELL INFORMATION
#MNEM.UNIT      DATA TYPE    INFORMATION
#----------   ------------   ------------------------------
 STRT.F           30.0000:   START DEPTH
 STOP.F          732.0000:   STOP DEPTH
 STEP.F            0.5000:   STEP LENGTH
 NULL.          -999.2500:   NO VALUE
 COMP. FENIX & SCISSON INC:   COMPANY
 WELL.        31-S #31-14:   WELL
 FLD .             TEAPOT:   FIELD
 LOC .      S14 T38N R78W:   LOCATION
 CNTY.            NATRONA:   COUNTY
 STAT.            WYOMING:   STATE
 CTRY. UNITED STATES OF AMERICA:   COUNTRY
 SRVC.              Welex:   SERVICE COMPANY
 DATE.        16-FEB-1977:   LOGDATE
 API .       490251027300:   API NUMBER
~CURVE INFORMATION
#MNEM.UNIT       API CODE    CURVE DESCRIPTION
#----------   ------------   ------------------------------
 DEPT.F                  :   
 CALD.IN     45 280 60 00:   CALIPER FROM DENSITY LOG
 CORR.G/C3   45 356 01 00:   DENSITY CORRECTION
 DPHI.DEC    45 890 12 00:   DENSITY POROSITY SANDSTONE
 GRD .GAPI   45 310 01 00:   GAMMA RAY FROM DENSITY LOG
 RHOB.G/C3   45 350 01 00:   BULK DENSITY
 GURD.OHMM   07 270 05 00:   SHALLOW SHORT GUARD RESISTIVITY
 ILM .OHMM   07 120 44 00:   INDUCTION LOG MEDIUM
 ILD .OHMM   07 120 46 00:   INDUCTION LOG DEEP
 SPR .MV     07 010 01 00:   SPONTANEOUS POTENTIAL
~PARAMETER INFORMATION
#MNEM.UNIT          VALUE    DESCRIPTION
#----------   ------------   ------------------------------
 PD  .                 GL:   PERMANENT DATUM
 EPD .F              5186:   ELEVATION PERMANENT DATUM
 LMF .                 GL:   LOG MEASURED FROM
 DMF .                 GL:   DRILLING MEASURED FROM
 EKB .F              5195:   KELLING BUSHING
 EGL .F              5186:   GROUND LEVEL
 DATE.        16-FEB-1977:   RUN DATE
 RUN .                  1:   RUN NUMBER
 DD  .F               740:   DEPTH DRILLER
 DL  .F               736:   DEPTH LOGGER
 BLI .F               734:   BOTTOM LOG INTERVAL
 TLI .F                30:   TOP LOG INTERVAL
 CS  .IN            8.625:   CASING SIZE
 CBD .F                40:   CASING BOTTOM DRILLER
 CBL .F                44:   CASING BOTTOM LOGGER
 BS  .IN            7.875:   BIT SIZE
 BSD .F               740:   BIT SIZE AT DEPTH
 DFT .   OIL EMULSION MUD:   DRILLING FLUID TYPE
 DFD .                8.3:   DRILLING FLUID DENSITY
 DFV .                 48:   DRILLING FLUID VISCOSITY
 DFPH.               10.5:   DRILLING FLUID PH
 DFL .                7.5:   DRILLING FLUID LOSS
 MSS .           FLOWLINE:   MUD SAMPLE SOURCE
 RMS .OHMM           0.80:   RESISTIVITY MUD SAMPLE
 MST .F                64:   MUD SAMPLE TEMPERATURE
 RMF .OHMM           0.68:   RESISTIVITY MUD FILTRATE SAMPLE
 MFST.F                64:   MUD FILTRATE SAMPLE TEMPERATURE
 RMC .OHMM           1.01:   RESISTIVITY MUD CAKE
 MCST.F                63:   MUD CAKE SAMPLE TEMPERATURE
 MFSS.               MEAS:   MUD FILTRATE SAMPLE SOURCE
 MCSS.               MEAS:   MUD CAKE SAMPLE SOURCE
 RMB .OHMM           0.74:   RESISTIVITY MUD AT BHT
 BHT .F                69:   BOTTOM HOLE TEMPERATURE
 TCS .HRS               5:   TIME CURCULATED STOPPED
 MRT .F                69:   MAXIMUM RECORDED TEMPERATURE
 LUN .               8611:   LOGGING UNIT NUMBER
 LUL .           GILLETTE:   LOGGING UNIT LOCATION
 ENGI.           D.LAWSON:   RECORDING ENGINEER
 WITN.             K.JAPP:   WITNESSED BY
 CLNT.            A2DTECH:   CLIENT CODE
 ORIG.         2.5" PRINT:   ORIGIN OF DATA
 UWI .       490251027300:   UNIQUE WELL ID
 DICO. A2D Technologies, Inc.:   DIGITIZING COMPANY
~OTHER INFORMATION
~A   DEPT       CALD      CORR      DPHI         GRD        RHOB     GURD        ILM        ILD        SPR   
# ...
  249.0000     7.7816     0.1656     0.0816   122.8022     2.4941   822.1148     7.3974     7.4473   -42.8816
  249.5000     7.7810     0.1597     0.0962   122.9184     2.4851   829.5803     7.4976     7.4518   -43.0983
  250.0000     7.7804     0.1507     0.1030   123.2443     2.4837   839.1624     7.7038     7.6516   -43.1751
  250.5000     7.7798     0.1478     0.1010   123.1904     2.4853   848.1210     7.8085     7.6789   -43.1736
  251.0000     7.7792     0.1509     0.0990   121.7953     2.4887   851.1155     8.0234     7.8614   -43.1720
  251.5000     7.8379     0.1538     0.0965   119.8860     2.4930   851.1296     8.1322     7.9682   -43.1706
  252.0000     7.8670     0.1568     0.0940   118.9972     2.4967   854.1241     8.2424     8.0763   -43.4659
  252.5000     7.9258     0.1579     0.0917   119.2954     2.5014   857.1188     8.3541     8.0747   -43.4236
  253.0000     7.9845     0.1599     0.0899   120.1870     2.5059   857.1337     8.4674     8.1849   -43.0925
  253.5000     8.0136     0.1599     0.0881   120.7819     2.5103   857.1486     8.4648     8.0716   -42.5712
  254.0000     8.0107     0.1599     0.0852   120.4866     2.5148   857.1635     8.4625     7.9563   -42.5697
  254.5000     7.9776     0.1600     0.0846   120.8363     2.5118   857.1784     8.4602     7.7279   -42.2712
  255.0000     7.9367     0.1600     0.0894   121.7557     2.5074   854.2130     8.4578     7.6097   -42.2698
  255.5000     7.8522     0.1570     0.0969   122.3783     2.4980   851.2475     8.3399     7.4274   -42.2684
  256.0000     7.7598     0.1509     0.1031   123.0287     2.4871   845.3035     8.3377     7.3786   -42.5638
  256.5000     7.6512     0.1447     0.1059   122.4090     2.4797   839.3569     8.2219     7.3231   -42.5695
  257.0000     7.5643     0.1385     0.1012   122.2760     2.4776   833.4105     8.1076     7.3214   -42.8976
  257.5000     7.5044     0.1363     0.0941   123.1678     2.4843   824.2606     7.9932     7.4211   -43.1530
  258.0000     7.4741     0.1436     0.0864   124.3562     2.5043   826.1083     7.7764     7.5222   -43.4483
  258.5000     7.4142     0.1483     0.0774   123.1707     2.5177   851.7539     7.7742     7.6256   -43.7433
  259.0000     7.4136     0.1543     0.0709   122.2819     2.5311   887.4741     7.7721     7.8479   -43.7415
  259.5000     7.4162     0.1573     0.0680   122.5801     2.5400   916.9339     7.9183     8.0767   -44.0371
  260.0000     7.4777     0.1573     0.0689   122.4629     2.5444   916.9517     8.2592     8.2744   -44.0355
  260.5000     7.5776     0.1544     0.0732   120.3674     2.5377   908.0248     8.6147     8.4379   -44.3308
  261.0000     7.7539     0.1512     0.0821   117.3778     2.5224   896.1177     8.9054     8.5655   -44.3294
  261.5000     7.9733     0.1455     0.0905   115.1795     2.5108   884.2106     9.0261     8.6166   -44.6247
  262.0000     8.0799     0.1447     0.0976   115.2562     2.5004   872.2438     9.1487     8.4972   -44.9201
  262.5000     8.1217     0.1425     0.1030   119.0284     2.4879   869.3372     9.4006     8.3797   -45.2154
  263.0000     8.1210     0.1396     0.1038   118.7331     2.4775   873.0188     9.3981     8.2639   -45.5104
  263.5000     8.1204     0.1396     0.1024   118.7345     2.4731   875.3286     9.3956     8.2622   -45.6797
  264.0000     8.1199     0.1367     0.1059   120.2196     2.4805   872.7208     9.3691     8.1479   -45.8042
  264.5000     8.1193     0.1367     0.1057   122.9273     2.4849   864.7932     9.2624     8.0352   -46.0994
  265.0000     8.1187     0.1397     0.1014   124.4559     2.4849   854.5135     9.0880     8.0335   -46.3946
  265.5000     8.1181     0.1427     0.0980   125.3358     2.4851   845.5867     8.9506     7.9224   -46.6899
  266.0000     8.1175     0.1457     0.0976   126.2552     2.4879   839.6401     8.6951     7.8125   -46.6884
  266.5000     8.1169     0.1487     0.0982   126.8778     2.4898   833.6937     8.4042     7.7045   -46.6869
  267.0000     8.1163     0.1518     0.0958   127.7972     2.4950   827.5389     8.1745     7.5979   -46.6855
  267.5000     8.0859     0.1548     0.0923   128.5388     2.5012   824.7810     7.9510     7.4929   -46.9807
  268.0000     8.0854     0.1578     0.0852   127.3533     2.5048   821.8148     7.8406     7.3825   -46.9792
  268.5000     8.0848     0.1608     0.0869   126.1678     2.5012   821.8317     7.6263     7.2696   -46.9775
  269.0000     8.0546     0.1608     0.0894   124.3888     2.4997   826.2872     7.5202     7.1584   -47.0371
  269.5000     8.0837     0.1639     0.0912   122.9065     2.4997   830.8054     7.4157     7.0489   -46.9747
  270.0000     8.1444     0.1669     0.0917   120.1384     2.4997   836.7802     7.4136     6.9887   -47.2700
  270.5000     8.1763     0.1699     0.0903   117.7700     2.4982   842.7550     7.4116     6.8918   -47.2685
  271.0000     8.2303     0.1729     0.0893   116.6793     2.4997   851.7101     7.5584     6.8904   -47.5640
  271.5000     8.2594     0.1735     0.0887   116.9896     2.5012   860.7549     7.9425     6.9844   -47.5623
  272.0000     8.2588     0.1759     0.0893   119.2819     2.5012   870.3365     8.3789     7.0795   -47.5608
  272.5000     8.2423     0.1730     0.0905   121.3131     2.5012   882.8984     8.4927     7.3798   -47.5593
  273.0000     8.1684     0.1730     0.0917   123.2139     2.5011   892.4805     8.6078     7.5950   -47.5576
  273.5000     8.1085     0.1760     0.0941   124.1055     2.4967   898.1728     8.8448     7.8165   -47.5562
  274.0000     8.0189     0.1761     0.0971   124.7004     2.4878   888.6951     8.8425     8.0443   -47.5548
  274.5000     7.9887     0.1791     0.1001   124.9986     2.4818   866.7179     8.8401     8.1660   -47.8502
  275.0000     7.9585     0.1791     0.1006   124.1098     2.4788   845.8698     8.7171     8.3365   -47.8487
  275.5000     7.9579     0.1791     0.0982   121.0331     2.4805   851.8446     8.7148     8.3348   -47.8472
  276.0000     7.9573     0.1758     0.0944   119.3649     2.4853   866.7604     8.7124     8.3332   -47.9486
  276.5000     7.9567     0.1726     0.0910   122.5355     2.4911   876.1035     8.8836     8.3316   -48.1409
  277.0000     7.9264     0.1663     0.0929   125.9317     2.4937   888.6655     9.4027     8.3300   -48.3722
  277.5000     7.9258     0.1613     0.0958   126.4911     2.4892   904.2083    10.1235     8.3141   -48.4347
  278.0000     7.9252     0.1568     0.0976   126.0297     2.4818   914.5023    10.1622     8.2130   -48.4331
  278.5000     7.9245     0.1524     0.0953   125.3074     2.4817   895.2816     9.5776     8.0994   -48.7285
  279.0000     7.9240     0.1495     0.0903   124.4186     2.4907   875.7934     9.3158     7.9873   -48.7270
  279.5000     7.9234     0.1465     0.0837   123.2330     2.5070   866.8666     9.0612     7.8768   -48.7255
  280.0000     7.9525     0.1496     0.0788   122.6410     2.5159   857.9398     8.6854     7.8749   -48.7240
  280.5000     7.9519     0.1527     0.0736   123.2597     2.5236   854.9736     8.4375     7.8734   -49.0195
  281.0000     7.9810     0.1586     0.0698   125.4213     2.5281   857.9681     8.1966     7.7645   -49.0178
  281.5000     7.9804     0.1623     0.0691   127.2231     2.5322   861.3062     7.9627     7.7630   -49.0163
  282.0000     8.0096     0.1676     0.0691   127.3944     2.5337   867.5948     7.7354     7.7614   -49.0146
  282.5000     8.0208     0.1706     0.0697   125.6751     2.5307   869.9342     7.6184     7.7598   -49.0132
  283.0000     8.0526     0.1706     0.0703   124.2878     2.5263   872.9294     7.5654     7.7922   -49.0118
  283.5000     8.0966     0.1677     0.0697   122.9484     2.5243   871.3500     7.5634     7.8638   -49.0104
  284.0000     8.1257     0.1677     0.0697   122.3563     2.5277   864.0208     7.6659     7.8622   -49.0089
  284.5000     8.1548     0.1677     0.0711   121.7643     2.5292   855.0940     7.9861     7.8603   -49.3043
  285.0000     8.1543     0.1648     0.0752   121.4688     2.5262   846.1672     8.3196     7.9676   -49.2013
