~VERSION INFORMATION
 VERS.                2.0:   CWLS LOG ASCII STANDARD - VERSION 2.0
 WRAP.                 NO:   ONE LINE PER DEPTH STEP
~WELL INFORMATION
#MNEM.UNIT      DATA TYPE    INFORMATION
#----------   ------------   ------------------------------
 STRT.F            8.0000:   START DEPTH
 STOP.F         2320.0000:   STOP DEPTH
 STEP.F            0.5000:   STEP LENGTH
 NULL.          -999.2500:   NO VALUE
 COMP.    FENIX & SCISSON:   COMPANY
 WELL. N.P.R #3 #77-SHX-10:   WELL
 FLD .             TEAPOT:   FIELD
 LOC .      S10 T38N R78W:   LOCATION
 CNTY.            NATRONA:   COUNTY
 STAT.            WYOMING:   STATE
 CTRY. UNITED STATES OF AMERICA:   COUNTRY
 SRVC.              Welex:   SERVICE COMPANY
 DATE.        05-JUN-1980:   LOGDATE
 API .       490251064900:   API NUMBER
~CURVE INFORMATION
#MNEM.UNIT       API CODE    CURVE DESCRIPTION
#----------   ------------   ------------------------------
 DEPT.F                  :   
 GRD .GAPI   45 310 01 00:   GAMMA RAY FROM DENSITY LOG
 CALD.IN     45 280 60 00:   CALIPER FROM DENSITY LOG
 RHOB.G/C3   45 350 01 00:   BULK DENSITY
 DPHI.DEC    45 890 12 00:   DENSITY POROSITY SANDSTONE
 ILD .OHMM   05 120 46 00:   INDUCTION LOG DEEP
 CORR.G/C3   45 356 01 00:   DENSITY CORRECTION
~PARAMETER INFORMATION
#MNEM.UNIT          VALUE    DESCRIPTION
#----------   ------------   ------------------------------
 PD  .                 GL:   PERMANENT DATUM
 EPD .F              5210:   ELEVATION PERMANENT DATUM
 LMF .                 KB:   LOG MEASURED FROM
 DAPD.F                10:   FEET ABOVE PERMANENT DATUM
 DMF .                 KB:   DRILLING MEASURED FROM
 EKB .F              5220:   KELLING BUSHING
 EGL .F              5210:   GROUND LEVEL
 DATE.        05-JUN-1980:   RUN DATE
 RUN .                  1:   RUN NUMBER
 DD  .F              2358:   DEPTH DRILLER
 DL  .F              2322:   DEPTH LOGGER
 BLI .F              2320:   BOTTOM LOG INTERVAL
 TLI .F               900:   TOP LOG INTERVAL
 CS  .IN                7:   CASING SIZE
 BS  .IN             6.25:   BIT SIZE
 BSD .F              2358:   BIT SIZE AT DEPTH
 DFT .        AIR DRILLED:   DRILLING FLUID TYPE
 MRT .F               107:   MAXIMUM RECORDED TEMPERATURE
 ENGI.               REIN:   RECORDING ENGINEER
 WITN.              AMEND:   WITNESSED BY
 CLNT.            A2DTECH:   CLIENT CODE
 ORIG.           5" PRINT:   ORIGIN OF DATA
 UWI .       490251064900:   UNIQUE WELL ID
 DICO. A2D Technologies, Inc.:   DIGITIZING COMPANY
~OTHER INFORMATION
~A    DEPT      GRD      CALD       RHOB       DPHI        ILD       CORR   
# ...
 2036.0000    93.1516     6.9704     2.3297     0.1394  -999.2500     0.1603
 2036.5000    93.1458     6.8655     2.3537     0.1274  -999.2500     0.1633
 2037.0000    93.1400     6.7755     2.3777     0.1172  -999.2500     0.1677
 2037.5000    93.5759     6.8047     2.3941     0.1085  -999.2500     0.1707
 2038.0000    93.8806     6.8639     2.4058     0.1015  -999.2500     0.1752
 2038.5000    94.2540     6.7738     2.4031     0.0944  -999.2500     0.1766
 2039.0000    94.9503     6.6987     2.3940     0.1058  -999.2500     0.1645
 2039.5000    95.4991     6.6832     2.3813     0.1106  -999.2500     0.1372
 2040.0000    96.0903     6.6527     2.3700     0.0992  -999.2500     0.1096
 2040.5000    96.5640     6.6372     2.3594     0.1157  -999.2500     0.0888
 2041.0000    96.6746     6.5919     2.3444     0.1311  -999.2500     0.0524
 2041.5000    96.6685     6.6211     2.3323     0.1413  -999.2500     0.0388
 2042.0000    96.8120     6.8441     2.3584     0.1376  -999.2500     0.0538
 2042.5000    96.6231     6.9776     2.3766     0.1238  -999.2500     0.0764
 2043.0000    95.9034     7.0367     2.3668     0.1164  -999.2500     0.0718
 2043.5000    95.3006     7.0361     2.3472     0.1230  -999.2500     0.0642
 2044.0000    94.8089     7.0056     2.3637     0.1260  -999.2500     0.0663
 2044.5000    94.2443     6.9454     2.3900     0.1113  -999.2500     0.0837
 2045.0000    93.6415     6.8256     2.4012     0.1032  -999.2500     0.0897
 2045.5000    93.6357     6.7891     2.3897     0.1014  -999.2500     0.0927
 2046.0000    93.6299     6.8840     2.4065     0.0945  -999.2500     0.0941
 2046.5000    93.6239     6.9579     2.4125     0.0896  -999.2500     0.0971
 2047.0000    93.6168     7.0617     2.4191     0.0873  -999.2500     0.1016
 2047.5000    93.6111     7.1058     2.4243     0.0831  -999.2500     0.1060
 2048.0000    93.6053     7.1201     2.4130     0.0871  -999.2500     0.1057
 2048.5000    93.7502     7.1045     2.4175     0.0883  -999.2500     0.1029
 2049.0000    93.7429     7.0294     2.4265     0.0850  -999.2500     0.1149
 2049.5000    93.7371     7.0587     2.4340     0.0790  -999.2500     0.1345
 2050.0000    93.5821     7.1178     2.4444     0.0694  -999.2500     0.1435
 2050.5000    93.4269     7.0277     2.4529     0.0681  -999.2500     0.1495
 2051.0000    92.9720     6.8781     2.4601     0.0622  -999.2500     0.1555
 2051.5000    92.8170     6.7579     2.4519     0.0640  -999.2500     0.1584
 2052.0000    92.9619     6.6981     2.4301     0.0691  -999.2500     0.1518
 2052.5000    93.4024     6.6974     2.4113     0.0826  -999.2500     0.1356
 2053.0000    93.6952     6.7564     2.4037     0.0956  -999.2500     0.1205
 2053.5000    94.4356     6.8601     2.3924     0.1010  -999.2500     0.1068
 2054.0000    95.3253     6.8746     2.3886     0.1019  -999.2500     0.0962
 2054.5000    95.9166     6.8739     2.4036     0.0999  -999.2500     0.1219
 2055.0000    95.1631     6.8584     2.4261     0.0920  -999.2500     0.1360
 2055.5000    93.9632     6.8429     2.4404     0.0818  -999.2500     0.1521
 2056.0000    92.9127     6.8274     2.4576     0.0602  -999.2500     0.1641
 2056.5000    92.9069     6.7969     2.4364     0.0581  -999.2500     0.1369
 2057.0000    93.0504     6.7516     2.4463     0.0713  -999.2500     0.1127
 2057.5000    93.4925     6.7212     2.4688     0.0627  -999.2500     0.1370
 2058.0000    93.9343     6.6312     2.4620     0.0521  -999.2500     0.1277
 2058.5000    94.3905     6.5414     2.4267     0.0777  -999.2500     0.1125
 2059.0000    94.6690     6.7194     2.4124     0.0855  -999.2500     0.0974
 2059.5000    95.1095     6.8083     2.4033     0.0930  -999.2500     0.0913
 2060.0000    95.2544     6.9270     2.4221     0.0825  -999.2500     0.0882
 2060.5000    95.5471     6.9860     2.4198     0.0858  -999.2500     0.0988
 2061.0000    95.7025     7.0449     2.4046     0.0952  -999.2500     0.0715
 2061.5000    95.7711     7.1040     2.3912     0.1000  -999.2500     0.0700
 2062.0000    95.9757     7.1034     2.4167     0.0944  -999.2500     0.0929
 2062.5000    96.4179     7.1177     2.4369     0.0736  -999.2500     0.1182
 2063.0000    96.5623     7.1171     2.4572     0.0619  -999.2500     0.1302
 2063.5000    96.7035     7.1015     2.4693     0.0574  -999.2500     0.1347
 2064.0000    96.5486     7.1010     2.4669     0.0573  -999.2500     0.1332
 2064.5000    95.7966     7.1004     2.4616     0.0631  -999.2500     0.1301
 2065.0000    95.1939     7.0998     2.4578     0.0616  -999.2500     0.1210
 2065.5000    94.8895     7.0993     2.4540     0.0679  -999.2500     0.1134
 2066.0000    95.1811     7.0987     2.4487     0.0677  -999.2500     0.1043
 2066.5000    95.7738     7.0980     2.4404     0.0740  -999.2500     0.0937
 2067.0000    96.8115     7.0974     2.4254     0.0853  -999.2500     0.0725
 2067.5000    97.5521     7.0969     2.4134     0.0845  -999.2500     0.0845
 2068.0000    97.5463     7.0963     2.4216     0.0818  -999.2500     0.0935
 2068.5000    96.9423     7.0956     2.4306     0.0791  -999.2500     0.0995
 2069.0000    97.2365     7.0951     2.4373     0.0770  -999.2500     0.1055
 2069.5000    97.6617     7.0945     2.4320     0.0755  -999.2500     0.1115
 2070.0000    98.4177     7.0939     2.4095     0.0840  -999.2500     0.1085
 2070.5000    99.3963     7.0932     2.3981     0.0915  -999.2500     0.0933
 2071.0000   100.1960     7.0330     2.4011     0.0954  -999.2500     0.0721
 2071.5000   100.6380     6.9728     2.4296     0.0924  -999.2500     0.0798
 2072.0000   100.4831     6.8978     2.4491     0.0834  -999.2500     0.0992
 2072.5000    99.7311     6.8209     2.4311     0.0741  -999.2500     0.1037
 2073.0000    99.2777     6.8369     2.4303     0.0807  -999.2500     0.0976
 2073.5000   100.1661     6.8513     2.4453     0.0702  -999.2500     0.1036
 2074.0000   101.0559     6.8506     2.4558     0.0623  -999.2500     0.1144
 2074.5000   101.4994     6.9019     2.4625     0.0582  -999.2500     0.1231
 2075.0000   100.8953     6.9388     2.4662     0.0601  -999.2500     0.1276
 2075.5000   100.2834     6.9682     2.4564     0.0583  -999.2500     0.1261
 2076.0000    98.7929     6.9824     2.4354     0.0697  -999.2500     0.1245
 2076.5000    97.8917     7.0117     2.4038     0.0891  -999.2500     0.1054
 2077.0000    96.3935     7.0557     2.3858     0.1049  -999.2500     0.0776
 2077.5000    95.1938     7.0850     2.3850     0.1076  -999.2500     0.0685
 2078.0000    94.1396     7.0843     2.3962     0.1025  -999.2500     0.0866
 2078.5000    92.7929     7.0837     2.4097     0.0944  -999.2500     0.1047
 2079.0000    91.4439     7.0682     2.4472     0.0743  -999.2500     0.1258
 2079.5000    90.2442     6.9914     2.4607     0.0620  -999.2500     0.1393
 2080.0000    89.6415     6.8136     2.4725     0.0539  -999.2500     0.1529
 2080.5000    89.7851     6.6938     2.4929     0.0420  -999.2500     0.1649
 2081.0000    91.1212     6.6485     2.5101     0.0286  -999.2500     0.1831
 2081.5000    91.7570     6.6182     2.5341     0.0095  -999.2500     0.1950
 2082.0000    92.2428     6.6027     2.5214     0.0140  -999.2500     0.1874
 2082.5000    92.7460     6.6020     2.4823     0.0371  -999.2500     0.1572
 2083.0000    92.7403     6.6014     2.4515     0.0530  -999.2500     0.1284
 2083.5000    89.8973     6.6009     2.4327     0.0729  -999.2500     0.0979
 2084.0000    89.7438     6.6003     2.4447     0.0681  -999.2500     0.1072
 2084.5000    91.0800     6.5848     2.4686     0.0522  -999.2500     0.1374
 2085.0000    92.8653     6.5543     2.4559     0.0576  -999.2500     0.1403
 2085.5000    94.2029     6.5388     2.4446     0.0645  -999.2500     0.1282
 2086.0000    95.4149     6.5383     2.4648     0.0660  -999.2500     0.1283
 2086.5000    96.4289     6.8209     2.4696     0.0522  -999.2500     0.1598
 2087.0000    96.2740     6.9991     2.4383     0.0703  -999.2500     0.1447
 2087.5000    95.5220     6.9537     2.4152     0.0814  -999.2500     0.1159
