~VERSION INFORMATION
 VERS.                2.0:   CWLS LOG ASCII STANDARD - VERSION 2.0
 WRAP.                 NO:   ONE LINE PER DEPTH STEP
~WELL INFORMATION
#MNEM.UNIT      DATA TYPE    INFORMATION
#----------   ------------   ------------------------------
 STRT.F           30.0000:   START DEPTH
 STOP.F         2432.5000:   STOP DEPTH
 STEP.F            0.5000:   STEP LENGTH
 NULL.          -999.2500:   NO VALUE
 COMP. FENIX & SCISSON INC:   COMPANY
 WELL.     72 SHX 4 #72-4:   WELL
 FLD .             TEAPOT:   FIELD
 LOC .       S4 T38N R78W:   LOCATION
 CNTY.            NATRONA:   COUNTY
 STAT.            WYOMING:   STATE
 CTRY. UNITED STATES OF AMERICA:   COUNTRY
 SRVC.           BIRDWELL:   SERVICE COMPANY
 DATE.        05-MAR-1979:   LOGDATE
 API .       490251074300:   API NUMBER
~CURVE INFORMATION
#MNEM.UNIT       API CODE    CURVE DESCRIPTION
#----------   ------------   ------------------------------
 DEPT.F                  :   
 SPR .MV     05 010 01 00:   SPONTANEOUS POTENTIAL FROM RES.
 SN  .OHMM   05 040 16 00:   SHORT NORMAL 16"
 ILD .OHMM   05 120 46 00:   INDUCTION LOG DEEP
 CALD.IN     45 280 60 00:   CALIPER
 GRD .GAPI   45 310 01 00:   GAMMA RAY FROM DENSITY LOG
 RHOB.G/C3   45 350 01 00:   BULK DENSITY
 CORR.G/C3   45 356 01 00:   DENSITY CORRECTION
 DPHI.DEC    45 890 12 00:   DENSITY POROSITY SANDSTONE
~PARAMETER INFORMATION
#MNEM.UNIT          VALUE    DESCRIPTION
#----------   ------------   ------------------------------
 PD  .                 GL:   PERMANENT DATUM
 EPD .F              5194:   ELEVATION PERMANENT DATUM
 LMF .                 KB:   LOG MEASURED FROM
 DAPD.F                10:   FEET ABOVE PERMANENT DATUM
 DMF .                 KB:   DRILLING MEASURED FROM
 EKB .F              5204:   KELLING BUSHING
 EGL .F              5194:   GROUND LEVEL
 DATE.             3-5-79:   RUN DATE
 RUN .                  1:   RUN NUMBER
 DD  .F              2560:   DEPTH DRILLER
 DL  .F              2432:   DEPTH LOGGER
 BLI .F              2432:   BOTTOM LOG INTERVAL
 TLI .F               400:   TOP LOG INTERVAL
 CS  .IN            9.625:   CASING SIZE
 CBD .F               685:   CASING BOTTOM DRILLER
 CBL .F               685:   CASING BOTTOM LOGGER
 BS  .IN             8.75:   BIT SIZE
 BSD .F              2560:   BIT SIZE AT DEPTH
 DFT .                AIR:   DRILLING FLUID TYPE
 TCS .HRS               5:   TIME CURCULATED STOPPED
 LUN .               3006:   LOGGING UNIT NUMBER
 LUL .             CASPER:   LOGGING UNIT LOCATION
 ENGI.         B. ROLLINS:   RECORDING ENGINEER
 WITN.           DINSMORE:   WITNESSED BY
 CLNT.            A2DTECH:   CLIENT CODE
 ORIG.           5" PRINT:   ORIGIN OF DATA
 UWI .       490251074300:   UNIQUE WELL ID
 DICO. A2D Technologies, Inc.:   DIGITIZING COMPANY
~OTHER INFORMATION
~A   DEPT      SPR         SN        ILD        CALD       GRD       RHOB         CORR      DPHI  
# ...
  637.5000   -27.1613     6.5449     7.8978    11.6644    40.7134     2.4591     0.2492     0.1478
  638.0000   -29.0978     6.5515     8.2237    11.6581    41.1467     2.4548     0.2551     0.1543
  638.5000   -29.8803     6.5582     8.1981    11.6518    41.7699     2.4452     0.2553     0.1539
  639.0000   -32.5501     6.5648     8.1610    11.6455    41.4016     2.4547     0.2417     0.1336
  639.5000   -35.7964     6.5715     8.1241    11.6392    42.1469     2.4702     0.2182     0.1348
  640.0000   -35.5557     6.5781     8.0877    11.6329    42.5542     2.4752     0.2214     0.1346
  640.5000   -34.9385     6.5848     8.0514    11.6266    42.3956     2.4757     0.2220     0.1339
  641.0000   -34.4752     6.5921     8.0153    11.6203    42.1764     2.4760     0.2197     0.1342
  641.5000   -35.0338     6.5703     7.9794    11.6140    42.1780     2.4763     0.2187     0.1355
  642.0000   -35.6416     6.5391     7.9436    11.6077    41.9913     2.4767     0.2216     0.1363
  642.5000   -35.8673     6.5080     7.9080    11.6014    40.9702     2.4767     0.2262     0.1293
  643.0000   -35.6972     6.4771     7.8726    11.5951    40.9871     2.4896     0.2312     0.1224
  643.5000   -35.5240     6.4464     7.8529    11.5888    40.7779     2.5003     0.2443     0.1222
  644.0000   -35.3458     6.4157     7.8529    11.5825    40.6127     2.4943     0.2569     0.1278
  644.5000   -35.4695     6.3853     7.8529    11.5761    41.4196     2.4863     0.2944     0.1348
  645.0000   -35.7064     6.3549     7.8529    11.5698    40.1975     2.4798     0.3514     0.1241
  645.5000   -35.8650     6.3247     7.8532    11.5635    38.5078     2.4885     0.4083     0.1104
  646.0000   -35.6158     6.2955     7.8529    11.5572    35.5936     2.5326     0.4512     0.0967
  646.5000   -35.3807     6.1718     7.8284    11.5510    36.1578     2.5754     0.4254     0.0830
  647.0000   -34.8041     6.0266     7.7323    11.5461    39.6084     2.5793     0.3630     0.0788
  647.5000   -34.3253     5.8848     7.6375    11.5412    41.5568     2.5297     0.2916     0.1247
  648.0000   -34.4385     5.7045     7.5437    11.5363    41.6264     2.4755     0.2206     0.1597
  648.5000   -34.5400     5.4501     7.4512    11.5315    41.5811     2.4207     0.2182     0.1735
  649.0000   -34.6394     5.2070     7.3626    11.5267    41.5377     2.4111     0.2186     0.1725
  649.5000   -34.4855     4.9747     7.2323    11.5219    42.4709     2.4141     0.2191     0.1715
  650.0000   -34.0011     4.7318     7.0963    11.5171    43.8934     2.4173     0.2284     0.1707
  650.5000   -33.5216     4.3199     6.2305    11.5123    46.5387     2.4202     0.2323     0.1825
  651.0000   -33.5703     3.9055     5.3946    11.5074    46.0996     2.4114     0.2311     0.1998
  651.5000   -33.6447     3.5309     4.6709    11.5026    46.4642     2.3300     0.2315     0.2186
  652.0000   -33.3887     3.2134     4.0443    11.4978    44.4198     2.2479     0.2635     0.2354
  652.5000   -31.9177     3.2001     3.6562    11.4930    42.4209     2.1663     0.2978     0.2521
  653.0000   -30.6745     3.1844     3.6562    11.4882    40.0125     2.0884     0.3038     0.2650
  653.5000   -31.4547     3.2583     3.7355    11.4834    39.5677     2.0858     0.2948     0.2524
  654.0000   -32.2703     3.3931     3.7957    11.4785    40.2113     2.1864     0.2563     0.2097
  654.5000   -33.0790     3.5331     3.8570    11.4737    41.5761     2.3248     0.2174     0.1670
  655.0000   -33.5006     3.6887     3.8997    11.4689    41.6001     2.4629     0.1845     0.1515
  655.5000   -33.4906     4.1681     4.4740    11.4641    40.7028     2.4792     0.1783     0.1563
  656.0000   -33.9459     4.7538     5.1878    11.4593    40.4314     2.4453     0.2096     0.1468
  656.5000   -34.4404     5.3814     6.0154    11.4545    40.3834     2.4324     0.2652     0.1298
  657.0000   -34.7081     5.5301     6.9752    11.4496    40.3902     2.5374     0.2820     0.1144
  657.5000   -34.6981     5.7065     7.8529    11.4442    40.0296     2.5352     0.2219     0.1454
  658.0000   -34.1887     5.8884     7.8006    11.4353    40.5022     2.4600     0.2069     0.1875
  658.5000   -33.6034     6.0762     7.7076    11.4264    41.8090     2.3846     0.2846     0.1675
  659.0000   -33.6630     6.2700     7.6389    11.4176    43.1247     2.4311     0.3476     0.1434
  659.5000   -33.8733     6.3351     7.6808    11.4087    45.2231     2.4961     0.3990     0.1194
  660.0000   -34.0879     6.3809     7.7143    11.3998    44.7060     2.5572     0.3689     0.0964
  660.5000   -33.7894     6.4270     7.7481    11.3909    44.5842     2.5571     0.3173     0.0968
  661.0000   -33.4391     6.4719     7.7822    11.3820    44.5721     2.5192     0.2652     0.1228
  661.5000   -33.1054     6.4161     7.8161    11.3731    45.4054     2.4930     0.2127     0.1404
  662.0000   -33.2982     6.3504     7.8529    11.3643    46.0424     2.4668     0.2040     0.1505
  662.5000   -33.6239     6.2854     7.6523    11.3554    46.2099     2.4429     0.2034     0.1520
  663.0000   -33.6269     6.2211     7.3864    11.3469    45.9756     2.4392     0.2035     0.1893
  663.5000   -33.5364     6.1574     7.1296    11.3206    45.8451     2.3843     0.2312     0.2271
  664.0000   -32.8437     6.0944     6.9029    11.2907    45.4800     2.3108     0.3013     0.2272
  664.5000   -32.0012     6.0320     6.9126    11.2606    45.0083     2.3474     0.3178     0.1829
  665.0000   -32.4661     5.9570     6.9264    11.2306    44.5798     2.4465     0.2681     0.1494
  665.5000   -33.3178     6.1314     6.9403    11.2007    44.1916     2.4402     0.2372     0.1557
  666.0000   -33.4163     6.3380     6.9542    11.1698    44.3161     2.4381     0.2374     0.1564
  666.5000   -33.2885     6.5516     6.9929    11.1601    43.6628     2.4399     0.2397     0.1557
  667.0000   -32.7729     6.7725     7.2647    11.1558    46.2386     2.4406     0.2421     0.1568
  667.5000   -32.2189     7.0007     7.5470    11.1516    46.9507     2.4397     0.2444     0.1558
  668.0000   -32.5961     7.2367     7.8403    11.1473    45.9767     2.4401     0.2467     0.1520
  668.5000   -33.2808     7.4806     8.1449    11.1438    43.5775     2.4404     0.2468     0.1632
  669.0000   -33.6976     7.7327     8.4614    11.1222    42.5752     2.4221     0.2466     0.1749
  669.5000   -33.3798     7.8529     8.7892    11.0971    43.3229     2.4055     0.2520     0.1783
  670.0000   -32.6478     7.8529     8.9365    11.0719    44.0902     2.4066     0.2595     0.1646
  670.5000   -32.3742     7.8529     8.9353    11.0572    46.4214     2.4227     0.2608     0.1627
  671.0000   -32.8884     7.8529     8.9337    11.0485    46.2839     2.4206     0.2608     0.1642
  671.5000   -33.4126     7.8529     8.9337    11.0398    44.1524     2.4168     0.2608     0.1656
  672.0000   -33.8886     7.8529     8.9337    11.0312    43.1665     2.4132     0.2608     0.1671
  672.5000   -33.6519     7.8529     8.9337    11.0225    43.4849     2.4125     0.2608     0.1686
  673.0000   -33.1299     7.8529     8.9337    11.0139    43.6138     2.4116     0.2608     0.1736
  673.5000   -32.5943     7.8529     8.9337    11.0052    45.9614     2.4078     0.2609     0.1779
  674.0000   -33.0180     7.8529     8.9337    11.0008    46.6500     2.4064     0.2619     0.1698
  674.5000   -33.5171     7.8529     8.9337    10.9978    47.0430     2.4194     0.2629     0.1674
  675.0000   -32.9906     7.8529     8.9337    10.9949    48.5914     2.4201     0.2639     0.1683
  675.5000   -33.1511     7.8529     8.9337    10.9920    49.7837     2.4195     0.2649     0.1651
  676.0000   -33.5285     7.8529     8.9337    10.9891    51.1172     2.4249     0.2659     0.1591
  676.5000   -32.7048     7.8529     8.9323    10.9861    51.2431     2.4305     0.2666     0.1543
  677.0000   -33.1752     7.8529     8.9337    10.9832    53.5301     2.4326     0.2648     0.1600
  677.5000   -33.6999     7.8529     8.9337    10.9803    57.7542     2.4286     0.2630     0.1655
