~VERSION INFORMATION
 VERS.                2.0:   CWLS LOG ASCII STANDARD - VERSION 2.0
 WRAP.                 NO:   ONE LINE PER DEPTH STEP
~WELL INFORMATION
#MNEM.UNIT      DATA TYPE    INFORMATION
#----------   ------------   ------------------------------
 STRT.F           90.0000:   START DEPTH
 STOP.F         1032.5000:   STOP DEPTH
 STEP.F            0.5000:   STEP LENGTH
 NULL.          -999.2500:   NO VALUE
 COMP. U S NAVY/INTEX OIL CO:   COMPANY
 WELL. NAVAL PETROLEUM RESERVE 3  #62-S-14:   WELL
 FLD .        TEAPOT DOME:   FIELD
 LOC .      S14 T38N R78W:   LOCATION
 CNTY.            NATRONA:   COUNTY
 STAT.            WYOMING:   STATE
 CTRY. UNITED STATES OF AMERICA:   COUNTRY
 SRVC.       Schlumberger:   SERVICE COMPANY
 DATE.        04-JUL-1962:   LOGDATE
 API .       490250631700:   API NUMBER
~CURVE INFORMATION
#MNEM.UNIT       API CODE    CURVE DESCRIPTION
#----------   ------------   ------------------------------
 DEPT.F                  :   
 GR  .GAPI   30 310 01 00:   GAMMA RAY
 CALM.IN     15 280 01 00:   CALIPER FROM MICRO LOG
 SPR .MV     06 010 01 00:   SPONTANEOUS POTENTIAL FROM RES.
 ASN .OHMM   06 041 16 00:   AMPLIFIED SHORT NORMAL 16"
 ILD .OHMM   06 120 46 00:   INDUCTION LOG DEEP
 CILD.MMHO   06 110 46 00:   CONDUCTIVITY INDUCTION LOG DEEP
~PARAMETER INFORMATION
#MNEM.UNIT          VALUE    DESCRIPTION
#----------   ------------   ------------------------------
 PD  .                 GL:   PERMANENT DATUM
 EPD .F              5246:   ELEVATION PERMANENT DATUM
 LMF .                 KB:   LOG MEASURED FROM
 DAPD.F                 5:   FEET ABOVE PERMANENT DATUM
 DMF .                 KB:   DRILLING MEASURED FROM
 EKB .F              5251:   KELLING BUSHING
 EGL .F              5246:   GROUND LEVEL
 DATE.             7-4-62:   RUN DATE
 RUN .                  1:   RUN NUMBER
 DD  .F              1036:   DEPTH DRILLER
 DL  .F              1033:   DEPTH LOGGER
 BLI .F              1032:   BOTTOM LOG INTERVAL
 TLI .F                90:   TOP LOG INTERVAL
 CBD .F                10:   CASING BOTTOM DRILLER
 BS  .IN             6.75:   BIT SIZE
 BSD .F              1036:   BIT SIZE AT DEPTH
 DFT .                GEL:   DRILLING FLUID TYPE
 DFD .               10.2:   DRILLING FLUID DENSITY
 DFV .                 48:   DRILLING FLUID VISCOSITY
 DFL .                4.8:   DRILLING FLUID LOSS
 MSS .          FLOW LINE:   MUD SAMPLE SOURCE
 RMS .OHMM            5.6:   RESISTIVITY MUD SAMPLE
 MST .F                70:   MUD SAMPLE TEMPERATURE
 RMF .OHMM           5.57:   RESISTIVITY MUD FILTRATE SAMPLE
 MFST.F                70:   MUD FILTRATE SAMPLE TEMPERATURE
 RMC .OHMM           5.32:   RESISTIVITY MUD CAKE
 MCST.F                70:   MUD CAKE SAMPLE TEMPERATURE
 MFSS.                  M:   MUD FILTRATE SAMPLE SOURCE
 MCSS.                  M:   MUD CAKE SAMPLE SOURCE
 RMB .OHMM            4.3:   RESISTIVITY MUD AT BHT
 BHT .F                90:   BOTTOM HOLE TEMPERATURE
 TCS .HRS               1:   TIME CURCULATED STOPPED
 MRT .F                90:   MAXIMUM RECORDED TEMPERATURE
 LUN .               2503:   LOGGING UNIT NUMBER
 LUL .               CSPR:   LOGGING UNIT LOCATION
 ENGI.             KNOBEL:   RECORDING ENGINEER
 WITN.          JORGENSEN:   WITNESSED BY
 CLNT.            A2DTECH:   CLIENT CODE
 ORIG.   1", 2", 5" PRINT:   ORIGIN OF DATA
 UWI .       490250631700:   UNIQUE WELL ID
 DICO. A2D Technologies, Inc.:   DIGITIZING COMPANY
~OTHER INFORMATION
~A   DEPT       GR       CALM        SPR          ASN        ILD      CILD  
# ...
  870.0000    95.7532     6.6873   -33.6334     5.2129     4.5932   227.8271
  870.5000    97.5511     6.6873   -33.7179     5.6238     5.0089   214.9299
  871.0000    98.1276     6.6873   -33.8025     6.0470     5.4184   201.5889
  871.5000   102.5288     6.6873   -33.8871     6.2091     5.8284   187.3318
  872.0000    97.7727     6.6873   -33.9717     6.3752     6.2386   173.4830
  872.5000   101.2170     6.6873   -34.0563     6.7712     6.6622   162.5050
  873.0000    85.9865     6.6873   -34.1409     7.0639     6.8951   152.8056
  873.5000    89.0109     6.6873   -34.2256     7.2677     7.0805   148.8892
  874.0000    80.4133     6.6873   -34.3087     7.4253     7.2649   145.9118
  874.5000    80.4866     6.6873   -34.3517     7.5612     7.4553   143.0604
  875.0000    81.2108     6.6873   -34.2872     7.6769     7.5113   140.2090
  875.5000    81.4274     6.6873   -34.2250     7.7922     7.5602   138.6504
  876.0000    81.5026     6.6873   -34.1626     7.8381     7.6100   138.2227
  876.5000    80.2454     6.6873   -34.1002     7.8569     7.6596   137.7950
  877.0000    77.5028     6.6873   -34.0371     7.8842     7.6655   137.3673
  877.5000    74.8489     6.6873   -33.9726     7.9223     7.6655   136.9396
  878.0000    74.9233     6.6873   -34.0651     7.9604     7.6656   136.5119
  878.5000    77.2059     6.6871   -34.1761     7.9981     7.6640   136.0842
  879.0000    83.8076     6.6821   -34.2880     8.0183     7.6350   135.9729
  879.5000    75.7954     6.6769   -34.3700     7.9803     7.6063   136.7214
  880.0000    70.9662     6.6718   -34.1853     7.9440     7.5777   137.4699
  880.5000    79.3008     6.6667   -34.0782     7.8883     7.5492   138.2184
  881.0000    78.8615     6.6616   -33.8533     7.8337     7.5204   138.7776
  881.5000    70.2001     6.6565   -34.3011     7.8104     7.4908   136.1523
  882.0000    74.9243     6.6514   -34.7240     7.7897     7.4726   133.6573
  882.5000    76.8690     6.6462   -34.7616     7.9239     7.6475   131.1623
  883.0000    73.7729     6.6411   -34.6401     8.1337     7.8250   128.6673
  883.5000    73.9303     6.6360   -34.4949     8.3456     8.0032   126.1723
  884.0000    68.2391     6.6309   -34.3431     8.4946     7.9941   127.8257
  884.5000    65.1748     6.6258   -34.1854     8.5429     7.7016   136.7964
  885.0000    65.0482     6.6206   -34.4420     8.4357     6.8735   152.4516
  885.5000    70.4526     6.6155   -34.7748     8.0998     6.0590   178.1100
  886.0000    71.4881     6.6105   -35.1064     7.4968     5.2663   203.6570
  886.5000    74.1856     6.6109   -35.3836     6.4949     4.8461   225.1704
  887.0000    77.0621     6.6187   -34.8515     5.7881     4.7865   225.2806
  887.5000    86.1615     6.6263   -34.0079     5.5261     4.7777   224.4489
  888.0000   101.3815     6.6341   -33.1609     5.6572     4.8215   221.9439
  888.5000    94.5131     6.6416   -32.3098     5.6578     4.8647   221.2183
  889.0000    80.4782     6.6426   -32.2236     5.6484     5.0781   215.0117
  889.5000    70.3502     6.6196   -32.8881     6.6370     5.4516   199.5777
  890.0000    69.0470     6.6080   -33.5546     8.0446     6.5671   171.4978
  890.5000    70.9230     6.6188   -34.1215     8.7800     7.6656   141.3357
  891.0000    78.9305     6.6296   -34.0732     9.1552     8.4455   123.5791
  891.5000    76.4579     6.6403   -33.9746     9.3997     8.8502   108.7717
  892.0000    71.6892     6.6510   -34.0315     9.5559     8.9080   107.5870
  892.5000    66.4697     6.6614   -34.0998     9.6401     8.9436   109.4048
  893.0000    65.3081     6.6556   -34.1722     9.6724     8.9585   111.1461
  893.5000    69.0323     6.6304   -33.8771     9.6785     8.8909   112.8734
  894.0000    63.1871     6.6077   -33.4936     9.6842     8.8242   114.6007
  894.5000    58.3748     6.6125   -33.1612     9.6877     8.7637   115.4910
  895.0000    58.5595     6.6183   -33.3993     9.7632     8.8706   113.8277
  895.5000    62.3081     6.6241   -33.6516     9.8836     9.0089   112.1643
  896.0000    62.3184     6.6299   -33.9147    10.0684     9.1458   108.3895
  896.5000    64.8684     6.6357   -33.7238    10.4790     9.2768   103.8532
  897.0000    47.8849     6.6414   -33.4012    11.1627     9.6873    97.8476
  897.5000    50.0837     6.6472   -33.4328    12.0795    10.1423    90.5185
  898.0000    54.8564     6.6530   -33.9570    13.1430    11.1564    83.1895
  898.5000    32.7262     6.6587   -35.4579    15.2521    12.3834    75.8605
  899.0000    16.2133     6.6637   -37.1002    17.3826    13.6137    68.5314
  899.5000     8.4544     6.6243   -40.8566    19.5219    14.8447    61.2024
  900.0000     6.7683     6.5378   -45.4764    21.7232    16.0730    54.4213
  900.5000     5.7462     6.4513   -50.0952    23.7065    17.2125    52.5501
  901.0000     4.5510     6.4139   -53.7994    23.9872    17.8293    50.6789
  901.5000    11.5194     6.4227   -55.0502    23.3488    17.6651    48.8076
  902.0000    22.4987     6.4493   -54.5695    22.4756    17.3212    50.6222
  902.5000    32.3383     6.4170   -51.6663    21.2652    16.6304    53.5708
  903.0000    39.3974     6.3815   -48.8432    20.0284    15.9637    56.5194
  903.5000    41.7432     6.3462   -49.4634    18.7856    15.2989    59.4680
  904.0000    40.9979     6.3095   -50.7258    17.9783    14.6730    61.6232
  904.5000    40.0146     6.3587   -51.9935    17.5796    14.3420    63.7174
  905.0000    39.4813     6.4285   -51.4079    17.2657    14.0272    65.6778
  905.5000    36.1024     6.4986   -48.3556    16.6015    13.7123    67.6381
  906.0000    26.8738     6.5711   -46.1760    16.0135    13.3972    69.5985
  906.5000    28.4839     6.5875   -44.4628    15.4839    13.0818    71.5588
  907.0000    33.8297     6.5879   -44.0901    15.2963    12.7668    73.0497
  907.5000    40.3440     6.5877   -43.9611    15.1225    12.4537    73.9570
  908.0000    35.0163     6.5876   -42.1928    14.9470    12.3230    74.4804
  908.5000    30.9454     6.5876   -40.3491    14.7869    12.4405    73.7675
  909.0000    30.5620     6.5876   -40.1716    14.8745    12.5551    73.0547
  909.5000    33.5763     6.5876   -40.4127    14.9697    12.6704    72.3418
  910.0000    29.4804     6.5878   -40.6655    15.0652    12.7856    71.6290
  910.5000    23.8496     6.5993   -40.9157    15.0297    12.9007    70.9161
  911.0000    19.6233     6.6118   -41.1656    15.0292    13.0159    70.2033
  911.5000    26.3084     6.6244   -41.4040    15.3093    13.1310    69.4904
  912.0000    31.3882     6.6369   -41.1773    15.4088    13.2469    68.7776
  912.5000    27.8951     6.6442   -39.7878    15.2136    13.3640    68.0647
  913.0000    26.2636     6.6189   -38.6860    15.3255    13.4492    67.3519
  913.5000    25.8648     6.5938   -40.6132    15.4244    13.3504    66.6333
  914.0000    33.5156     6.5688   -42.5223    15.0461    13.3076    67.5585
  914.5000    35.3709     6.5439   -44.3966    14.6774    13.2426    68.7281
  915.0000    32.6584     6.5189   -45.5884    14.3750    13.0448    69.8976
  915.5000    28.5901     6.5150   -44.4930    14.5260    12.8483    71.0671
  916.0000    35.7357     6.5346   -43.4569    14.6679    12.6522    72.2367
  916.5000    31.8471     6.5542   -42.4229    14.4392    12.4565    73.4062
  917.0000    35.4281     6.5739   -41.3847    14.1879    12.2596    74.5757
  917.5000    33.8299     6.5935   -40.3940    13.9372    12.1330    75.7452
  918.0000    35.1495     6.6131   -40.8401    13.6881    12.0562    76.9148
  918.5000    45.0572     6.6327   -41.4157    13.4708    11.9805    78.0843
  919.0000    48.2441     6.6523   -41.9750    13.4513    11.9050    79.2538
  919.5000    53.4444     6.6719   -41.6295    13.3784    11.8293    80.4233
  920.0000    50.1047     6.6917   -41.1710    13.3054    11.7531    81.6633
  920.5000    49.3654     6.7106   -41.1798    13.2324    11.6769    81.6633
  921.0000    46.7284     6.7122   -41.5051    13.1593    11.6802    81.6633
  921.5000    46.2597     6.6918   -41.7173    13.0863    11.6885    81.6633
