~VERSION INFORMATION
 VERS.                2.0:   CWLS LOG ASCII STANDARD - VERSION 2.0
 WRAP.                 NO:   ONE LINE PER DEPTH STEP
~WELL INFORMATION
#MNEM.UNIT      DATA TYPE    INFORMATION
#----------   ------------   ------------------------------
 STRT.F            0.0000:   START DEPTH
 STOP.F          795.0000:   STOP DEPTH
 STEP.F            0.5000:   STEP LENGTH
 NULL.          -999.2500:   NO VALUE
 COMP. BROWN JOHN E&C INC:   COMPANY
 WELL. NPR 3 SX-11 #41-11:   WELL
 FLD .             TEAPOT:   FIELD
 LOC .      S11 T38N R78W:   LOCATION
 CNTY.            NATRONA:   COUNTY
 STAT.            WYOMING:   STATE
 CTRY. UNITED STATES OF AMERICA:   COUNTRY
 SRVC.           Gearhart:   SERVICE COMPANY
 DATE.        19-AUG-1988:   LOGDATE
 API .       490251125300:   API NUMBER
~CURVE INFORMATION
#MNEM.UNIT       API CODE    CURVE DESCRIPTION
#----------   ------------   ------------------------------
 DEPT.F                  :   
 ILD .OHMM   07 120 46 00:   INDUCTION LOG DEEP
 ILM .OHMM   07 120 44 00:   INDUCTION LOG MEDIUM
 GRR .GAPI   07 310 01 00:   GAMMA RAY FROM RES. LOG.
~PARAMETER INFORMATION
#MNEM.UNIT          VALUE    DESCRIPTION
#----------   ------------   ------------------------------
 PD  .                 GL:   PERMANENT DATUM
 EPD .F              5093:   ELEVATION PERMANENT DATUM
 LMF .                 KB:   LOG MEASURED FROM
 DAPD.F                10:   FEET ABOVE PERMANENT DATUM
 DMF .                 KB:   DRILLING MEASURED FROM
 EKB .F              5103:   KELLING BUSHING
 EGL .F              5093:   GROUND LEVEL
 DATE.            8-19-88:   RUN DATE
 RUN .                  1:   RUN NUMBER
 DD  .F               800:   DEPTH DRILLER
 DL  .F             802.5:   DEPTH LOGGER
 BLI .F               794:   BOTTOM LOG INTERVAL
 CS  .IN            9.625:   CASING SIZE
 CBD .F                48:   CASING BOTTOM DRILLER
 CBL .F                48:   CASING BOTTOM LOGGER
 BS  .IN             8.75:   BIT SIZE
 BSD .F               800:   BIT SIZE AT DEPTH
 DFT .                AIR:   DRILLING FLUID TYPE
 TCS .HRS            1900:   TIME CURCULATED STOPPED
 TLAB.HRS            2000:   TIME LOGGER AT BOTTOM
 MRT .F                70:   MAXIMUM RECORDED TEMPERATURE
 LUN .               7597:   LOGGING UNIT NUMBER
 LUL .           GILLETTE:   LOGGING UNIT LOCATION
 ENGI.          HUCKFELDT:   RECORDING ENGINEER
 WITN.             STRONG:   WITNESSED BY
 CLNT.            A2DTECH:   CLIENT CODE
 ORIG.        2" 5" PRINT:   ORIGIN OF DATA
 UWI .       490251125300:   UNIQUE WELL ID
 DICO. A2D Technologies, Inc.:   DIGITIZING COMPANY
~OTHER INFORMATION
~A    DEPT     ILD        ILM         GRR  
    0.0000  -999.2500  -999.2500    20.9210
    0.5000  -999.2500  -999.2500    15.9053
    1.0000  -999.2500  -999.2500    12.2661
    1.5000  -999.2500  -999.2500     9.7216
    2.0000  -999.2500  -999.2500     9.5036
    2.5000  -999.2500  -999.2500    12.1720
    3.0000  -999.2500  -999.2500    15.6850
    3.5000  -999.2500  -999.2500    20.2024
    4.0000  -999.2500  -999.2500    24.8152
    4.5000  -999.2500  -999.2500    29.4705
    5.0000  -999.2500  -999.2500    31.1205
    5.5000  -999.2500  -999.2500    30.9648
    6.0000  -999.2500  -999.2500    30.9697
    6.5000  -999.2500  -999.2500    31.7193
    7.0000  -999.2500  -999.2500    32.4359
    7.5000  -999.2500  -999.2500    33.0645
    8.0000  -999.2500  -999.2500    37.1778
    8.5000  -999.2500  -999.2500    41.5773
    9.0000  -999.2500  -999.2500    45.3668
    9.5000  -999.2500  -999.2500    47.3954
   10.0000  -999.2500  -999.2500    49.4793
   10.5000  -999.2500  -999.2500    51.5897
   11.0000  -999.2500  -999.2500    53.2307
   11.5000  -999.2500  -999.2500    53.6363
   12.0000  -999.2500  -999.2500    52.2584
   12.5000  -999.2500  -999.2500    50.7844
   13.0000  -999.2500  -999.2500    49.3157
   13.5000  -999.2500  -999.2500    47.8535
   14.0000  -999.2500  -999.2500    46.7305
   14.5000  -999.2500  -999.2500    46.2812
   15.0000  -999.2500  -999.2500    45.8720
   15.5000  -999.2500  -999.2500    46.6587
   16.0000  -999.2500  -999.2500    47.5384
   16.5000  -999.2500  -999.2500    48.4127
   17.0000  -999.2500  -999.2500    49.2112
   17.5000  -999.2500  -999.2500    49.0462
   18.0000  -999.2500  -999.2500    47.8503
   18.5000  -999.2500  -999.2500    46.6485
   19.0000  -999.2500  -999.2500    45.4544
   19.5000  -999.2500  -999.2500    44.6641
   20.0000  -999.2500  -999.2500    45.9453
   20.5000  -999.2500  -999.2500    48.4026
   21.0000  -999.2500  -999.2500    52.4552
   21.5000  -999.2500  -999.2500    56.5972
   22.0000  -999.2500  -999.2500    60.7307
   22.5000  -999.2500  -999.2500    64.4646
   23.0000  -999.2500  -999.2500    66.4061
   23.5000  -999.2500  -999.2500    66.5227
   24.0000  -999.2500  -999.2500    66.6715
   24.5000  -999.2500  -999.2500    66.8235
   25.0000  -999.2500  -999.2500    66.9771
   25.5000  -999.2500  -999.2500    67.1366
   26.0000  -999.2500  -999.2500    67.3014
   26.5000  -999.2500  -999.2500    67.4776
   27.0000  -999.2500  -999.2500    67.5982
   27.5000  -999.2500  -999.2500    65.2852
   28.0000  -999.2500  -999.2500    62.3590
   28.5000  -999.2500  -999.2500    62.2106
   29.0000  -999.2500  -999.2500    63.6039
   29.5000  -999.2500  -999.2500    65.8910
   30.0000  -999.2500  -999.2500    68.1918
   30.5000  -999.2500  -999.2500    70.3878
   31.0000  -999.2500  -999.2500    71.1909
   31.5000  -999.2500  -999.2500    71.9369
   32.0000  -999.2500  -999.2500    72.6831
   32.5000  -999.2500  -999.2500    73.4628
   33.0000  -999.2500  -999.2500    72.6895
   33.5000  -999.2500  -999.2500    71.2963
   34.0000  -999.2500  -999.2500    69.8772
   34.5000  -999.2500  -999.2500    68.4607
   35.0000  -999.2500  -999.2500    68.1038
   35.5000  -999.2500  -999.2500    68.3509
   36.0000  -999.2500  -999.2500    68.0009
   36.5000  -999.2500  -999.2500    67.6087
   37.0000  -999.2500  -999.2500    67.1917
   37.5000  -999.2500  -999.2500    68.0606
   38.0000  -999.2500  -999.2500    69.2218
   38.5000  -999.2500  -999.2500    70.3995
   39.0000  -999.2500  -999.2500    71.1740
   39.5000  -999.2500  -999.2500    70.2230
   40.0000  -999.2500  -999.2500    69.2331
   40.5000  -999.2500  -999.2500    68.2545
   41.0000  -999.2500  -999.2500    67.5279
   41.5000  -999.2500  -999.2500    67.6136
   42.0000  -999.2500  -999.2500    68.7806
   42.5000  -999.2500  -999.2500    69.3110
   43.0000  -999.2500  -999.2500    68.3183
   43.5000  -999.2500  -999.2500    67.3747
   44.0000  -999.2500  -999.2500    67.1969
   44.5000  -999.2500  -999.2500    68.6042
   45.0000  -999.2500  -999.2500    69.9402
   45.5000  -999.2500  -999.2500    70.1084
   46.0000    19.7217  -999.2500    70.9721
   46.5000    20.4364  -999.2500    73.7844
   47.0000    33.0368   297.0632    80.2422
   47.5000    53.0098   241.0826    87.9505
   48.0000    53.2351    99.4447   101.4521
   48.5000     3.6671   100.5989   114.1616
   49.0000     2.4880     8.6686   121.5598
   49.5000     2.0973     3.6483   123.1261
   50.0000     2.9901     2.5537   121.0481
   50.5000     4.9900     2.4563   118.3626
   51.0000     8.5880     2.8213   113.4679
   51.5000     9.1683     3.3326   110.3541
   52.0000     6.5430     4.2990   107.2543
   52.5000     4.6871     4.8271   109.0723
   53.0000     4.3833     5.0899   112.5935
   53.5000     4.3833     5.0899   116.1125
   54.0000     4.3833     4.5494   119.5820
   54.5000     4.4086     4.1949   121.2247
   55.0000     4.5240     4.0639   119.5566
   55.5000     4.6366     3.9688   117.9089
   56.0000     4.6368     3.8821   117.0710
   56.5000     4.5589     3.9501   117.5459
   57.0000     4.4871     4.0535   118.1358
   57.5000     4.4244     4.1596   118.1552
   58.0000     4.4472     4.2684   116.3037
   58.5000     4.4791     4.3441   116.9098
   59.0000     4.5114     4.3555   118.0107
   59.5000     4.5439     4.3670   118.8153
   60.0000     4.5767     4.3785   117.2431
   60.5000     4.6096     4.3901   115.6710
   61.0000     4.6439     4.4016   114.1658
   61.5000     4.6829     4.4132   113.6340
   62.0000     4.7222     4.4248   113.6427
   62.5000     4.7618     4.4365   114.1179
   63.0000     4.7677     4.4482   114.9896
   63.5000     4.7678     4.4599   115.6817
   64.0000     4.7677     4.4841   115.3929
   64.5000     4.7677     4.5217   115.8142
   65.0000     4.7677     4.5597   116.5281
   65.5000     4.7744     4.5929   116.6013
   66.0000     4.8271     4.5578   114.1815
   66.5000     4.8801     4.5271   111.5137
   67.0000     4.9277     4.5071   111.1627
   67.5000     4.9711     4.5573   113.9283
   68.0000     5.0149     4.6449   117.6621
   68.5000     5.0591     4.7338   120.2733
   69.0000     5.1037     4.8244   118.9207
   69.5000     5.1381     4.9166   118.2539
   70.0000     5.1219     4.9493   117.3107
   70.5000     5.1030     4.9310   114.8380
   71.0000     5.0728     4.8923   112.2157
   71.5000     4.9619     4.8320   111.2414
   72.0000     4.8030     4.5843   111.2001
   72.5000     4.6491     4.3300   112.7514
   73.0000     4.5502     4.1195   115.1251
   73.5000     4.5502     4.0456   117.3284
   74.0000     4.6021     4.0287   117.7874
   74.5000     4.6569     4.1805   118.0476
   75.0000     4.8125     4.3833   118.3729
   75.5000     5.0459     4.5959   120.3183
   76.0000     5.2906     4.8331   122.2616
   76.5000     5.5472     5.0860   124.2272
   77.0000     5.7863     5.3544   123.2588
   77.5000     5.9458     5.6436   119.9248
   78.0000     6.1075     5.8457   116.6101
   78.5000     6.2599     5.9382   115.1801
   79.0000     6.3982     6.0318   117.1633
   79.5000     6.5500     6.1535   119.0653
   80.0000     6.6863     6.3010   119.6510
   80.5000     6.8358     6.4282   116.6339
   81.0000     6.9941     6.5377   113.6932
   81.5000     6.9923     6.6745   110.7643
   82.0000     6.9938     6.6736   109.2041
   82.5000     6.8819     6.6744   110.8496
   83.0000     6.7463     6.5262   114.3925
   83.5000     6.6131     6.3836   117.9062
   84.0000     6.4891     6.2511   121.2143
   84.5000     6.2773     6.0777   121.4413
   85.0000     6.0822     5.9171   119.1155
   85.5000     5.8931     5.7608   114.8164
   86.0000     5.7100     5.6087   111.1521
   86.5000     5.4568     5.4250   112.3646
   87.0000     5.0626     5.2196   113.6004
   87.5000     4.6795     5.0308   113.6237
   88.0000     4.4406     4.7665   112.8867
   88.5000     4.2043     4.4250   112.3985
   89.0000     3.9806     3.9814   114.2627
   89.5000     3.8102     3.5819   116.4828
   90.0000     3.8419     3.2901   118.7232
   90.5000     3.8821     3.1609   120.9536
