~VERSION INFORMATION
 VERS.                2.0:   CWLS LOG ASCII STANDARD - VERSION 2.0
 WRAP.                 NO:   ONE LINE PER DEPTH STEP
~WELL INFORMATION
#MNEM.UNIT      DATA TYPE    INFORMATION
#----------   ------------   ------------------------------
 STRT.F           16.0000:   START DEPTH
 STOP.F          716.0000:   STOP DEPTH
 STEP.F            0.5000:   STEP LENGTH
 NULL.          -999.2500:   NO VALUE
 COMP. BROWN JOHN E&C INC:   COMPANY
 WELL.   STX 10 #24-51-10:   WELL
 FLD .             NPR #3:   FIELD
 LOC .      S10 T38N R78W:   LOCATION
 CNTY.            NATRONA:   COUNTY
 STAT.            WYOMING:   STATE
 CTRY. UNITED STATES OF AMERICA:   COUNTRY
 SRVC.           Gearhart:   SERVICE COMPANY
 DATE.        01-JUL-1986:   LOGDATE
 API .       490251107800:   API NUMBER
~CURVE INFORMATION
#MNEM.UNIT       API CODE    CURVE DESCRIPTION
#----------   ------------   ------------------------------
 DEPT.F                  :   
 GRR .GAPI   07 310 01 00:   GAMMA RAY
 RILD.OHMM   07 120 46 00:   INDUCTION LOG DEEP RESISTIVITY
 RILM.OHMM   07 120 44 00:   INDUCTION LOG MEDIUM RESISTIVITY
~PARAMETER INFORMATION
#MNEM.UNIT          VALUE    DESCRIPTION
#----------   ------------   ------------------------------
 PD  .                 GL:   PERMANENT DATUM
 EPD .F              5235:   ELEVATION PERMANENT DATUM
 LMF .                 KB:   LOG MEASURED FROM
 DAPD.F               5.0:   FEET ABOVE PERMANENT DATUM
 DMF .                 KB:   DRILLING MEASURED FROM
 EKB .F              5240:   KELLING BUSHING
 EGL .F              5235:   GROUND LEVEL
 DATE.        01-JUL-1986:   RUN DATE
 RUN .                  1:   RUN NUMBER
 DD  .F               728:   DEPTH DRILLER
 DL  .F               726:   DEPTH LOGGER
 BLI .F               716:   BOTTOM LOG INTERVAL
 TLI .F                15:   TOP LOG INTERVAL
 CS  .IN            8.625:   CASING SIZE
 CBD .F                47:   CASING BOTTOM DRILLER
 CBL .F                47:   CASING BOTTOM LOGGER
 BS  .IN            7.875:   BIT SIZE
 BSD .F               728:   BIT SIZE AT DEPTH
 DFT .               FOAM:   DRILLING FLUID TYPE
 TCS .HRS            0800:   TIME CURCULATED STOPPED
 TLAB.HRS            0930:   TIME LOGGER AT BOTTOM
 MRT .F                85:   MAXIMUM RECORDED TEMPERATURE
 LUN .               7609:   LOGGING UNIT NUMBER
 LUL .           GILLETTE:   LOGGING UNIT LOCATION
 ENGI.              BAUER:   RECORDING ENGINEER
 WITN.              FIVAS:   WITNESSED BY
 CLNT.            A2DTECH:   CLIENT CODE
 ORIG.           5" PRINT:   ORIGIN OF DATA
 UWI .       490251107800:   UNIQUE WELL ID
 DICO. A2D Technologies, Inc.:   DIGITIZING COMPANY
~OTHER INFORMATION
~A   DEPT       GRR      RILD       RILM   
# ...
  198.0000   123.1348     8.9743     9.0026
  198.5000   117.3513     8.9167     8.9440
  199.0000   117.0533     8.8606     8.9495
  199.5000   119.8087     8.8656     8.9540
  200.0000   121.3399     8.9319     8.9573
  200.5000   117.0476     8.9345     8.9251
  201.0000   111.5118     8.9371     8.9001
  201.5000   106.3473     9.0027     8.9032
  202.0000   105.4635     9.0052     9.0315
  202.5000   107.0426     9.0077     9.0341
  203.0000   109.2192     9.0102     9.0366
  203.5000   111.9329     9.0127     9.0391
  204.0000   113.1097     9.0153     9.0416
  204.5000   114.3842     9.0178     9.1078
  205.0000   116.4012     9.0203     9.1104
  205.5000   117.3113     9.0863     9.0486
  206.0000   113.6452     9.0888     9.0517
  206.5000   110.2855     9.1553     9.1180
  207.0000   108.4501     9.2223     9.1206
  207.5000   107.5309     9.2897     9.1873
  208.0000   108.7429     9.2923     9.1899
  208.5000   109.6514     9.2949     9.1925
  209.0000   112.0844     9.2975     9.1950
  209.5000   114.2125     9.3001     9.1976
  210.0000   118.1698     9.3027     9.2002
  210.5000   122.1272     9.3053     9.2675
  211.0000   123.9504     9.3079     9.2701
  211.5000   122.7248     9.3105     9.2727
  212.0000   120.8895     9.3131     9.2753
  212.5000   119.9688     9.3158     9.2779
  213.0000   119.6578     9.3184     9.3458
  213.5000   120.8713     9.3210     9.3484
  214.0000   124.2188     9.3236     9.4168
  214.5000   124.5192     9.3119     9.4195
  215.0000   124.5116     9.2962     9.4221
  215.5000   125.1153     9.2806     9.3588
  216.0000   126.6336     9.2689     9.2960
  216.5000   123.2739     9.2067     9.2986
  217.0000   115.9507     9.0812     9.2362
  217.5000   112.8959     9.0201     9.1080
  218.0000   114.4142     8.8972     8.9856
  218.5000   118.3716     8.8375     8.8584
  219.0000   122.6338     8.7782     8.7419
  219.5000   123.5424     8.6584     8.6832
  220.0000   124.4509     8.6003     8.6249
  220.5000   124.4448     8.6027     8.6181
  221.0000   123.2193     8.6051     8.5694
  221.5000   120.7742     8.5474     8.5719
  222.0000   120.7681     8.6099     8.5748
  222.5000   122.2864     8.6125     8.6376
  223.0000   120.1462     8.6149     8.7008
  223.5000   113.4328     8.6850     8.7645
  224.0000   107.0243     8.8028     8.8908
  224.5000   106.4085     8.8672     9.0189
  225.0000   107.3171     8.9426     9.0850
  225.5000   109.1525     9.1245     9.2159
  226.0000   110.9757     9.2564     9.3487
  226.5000   111.8903     9.3897     9.4834
  227.0000   112.1709     9.5249     9.5529
  227.5000   112.1342     9.6621     9.6905
  228.0000   111.5123     9.7328     9.8302
  228.5000   110.6281     9.8729     9.9022
  229.0000   110.0122     9.9452     9.9049
  229.5000   110.6707     9.8778     9.8377
  230.0000   114.8768     9.7436     9.7724
  230.5000   116.3967     9.6776     9.5716
  231.0000   112.1208     9.6127     9.5066
  231.5000   109.0659     9.4153     9.3119
  232.0000   110.5843     9.1582     9.1848
  232.5000   114.8465     9.0332     8.9960
  233.0000   115.7566     8.8477     8.8105
  233.5000   115.1392     8.6660     8.6300
  234.0000   118.1820     8.4881     8.5122
  234.5000   124.2735     8.3722     8.3373
  235.0000   130.3649     8.2574     8.3396
  235.5000   132.1897     8.2020     8.2830
  236.0000   126.9992     8.2049     8.2274
  236.5000   120.5906     8.2072     8.1722
  237.0000   117.5358     8.2095     8.2326
  237.5000   116.9200     8.2695     8.2349
  238.0000   118.7432     8.3300     8.2952
  238.5000   120.5679     8.3910     8.3559
  239.0000   120.5603     8.4523     8.4171
  239.5000   120.8591     8.5142     8.5985
  240.0000   122.9872     8.6368     8.6614
  240.5000   124.2022     8.7000     8.8481
  241.0000   121.4507     8.7636     8.9129
  241.5000   117.7861     8.8898     9.0413
  242.0000   115.6459     8.9548     9.1075
  242.5000   115.3349     9.0203     9.1742
  243.0000   115.6352     9.1502     9.1802
  243.5000   114.7130     9.2172     9.3090
  244.0000   114.0972     9.2198     9.3117
  244.5000   113.7863     9.2223     9.3217
  245.0000   113.4753     9.2249     9.3825
  245.5000   113.7741     9.2275     9.3851
  246.0000   115.2924     9.2301     9.3877
  246.5000   117.4205     9.2326     9.3777
  247.0000   119.2439     9.2352     9.3272
  247.5000   116.4938     9.1732     9.3305
  248.0000   114.3535     9.2404     9.3331
  248.5000   113.7377     9.2430     9.4014
  249.0000   114.3414     9.3106     9.4040
  249.5000   116.4695     9.5111     9.4729
  250.0000   117.9878     9.5807     9.5419
  250.5000   116.8417     9.5624     9.5465
  251.0000   114.3483     9.5441     9.5512
  251.5000   109.1745     9.5289     9.5558
  252.0000   107.9619     9.6026     9.6956
  252.5000   110.4123     9.6756     9.7687
  253.0000   113.7752     9.7491     9.9115
  253.5000   114.0869     9.8232     9.9862
  254.0000   109.5252    10.0376    10.1323
  254.5000   108.6174    10.1850    10.2805
  255.0000   109.5434    10.3346    10.4309
  255.5000   114.4306    10.5601    10.5834
  256.0000   120.8422    10.7152    10.7382
  256.5000   120.2416    10.9490    10.9720
  257.0000   115.4399    11.2667    11.2109
  257.5000   108.6745    11.4321    11.3748
  258.0000   103.8056    11.6816    11.5412
  258.5000   101.3758    11.9366    11.8755
  259.0000    99.8605    12.1971    12.1340
  259.5000    99.8697    12.4633    12.4854
  260.0000   101.4032    12.6463    12.6680
  260.5000   105.0709    12.6534    12.7697
  261.0000   108.4337    12.6605    12.7698
  261.5000   104.4794    12.5773    12.6866
  262.0000   100.8300    12.4110    12.6041
  262.5000   100.2271    12.3312    12.4347
  263.0000   105.1166    12.2502    12.2675
  263.5000   112.4428    12.1715    12.2736
  264.0000   110.0130    12.0932    12.1937
  264.5000   103.9245    12.1017    12.0297
  265.0000    99.9703    12.0222    12.0357
  265.5000    98.1479    12.0307    11.9573
  266.0000    99.0739    11.8698    11.9633
  266.5000   100.9123    11.8765    11.9692
  267.0000   101.2264    11.8832    11.9751
  267.5000    98.4916    11.9010    12.0653
  268.0000    96.3666    11.9783    12.0713
  268.5000    96.6806    12.0556    12.2478
  269.0000    96.6898    12.1330    12.3401
  269.5000    95.7843    12.2559    12.3462
  270.0000    91.5252    12.1771    12.3522
  270.5000    91.2271    12.1840    12.4453
  271.0000    95.2020    11.9371    12.4514
  271.5000   100.0892    11.7776    12.4575
  272.0000   101.3178    11.5390    12.2041
  272.5000   101.0221    11.3052    11.8723
  273.0000   102.2508    11.1541    11.7124
  273.5000   105.6136    10.9281    11.3941
  274.0000   112.3300    10.7067    11.2409
  274.5000   112.9466    10.5636    11.0896
  275.0000   106.2508    10.3495    10.9407
  275.5000   101.0770    10.2816    10.7181
  276.0000   100.4741    10.1441    10.5001
  276.5000   102.6197    10.0789    10.2865
  277.0000   105.0678    10.0141    10.2194
  277.5000   105.3796     9.8803    10.1529
  278.0000   102.0373     9.8168    10.0166
  278.5000   101.1319     9.7537     9.9513
  279.0000   100.8338     9.7605     9.8177
  279.5000   104.5038     9.8347     9.7536
  280.0000   103.9032     9.8402     9.7586
  280.5000   101.7782     9.8457     9.8321
  281.0000    99.3483     9.9205     9.8370
  281.5000    96.3087     9.9261     9.8418
  282.0000    93.2691     9.9317     9.9160
  282.5000    91.7515     9.9372     9.9208
  283.0000    91.7630     9.9428     9.9956
  283.5000    92.0770     9.8775    10.0005
  284.0000    94.2203     9.8844    10.0054
  284.5000    96.9733     9.8900    10.0103
  285.0000    99.4215     9.7578    10.0152
  285.5000    99.4306     9.6937     9.8806
  286.0000    99.1326     9.5654     9.7465
  286.5000   100.0587     9.3703     9.4827
  287.0000   102.8117     9.1818     9.2248
  287.5000   105.2599     8.9329     8.9729
  288.0000   104.9642     8.8123     8.7289
  288.5000   101.0099     8.6338     8.4916
