~VERSION INFORMATION
 VERS.                2.0:   CWLS LOG ASCII STANDARD - VERSION 2.0
 WRAP.                 NO:   ONE LINE PER DEPTH STEP
~WELL INFORMATION
#MNEM.UNIT      DATA TYPE    INFORMATION
#----------   ------------   ------------------------------
 STRT.F           95.0000:   START DEPTH
 STOP.F          914.0000:   STOP DEPTH
 STEP.F            0.5000:   STEP LENGTH
 NULL.          -999.2500:   NO VALUE
 COMP. LAWRENCE/ALLISON INC:   COMPANY
 WELL. NPR ##3 31-61 SX 2:   WELL
 FLD .             TEAPOT:   FIELD
 LOC .       S2 T38N R78W:   LOCATION
 CNTY.            NATRONA:   COUNTY
 STAT.            WYOMING:   STATE
 CTRY. UNITED STATES OF AMERICA:   COUNTRY
 SRVC.      Dresser Atlas:   SERVICE COMPANY
 DATE.        30-JAN-1986:   LOGDATE
 API .       490251106800:   API NUMBER
~CURVE INFORMATION
#MNEM.UNIT       API CODE    CURVE DESCRIPTION
#----------   ------------   ------------------------------
 DEPT.F                  :   
 RILD.OHMM   07 120 46 00:   INDUCTION LOG DEEP RESISTIVITY
 RILM.OHMM   07 120 44 00:   INDUCTION LOG MEDIUM RESISTIVITY
 CALD.IN     45 280 60 00:   CALIPER FROM DENSITY
 GRD .GAPI   45 310 01 00:   GAMMA RAY FROM DENSITY LOG
 CORR.G/C3   45 356 01 00:   DENSITY CORRECTION
 PORD.DEC    45 890 10 00:   POROSITY DENSITY LIMESTONE
 DEN .G/C3   45 350 01 00:   COMPENSATED BULK DENSITY
~PARAMETER INFORMATION
#MNEM.UNIT          VALUE    DESCRIPTION
#----------   ------------   ------------------------------
 PD  .                 GL:   PERMANENT DATUM
 EPD .F              5126:   ELEVATION PERMANENT DATUM
 LMF .                 GL:   LOG MEASURED FROM
 DMF .                 GL:   DRILLING MEASURED FROM
 EGL .F              5126:   GROUND LEVEL
 DATE.        30-JAN-1986:   RUN DATE
 RUN .                  1:   RUN NUMBER
 DD  .F               925:   DEPTH DRILLER
 DL  .F               918:   DEPTH LOGGER
 BLI .F               910:   BOTTOM LOG INTERVAL
 CS  .IN            8.625:   CASING SIZE
 CBD .F               127:   CASING BOTTOM DRILLER
 CBL .F               127:   CASING BOTTOM LOGGER
 BS  .IN             6.25:   BIT SIZE
 BSD .F               925:   BIT SIZE AT DEPTH
 DFT .                AIR:   DRILLING FLUID TYPE
 LUN .            HL-6264:   LOGGING UNIT NUMBER
 LUL .           GILLETTE:   LOGGING UNIT LOCATION
 ENGI.     P. M. FAHLSING:   RECORDING ENGINEER
 WITN.        LINOA FIVAS:   WITNESSED BY
 CLNT.            A2DTECH:   CLIENT CODE
 ORIG.           5" PRINT:   ORIGIN OF DATA
 UWI .       490251106800:   UNIQUE WELL ID
 DICO. A2D Technologies, Inc.:   DIGITIZING COMPANY
~OTHER INFORMATION
~A   DEPT     RILD       RILM       CALD         GRD      CORR       PORD        DEN   
# ...
  231.5000     6.5809     6.4291     6.7333   130.0657     0.1299     0.1271     2.4682
  232.0000     6.3997     6.2092     6.7336   128.2651     0.1330     0.1275     2.4667
  232.5000     6.1804     5.9969     6.7339   126.4645     0.1240     0.1303     2.4599
  233.0000     5.9687     5.7919     6.7342   121.6428     0.1135     0.1376     2.4508
  233.5000     5.7642     5.5939     6.7345   119.8422     0.1060     0.1436     2.4433
  234.0000     5.4901     5.3653     6.7348   121.9691     0.1121     0.1479     2.4365
  234.5000     5.2654     5.1818     6.7351   124.3982     0.1182     0.1475     2.4327
  235.0000     5.0150     4.9701     6.7354   124.7124     0.1167     0.1466     2.4342
  235.5000     4.8098     4.7341     6.7357   125.0266     0.1092     0.1469     2.4349
  236.0000     4.6450     4.5406     6.7510   127.7577     0.1123     0.1501     2.4311
  236.5000     4.5801     4.5400     6.7814   134.4164     0.1349     0.1558     2.4228
  237.0000     4.5791     4.6670     6.7817   134.1264     0.1635     0.1585     2.4145
  237.5000     4.6100     4.9324     6.7820   119.0327     0.1846     0.1555     2.4168
  238.0000     4.6091     5.0703     6.7823    83.3953     0.1952     0.1199     2.4446
  238.5000     4.6404     4.9998     6.7826    69.8122     0.1606     0.0745     2.5297
  239.0000     4.7366     4.9303     6.7829    74.0539     0.1261     0.0536     2.5937
  239.5000     4.9026     5.0332     6.7832    91.5887     0.1066     0.0517     2.6193
  240.0000     5.0394     5.1739     6.7835   111.2383     0.1111     0.0822     2.5530
  240.5000     5.1800     5.2819     6.7838   123.0334     0.1187     0.1169     2.4988
  241.0000     5.3245     5.3549     6.7841   125.6134     0.1142     0.1318     2.4656
  241.5000     5.3979     5.4289     6.7693   127.5898     0.1413     0.1317     2.4603
  242.0000     5.4719     5.4659     6.7546   125.7892     0.1669     0.1255     2.4648
  242.5000     5.5088     5.4651     6.7549   122.4780     0.1625     0.1237     2.4709
  243.0000     5.5076     5.4644     6.7703   120.3754     0.1385     0.1271     2.4701
  243.5000     5.5065     5.3884     6.7706   120.3875     0.1205     0.1310     2.4633
  244.0000     5.4673     5.3135     6.7709   121.6080     0.1190     0.1331     2.4595
  244.5000     5.4284     5.2034     6.7712   124.0370     0.1251     0.1298     2.4610
  245.0000     5.3526     5.0605     6.7564   127.3724     0.1417     0.1280     2.4648
  245.5000     5.2413     4.9557     6.7567   127.3845     0.1628     0.1295     2.4625
  246.0000     5.0268     4.7862     6.7721   124.3755     0.1568     0.1371     2.4519
  246.5000     4.6569     4.4651     6.7724   123.1791     0.1268     0.1448     2.4421
  247.0000     4.2548     4.1368     6.7727   124.3997     0.0997     0.1529     2.4308
  247.5000     3.8606     3.6511     6.7730   125.9224     0.0908     0.1550     2.4240
  248.0000     3.5272     3.1781     6.7733   128.9556     0.0893     0.1635     2.4135
  248.5000     3.4064     3.0063     6.7736   129.2698     0.1149     0.1780     2.3976
  249.0000     3.3822     3.0904     6.7739   126.8650     0.1345     0.2010     2.3442
  249.5000     3.4051     3.2436     6.7742   121.4391     0.1556     0.2242     2.3095
  250.0000     3.5050     3.4280     6.7745   116.4282     0.1707     0.2445     2.2962
  250.5000     3.6737     3.6226     6.7754   115.4979     0.1541     0.2173     2.3283
  251.0000     3.9644     3.8283     6.7763   118.1582     0.1300     0.1757     2.3765
  251.5000     4.2193     4.0739     6.7773   119.6838     0.1179     0.1540     2.4051
  252.0000     4.4595     4.3653     6.7758   118.7925     0.1224     0.1434     2.4307
  252.5000     4.6485     4.5814     6.7741   120.0160     0.1449     0.1395     2.4413
  253.0000     4.8456     4.7749     6.7723   126.0733     0.1554     0.1407     2.4473
  253.5000     4.9471     4.8406     6.7706   129.4116     0.1448     0.1465     2.4375
  254.0000     4.9812     4.8396     6.7688   127.3118     0.1508     0.1489     2.4307
  254.5000     4.9808     4.8386     6.7671   124.6078     0.1627     0.1450     2.4352
  255.0000     4.9804     4.8376     6.7654   122.2059     0.1672     0.1366     2.4450
  255.5000     4.9457     4.8366     6.7636   119.8040     0.1521     0.1327     2.4518
  256.0000     4.9112     4.8022     6.7619   117.4022     0.1280     0.1387     2.4518
  256.5000     4.9108     4.7680     6.7602   115.0003     0.1325     0.1451     2.4375
  257.0000     4.7433     4.7297     6.7584   112.5984     0.1340     0.1472     2.4322
  257.5000     4.5814     4.5248     6.7567   111.7071     0.1384     0.1458     2.4323
  258.0000     4.3340     4.1481     6.7549   112.3263     0.1444     0.1428     2.4383
  258.5000     4.0717     3.9236     6.7532   115.0604     0.1504     0.1437     2.4398
  259.0000     3.7988     3.7112     6.7515   117.4923     0.1518     0.1479     2.4304
  259.5000     3.5937     3.5347     6.7497   119.3201     0.1443     0.1534     2.4198
  260.0000     3.4471     3.2974     6.7480   120.8457     0.1412     0.1640     2.4066
  260.5000     3.3986     3.0760     6.7483   121.1628     0.1502     0.1724     2.3923
  261.0000     3.3757     3.0543     6.7642   121.1778     0.1622     0.1845     2.3780
  261.5000     3.4703     3.3183     6.7952   116.3590     0.1696     0.1997     2.3517
  262.0000     3.5991     3.5557     6.8111   111.8423     0.1756     0.2066     2.3306
  262.5000     3.8058     3.8100     6.7945   114.8785     0.1620     0.1955     2.3547
  263.0000     4.0974     4.0826     6.7650   119.4253     0.1484     0.1680     2.3908
  263.5000     4.3307     4.4051     6.7536   121.8572     0.1634     0.1400     2.4375
  264.0000     4.6091     4.6876     6.7548   121.2680     0.1920     0.1201     2.4714
  264.5000     4.8715     4.9538     6.7557   121.8873     0.1829     0.1143     2.4827
  265.0000     5.2207     5.2352     6.7566   122.8087     0.1558     0.1153     2.4864
  265.5000     5.5179     5.4943     6.7575   121.3131     0.1512     0.1207     2.4752
  266.0000     5.7121     5.6475     6.7584   118.9112     0.1512     0.1283     2.4654
  266.5000     5.8318     5.7255     6.7592   119.2284     0.1391     0.1335     2.4586
  267.0000     5.8720     5.6452     6.7449   121.0561     0.1135     0.1323     2.4578
  267.5000     5.6715     5.5279     6.7460   123.7902     0.1059     0.1296     2.4608
  268.0000     5.3282     5.2287     6.7469   125.0136     0.1345     0.1305     2.4601
  268.5000     4.7357     4.7442     6.7478   123.0668     0.1645     0.1384     2.4465
  269.0000     4.2678     4.2454     6.7487   122.6287     0.1720     0.1487     2.4292
  269.5000     3.9818     3.7990     6.7496   124.6075     0.1509     0.1607     2.4132
  270.0000     3.8194     3.4952     6.7655   129.3053     0.1132     0.1741     2.3913
  270.5000     3.6635     3.3989     6.7815   134.4562     0.1297     0.1856     2.3730
  271.0000     3.5631     3.3982     6.7811   135.6797     0.1492     0.1962     2.3564
  271.5000     3.5139     3.4473     6.7807   131.7672     0.1717     0.2001     2.3448
  272.0000     3.5380     3.5198     6.7802   124.5316     0.1552     0.1981     2.3488
  272.5000     3.6121     3.6231     6.7798   118.3532     0.1416     0.1768     2.4014
  273.0000     3.7652     3.8463     6.7794   114.1387     0.1475     0.1562     2.4262
  273.5000     4.0352     4.1501     6.7789   113.0982     0.1731     0.1426     2.4413
  274.0000     4.3848     4.4780     6.7785   117.6449     0.1670     0.1401     2.4465
  274.5000     4.6344     4.7652     6.7781   123.7022     0.1489     0.1416     2.4405
  275.0000     4.8645     4.9322     6.7776   126.4363     0.1383     0.1398     2.4503
  275.5000     5.0368     5.0700     6.7772   125.2429     0.1413     0.1298     2.4654
  276.0000     5.1434     5.1752     6.7768   124.0494     0.1550     0.1212     2.4767
  276.5000     5.1765     5.2104     6.7773   124.9708     0.1805     0.1164     2.4827
