~VERSION INFORMATION
 VERS.                2.0:   CWLS LOG ASCII STANDARD - VERSION 2.0
 WRAP.                 NO:   ONE LINE PER DEPTH STEP
~WELL INFORMATION
#MNEM.UNIT      DATA TYPE    INFORMATION
#----------   ------------   ------------------------------
 STRT.F           33.0000:   START DEPTH
 STOP.F         1310.0000:   STOP DEPTH
 STEP.F            0.5000:   STEP LENGTH
 NULL.          -999.2500:   NO VALUE
 COMP. FENIX & SCISSON INC:   COMPANY
 WELL.    NPR-3 #76-14 SX:   WELL
 FLD .        TEAPOT DOME:   FIELD
 LOC .      S14 T38N R78W:   LOCATION
 CNTY.            NATRONA:   COUNTY
 STAT.            WYOMING:   STATE
 CTRY. UNITED STATES OF AMERICA:   COUNTRY
 SRVC.            Unknown:   SERVICE COMPANY
 DATE.        12-APR-1978:   LOGDATE
 API .       490251061200:   API NUMBER
~CURVE INFORMATION
#MNEM.UNIT       API CODE    CURVE DESCRIPTION
#----------   ------------   ------------------------------
 DEPT.F                  :   
 SPR .MV     05 010 01 00:   SPONTANEOUS POTENTIAL FROM RES.
 SN  .OHMM   05 040 16 00:   SHORT NORMAL 16"
 ILD .OHMM   05 120 46 00:   INDUCTION LOG DEEP
 CALD.IN     45 280 60 00:   CALIPER FROM DENSITY LOG
 GRD .GAPI   45 310 01 00:   GAMMA RAY FROM DENSITY LOG
 DPOR.DEC    45 890 12 00:   DENSITY POROSITY SANDSTONE
 CORR.G/C3   45 356 01 00:   DENSITY CORRECTION
 RHOB.G/C3   45 350 01 00:   BULK DENSITY
~PARAMETER INFORMATION
#MNEM.UNIT          VALUE    DESCRIPTION
#----------   ------------   ------------------------------
 PD  .                 GL:   PERMANENT DATUM
 EPD .F              5332:   ELEVATION PERMANENT DATUM
 LMF .                 KB:   LOG MEASURED FROM
 DMF .                 KB:   DRILLING MEASURED FROM
 EKB .F              5336:   KELLING BUSHING
 EGL .F              5332:   GROUND LEVEL
 DATE.          4-12-1978:   RUN DATE
 RUN .                  1:   RUN NUMBER
 DD  .F              1300:   DEPTH DRILLER
 DL  .F              1302:   DEPTH LOGGER
 BLI .F              1298:   BOTTOM LOG INTERVAL
 TLI .F                50:   TOP LOG INTERVAL
 CS  .IN            8.625:   CASING SIZE
 CBD .F                40:   CASING BOTTOM DRILLER
 CBL .F                46:   CASING BOTTOM LOGGER
 BS  .IN            7.875:   BIT SIZE
 BSD .F              1300:   BIT SIZE AT DEPTH
 DFT .                KCL:   DRILLING FLUID TYPE
 DFD .                8.5:   DRILLING FLUID DENSITY
 DFV .                 28:   DRILLING FLUID VISCOSITY
 MSS .            MUD PIT:   MUD SAMPLE SOURCE
 RMS .OHMM           1.45:   RESISTIVITY MUD SAMPLE
 MST .F                50:   MUD SAMPLE TEMPERATURE
 RMF .OHMM           1.25:   RESISTIVITY MUD FILTRATE SAMPLE
 MFST.F                62:   MUD FILTRATE SAMPLE TEMPERATURE
 RMC .OHMM           1.65:   RESISTIVITY MUD CAKE
 MCST.F                61:   MUD CAKE SAMPLE TEMPERATURE
 MFSS.           MEASURED:   MUD FILTRATE SAMPLE SOURCE
 MCSS.           MEASURED:   MUD CAKE SAMPLE SOURCE
 RMB .OHMM            .93:   RESISTIVITY MUD AT BHT
 BHT .F                78:   BOTTOM HOLE TEMPERATURE
 TCS .HRS               6:   TIME CURCULATED STOPPED
 MRT .F                78:   MAXIMUM RECORDED TEMPERATURE
 LUN .               2958:   LOGGING UNIT NUMBER
 LUL .                CAS:   LOGGING UNIT LOCATION
 ENGI.             MILLER:   RECORDING ENGINEER
 WITN.           MCGINLEY:   WITNESSED BY
 CLNT.            A2DTECH:   CLIENT CODE
 ORIG.      2" , 5" PRINT:   ORIGIN OF DATA
 UWI .       490251061200:   UNIQUE WELL ID
 DICO. A2D Technologies, Inc.:   DIGITIZING COMPANY
~OTHER INFORMATION
~A   DEPT      SPR         SN        ILD       CALD         GRD      DPOR       CORR       RHOB   
# ...
  195.0000    -9.7951     4.9873     6.3979     7.5767    44.4994     0.1464     0.0239     2.3976
  195.5000    -9.7991     4.9834     6.4973     7.5911    47.1167     0.1456     0.0219     2.3966
  196.0000    -9.8030     5.0502     6.5797     7.6054    47.8433     0.1449     0.0199     2.4003
  196.5000    -9.8069     5.2180     6.6628     7.6197    47.7786     0.1447     0.0198     2.4051
  197.0000    -9.8108     5.3884     6.7471     7.6341    46.9661     0.1480     0.0224     2.4101
  197.5000    -9.8148     5.5644     6.8325     7.6484    46.0139     0.1489     0.0295     2.4040
  198.0000    -9.8187     5.7462     6.9520     7.6628    45.0499     0.1430     0.0365     2.3959
  198.5000    -9.8226     5.8339     6.9472     7.6771    44.5867     0.1340     0.0435     2.3982
  199.0000    -9.8265     5.8880     6.9394     7.6915    44.3894     0.1250     0.0456     2.4158
  199.5000    -9.8305     5.8944     6.9317     7.7058    44.1609     0.1186     0.0454     2.4333
  200.0000    -9.8344     5.9019     6.9239     7.7200    42.2623     0.1135     0.0450     2.4508
  200.5000    -9.8383     5.9094     6.9161     7.7310    38.4840     0.1108     0.0447     2.4689
  201.0000    -9.8422     5.9170     6.9084     7.7337    36.8725     0.1133     0.0443     2.4732
  201.5000    -9.8462     5.9245     6.9007     7.7366    39.0202     0.1206     0.0440     2.4630
  202.0000    -9.8501     5.9322     6.8929     7.7395    42.9367     0.1279     0.0420     2.4480
  202.5000    -9.8540     5.9404     6.8772     7.7423    46.8112     0.1353     0.0386     2.4330
  203.0000    -9.8580     5.9481     6.8486     7.7452    47.6862     0.1373     0.0352     2.4246
  203.5000    -9.8619     5.8252     6.8202     7.7481    48.1760     0.1393     0.0318     2.4227
  204.0000    -9.8658     5.6778     6.7919     7.7509    48.7604     0.1447     0.0283     2.4132
  204.5000    -9.8698     5.5342     6.7636     7.7538    49.8888     0.1497     0.0278     2.4009
  205.0000    -9.8737     5.3942     6.7355     7.7566    50.8591     0.1484     0.0279     2.3923
  205.5000    -9.8776     5.2707     6.7076     7.7595    50.1082     0.1469     0.0293     2.3961
  206.0000    -9.8815     5.2825     6.6797     7.7624    47.5166     0.1493     0.0298     2.3997
  206.5000    -9.8855     5.2956     6.6520     7.7652    44.9222     0.1525     0.0322     2.3960
  207.0000    -9.8894     5.3087     6.6243     7.7681    44.4122     0.1501     0.0356     2.3885
  207.5000    -9.8933     5.3196     6.5968     7.7698    46.9487     0.1474     0.0390     2.3963
  208.0000    -9.8973     5.2316     6.5694     7.7691    47.8808     0.1447     0.0424     2.3945
  208.5000    -9.9012     5.1573     6.5421     7.7684    45.0631     0.1443     0.0439     2.3996
  209.0000    -9.9051     5.0840     6.5150     7.7677    43.1000     0.1445     0.0439     2.4035
  209.5000    -9.9090     5.0120     6.4879     7.7670    42.6838     0.1415     0.0439     2.4051
  210.0000    -9.9130     4.9865     6.4609     7.7664    45.4248     0.1384     0.0439     2.4138
  210.5000    -9.9169     4.9868     6.4573     7.7657    47.6402     0.1357     0.0439     2.4175
  211.0000    -9.9208     4.9868     6.4573     7.7650    48.7112     0.1342     0.0439     2.4189
  211.5000    -9.9247     4.9867     6.4573     7.7643    47.4150     0.1319     0.0439     2.4231
  212.0000    -9.9287     4.9860     6.4573     7.7636    45.7550     0.1291     0.0439     2.4304
  212.5000    -9.9326     4.9843     6.4573     7.7629    46.3474     0.1273     0.0439     2.4366
  213.0000    -9.9365     5.0679     6.4573     7.7623    44.4870     0.1297     0.0439     2.4320
  213.5000    -9.9404     5.2165     6.4573     7.7616    39.2338     0.1313     0.0439     2.4288
  214.0000    -9.9444     5.3689     6.4573     7.7609    35.6390     0.1306     0.0439     2.4314
  214.5000    -9.9483     5.3018     6.4573     7.7602    36.7848     0.1285     0.0439     2.4349
  215.0000    -9.9522     5.2343     6.4573     7.7595    38.6991     0.1265     0.0427     2.4383
  215.5000    -9.9562     5.1680     6.4575     7.7589    40.6296     0.1244     0.0408     2.4419
  216.0000    -9.9601     5.1028     6.4573     7.7582    42.5814     0.1232     0.0388     2.4453
  216.5000    -9.9640     5.0385     6.4573     7.7575    43.0786     0.1268     0.0368     2.4443
  217.0000    -9.9679     4.9749     6.3038     7.7568    42.7534     0.1334     0.0349     2.4303
  217.5000    -9.9719     4.9121     6.1665     7.7561    42.4209     0.1400     0.0329     2.4193
  218.0000    -9.9758     4.8245     6.0322     7.7554    41.6818     0.1465     0.0318     2.4115
  218.5000    -9.9797     4.7293     5.9008     7.7548    40.7589     0.1483     0.0318     2.4037
  219.0000    -9.9837     4.6360     5.7723     7.7541    40.5123     0.1494     0.0323     2.3963
  219.5000    -9.9876     4.5445     5.6216     7.7534    41.8365     0.1505     0.0329     2.3946
  220.0000    -9.9915     4.4548     5.6227     7.7527    43.3195     0.1517     0.0335     2.3926
  220.5000    -9.9954     4.3669     5.6223     7.7520    44.7985     0.1474     0.0341     2.3949
  221.0000    -9.9994     4.3022     5.6207     7.7514    46.2917     0.1427     0.0347     2.4007
  221.5000   -10.0033     4.2627     5.6181     7.7510    46.9055     0.1420     0.0352     2.4065
  222.0000   -10.0072     4.2236     5.6154     7.7481    46.1230     0.1429     0.0358     2.4088
  222.5000   -10.0112     4.2399     5.6127     7.7310    42.9348     0.1425     0.0364     2.4088
  223.0000   -10.0151     4.2524     5.6100     7.7311    39.7726     0.1417     0.0369     2.4098
  223.5000   -10.0190     4.2650     5.6073     7.7317    39.6052     0.1446     0.0375     2.4120
  224.0000   -10.0229     4.2777     5.6046     7.7324    41.0916     0.1474     0.0381     2.4037
  224.5000   -10.0269     4.2905     5.6019     7.7331    42.5255     0.1449     0.0387     2.3977
  225.0000   -10.0308     4.3032     5.5992     7.7337    42.9880     0.1416     0.0393     2.4026
  225.5000   -10.0347     4.3161     5.5965     7.7344    43.3099     0.1384     0.0398     2.4087
  226.0000   -10.0386     4.3289     5.5939     7.7351    43.6281     0.1351     0.0379     2.4183
  226.5000   -10.0426     4.3418     5.5912     7.7358    43.7791     0.1317     0.0357     2.4277
  227.0000   -10.0465     4.3547     5.5885     7.7364    42.8753     0.1317     0.0335     2.4340
  227.5000   -10.0504     4.3677     5.5858     7.7371    42.4601     0.1324     0.0313     2.4307
  228.0000   -10.0544     4.3807     5.5831     7.7378    43.5161     0.1457     0.0291     2.4194
  228.5000   -10.0583     4.3938     5.5805     7.7384    43.6646     0.1450     0.0278     2.4080
  229.0000   -10.0622     4.4069     5.5778     7.7391    43.6236     0.1457     0.0278     2.4048
  229.5000   -10.0661     4.4233     5.5752     7.7398    43.5789     0.1485     0.0290     2.4000
  230.0000   -10.0701     4.4119     5.5725     7.7404    43.5291     0.1497     0.0308     2.3962
  230.5000   -10.0740     4.3825     5.5555     7.7411    43.3203     0.1507     0.0326     2.3949
  231.0000   -10.0779     4.3532     5.5165     7.7418    42.5226     0.1516     0.0344     2.3936
  231.5000   -10.0819     4.3240     5.4778     7.7424    43.6608     0.1518     0.0363     2.3924
  232.0000   -10.0858     4.2951     5.4393     7.7431    46.3857     0.1520     0.0379     2.3919
  232.5000   -10.0897     4.2664     5.4187     7.7438    45.6488     0.1521     0.0377     2.3924
  233.0000   -10.0936     4.2595     5.4187     7.7444    43.1580     0.1536     0.0375     2.3915
  233.5000   -10.0976     4.2558     5.4187     7.7451    40.0095     0.1563     0.0374     2.3831
  234.0000   -10.1012     4.2521     5.4187     7.7458    38.8713     0.1586     0.0372     2.3749
  234.5000   -10.1042     4.2484     5.4187     7.7464    39.7480     0.1590     0.0370     2.3755
  235.0000   -10.1073     4.2447     5.4187     7.7471    40.6380     0.1568     0.0369     2.3798
