~VERSION INFORMATION
 VERS.                2.0:   CWLS LOG ASCII STANDARD - VERSION 2.0
 WRAP.                 NO:   ONE LINE PER DEPTH STEP
~WELL INFORMATION
#MNEM.UNIT      DATA TYPE    INFORMATION
#----------   ------------   ------------------------------
 STRT.F            6.0000:   START DEPTH
 STOP.F          458.0000:   STOP DEPTH
 STEP.F            0.5000:   STEP LENGTH
 NULL.          -999.2500:   NO VALUE
 COMP. BROWN JOHN E&C INC:   COMPANY
 WELL.   73-61 X10 #61-10:   WELL
 FLD .             TEAPOT:   FIELD
 LOC .      S10 T38N R78W:   LOCATION
 CNTY.            NATRONA:   COUNTY
 STAT.            WYOMING:   STATE
 CTRY. UNITED STATES OF AMERICA:   COUNTRY
 SRVC.           Gearhart:   SERVICE COMPANY
 DATE.        12-JUN-1987:   LOGDATE
 API .       490251113200:   API NUMBER
~CURVE INFORMATION
#MNEM.UNIT       API CODE    CURVE DESCRIPTION
#----------   ------------   ------------------------------
 DEPT.F                  :   
 GRR .GAPI   07 310 01 00:   GAMMA RAY FROM RES. LOG.
 RILD.OHMM   07 120 46 00:   INDUCTION LOG DEEP RESISTIVITY
 RILM.OHMM   07 120 44 00:   INDUCTION LOG MEDIUM RESISTIVITY
~PARAMETER INFORMATION
#MNEM.UNIT          VALUE    DESCRIPTION
#----------   ------------   ------------------------------
 PD  .                 GL:   PERMANENT DATUM
 EPD .F              5170:   ELEVATION PERMANENT DATUM
 LMF .                 KB:   LOG MEASURED FROM
 DAPD.F                 8:   FEET ABOVE PERMANENT DATUM
 DMF .                 KB:   DRILLING MEASURED FROM
 EKB .F              5178:   KELLING BUSHING
 EDF .F              5176:   DRILLING FLOOR
 EGL .F              5170:   GROUND LEVEL
 DATE.            6-12-87:   RUN DATE
 RUN .                  1:   RUN NUMBER
 DD  .F               560:   DEPTH DRILLER
 DL  .F               466:   DEPTH LOGGER
 BLI .F               463:   BOTTOM LOG INTERVAL
 TLI .F                46:   TOP LOG INTERVAL
 CS  .IN            8.625:   CASING SIZE
 CBD .F                50:   CASING BOTTOM DRILLER
 CBL .F                46:   CASING BOTTOM LOGGER
 BS  .IN             7.87:   BIT SIZE
 BSD .F               560:   BIT SIZE AT DEPTH
 DFT .               FOAM:   DRILLING FLUID TYPE
 TCS .HRS            0645:   TIME CURCULATED STOPPED
 TLAB.HRS            0845:   TIME LOGGER AT BOTTOM
 LUN .               7597:   LOGGING UNIT NUMBER
 LUL .           GILLETTE:   LOGGING UNIT LOCATION
 ENGI.           JOHNSTON:   RECORDING ENGINEER
 WITN.             STRONG:   WITNESSED BY
 CLNT.            A2DTECH:   CLIENT CODE
 ORIG.       2", 5" PRINT:   ORIGIN OF DATA
 UWI .       490251113200:   UNIQUE WELL ID
 DICO. A2D Technologies, Inc.:   DIGITIZING COMPANY
~OTHER INFORMATION
~A    DEPT      GRR      RILD       RILM   
    6.0000    13.6179  -999.2500  -999.2500
    6.5000    17.5180  -999.2500  -999.2500
    7.0000    26.6075  -999.2500  -999.2500
    7.5000    35.4784  -999.2500  -999.2500
    8.0000    45.4977  -999.2500  -999.2500
    8.5000    53.9590  -999.2500  -999.2500
    9.0000    62.2076  -999.2500  -999.2500
    9.5000    70.4678  -999.2500  -999.2500
   10.0000    78.7122  -999.2500  -999.2500
   10.5000    87.0121  -999.2500  -999.2500
   11.0000    90.2839  -999.2500  -999.2500
   11.5000    89.3338  -999.2500  -999.2500
   12.0000    86.9441  -999.2500  -999.2500
   12.5000    84.7789  -999.2500  -999.2500
   13.0000    85.0452  -999.2500  -999.2500
   13.5000    85.1226  -999.2500  -999.2500
   14.0000    84.3776  -999.2500  -999.2500
   14.5000    84.9409  -999.2500  -999.2500
   15.0000    87.1258  -999.2500  -999.2500
   15.5000    89.3244  -999.2500  -999.2500
   16.0000    90.0916  -999.2500  -999.2500
   16.5000    87.8423  -999.2500  -999.2500
   17.0000    85.2311  -999.2500  -999.2500
   17.5000    84.3655  -999.2500  -999.2500
   18.0000    84.8270  -999.2500  -999.2500
   18.5000    87.1346  -999.2500  -999.2500
   19.0000    89.1659  -999.2500  -999.2500
   19.5000    89.2277  -999.2500  -999.2500
   20.0000    88.5540  -999.2500  -999.2500
   20.5000    86.9724  -999.2500  -999.2500
   21.0000    85.4349  -999.2500  -999.2500
   21.5000    84.8808  -999.2500  -999.2500
   22.0000    85.6984  -999.2500  -999.2500
   22.5000    85.8081  -999.2500  -999.2500
   23.0000    85.5764  -999.2500  -999.2500
   23.5000    85.6676  -999.2500  -999.2500
   24.0000    86.1906  -999.2500  -999.2500
   24.5000    86.7159  -999.2500  -999.2500
   25.0000    86.2486  -999.2500  -999.2500
   25.5000    84.7236  -999.2500  -999.2500
   26.0000    82.6915  -999.2500  -999.2500
   26.5000    80.6492  -999.2500  -999.2500
   27.0000    81.0765  -999.2500  -999.2500
   27.5000    85.4010  -999.2500  -999.2500
   28.0000    88.9049  -999.2500  -999.2500
   28.5000    88.7665  -999.2500  -999.2500
   29.0000    88.5852  -999.2500  -999.2500
   29.5000    88.4128  -999.2500  -999.2500
   30.0000    87.9454  -999.2500  -999.2500
   30.5000    86.7191  -999.2500  -999.2500
   31.0000    85.5122  -999.2500  -999.2500
   31.5000    84.6504  -999.2500  -999.2500
   32.0000    84.4020  -999.2500  -999.2500
   32.5000    84.2659  -999.2500  -999.2500
   33.0000    84.1590  -999.2500  -999.2500
   33.5000    84.0515  -999.2500  -999.2500
   34.0000    83.9478  -999.2500  -999.2500
   34.5000    83.9379  -999.2500  -999.2500
   35.0000    84.5231  -999.2500  -999.2500
   35.5000    85.5413  -999.2500  -999.2500
   36.0000    85.7725  -999.2500  -999.2500
   36.5000    85.1469  -999.2500  -999.2500
   37.0000    83.9398  -999.2500  -999.2500
   37.5000    82.7680  -999.2500  -999.2500
   38.0000    83.3694  -999.2500  -999.2500
   38.5000    87.5850  -999.2500  -999.2500
   39.0000    90.9274  -999.2500  -999.2500
   39.5000    90.6940  -999.2500  -999.2500
   40.0000    89.5497  -999.2500  -999.2500
   40.5000    88.4046  -999.2500  -999.2500
   41.0000    87.2239  -999.2500  -999.2500
   41.5000    85.6021  -999.2500  -999.2500
   42.0000    82.4874  -999.2500  -999.2500
   42.5000    78.7801  -999.2500  -999.2500
   43.0000    75.3862  -999.2500  -999.2500
   43.5000    73.2947  -999.2500  -999.2500
   44.0000    71.6949  -999.2500  -999.2500
   44.5000    71.7357  -999.2500  -999.2500
   45.0000    71.9110  -999.2500  -999.2500
   45.5000    73.3393  -999.2500  -999.2500
   46.0000    76.0759    77.2141  -999.2500
   46.5000    78.7330    28.2705   149.6837
   47.0000    78.6753     7.1486    45.4875
   47.5000    78.7321     3.1961    11.8483
   48.0000    74.8509     1.8154     4.2976
   48.5000    69.5300     1.7815     1.9510
   49.0000    66.5230     1.8838     1.5238
   49.5000    69.1251     2.0142     1.5338
   50.0000    78.2460     2.0023     1.5257
   50.5000    85.3168     1.9253     1.5354
   51.0000    86.6293     1.7815     1.5463
   51.5000    88.0947     1.7647     1.6202
   52.0000    88.0086     1.7984     1.6353
   52.5000    85.2214     1.8782     1.6506
   53.0000    81.9777     1.9694     1.6663
   53.5000    81.8158     2.0651     1.6832
   54.0000    83.3541     2.1654     1.7207
   54.5000    84.7992     2.2870     1.7620
   55.0000    85.2267     2.4308     1.8043
   55.5000    85.9702     2.5836     1.8460
   56.0000    87.3067     2.7460     1.8864
   56.5000    87.2494     2.9340     1.9373
   57.0000    86.7781     3.1652     2.0474
   57.5000    86.3051     3.4147     2.1643
   58.0000    86.2104     3.7034     2.3170
   58.5000    86.9667     4.0537     2.4917
   59.0000    87.6072     4.4373     2.6791
   59.5000    86.8042     4.8571     2.9016
   60.0000    84.3551     5.3166     3.1809
   60.5000    82.6951     5.8196     3.4869
   61.0000    82.9303     6.3770     3.8492
   61.5000    84.4346     6.7617     4.3796
   62.0000    84.4964     7.1221     4.9831
   62.5000    84.1756     7.4176     5.6698
   63.0000    84.4908     7.3622     6.2795
   63.5000    86.5718     7.3073     6.8319
   64.0000    90.6241     7.2528     6.9429
   64.5000    96.9262     7.2103     6.6723
   65.0000   102.0669     7.1584     6.4568
   65.5000   104.8598     7.1076     6.3147
   66.0000   107.7023     7.0573     6.2157
   66.5000   110.5368     7.0088     6.1989
   67.0000   113.4148     7.0413     6.3581
   67.5000   115.4361     7.0929     6.4376
   68.0000   117.3223     7.1425     6.6527
   68.5000   117.7116     7.3050     6.8664
   69.0000   116.4468     7.4642     7.0869
   69.5000   114.8444     7.6268     7.2803
   70.0000   113.2349     7.7930     7.4367
   70.5000   111.9231     7.9352     7.5964
   71.0000   110.6183     8.0656     7.7597
   71.5000   109.4323     8.1982     7.9265
   72.0000   108.8970     8.3329     8.1533
   72.5000   108.3165     8.4699     8.1517
   73.0000   107.0040     8.6091     8.3084
   73.5000   104.9040     8.7234     8.4324
   74.0000   102.6918     8.7713     8.5467
   74.5000   104.5489     8.8194     8.5467
   75.0000   107.7227     8.8678     8.5031
   75.5000   110.8846     8.9164     8.4664
   76.0000   112.6668     8.9601     8.4664
   76.5000   111.7505     8.8906     8.6278
   77.0000   110.8860     8.8284     8.6278
   77.5000   110.3836     8.7666     8.7097
   78.0000   111.7130     8.7052     8.5005
   78.5000   115.1144     8.6443     8.3451
   79.0000   114.0965     8.5114     8.1926
   79.5000   111.6110     8.3543     7.9888
   80.0000   110.7645     8.2001     7.7708
   80.5000   110.3460     8.0488     7.6039
   81.0000   110.8768     7.9002     7.5259
   81.5000   112.4412     7.7578     7.4487
   82.0000   116.1168     7.6426     7.3723
   82.5000   120.6566     7.5279     7.2967
   83.0000   124.3675     7.4153     7.1963
   83.5000   124.1207     7.2787     7.0893
   84.0000   121.7750     7.2953     6.9839
   84.5000   119.4759     7.3170     6.8776
   85.0000   117.1849     7.3387     6.8776
   85.5000   114.8945     7.3605     6.8776
   86.0000   113.2836     7.3823     6.8776
   86.5000   112.9520     7.4043     6.8776
   87.0000   113.9546     7.4573     6.8776
   87.5000   115.1029     7.5590     6.9581
   88.0000   114.5145     7.6624     7.0602
   88.5000   114.3013     7.8265     7.1581
   89.0000   114.8915     8.0361     7.2326
   89.5000   114.0113     8.2103     7.3915
   90.0000   111.2807     8.3788     7.6681
   90.5000   108.5718     8.5467     7.9567
   91.0000   107.0608     8.6125     8.2556
   91.5000   108.7398     8.6772     8.3899
   92.0000   110.6065     8.7424     8.4900
   92.5000   112.0289     8.7924     8.5912
   93.0000   111.5310     8.8931     8.7097
   93.5000   110.8560     8.9601     8.6771
   94.0000   110.1732     8.9289     8.6386
   94.5000   110.2010     8.9070     8.6003
   95.0000   111.2598     8.8853     8.5621
   95.5000   112.4168     8.8637     8.5241
   96.0000   114.1732     8.8422     8.4863
   96.5000   115.8733     8.8207     8.4664
