~VERSION INFORMATION
 VERS.                2.0:   CWLS LOG ASCII STANDARD - VERSION 2.0
 WRAP.                 NO:   ONE LINE PER DEPTH STEP
~WELL INFORMATION
#MNEM.UNIT      DATA TYPE    INFORMATION
#----------   ------------   ------------------------------
 STRT.F           23.0000:   START DEPTH
 STOP.F         1106.0000:   STOP DEPTH
 STEP.F            0.5000:   STEP LENGTH
 NULL.          -999.2500:   NO VALUE
 COMP. FENIX & SCISSON INC:   COMPANY
 WELL.       NPR-3 #67-11:   WELL
 FLD . TEAPOT DOME NPR #3:   FIELD
 LOC .      S11 T38N R78W:   LOCATION
 CNTY.            NATRONA:   COUNTY
 STAT.            WYOMING:   STATE
 CTRY. UNITED STATES OF AMERICA:   COUNTRY
 SRVC.            Unknown:   SERVICE COMPANY
 DATE.        06-MAR-1978:   LOGDATE
 API .       490251059100:   API NUMBER
~CURVE INFORMATION
#MNEM.UNIT       API CODE    CURVE DESCRIPTION
#----------   ------------   ------------------------------
 DEPT.F                  :   
 ILD .OHMM   05 120 46 00:   INDUCTION LOG DEEP
 SN  .OHMM   05 040 16 00:   SHORT NORMAL 16"
 SPR .MV     05 010 01 00:   SPONTANEOUS POTENTIAL FROM RES.
 CALD.IN     45 280 60 00:   CALIPER
 GRD .GAPI   45 310 01 00:   GAMMA RAY FROM DENSITY LOG
 CORR.G/C3   45 356 01 00:   DENSITY CORRECTION
 DPHI.DEC    45 890 12 00:   DENSITY POROSITY SANDSTONE
 RHOB.G/C3   45 350 01 00:   BULK DENSITY
~PARAMETER INFORMATION
#MNEM.UNIT          VALUE    DESCRIPTION
#----------   ------------   ------------------------------
 PD  .                 GL:   PERMANENT DATUM
 EPD .F              5243:   ELEVATION PERMANENT DATUM
 LMF .                 KB:   LOG MEASURED FROM
 DAPD.F                 4:   FEET ABOVE PERMANENT DATUM
 DMF .                 KB:   DRILLING MEASURED FROM
 EKB .F              5247:   KELLING BUSHING
 EGL .F              5243:   GROUND LEVEL
 DATE.           3-6-1978:   RUN DATE
 RUN .                  1:   RUN NUMBER
 DD  .F              1104:   DEPTH DRILLER
 DL  .F              1108:   DEPTH LOGGER
 BLI .F              1102:   BOTTOM LOG INTERVAL
 TLI .F                40:   TOP LOG INTERVAL
 CS  .IN            8.625:   CASING SIZE
 CBD .F                40:   CASING BOTTOM DRILLER
 CBL .F                40:   CASING BOTTOM LOGGER
 BS  .IN            7.875:   BIT SIZE
 BSD .F              1104:   BIT SIZE AT DEPTH
 DFT .         LIGNO/SULF:   DRILLING FLUID TYPE
 DFD .                8.6:   DRILLING FLUID DENSITY
 DFV .                 31:   DRILLING FLUID VISCOSITY
 DFL .                  8:   DRILLING FLUID LOSS
 MSS .            MUD PIT:   MUD SAMPLE SOURCE
 RMS .OHMM              2:   RESISTIVITY MUD SAMPLE
 MST .F                58:   MUD SAMPLE TEMPERATURE
 RMF .OHMM            1.2:   RESISTIVITY MUD FILTRATE SAMPLE
 MFST.F                64:   MUD FILTRATE SAMPLE TEMPERATURE
 RMC .OHMM              3:   RESISTIVITY MUD CAKE
 MCST.F                64:   MUD CAKE SAMPLE TEMPERATURE
 MFSS.               MEAS:   MUD FILTRATE SAMPLE SOURCE
 RMB .OHMM            1.5:   RESISTIVITY MUD AT BHT
 BHT .F                78:   BOTTOM HOLE TEMPERATURE
 TCS .HRS               4:   TIME CURCULATED STOPPED
 MRT .F                78:   MAXIMUM RECORDED TEMPERATURE
 LUN .               2959:   LOGGING UNIT NUMBER
 LUL .               CASP:   LOGGING UNIT LOCATION
 ENGI.             MILLER:   RECORDING ENGINEER
 WITN.           MCGINLEY:   WITNESSED BY
 CLNT.            A2DTECH:   CLIENT CODE
 ORIG.       2", 5" PRINT:   ORIGIN OF DATA
 UWI .       490251059100:   UNIQUE WELL ID
 DICO. A2D Technologies, Inc.:   DIGITIZING COMPANY
~OTHER INFORMATION
~A   DEPT      ILD         SN        SPR       CALD         GRD      CORR       DPHI       RHOB   
# ...
  144.5000     6.0915     6.8451   -24.7358     7.8694    87.5023     0.0322     0.1381     2.4370
  145.0000     5.9546     6.7934   -24.6805     7.8674    86.5664     0.0330     0.1383     2.4378
  145.5000     5.8537     6.7059   -24.8158     7.8654    84.9849     0.0337     0.1338     2.4346
  146.0000     5.7435     6.4350   -25.7265     7.8635    83.1295     0.0345     0.1376     2.4384
  146.5000     5.6401     6.0740   -26.2374     7.8615    81.1286     0.0356     0.1405     2.4410
  147.0000     5.5385     6.0182   -26.3587     7.8595    80.8910     0.0382     0.1403     2.4316
  147.5000     5.4372     6.0182   -26.4796     7.8575    82.1896     0.0408     0.1460     2.4311
  148.0000     5.3889     6.0012   -26.5521     7.8555    82.9506     0.0431     0.1502     2.4281
  148.5000     5.3366     5.9794   -26.4036     7.8535    81.1747     0.0427     0.1459     2.4185
  149.0000     5.3540     5.9577   -26.3941     7.8515    80.4021     0.0424     0.1458     2.4195
  149.5000     5.3777     5.9359   -26.4333     7.8495    83.3953     0.0422     0.1486     2.4223
  150.0000     5.4011     5.9081   -26.4776     7.8475    88.6629     0.0419     0.1522     2.4183
  150.5000     5.4247     5.9168   -26.5203     7.8455    89.1266     0.0417     0.1548     2.4136
  151.0000     5.4367     5.9300   -26.5583     7.8435    89.7859     0.0414     0.1512     2.4087
  151.5000     5.3606     5.9432   -26.5975     7.8415    90.2559     0.0412     0.1474     2.4105
  152.0000     5.3023     5.9634   -25.8448     7.8395    88.2430     0.0410     0.1442     2.4206
  152.5000     5.2446     5.9387   -25.5348     7.8375    87.7553     0.0405     0.1453     2.4297
  153.0000     5.1913     5.8481   -25.8912     7.8355    88.0519     0.0400     0.1453     2.4217
  153.5000     5.1968     5.7587   -26.1771     7.8335    87.2312     0.0395     0.1390     2.4276
  154.0000     5.2033     5.6405   -26.3456     7.8315    85.9974     0.0389     0.1401     2.4316
  154.5000     5.2097     5.6418   -26.1967     7.8295    85.5339     0.0342     0.1416     2.4307
  155.0000     5.2162     5.6257   -26.1955     7.8275    85.6087     0.0331     0.1432     2.4310
  155.5000     5.2227     5.6136   -26.1952     7.8255    85.7386     0.0332     0.1447     2.4314
  156.0000     5.2291     5.6014   -26.1981     7.8235    84.4513     0.0334     0.1463     2.4262
  156.5000     5.2355     5.5897   -26.1125     7.8215    83.2572     0.0336     0.1478     2.4216
  157.0000     5.2394     5.5894   -26.0137     7.8195    83.1573     0.0338     0.1494     2.4207
  157.5000     5.2127     5.5894   -26.0016     7.8175    84.4367     0.0340     0.1509     2.4167
  158.0000     5.1694     5.5890   -25.7961     7.8155    87.0397     0.0342     0.1525     2.4125
  158.5000     5.1264     5.5894   -25.6387     7.8135    88.8868     0.0344     0.1542     2.4111
  159.0000     5.0837     5.5276   -25.8963     7.8116    87.8151     0.0345     0.1558     2.4102
  159.5000     5.0415     5.4509   -26.1449     7.8095    85.9259     0.0347     0.1574     2.4089
  160.0000     4.9996     5.3752   -26.0218     7.8076    84.7545     0.0349     0.1520     2.4043
  160.5000     4.9569     5.3006   -25.0146     7.8056    85.4937     0.0349     0.1447     2.3997
  161.0000     4.9909     5.2394   -24.8087     7.8036    88.5946     0.0348     0.1426     2.4006
  161.5000     5.0351     5.2504   -25.3788     7.8016    90.6729     0.0347     0.1449     2.4018
  162.0000     5.0798     5.2806   -26.3710     7.7996    90.5784     0.0346     0.1471     2.4030
  162.5000     5.1248     5.4109   -26.0809     7.7976    90.4248     0.0345     0.1493     2.4076
  163.0000     5.1700     5.5740   -26.3024     7.7956    90.0456     0.0344     0.1514     2.4152
  163.5000     5.1909     5.7421   -25.9570     7.7936    88.6676     0.0343     0.1536     2.4172
  164.0000     5.1913     5.9628   -25.1754     7.7916    83.5620     0.0342     0.1558     2.4090
  164.5000     5.3881     5.9467   -25.1445     7.7896    78.8041     0.0341     0.1561     2.4038
  165.0000     5.5674     5.9246   -26.1602     7.7876    78.6557     0.0340     0.1547     2.4049
  165.5000     5.6937     5.9025   -26.0093     7.7856    81.7871     0.0338     0.1527     2.4058
  166.0000     5.5758     5.8806   -25.7327     7.7836    85.9576     0.0337     0.1472     2.4069
  166.5000     5.4879     5.8588   -25.6963     7.7816    85.9390     0.0336     0.1427     2.4247
  167.0000     5.4014     5.8373   -25.3550     7.7796    85.4612     0.0335     0.1470     2.4264
  167.5000     5.3162     5.8160   -24.4450     7.7784    84.9095     0.0334     0.1474     2.4228
  168.0000     5.2394     5.7652   -24.2440     7.7777    84.3553     0.0333     0.1478     2.4190
  168.5000     5.2338     5.6425   -24.2833     7.7769    83.7950     0.0332     0.1529     2.4154
  169.0000     5.2255     5.5223   -24.3335     7.7762    84.0508     0.0331     0.1550     2.4117
  169.5000     5.2172     5.4361   -24.3971     7.7755    84.4346     0.0330     0.1577     2.4080
  170.0000     5.2090     5.4361   -24.6784     7.7747    84.7337     0.0330     0.1577     2.4042
  170.5000     5.2016     5.4820   -25.4887     7.7740    84.6816     0.0339     0.1530     2.4045
  171.0000     5.1913     5.5133   -24.8624     7.7733    83.7936     0.0393     0.1575     2.4062
  171.5000     5.2394     5.5886   -25.5327     7.7725    82.9083     0.0446     0.1598     2.4047
  172.0000     5.4093     5.7799   -26.1889     7.7718    82.0286     0.0519     0.1536     2.4028
  172.5000     5.5774     5.9628   -26.0715     7.7711    81.1495     0.0691     0.1440     2.4160
  173.0000     5.6664     5.9718   -25.9709     7.7703    80.2700     0.0932     0.1362     2.4298
  173.5000     5.7066     5.9930   -25.8783     7.7696    79.3913     0.1064     0.1362     2.4432
  174.0000     5.7465     6.0142   -25.9639     7.7689    78.9471     0.0993     0.1455     2.4431
  174.5000     5.7228     6.0182   -26.7743     7.7681    79.7057     0.0555     0.1530     2.4260
  175.0000     5.6937     5.9984   -26.7297     7.7674    81.8744     0.0282     0.1534     2.4090
  175.5000     5.6647     5.9787   -26.6384     7.7667    86.0884     0.0274     0.1474     2.4117
  176.0000     5.6097     5.9260   -25.9978     7.7659    86.5625     0.0291     0.1509     2.4160
  176.5000     5.4455     5.7348   -25.3672     7.7652    84.1429     0.0310     0.1606     2.4183
  177.0000     5.2859     5.5925   -26.3660     7.7645    82.3179     0.0328     0.1618     2.4115
  177.5000     5.1309     5.4656   -26.3674     7.7637    81.7239     0.0346     0.1618     2.4044
  178.0000     5.0599     5.3405   -26.3253     7.7630    78.9659     0.0396     0.1597     2.3977
  178.5000     5.0141     5.2383   -26.2894     7.7622    76.0772     0.0453     0.1561     2.3988
  179.0000     4.9683     5.2515   -26.2542     7.7615    75.7234     0.0510     0.1523     2.4021
  179.5000     4.9229     5.2652   -26.2168     7.7608    76.1145     0.0566     0.1470     2.4059
  180.0000     4.8662     5.2785   -26.1445     7.7600    76.9076     0.0623     0.1418     2.4194
  180.5000     4.9096     5.3143   -26.0115     7.7593    79.4371     0.0681     0.1390     2.4334
  181.0000     4.9838     5.5364   -26.1270     7.7590    81.9808     0.0673     0.1378     2.4378
  181.5000     5.0875     5.7523   -26.2446     7.7590    83.1910     0.0653     0.1337     2.4369
  182.0000     5.1928     6.0182   -26.3611     7.7590    82.2943     0.0685     0.1316     2.4403
  182.5000     5.2878     6.0340   -26.4777     7.7590    81.5560     0.0705     0.1307     2.4492
  183.0000     5.3424     6.0514   -26.5946     7.7590    85.3700     0.0695     0.1298     2.4501
  183.5000     5.4206     6.0687   -26.7117     7.7590    86.5131     0.0620     0.1379     2.4383
  184.0000     5.4999     6.0862   -26.7853     7.7590    86.5317     0.0511     0.1486     2.4263
  184.5000     5.5802     6.1037   -26.5285     7.7590    86.3873     0.0431     0.1445     2.4201
