~VERSION INFORMATION
 VERS.                2.0:   CWLS LOG ASCII STANDARD - VERSION 2.0
 WRAP.                 NO:   ONE LINE PER DEPTH STEP
~WELL INFORMATION
#MNEM.UNIT      DATA TYPE    INFORMATION
#----------   ------------   ------------------------------
 STRT.F            0.0000:   START DEPTH
 STOP.F         1110.0000:   STOP DEPTH
 STEP.F            0.5000:   STEP LENGTH
 NULL.          -999.2500:   NO VALUE
 COMP. FENIX & SCISSON INC:   COMPANY
 WELL. NAVAL PETROLEUM RESERVE 3 SX-1 #63-14:   WELL
 FLD .       TEA POT DOME:   FIELD
 LOC .      S14 T38N R78W:   LOCATION
 CNTY.            NATRONA:   COUNTY
 STAT.            WYOMING:   STATE
 CTRY. UNITED STATES OF AMERICA:   COUNTRY
 SRVC.            Unknown:   SERVICE COMPANY
 DATE.        15-APR-1978:   LOGDATE
 API .       490251061500:   API NUMBER
~CURVE INFORMATION
#MNEM.UNIT       API CODE    CURVE DESCRIPTION
#----------   ------------   ------------------------------
 DEPT.F                  :   
 NPHI.DEC    42 890 03 00:   NEUTRON POROSITY SANDSTONE
 GRD .GAPI   45 310 01 00:   GAMMA RAY FROM DENSITY LOG
 CALD.IN     45 280 60 00:   CALIPER FROM DENSITY LOG
 RHOB.G/C3   45 350 01 00:   BULK DENSITY
 DPHI.DEC    45 890 12 00:   DENSITY POROSITY SANDSTONE
 CORR.G/C3   45 356 01 00:   DENSITY CORRECTION
 SPR .MV     05 010 01 00:   SPONTANEOUS POTENTIAL FROM RES.
 SN  .OHMM   05 040 16 00:   SHORT NORMAL 16"
 ILD .OHMM   05 120 46 00:   INDUCTION LOG DEEP
~PARAMETER INFORMATION
#MNEM.UNIT          VALUE    DESCRIPTION
#----------   ------------   ------------------------------
 PD  .                 GL:   PERMANENT DATUM
 EPD .F              5253:   ELEVATION PERMANENT DATUM
 LMF .                 KB:   LOG MEASURED FROM
 DAPD.F                 4:   FEET ABOVE PERMANENT DATUM
 DMF .                 KB:   DRILLING MEASURED FROM
 EKB .F              5257:   KELLING BUSHING
 EGL .F              5253:   GROUND LEVEL
 DATE.          4-15-1978:   RUN DATE
 RUN .                  1:   RUN NUMBER
 DD  .F              1095:   DEPTH DRILLER
 DL  .F              1102:   DEPTH LOGGER
 BLI .F              1100:   BOTTOM LOG INTERVAL
 TLI .F               850:   TOP LOG INTERVAL
 CS  .IN            9.625:   CASING SIZE
 CBD .F                40:   CASING BOTTOM DRILLER
 CBL .F                40:   CASING BOTTOM LOGGER
 BS  .IN            7.875:   BIT SIZE
 BSD .F              1095:   BIT SIZE AT DEPTH
 DFT .                KCL:   DRILLING FLUID TYPE
 DFD .                8.6:   DRILLING FLUID DENSITY
 DFV .                 30:   DRILLING FLUID VISCOSITY
 DFPH.                 10:   DRILLING FLUID PH
 DFL .                  8:   DRILLING FLUID LOSS
 MSS .           FLOWLINE:   MUD SAMPLE SOURCE
 RMS .OHMM            .46:   RESISTIVITY MUD SAMPLE
 MST .F                58:   MUD SAMPLE TEMPERATURE
 RMF .OHMM             .5:   RESISTIVITY MUD FILTRATE SAMPLE
 MFST.F                60:   MUD FILTRATE SAMPLE TEMPERATURE
 RMC .OHMM             .5:   RESISTIVITY MUD CAKE
 MCST.F                60:   MUD CAKE SAMPLE TEMPERATURE
 MFSS.           MEASURED:   MUD FILTRATE SAMPLE SOURCE
 RMB .OHMM            .33:   RESISTIVITY MUD AT BHT
 BHT .F                80:   BOTTOM HOLE TEMPERATURE
 TCS .HRS               6:   TIME CURCULATED STOPPED
 MRT .F                80:   MAXIMUM RECORDED TEMPERATURE
 LUN .               2958:   LOGGING UNIT NUMBER
 LUL .               CASP:   LOGGING UNIT LOCATION
 ENGI.             MILLER:   RECORDING ENGINEER
 WITN.           MCGINLEY:   WITNESSED BY
 CLNT.            A2DTECH:   CLIENT CODE
 ORIG.      2" & 5" PRINT:   ORIGIN OF DATA
 UWI .       490251061500:   UNIQUE WELL ID
 DICO. A2D Technologies, Inc.:   DIGITIZING COMPANY
~OTHER INFORMATION
~A    DEPT    NPHI         GRD      CALD       RHOB       DPHI       CORR        SPR         SN        ILD   
# ...
  912.5000     0.1570    65.6074     8.3147     2.4305     0.1267     0.1503   -41.8164    10.9820    11.8858
  913.0000     0.1617    68.8848     8.2082     2.4064     0.1375     0.1509   -41.8164    10.9548    11.9011
  913.5000     0.1681    69.7646     8.0981     2.3890     0.1450     0.1312   -41.8164    10.9311    11.9191
  914.0000     0.1745    69.2079     8.0234     2.3780     0.1495     0.1117   -41.8164    10.9115    11.9370
  914.5000     0.1781    70.0662     7.9675     2.3762     0.1504     0.1017   -41.8164    10.8919    11.9550
  915.0000     0.1766    71.1735     7.8896     2.3742     0.1514     0.1006   -41.8164    10.8723    11.9731
  915.5000     0.1751    71.5452     7.7821     2.3685     0.1546     0.1005   -41.8164    10.8528    11.9955
  916.0000     0.1751    69.5906     7.6756     2.3492     0.1642     0.0937   -41.8164    10.8333    11.9863
  916.5000     0.1762    66.8353     7.5939     2.3358     0.1729     0.0793   -41.8164    10.8139    11.9736
  917.0000     0.1762    64.1416     7.5781     2.3366     0.1721     0.0652   -41.8164    10.7945    11.9608
  917.5000     0.1745    63.4919     7.5598     2.3340     0.1725     0.0568   -41.8164    10.7752    11.9480
  918.0000     0.1687    63.3236     7.4853     2.3337     0.1753     0.0480   -41.8164    10.7560    11.9352
  918.5000     0.1638    63.1810     7.4032     2.3404     0.1769     0.0413   -41.8164    10.7399    11.9224
  919.0000     0.1604    63.6537     7.3614     2.3456     0.1716     0.0488   -41.8164    10.6897    11.9097
  919.5000     0.1594    66.9137     7.3230     2.3507     0.1663     0.0560   -41.8164    10.6399    11.8970
  920.0000     0.1596    72.1727     7.3597     2.3530     0.1659     0.0609   -41.8164    10.5903    11.8843
  920.5000     0.1604    74.8930     7.3981     2.3533     0.1664     0.0615   -41.8164    10.5410    11.8715
  921.0000     0.1618    74.3426     7.3645     2.3535     0.1661     0.0622   -41.8164    10.4919    11.8589
  921.5000     0.1633    72.3027     7.3281     2.3537     0.1672     0.0630   -41.8164    10.4430    11.8462
  922.0000     0.1613    69.7864     7.2742     2.3573     0.1659     0.0636   -41.8164    10.3944    11.8335
  922.5000     0.1592    65.1087     7.2626     2.3615     0.1630     0.0644   -41.8164    10.3521    11.8209
  923.0000     0.1570    61.7535     7.3140     2.3658     0.1601     0.0651   -41.8164    10.3302    11.8083
  923.5000     0.1549    60.9073     7.3597     2.3700     0.1572     0.0658   -41.8164    10.3067    11.7956
  924.0000     0.1527    63.9986     7.3366     2.3739     0.1543     0.0665   -41.8164    10.2832    11.7830
  924.5000     0.1506    69.5433     7.2330     2.3717     0.1516     0.0672   -41.8164    10.2598    11.7704
  925.0000     0.1464    75.0088     7.1313     2.3691     0.1546     0.0679   -41.8164    10.2365    11.7578
  925.5000     0.1424    79.1321     7.0318     2.3668     0.1573     0.0686   -41.8164    10.2134    11.7453
  926.0000     0.1394    79.2602     6.9682     2.3668     0.1600     0.0693   -41.8164    10.1900    11.7327
  926.5000     0.1364    77.1917     6.9935     2.3689     0.1601     0.0700   -41.8163    10.1632    11.7202
  927.0000     0.1334    75.7710     7.0165     2.3718     0.1578     0.0707   -41.8158    10.2311    11.7077
  927.5000     0.1304    75.5996     7.0431     2.3746     0.1555     0.0714   -41.8180    10.3122    11.6953
  928.0000     0.1288    75.3305     7.1512     2.3781     0.1528     0.0721   -41.9010    10.3939    11.6828
  928.5000     0.1282    74.1594     7.3569     2.3861     0.1457     0.0720   -41.9899    10.4763    11.6689
  929.0000     0.1285    73.8431     7.6251     2.4057     0.1385     0.0705   -42.0786    10.5593    11.8012
  929.5000     0.1291    74.1635     7.8671     2.4225     0.1313     0.0690   -42.1672    10.6429    11.9921
  930.0000     0.1308    76.9472     7.9918     2.4335     0.1241     0.0675   -42.2558    10.7273    12.1862
  930.5000     0.1346    80.1906     8.0536     2.4401     0.1192     0.0660   -42.3444    10.8123    12.3834
  931.0000     0.1395    80.3596     8.0530     2.4388     0.1174     0.0646   -42.4330    10.8979    12.5837
  931.5000     0.1460    77.8516     8.0470     2.4294     0.1239     0.0659   -42.5216    10.9843    12.7874
  932.0000     0.1579    75.0160     8.0413     2.4088     0.1317     0.0691   -42.6103    11.0713    12.9131
  932.5000     0.1677    73.0345     8.0538     2.3944     0.1388     0.0728   -42.6989    11.1590    12.9131
  933.0000     0.1737    72.0062     8.0875     2.3814     0.1459     0.0794   -42.7886    11.2475    12.9131
  933.5000     0.1761    72.2336     8.0781     2.3766     0.1495     0.0826   -42.8142    11.3509    12.9131
  934.0000     0.1756    76.9029     8.0400     2.3730     0.1515     0.0819   -42.8145    11.2114    12.7947
  934.5000     0.1742    81.6737     8.0772     2.3744     0.1537     0.0797   -42.8144    10.9979    12.6449
  935.0000     0.1723    81.3054     8.1211     2.3767     0.1533     0.0774   -42.8144    10.7885    12.0897
  935.5000     0.1707    80.5148     8.1566     2.3789     0.1507     0.0752   -42.8144    10.5830    11.5589
  936.0000     0.1702    81.5603     8.0645     2.3798     0.1487     0.0730   -42.8144    10.3813    11.0506
  936.5000     0.1697    82.6422     7.9888     2.3778     0.1504     0.0708   -42.8144    10.1827    10.5679
  937.0000     0.1693    82.2794     7.9121     2.3719     0.1521     0.0685   -42.8144     9.9777    10.1584
  937.5000     0.1693    81.1627     7.8355     2.3700     0.1527     0.0663   -42.8144     9.9341    10.1576
  938.0000     0.1693    80.5261     7.7589     2.3686     0.1534     0.0645   -42.8144     9.8878    10.1532
  938.5000     0.1693    80.6206     7.6823     2.3671     0.1537     0.0646   -42.8144     9.8418    10.1481
  939.0000     0.1693    80.6754     7.6056     2.3655     0.1539     0.0614   -42.8144     9.7959    10.1429
  939.5000     0.1693    80.1834     7.5290     2.3581     0.1587     0.0575   -42.8144     9.7503    10.1377
  940.0000     0.1693    80.0539     7.4521     2.3440     0.1671     0.0528   -42.8144     9.7049    10.1326
  940.5000     0.1691    80.4029     7.3760     2.3429     0.1693     0.0449   -42.8144     9.6597    10.1275
  941.0000     0.1676    80.6256     7.3357     2.3421     0.1716     0.0426   -42.8144     9.6147    10.1223
  941.5000     0.1661    79.1936     7.4072     2.3421     0.1737     0.0425   -42.8144     9.5699    10.1172
  942.0000     0.1646    77.7802     7.4767     2.3426     0.1740     0.0461   -42.8208     9.5253    10.1121
  942.5000     0.1639    76.3733     7.4937     2.3467     0.1702     0.0512   -42.8337     9.4809    10.1069
  943.0000     0.1635    76.0147     7.4918     2.3521     0.1645     0.0562   -42.8465     9.4382    10.1018
  943.5000     0.1631    78.2784     7.4766     2.3575     0.1649     0.0610   -42.8594     9.4089    10.0967
  944.0000     0.1623    79.4524     7.4598     2.3629     0.1629     0.0632   -42.8723     9.3797    10.0915
  944.5000     0.1612    79.1544     7.4045     2.3683     0.1584     0.0656   -42.8852     9.3505    10.0864
  945.0000     0.1591    79.5911     7.3458     2.3739     0.1540     0.0679   -42.8980     9.3215    10.0813
  945.5000     0.1581    80.2301     7.2876     2.3747     0.1508     0.0703   -42.9109     9.2925    10.0762
  946.0000     0.1575    80.5619     7.2430     2.3718     0.1538     0.0724   -42.9238     9.2637    10.0707
  946.5000     0.1569    75.9875     7.2619     2.3623     0.1575     0.0698   -42.9366     9.2349    10.0501
  947.0000     0.1561    73.2359     7.2796     2.3544     0.1603     0.0622   -42.9495     9.2062    10.0167
  947.5000     0.1547    72.2888     7.2973     2.3533     0.1634     0.0526   -42.9624     9.1776     9.9834
  948.0000     0.1533    72.3928     7.3141     2.3530     0.1662     0.0479   -42.9752     9.1491     9.9502
  948.5000     0.1524    73.9984     7.3709     2.3544     0.1680     0.0447   -42.9881     9.1206     9.9171
