~VERSION INFORMATION
 VERS.                2.0:   CWLS LOG ASCII STANDARD - VERSION 2.0
 WRAP.                 NO:   ONE LINE PER DEPTH STEP
~WELL INFORMATION
#MNEM.UNIT      DATA TYPE    INFORMATION
#----------   ------------   ------------------------------
 STRT.F           14.0000:   START DEPTH
 STOP.F          630.0000:   STOP DEPTH
 STEP.F            0.5000:   STEP LENGTH
 NULL.          -999.2500:   NO VALUE
 COMP. LAWRENCE/ALLISON INC:   COMPANY
 WELL.    78-53 SX #10-10:   WELL
 FLD .             TEAPOT:   FIELD
 LOC .      S10 T38N R78W:   LOCATION
 CNTY.            NATRONA:   COUNTY
 STAT.            WYOMING:   STATE
 CTRY. UNITED STATES OF AMERICA:   COUNTRY
 SRVC.           Gearhart:   SERVICE COMPANY
 DATE.        08-JUL-1986:   LOGDATE
 API .       490251108200:   API NUMBER
~CURVE INFORMATION
#MNEM.UNIT       API CODE    CURVE DESCRIPTION
#----------   ------------   ------------------------------
 DEPT.F                  :   
 GRR .GAPI   07 310 01 00:   GAMMA RAY FROM RES. LOG.
 RILD.OHMM   07 120 46 00:   INDUCTION LOG DEEP RESISTIVITY
 RILM.OHMM   07 120 44 00:   INDUCTION LOG MEDIUM
~PARAMETER INFORMATION
#MNEM.UNIT          VALUE    DESCRIPTION
#----------   ------------   ------------------------------
 PD  .                 GL:   PERMANENT DATUM
 EPD .F              5152:   ELEVATION PERMANENT DATUM
 LMF .                 KB:   LOG MEASURED FROM
 DAPD.F                 5:   FEET ABOVE PERMANENT DATUM
 DMF .                 KB:   DRILLING MEASURED FROM
 EKB .F              5157:   KELLING BUSHING
 EGL .F              5152:   GROUND LEVEL
 DATE.             7-8-86:   RUN DATE
 RUN .                  1:   RUN NUMBER
 DD  .F               630:   DEPTH DRILLER
 DL  .F               634:   DEPTH LOGGER
 BLI .F               625:   BOTTOM LOG INTERVAL
 TLI .F                47:   TOP LOG INTERVAL
 CS  .IN            8.625:   CASING SIZE
 CBD .F                47:   CASING BOTTOM DRILLER
 CBL .F                47:   CASING BOTTOM LOGGER
 BS  .IN            7.875:   BIT SIZE
 BSD .F               630:   BIT SIZE AT DEPTH
 DFT .               FOAM:   DRILLING FLUID TYPE
 TCS .HRS            1530:   TIME CURCULATED STOPPED
 TLAB.HRS            1644:   TIME LOGGER AT BOTTOM
 MRT .F                65:   MAXIMUM RECORDED TEMPERATURE
 LUN .               7609:   LOGGING UNIT NUMBER
 LUL .           GILLETTE:   LOGGING UNIT LOCATION
 ENGI.         WEATHERMON:   RECORDING ENGINEER
 WITN.             STRONG:   WITNESSED BY
 CLNT.            A2DTECH:   CLIENT CODE
 ORIG.       2", 5" PRINT:   ORIGIN OF DATA
 UWI .       490251108200:   UNIQUE WELL ID
 DICO. A2D Technologies, Inc.:   DIGITIZING COMPANY
~OTHER INFORMATION
~A   DEPT       GRR      RILD       RILM   
# ...
  378.0000    63.4254    38.1374    39.1566
  378.5000    62.4247    38.7893    39.3805
  379.0000    62.7927    39.4524    39.8473
  379.5000    61.4819    39.9052    40.3246
  380.0000    59.8444    40.1351    40.8118
  380.5000    58.2655    40.2821    41.2930
  381.0000    60.2727    38.3389    41.8252
  381.5000    63.3376    36.6671    39.7379
  382.0000    66.6862    35.0682    37.5889
  382.5000    70.0579    33.5388    35.5560
  383.0000    72.2423    32.0750    33.6332
  383.5000    73.1695    30.6803    31.8143
  384.0000    73.8391    29.4250    30.0937
  384.5000    73.7663    28.4506    28.4506
  385.0000    73.3069    27.9208    27.6150
  385.5000    72.6482    27.2660    26.8021
  386.0000    71.5916    26.6266    26.0107
  386.5000    72.0680    26.0022    25.3003
  387.0000    74.0037    25.3919    24.7973
  387.5000    75.9364    24.7976    24.3044
  388.0000    77.3437    24.3163    23.8206
  388.5000    76.7968    23.9693    23.3462
  389.0000    76.7206    23.6251    22.9199
  389.5000    77.7616    23.2843    23.0163
  390.0000    78.8078    22.9200    23.1088
  390.5000    79.1639    22.9200    23.2008
  391.0000    78.2423    23.0591    23.2927
  391.5000    77.2041    23.1661    23.3849
  392.0000    76.1509    23.2736    23.4774
  392.5000    75.1176    23.3816    23.5754
  393.0000    76.5109    23.4901    23.8428
  393.5000    78.0950    23.5992    24.1273
  394.0000    78.7497    23.7087    24.4153
  394.5000    75.9639    23.7980    24.7097
  395.0000    73.7728    23.7974    24.6227
  395.5000    74.2838    23.7962    24.4771
  396.0000    77.0304    23.7960    24.3323
  396.5000    77.5016    23.7980    24.0453
  397.0000    77.5404    23.1423    23.5725
  397.5000    79.2321    22.6932    23.1089
  398.0000    81.2799    22.2528    22.6544
  398.5000    82.4936    21.8210    22.2089
  399.0000    82.7195    21.3975    21.7722
  399.5000    82.5756    20.9823    21.3437
  400.0000    82.4234    20.5751    20.9216
  400.5000    82.5658    20.1758    20.4755
  401.0000    82.7429    19.9062    20.3778
  401.5000    82.1180    19.9324    20.2603
  402.0000    80.7849    20.1468    20.0693
  402.5000    79.4489    20.3634    19.9062
  403.0000    78.1114    20.5824    20.0355
  403.5000    76.7746    20.8037    20.1497
  404.0000    75.4348    21.0274    20.2646
  404.5000    74.0665    21.2599    20.3801
  405.0000    73.7805    21.2599    20.4759
  405.5000    75.4796    21.0376    20.3413
  406.0000    77.5529    20.8131    20.1105
  406.5000    79.4681    20.5911    19.8829
  407.0000    78.4947    20.3715    19.6581
  407.5000    76.6124    20.1542    19.4359
  408.0000    76.8051    19.9392    19.2162
  408.5000    77.4620    19.7265    18.9990
  409.0000    76.8352    19.5160    18.7843
  409.5000    76.1968    19.3078    18.5719
  410.0000    76.3141    19.1019    18.3620
  410.5000    77.8257    18.8297    18.1544
  411.0000    79.5497    18.4839    17.9492
  411.5000    80.3587    18.1445    17.7463
  412.0000    80.3556    17.8113    17.5457
  412.5000    79.4667    17.4520    17.3474
  413.0000    78.4917    17.5248    17.2888
  413.5000    77.5369    17.6288    17.2888
  414.0000    77.4969    17.7335    17.3892
  414.5000    77.7095    17.8388    17.4993
  415.0000    78.9380    17.9511    17.6168
  415.5000    80.1756    17.7571    17.6168
  416.0000    80.0706    17.5531    17.3269
  416.5000    78.3856    17.3515    17.1137
  417.0000    76.4621    17.1522    16.9038
  417.5000    74.6594    16.9552    16.6940
  418.0000    75.5930    16.7604    16.5863
  418.5000    77.0369    16.5679    16.4733
  419.0000    78.0586    16.3776    16.3624
  419.5000    77.7341    16.3409    16.2520
  420.0000    76.7399    16.6865    16.1424
  420.5000    78.4953    16.9201    16.0336
  421.0000    82.8874    17.3109    15.9254
  421.5000    87.4353    17.6062    15.8180
  422.0000    92.0727    17.9066    15.7380
  422.5000    91.8614    18.2121    15.8002
  423.0000    89.1472    18.5228    15.8502
  423.5000    87.6066    18.8148    15.8866
  424.0000    86.3409    19.4914    16.1894
  424.5000    85.5831    20.1423    16.5417
  425.0000    84.9303    20.8150    17.0421
  425.5000    84.2818    21.5102    17.6215
  426.0000    83.6232    22.2286    18.2207
  426.5000    82.6759    22.9709    18.9686
  427.0000    81.6867    23.7381    20.0326
  427.5000    83.3310    24.5309    21.1563
  428.0000    85.2717    25.3502    22.3430
  428.5000    86.0396    26.1968    23.5963
  429.0000    81.7422    27.0717    24.9199
  429.5000    74.5025    27.9758    26.3177
  430.0000    69.4771    28.6532    27.7939
  430.5000    66.3585    29.2705    29.3529
  431.0000    65.9348    29.9011    30.9203
  431.5000    67.1657    30.6722    32.2268
  432.0000    68.7159    30.6302    32.7674
  432.5000    70.2750    30.5612    32.5419
  433.0000    70.9510    30.4923    32.4514
  433.5000    70.9529    30.4236    32.2764
  434.0000    72.1609    30.3852    31.8472
  434.5000    74.1963    30.1534    31.1889
  435.0000    75.4883    29.7985    30.6722
  435.5000    74.0656    29.4476    30.1003
  436.0000    71.8102    29.1014    29.5703
  436.5000    70.6370    28.7584    29.0497
  437.0000    73.1845    28.4506    28.5383
  437.5000    74.4257    27.6596    28.0358
  438.0000    73.3498    26.9541    27.5422
  438.5000    72.3158    26.2667    27.0573
  439.0000    72.3149    25.5967    26.6238
  439.5000    72.4661    25.1553    26.5458
  440.0000    72.5471    24.9570    26.4628
  440.5000    71.7703    25.2637    26.3891
  441.0000    72.1942    25.5445    25.8797
  441.5000    72.5771    25.8310    25.3498
  442.0000    72.3629    25.8985    24.8314
  442.5000    72.4441    25.5696    24.3239
  443.0000    74.2762    25.0897    23.8268
  443.5000    75.6660    24.6188    23.3399
  444.0000    75.4275    24.1105    22.8629
  444.5000    74.6951    23.4349    22.3678
  445.0000    74.3902    22.7782    21.7813
  445.5000    74.9876    22.1400    21.2101
  446.0000    75.9344    21.5196    20.6539
  446.5000    78.3958    20.9166    20.1124
  447.0000    80.7517    20.3305    19.5850
  447.5000    81.1848    19.7608    19.0714
  448.0000    80.6501    19.3528    18.5713
  448.5000    80.1391    19.4872    18.1206
  449.0000    78.9963    19.5940    17.7832
  449.5000    77.2231    19.7014    17.7832
  450.0000    74.9691    19.8093    17.9316
  450.5000    74.8894    19.9062    18.0481
  451.0000    77.2196    19.6985    18.1655
  451.5000    79.5823    19.5128    18.2917
  452.0000    81.9662    19.3144    18.4123
  452.5000    81.7292    19.0231    18.5436
  453.0000    79.6442    18.7363    18.6772
  453.5000    77.5589    18.4538    18.8141
  454.0000    76.5550    18.1755    18.6043
  454.5000    76.2605    17.9015    18.3843
  455.0000    75.4511    17.6315    18.1675
  455.5000    74.6921    17.3657    17.9536
  456.0000    75.5006    17.1037    17.7423
  456.5000    76.3819    16.8455    17.5334
  457.0000    76.4502    16.5919    17.3270
  457.5000    75.5697    16.4230    17.1230
  458.0000    73.9271    16.2510    16.9227
  458.5000    73.9782    16.0808    16.6812
  459.0000    74.7849    15.9125    16.3948
  459.5000    75.6136    15.6497    16.1116
  460.0000    76.4669    15.4547    15.8336
  460.5000    77.2446    15.2622    15.5605
  461.0000    78.0496    15.0720    15.2921
  461.5000    79.0735    14.8842    15.0283
  462.0000    80.1987    14.6987    14.7691
  462.5000    81.3595    14.4615    14.5143
  463.0000    81.5726    14.4679    14.2639
  463.5000    80.5191    14.4806    14.1922
  464.0000    79.3522    14.4933    14.1919
  464.5000    79.4618    14.5060    14.1789
  465.0000    79.8558    14.5188    14.1647
  465.5000    80.9522    14.5315    14.1505
  466.0000    82.1933    14.5443    14.1362
  466.5000    83.4408    14.5570    14.1220
  467.0000    83.8266    14.5698    14.1077
  467.5000    84.0877    14.5825    14.0935
  468.0000    85.0462    14.5951    14.0794
  468.5000    85.9989    14.5983    14.0652
