~VERSION INFORMATION
 VERS.                2.0:   CWLS LOG ASCII STANDARD - VERSION 2.0
 WRAP.                 NO:   ONE LINE PER DEPTH STEP
~WELL INFORMATION
#MNEM.UNIT      DATA TYPE    INFORMATION
#----------   ------------   ------------------------------
 STRT.F           15.0000:   START DEPTH
 STOP.F          531.0000:   STOP DEPTH
 STEP.F            0.1000:   STEP LENGTH
 NULL.          -999.2500:   NO VALUE
 COMP. LAWRENCE/ALLISON INC:   COMPANY
 WELL.   NPR 3 #42-61SX10:   WELL
 FLD .          N.P.R. #3:   FIELD
 LOC .      S10 T38N R78W:   LOCATION
 CNTY.            NATRONA:   COUNTY
 STAT.            WYOMING:   STATE
 CTRY. UNITED STATES OF AMERICA:   COUNTRY
 SRVC.           Gearhart:   SERVICE COMPANY
 DATE.        06-JUL-1986:   LOGDATE
 API .       490251109500:   API NUMBER
~CURVE INFORMATION
#MNEM.UNIT       API CODE    CURVE DESCRIPTION
#----------   ------------   ------------------------------
 DEPT.F                  :   
 GRR .GAPI   07 310 01 00:   GAMMA RAY
 RILD.OHMM   07 120 46 00:   INDUCTION LOG DEEP
 RILM.OHMM   07 120 44 00:   INDUCTION LOG MEDIUM
~PARAMETER INFORMATION
#MNEM.UNIT          VALUE    DESCRIPTION
#----------   ------------   ------------------------------
 PD  .                 GL:   PERMANENT DATUM
 EPD .F              5196:   ELEVATION PERMANENT DATUM
 LMF .                 KB:   LOG MEASURED FROM
 DAPD.F                 5:   FEET ABOVE PERMANENT DATUM
 DMF .                 KB:   DRILLING MEASURED FROM
 EKB .F              5201:   KELLING BUSHING
 EGL .F              5196:   GROUND LEVEL
 DATE.        06-JUL-1986:   RUN DATE
 RUN .                  1:   RUN NUMBER
 DD  .F               548:   DEPTH DRILLER
 DL  .F               541:   DEPTH LOGGER
 BLI .F               531:   BOTTOM LOG INTERVAL
 TLI .F                15:   TOP LOG INTERVAL
 CS  .IN            8.625:   CASING SIZE
 CBD .F                47:   CASING BOTTOM DRILLER
 CBL .F                47:   CASING BOTTOM LOGGER
 BS  .IN            7.875:   BIT SIZE
 BSD .F               548:   BIT SIZE AT DEPTH
 DFT .                AIR:   DRILLING FLUID TYPE
 BHT .F                82:   BOTTOM HOLE TEMPERATURE
 TCS .HRS            2000:   TIME CURCULATED STOPPED
 TLAB.HRS            2130:   TIME LOGGER AT BOTTOM
 MRT .F                82:   MAXIMUM RECORDED TEMPERATURE
 LUN .               7609:   LOGGING UNIT NUMBER
 LUL .           GILLETTE:   LOGGING UNIT LOCATION
 ENGI.              BAUER:   RECORDING ENGINEER
 WITN.           JENNINGS:   WITNESSED BY
 CLNT.            A2DTECH:   CLIENT CODE
 ORIG.           5" PRINT:   ORIGIN OF DATA
 UWI .       490251109500:   UNIQUE WELL ID
 DICO. A2D Technologies, Inc.:   DIGITIZING COMPANY
~OTHER INFORMATION
~A   DEPT      GRR       RILD       RILM   
# ...
  415.4000    89.9854    13.3312    13.2176
  415.5000    89.4554    13.2510    13.2176
  415.6000    89.2133    13.2515    13.2176
  415.7000    88.7721    13.2521    13.2176
  415.8000    88.2659    13.2526    13.1917
  415.9000    87.6794    13.2287    13.1251
  416.0000    86.9482    13.1608    13.1251
  416.1000    86.3896    13.1615    13.1251
  416.2000    86.1618    13.1620    13.0712
  416.3000    85.9077    13.1104    13.0333
  416.4000    86.0119    13.0709    13.0333
  416.5000    86.5140    13.0714    13.0272
  416.6000    87.0288    13.0720    12.9421
  416.7000    87.9040    13.0726    12.9421
  416.8000    88.1140    13.0731    12.8926
  416.9000    88.6811    13.0261    12.8516
  417.0000    89.3300    12.9826    12.8516
  417.1000    89.8840    12.9831    12.8492
  417.2000    90.6422    12.9837    12.7617
  417.3000    91.1417    12.9096    12.7617
  417.4000    91.4463    12.8938    12.7165
  417.5000    91.8405    12.8943    12.6724
  417.6000    92.2517    12.8949    12.6724
  417.7000    92.5018    12.8843    12.6724
  417.8000    92.7673    12.8057    12.6003
  417.9000    93.0018    12.8062    12.5838
  418.0000    92.8855    12.7529    12.5427
  418.1000    92.6313    12.7176    12.4957
  418.2000    92.3773    12.6957    12.4957
  418.3000    92.1231    12.6295    12.4957
  418.4000    91.8389    12.6301    12.4281
  418.5000    91.6150    12.6306    12.4083
  418.6000    91.3608    12.5822    12.4083
  418.7000    91.1067    12.5432    12.3863
  418.8000    90.8526    12.5258    12.3215
  418.9000    90.5985    12.4564    12.3215
  419.0000    90.2999    12.4570    12.3215
  419.1000    90.2982    12.3980    12.2732
  419.2000    90.2962    12.3707    12.2353
  419.3000    90.2941    12.3425    12.2171
  419.4000    90.2921    12.2850    12.1497
  419.5000    90.2900    12.2856    12.1497
  419.6000    90.2880    12.2166    12.0908
  419.7000    90.4797    12.2006    12.0647
  419.8000    90.5893    12.1618    12.0355
  419.9000    90.6745    12.1162    11.9803
  420.0000    90.8909    12.1073    11.9803
  420.1000    90.8884    12.0324    11.9111
  420.2000    91.1192    12.0329    11.8965
  420.3000    91.3693    11.9838    11.8566
  420.4000    91.4931    11.9496    11.8133
  420.5000    91.5641    11.9301    11.8023
  420.6000    91.7946    11.8669    11.7307
  420.7000    91.7921    11.8675    11.7307
  420.8000    92.0088    11.8084    11.6803
  420.9000    92.0936    11.7407    11.6486
  421.0000    92.0916    11.7033    11.6269
  421.1000    92.0896    11.6880    11.5671
  421.2000    92.0875    11.6223    11.5671
  421.3000    92.0851    11.6228    11.5067
  421.4000    92.0835    11.5688    11.4401
  421.5000    92.0814    11.5423    11.3739
  421.6000    92.0794    11.5169    11.3261
  421.7000    92.0774    11.4508    11.3218
  421.8000    92.0752    11.3827    11.2468
  421.9000    92.0733    11.3197    11.1912
  422.0000    92.0712    11.3039    11.1265
  422.1000    92.0692    11.2338    11.0900
  422.2000    92.0672    11.1258    11.0755
  422.3000    92.0651    11.0619    11.0124
  422.4000    92.0629    10.9925    11.0124
  422.5000    92.0611    10.9929    10.9611
  422.6000    92.0590    10.9491    10.9354
  422.7000    92.0570    10.8862    10.9109
  422.8000    92.0550    10.8066    10.8478
  422.9000    92.0529    10.6862    10.7829
  423.0000    92.0506    10.6157    10.7226
  423.1000    92.0489    10.5638    10.6606
  423.2000    92.0468    10.4644    10.5654
  423.3000    92.0448    10.3441    10.4638
  423.4000    92.0427    10.2252    10.3879
  423.5000    92.0407    10.1079    10.1941
  423.6000    92.0387    10.0499    10.1399
  423.7000    92.0366     9.9009     9.9990
  423.8000    92.1819     9.7306     9.8831
  423.9000    92.8080     9.5835     9.7932
  424.0000    93.9849     9.4645     9.6284
  424.1000    94.7765     9.2934     9.5030
  424.2000    95.0141     9.1920     9.3604
  424.3000    95.2641     9.0478     9.2340
  424.4000    95.3812     8.9191     9.1274
  424.5000    95.4588     8.8006     9.0220
  424.6000    95.6827     8.6489     8.9178
  424.7000    95.6802     8.4843     8.7968
  424.8000    95.9036     8.3541     8.6721
  424.9000    95.9817     8.2104     8.5526
  425.0000    95.9796     8.0909     8.4344
  425.1000    95.9776     7.9979     8.2886
  425.2000    95.9878     7.9037     8.1430
  425.3000    96.2785     7.7457     8.0507
  425.4000    96.2768     7.6713     7.9578
  425.5000    96.4326     7.5559     7.8406
  425.6000    96.6826     7.4435     7.7052
  425.7000    96.9838     7.3493     7.5783
  425.8000    97.4901     7.2216     7.4852
  425.9000    97.7381     7.1394     7.4045
  426.0000    99.3653     7.0574     7.2885
  426.1000   100.8061     6.9763     7.1627
  426.2000   102.0834     6.9103     7.0514
  426.3000   103.8830     6.8706     6.9661
  426.4000   106.0274     6.8286     6.8323
  426.5000   107.6760     6.8289     6.6936
  426.6000   109.2561     6.8292     6.5656
  426.7000   110.7664     6.8295     6.4696
  426.8000   112.2007     6.8297     6.3949
  426.9000   113.4364     6.8300     6.3228
  427.0000   114.5646     6.8303     6.2803
  427.1000   115.4488     6.8306     6.2498
  427.2000   116.2870     6.8309     6.1912
  427.3000   116.8112     6.8311     6.1494
  427.4000   117.0613     6.8314     6.1420
  427.5000   117.3029     6.8317     6.1064
  427.6000   116.9951     6.8320     6.1064
  427.7000   116.7861     6.8323     6.1064
  427.8000   116.5320     6.8325     6.1478
  427.9000   116.0763     6.8487     6.2196
  428.0000   115.1758     6.8888     6.2862
  428.1000   113.6264     6.9301     6.3246
  428.2000   110.4224     6.9698     6.4305
  428.3000   106.5648     7.0106     6.5435
  428.4000   103.5076     7.0745     6.6377
  428.5000   100.6305     7.1430     6.7279
  428.6000    96.8947     7.1904     6.8459
  428.7000    94.9881     7.2812     6.9777
  428.8000    93.5939     7.3598     7.0886
  428.9000    92.6157     7.4153     7.1840
  429.0000    91.9830     7.5023     7.2885
  429.1000    91.4769     7.6214     7.4164
  429.2000    90.9707     7.7139     7.5436
  429.3000    90.3956     7.8682     7.6445
  429.4000    89.9583     7.9880     7.7594
  429.5000    89.4521     8.0976     7.8660
  429.6000    89.0571     8.2137     7.9578
  429.7000    88.9191     8.3580     8.0507
  429.8000    89.1884     8.5058     8.1446
  429.9000    90.6887     8.7448     8.2582
  430.0000    91.3010     8.9231     8.3360
  430.1000    92.0592     9.1439     8.4334
  430.2000    92.8227     9.3657     8.5512
  430.3000    92.8218     9.4757     8.7012
  430.4000    93.0210     9.5430     8.8587
  430.5000    93.1254     9.6325     9.0096
  430.6000    93.1245     9.7238     9.1274
  430.7000    93.1684     9.7810     9.2340
  430.8000    93.4281     9.8397     9.3233
  430.9000    93.4273     9.8966     9.3846
  431.0000    93.6212     9.9550     9.5030
  431.1000    93.7309    10.0136     9.6051
  431.2000    93.8213    10.0506     9.6772
  431.3000    94.0346    10.0610     9.7619
  431.4000    94.0335    10.1221     9.8591
  431.5000    94.2741    10.1799     9.9211
  431.6000    94.5268    10.2399    10.0519
  431.7000    94.9174    10.3002    10.1029
  431.8000    95.3376    10.3609    10.1617
  431.9000    95.6245    10.4123    10.2209
  432.0000    96.1657    10.4126    10.2803
  432.1000    96.8733    10.4712    10.3401
  432.2000    97.2645    10.5329    10.4110
  432.3000    97.3845    10.5950    10.4110
  432.4000    97.3836    10.6358    10.4482
  432.5000    97.3828    10.6451    10.5090
  432.6000    97.3818    10.7115    10.5582
  432.7000    97.6119    10.7118    10.5582
  432.8000    97.6855    10.7585    10.6187
  432.9000    97.6846    10.8219    10.6805
  433.0000    97.6838    10.8856    10.7075
  433.1000    97.6829    10.9497    10.7296
  433.2000    97.6819    11.0190    10.7921
  433.3000    97.9068    11.0791    10.8589
  433.4000    97.9856    11.1444    10.9181
  433.5000    98.2291    11.2101    10.9354
