~VERSION INFORMATION
 VERS.                2.0:   CWLS LOG ASCII STANDARD - VERSION 2.0
 WRAP.                 NO:   ONE LINE PER DEPTH STEP
~WELL INFORMATION
#MNEM.UNIT      DATA TYPE    INFORMATION
#----------   ------------   ------------------------------
 STRT.F           36.5000:   START DEPTH
 STOP.F          476.0000:   STOP DEPTH
 STEP.F            0.5000:   STEP LENGTH
 NULL.          -999.2500:   NO VALUE
 COMP. LAWRENCE/ALLISON INC:   COMPANY
 WELL.    54-36 SXFO #3-3:   WELL
 FLD .            WILDCAT:   FIELD
 LOC .       S3 T38N R78W:   LOCATION
 CNTY.            NATRONA:   COUNTY
 STAT.            WYOMING:   STATE
 CTRY. UNITED STATES OF AMERICA:   COUNTRY
 SRVC.      Dresser Atlas:   SERVICE COMPANY
 DATE.        09-DEC-1983:   LOGDATE
 API .       490251095500:   API NUMBER
~CURVE INFORMATION
#MNEM.UNIT       API CODE    CURVE DESCRIPTION
#----------   ------------   ------------------------------
 DEPT.F                  :   
 GRD .GAPI   45 310 01 00:   GAMMA RAY FROM DENSITY LOG
 PORD.DEC    45 890 12 00:   POROSITY DENSITY SANDSTONE
 DEN .G/C3   45 350 01 00:   COMPENSATED BULK DENSTIY
 CORR.G/C3   45 356 01 00:   DENSITY CORRECTION
 CALD.IN     45 280 60 00:   CALIPER
 RFOC.OHMM   07 220 04 00:   RESISTIVITY FOCUSED LOG
 RILD.OHMM   07 120 46 00:   INDUCTION LOG DEEP RESISTIVITY
 RILM.OHMM   07 120 44 00:   INDUCTION LOG MEDIUM RESISTIVITY
~PARAMETER INFORMATION
#MNEM.UNIT          VALUE    DESCRIPTION
#----------   ------------   ------------------------------
 PD  .                 GL:   PERMANENT DATUM
 EPD .F              5166:   ELEVATION PERMANENT DATUM
 LMF .                 KB:   LOG MEASURED FROM
 DAPD.F                10:   FEET ABOVE PERMANENT DATUM
 DMF .                 KB:   DRILLING MEASURED FROM
 EKB .F              5176:   KELLING BUSHING
 EGL .F              5166:   GROUND LEVEL
 DATE.            12-9-83:   RUN DATE
 RUN .                  1:   RUN NUMBER
 DD  .F               478:   DEPTH DRILLER
 DL  .F               475:   DEPTH LOGGER
 BLI .F               473:   BOTTOM LOG INTERVAL
 TLI .F                44:   TOP LOG INTERVAL
 CBD .F                40:   CASING BOTTOM DRILLER
 CBL .F                44:   CASING BOTTOM LOGGER
 BS  .IN             8.75:   BIT SIZE
 BSD .F               478:   BIT SIZE AT DEPTH
 DFT .           AIR FOAM:   DRILLING FLUID TYPE
 MRT .F               100:   MAXIMUM RECORDED TEMPERATURE
 LUN .               6307:   LOGGING UNIT NUMBER
 LUL .               GLTE:   LOGGING UNIT LOCATION
 ENGI.            DEYOUNG:   RECORDING ENGINEER
 WITN.             GROOMS:   WITNESSED BY
 CLNT.            A2DTECH:   CLIENT CODE
 ORIG.       2", 5" PRINT:   ORIGIN OF DATA
 UWI .       490251095500:   UNIQUE WELL ID
 DICO. A2D Technologies, Inc.:   DIGITIZING COMPANY
~OTHER INFORMATION
~A   DEPT       GRD      PORD        DEN       CORR       CALD       RFOC       RILD       RILM   
# ...
  401.0000    70.4785     0.2137     2.3238     0.0445     9.2737    22.2332    18.3388    19.0990
  401.5000    72.6733     0.2138     2.3229     0.0362     9.2725    22.1292    18.4401    19.2616
  402.0000    74.7330     0.2139     2.3214     0.0278     9.2712    22.0486    18.5416    19.3656
  402.5000    74.9423     0.2132     2.3226     0.0194     9.2700    22.0308    18.6645    19.2704
  403.0000    74.4536     0.2115     2.3249     0.0125     9.2687    21.9018    18.5659    19.2011
  403.5000    74.5372     0.2119     2.3240     0.0184     9.2675    21.5833    18.4422    19.1320
  404.0000    75.8960     0.2158     2.3162     0.0239     9.2662    21.2701    18.3244    19.0631
  404.5000    77.2552     0.2208     2.3086     0.0199     9.2650    21.0404    18.0761    18.9104
  405.0000    78.6101     0.2256     2.3051     0.0153     9.2638    21.3516    17.7871    18.5205
  405.5000    80.0417     0.2236     2.3068     0.0211     9.2625    21.6033    17.5028    18.1386
  406.0000    79.8634     0.2216     2.3086     0.0418     9.2613    21.8288    17.2229    17.7646
  406.5000    77.5724     0.2243     2.3057     0.0470     9.2600    21.1655    16.9476    17.3983
  407.0000    75.2550     0.2271     2.2992     0.0481     9.2588    20.5872    16.6767    17.0245
  407.5000    72.9202     0.2291     2.2944     0.0490     9.2575    20.0247    16.5382    17.0024
  408.0000    72.4353     0.2268     2.3011     0.0501     9.2563    19.3656    16.5013    16.9845
  408.5000    72.8454     0.2209     2.3129     0.0456     9.2551    19.6322    16.4645    16.9654
  409.0000    73.2724     0.2149     2.3251     0.0389     9.2538    19.9742    16.4278    16.9460
  409.5000    73.5732     0.2119     2.3274     0.0320     9.2526    20.3222    16.3911    16.9266
  410.0000    73.7287     0.2093     2.3300     0.0247     9.2513    20.6552    16.3545    16.9073
  410.5000    74.0917     0.2068     2.3340     0.0413     9.2501    20.0775    16.3180    16.8880
  411.0000    74.8781     0.2042     2.3383     0.0623     9.2488    19.5468    16.2817    16.8691
  411.5000    75.5621     0.2016     2.3426     0.0814     9.2476    19.1880    16.2045    16.6768
  412.0000    74.7517     0.1967     2.3602     0.0822     9.2464    20.5274    16.0365    16.4085
  412.5000    73.8795     0.1790     2.3888     0.0649     9.2451    21.2339    15.7941    16.1448
  413.0000    73.0132     0.1614     2.4175     0.0423     9.2439    19.1175    15.4926    15.8853
  413.5000    72.5843     0.1437     2.4467     0.0165     9.2426    17.6616    15.1962    15.6301
  414.0000    73.5572     0.1385     2.4530     0.0182     9.2414    17.8250    14.9056    15.3791
  414.5000    76.8005     0.1596     2.4194     0.0336     9.2401    18.6033    14.6206    15.1320
  415.0000    80.3831     0.1776     2.3819     0.0396     9.2389    19.4260    14.3411    14.8889
  415.5000    83.9316     0.1891     2.3577     0.0388     9.2376    19.7256    14.0669    14.6497
  416.0000    85.6918     0.1989     2.3424     0.0379     9.2365    18.3440    13.7980    14.4133
  416.5000    83.5853     0.2086     2.3270     0.0370     9.2358    16.8596    13.5342    14.1871
  417.0000    81.9296     0.2102     2.3293     0.0374     9.2352    15.3826    13.2754    13.7840
  417.5000    81.3044     0.2057     2.3443     0.0418     9.2346    15.8978    13.0216    13.3771
  418.0000    81.6724     0.1905     2.3678     0.0414     9.2339    16.4816    12.7724    13.1787
  418.5000    82.0160     0.1813     2.3801     0.0409     9.2333    16.8667    12.5289    13.0450
  419.0000    80.3233     0.1799     2.3779     0.0403     9.2327    16.3071    12.3162    12.9132
  419.5000    78.3464     0.1774     2.3815     0.0402     9.2321    15.9073    12.2393    12.7903
  420.0000    76.3721     0.1725     2.3880     0.0402     9.2314    15.5249    12.1611    12.6669
  420.5000    74.9032     0.1675     2.4011     0.0401     9.2308    15.8107    12.0837    12.5447
  421.0000    76.2213     0.1626     2.4111     0.0466     9.2302    16.1044    12.0067    12.4236
  421.5000    77.4704     0.1597     2.4150     0.0509     9.2296    16.2544    11.9302    12.3036
  422.0000    77.5349     0.1595     2.4132     0.0433     9.2289    15.6836    11.8541    12.1849
  422.5000    76.1961     0.1591     2.4132     0.0365     9.2283    15.3018    11.7786    12.0673
  423.0000    74.8278     0.1571     2.4173     0.0310     9.2277    14.9267    11.7035    11.9508
  423.5000    74.8904     0.1550     2.4241     0.0254     9.2271    14.6922    11.6100    11.8354
  424.0000    75.2057     0.1496     2.4330     0.0199     9.2264    14.8643    11.5018    11.7212
  424.5000    74.4177     0.1434     2.4419     0.0328     9.2258    14.9956    11.3950    11.5619
  425.0000    73.9775     0.1388     2.4488     0.0479     9.2252    15.1018    11.3509    11.5676
  425.5000    76.1356     0.1388     2.4491     0.0600     9.2246    14.8058    11.3729    11.5773
  426.0000    77.8696     0.1411     2.4454     0.0643     9.2239    14.5628    11.3913    11.5870
  426.5000    76.9836     0.1408     2.4443     0.0645     9.2233    14.2899    11.4097    11.5967
  427.0000    76.5319     0.1385     2.4478     0.0539     9.2227    14.3043    11.4282    11.6064
  427.5000    80.1253     0.1376     2.4514     0.0434     9.2221    14.3210    11.4469    11.6161
  428.0000    85.8805     0.1388     2.4513     0.0326     9.2214    14.3378    11.4553    11.6259
  428.5000    86.4639     0.1427     2.4418     0.0309     9.2208    14.3547    11.4112    11.6356
  429.0000    84.6349     0.1490     2.4316     0.0355     9.2202    14.3715    11.3816    11.6453
  429.5000    82.3597     0.1554     2.4214     0.0455     9.2196    14.3881    11.3520    11.6552
  430.0000    81.4928     0.1617     2.4111     0.0417     9.2189    14.4052    11.3225    11.6687
  430.5000    81.3556     0.1638     2.4034     0.0371     9.2183    14.4221    11.2930    11.6173
  431.0000    80.3216     0.1607     2.4107     0.0478     9.2177    14.1395    11.2636    11.5285
  431.5000    79.1600     0.1562     2.4181     0.0581     9.2170    13.8621    11.2072    11.4408
  432.0000    77.9862     0.1518     2.4254     0.0437     9.2163    13.5892    11.1149    11.3538
  432.5000    77.3071     0.1529     2.4236     0.0281     9.2206    13.3224    11.0233    11.2674
  433.0000    79.3314     0.1557     2.4172     0.0368     9.2258    13.0326    10.9403    11.1818
  433.5000    81.7029     0.1636     2.4065     0.0495     9.2310    13.1817    10.8685    11.0968
  434.0000    84.1001     0.1712     2.3957     0.0619     9.2362    13.3977    10.7883    11.0124
  434.5000    85.3984     0.1735     2.3872     0.0704     9.2414    13.2997    10.7088    10.9369
  435.0000    85.7683     0.1714     2.3913     0.0794     9.2466    13.1176    10.6374    10.9121
  435.5000    84.8679     0.1678     2.4015     0.0713     9.2518    12.9379    10.6072    10.8874
  436.0000    84.0124     0.1597     2.4150     0.0544     9.2565    12.7947    10.5771    10.8627
  436.5000    83.6779     0.1517     2.4286     0.0463     9.2545    13.0007    10.5471    10.8381
  437.0000    83.1842     0.1433     2.4437     0.0396     9.2521    13.1817    10.5172    10.8135
  437.5000    82.0675     0.1429     2.4365     0.0324     9.2498    13.2681    10.4871    10.7890
  438.0000    80.9694     0.1523     2.4253     0.0232     9.2475    13.0070    10.4482    10.7646
  438.5000    80.4898     0.1578     2.4189     0.0174     9.2452    12.8691    10.4887    10.7402
  439.0000    81.2451     0.1519     2.4322     0.0161     9.2429    12.7327    10.5509    10.7158
  439.5000    82.0183     0.1381     2.4456     0.0147     9.2406    12.5612    10.6129    10.6916
  440.0000    82.8036     0.1450     2.4458     0.0181     9.2383    12.8013    10.6422    10.6674
  440.5000    83.1871     0.1574     2.4185     0.0292     9.2355    13.1532    10.5318    10.6418
  441.0000    83.2395     0.1697     2.3966     0.0404     9.2303    13.1532    10.4479    10.5166
