~VERSION INFORMATION
 VERS.                2.0:   CWLS LOG ASCII STANDARD - VERSION 2.0
 WRAP.                 NO:   ONE LINE PER DEPTH STEP
~WELL INFORMATION
#MNEM.UNIT      DATA TYPE    INFORMATION
#----------   ------------   ------------------------------
 STRT.F           18.0000:   START DEPTH
 STOP.F          449.0000:   STOP DEPTH
 STEP.F            0.5000:   STEP LENGTH
 NULL.          -999.2500:   NO VALUE
 COMP.   LAWRENCE-ALLISON:   COMPANY
 WELL. NPR 3 #52-51SX10OB5:   WELL
 FLD .             TEAPOT:   FIELD
 LOC .      S10 T38N R78W:   LOCATION
 CNTY.            NATRONA:   COUNTY
 STAT.            WYOMING:   STATE
 CTRY. UNITED STATES OF AMERICA:   COUNTRY
 SRVC.      Dresser Atlas:   SERVICE COMPANY
 DATE.        20-DEC-1984:   LOGDATE
 API .       490251101000:   API NUMBER
~CURVE INFORMATION
#MNEM.UNIT       API CODE    CURVE DESCRIPTION
#----------   ------------   ------------------------------
 DEPT.F                  :   
 CALD.IN     45 280 60 00:   CALIPER FROM DENSITY LOG
 CNC .DEC    42 890 03 00:   NEUTRON POROSITY SANDSTONE
 CORR.G/C3   45 356 01 00:   DENSITY CORRECTION
 DEN .G/C3   45 350 01 00:   COMPENSATED BULK DENSTIY
 GRD .GAPI   45 310 01 00:   GAMMA RAY FROM DENSITY LOG
 PORD.DEC    45 890 12 00:   POROSITY DENSITY SANDSTONE
 DT  .US/F   60 520 00 00:   INTERVAL TRANSIT TIME
~PARAMETER INFORMATION
#MNEM.UNIT          VALUE    DESCRIPTION
#----------   ------------   ------------------------------
 PD  .                 GL:   PERMANENT DATUM
 EPD .F              5159:   ELEVATION PERMANENT DATUM
 LMF .                 GL:   LOG MEASURED FROM
 DMF .                 GL:   DRILLING MEASURED FROM
 EGL .F              5159:   GROUND LEVEL
 DATE.        20-DEC-1984:   RUN DATE
 RUN .                  1:   RUN NUMBER
 DD  .F               451:   DEPTH DRILLER
 DL  .F               451:   DEPTH LOGGER
 BLI .F               449:   BOTTOM LOG INTERVAL
 TLI .F                20:   TOP LOG INTERVAL
 CS  .IN            8.625:   CASING SIZE
 CBD .F                20:   CASING BOTTOM DRILLER
 CBL .F                20:   CASING BOTTOM LOGGER
 BS  .IN             6.25:   BIT SIZE
 BSD .F               451:   BIT SIZE AT DEPTH
 DFT .          KCL/WATER:   DRILLING FLUID TYPE
 MSS .            MUDTANK:   MUD SAMPLE SOURCE
 RMS .OHMM           .141:   RESISTIVITY MUD SAMPLE
 MST .F                54:   MUD SAMPLE TEMPERATURE
 RMF .OHMM           .106:   RESISTIVITY MUD FILTRATE SAMPLE
 MFST.F                54:   MUD FILTRATE SAMPLE TEMPERATURE
 RMC .OHMM           .176:   RESISTIVITY MUD CAKE
 MCST.F                54:   MUD CAKE SAMPLE TEMPERATURE
 MFSS.               CALC:   MUD FILTRATE SAMPLE SOURCE
 MCSS.               CALC:   MUD CAKE SAMPLE SOURCE
 TCS .HRS               2:   TIME CURCULATED STOPPED
 MRT .F               100:   MAXIMUM RECORDED TEMPERATURE
 LUN .               6270:   LOGGING UNIT NUMBER
 LUL .                 FM:   LOGGING UNIT LOCATION
 ENGI.        TOM GAUGHAN:   RECORDING ENGINEER
 WITN.              LUERS:   WITNESSED BY
 CLNT.            A2DTECH:   CLIENT CODE
 ORIG.           5" PRINT:   ORIGIN OF DATA
 UWI .       490251101000:   UNIQUE WELL ID
 DICO. A2D Technologies, Inc.:   DIGITIZING COMPANY
~OTHER INFORMATION
~A   DEPT     CALD         CNC      CORR        DEN         GRD      PORD         DT   
# ...
  291.0000     6.3173     0.2506     0.0225     2.3820    75.8817     0.1772    96.2155
  291.5000     6.3332     0.2451     0.0211     2.3851    75.8958     0.1777    95.9057
  292.0000     6.3488     0.2376     0.0228     2.4181    76.6470     0.1702    95.2243
  292.5000     6.3497     0.2377     0.0291     2.4241    80.9484     0.1544    94.2440
  293.0000     6.3802     0.2451     0.0380     2.4242    81.8474     0.1537    93.6374
  293.5000     6.3811     0.2486     0.0351     2.4179    82.8944     0.1555    93.4792
  294.0000     6.3819     0.2498     0.0277     2.4086    84.2372     0.1603    93.3211
  294.5000     6.3830     0.2519     0.0233     2.4012    85.4321     0.1650    93.2376
  295.0000     6.3838     0.2536     0.0235     2.3975    84.9901     0.1683    93.4531
  295.5000     6.3847     0.2542     0.0221     2.3976    83.6828     0.1686    93.8159
  296.0000     6.3705     0.2518     0.0177     2.3977    82.5108     0.1686    94.3326
  296.5000     6.3716     0.2386     0.0178     2.3977    83.1140     0.1685    94.6228
  297.0000     6.3576     0.2374     0.0120     2.3978    84.0131     0.1691    94.4625
  297.5000     6.3289     0.2391     0.0061     2.3979    84.6162     0.1697    94.3043
  298.0000     6.3298     0.2469     0.0003     2.3950    87.2904     0.1702    93.9967
  298.5000     6.3308     0.2612     0.0049     2.3950    87.9073     0.1702    93.6890
  299.0000     6.3317     0.2615     0.0110     2.3951    86.9941     0.1696    93.3617
  299.5000     6.3325     0.2606     0.0141     2.3974    84.8129     0.1678    92.7726
  300.0000     6.3482     0.2599     0.0262     2.4087    82.0137     0.1624    92.0912
  300.5000     6.3491     0.2635     0.0367     2.4312    81.5786     0.1514    91.5594
  301.0000     6.3351     0.2626     0.0249     2.4328    82.0338     0.1486    91.4781
  301.5000     6.3360     0.2587     0.0310     2.4306    80.8647     0.1518    91.8409
  302.0000     6.3371     0.2559     0.0386     2.4244    80.2840     0.1536    92.1315
  302.5000     6.3379     0.2525     0.0372     2.4210    80.5918     0.1539    92.2720
  303.0000     6.3397     0.2502     0.0329     2.4241    83.2938     0.1521    92.1136
  303.5000     6.3407     0.2562     0.0270     2.4286    87.3034     0.1490    91.8049
  304.0000     6.3417     0.2663     0.0316     2.4349    87.7628     0.1472    90.8995
  304.5000     6.3427     0.2675    -0.0096     2.4364    83.3444     0.1454    90.5162
  305.0000     6.3437     0.2537    -0.0124     2.4380    81.4369     0.1441    90.4318
  305.5000     6.3449     0.2456    -0.0032     2.4411    81.6003     0.1394    90.5748
  306.0000     6.3459     0.2423     0.0268     2.4465    83.0952     0.1376    90.8652
  306.5000     6.3469     0.2452     0.0270     2.4510    85.8181     0.1381    91.1556
  307.0000     6.3479     0.2512     0.0242     2.4496    88.7515     0.1390    91.4439
  307.5000     6.3489     0.2536     0.0274     2.4445    89.9505     0.1405    91.7342
  308.0000     6.3499     0.2523     0.0350     2.4386    88.7826     0.1419    91.8751
  308.5000     6.3511     0.2448     0.0472     2.4349    85.8396     0.1470    92.0160
  309.0000     6.3521     0.2517     0.0520     2.4335    84.2279     0.1476    92.0801
  309.5000     6.3531     0.2669     0.0368     2.4321    84.0956     0.1476    92.2957
  310.0000     6.3541     0.2714     0.0148     2.4225    83.5233     0.1511    92.2870
  310.5000     6.3100     0.2542     0.0105     2.4151    81.4679     0.1586    92.2764
  311.0000     6.2968     0.2522     0.0137     2.4114    80.0041     0.1615    92.3426
  311.5000     6.2534     0.2512     0.0168     2.4093    80.0197     0.1618    92.2593
  312.0000     6.2991     0.2521     0.0290     2.4184    83.3294     0.1552    91.9518
  312.5000     6.3001     0.2533     0.0396     2.4394    84.1967     0.1450    91.5695
  313.0000     6.3011     0.2595     0.0264     2.4425    84.2123     0.1417    91.1104
  313.5000     6.3021     0.2666     0.0101     2.4373    85.2633     0.1464    91.0271
  314.0000     6.3033     0.2711    -0.0002     2.4307    87.2020     0.1509    91.0185
  314.5000     6.2747     0.2472     0.0179     2.4292    86.6257     0.1497    91.0099
  315.0000     6.2756     0.2418     0.0271     2.4341    86.6453     0.1485    91.0014
  315.5000     6.2468     0.2445     0.0242     2.4414    87.2525     0.1437    90.9925
  316.0000     6.2480     0.2495     0.0245     2.4460    84.7533     0.1389    90.9821
  316.5000     6.2490     0.2555     0.0306     2.4506    81.9543     0.1365    90.9735
  317.0000     6.2502     0.2602     0.0397     2.4522    83.4530     0.1352    90.9649
  317.5000     6.2660     0.2620     0.0220     2.4552    87.3151     0.1346    91.0311
  318.0000     6.2520     0.2614     0.0072     2.4553    84.9674     0.1352    91.2467
  318.5000     6.2384     0.2577     0.0194     2.4435    82.6160     0.1420    91.6097
  319.0000     6.2239     0.2541     0.0494     2.4158    79.6730     0.1577    93.3202
  319.5000     6.1959     0.2553     0.0496     2.3785    76.2862     0.1791    96.2264
  320.0000     6.1972     0.2711     0.0259     2.3419    74.3787     0.1937    98.0863
  320.5000     6.1831     0.2839     0.0156     2.3270    74.2502     0.2066   101.0672
  321.0000     6.1695     0.2875     0.0143     2.3117    72.4906     0.2176   102.2523
  321.5000     6.1557     0.2905     0.0369     2.3003    70.1393     0.2248   103.4396
  322.0000     6.1419     0.2912     0.0415     2.3064    70.3028     0.2253   102.2352
  322.5000     6.1431     0.2525     0.0387     2.3379    72.5373     0.2056    99.6855
  323.0000     6.1441     0.2037     0.0150     2.3761    72.7008     0.1846    94.4453
  323.5000     6.1451     0.1956    -0.0028     2.4256    71.3889     0.1469    85.8742
  324.0000     6.1609     0.1965    -0.0009     2.5305    70.2210     0.0921    76.7877
  324.5000     6.1619     0.2108     0.0036     2.5343    70.3845     0.0894    76.4802
  325.0000     6.1481     0.2347     0.0157     2.4895    70.4001     0.1253    78.5643
  325.5000     6.1493     0.2574     0.0518     2.4178    72.7924     0.1615    84.5348
  326.0000     6.1503     0.2657     0.0536     2.3617    72.2102     0.1934    92.8070
  326.5000     6.1513     0.2681     0.0520     2.3431    71.6302     0.2006    98.5664
  327.0000     6.1523     0.2704     0.0389     2.3380    71.7975     0.2024    98.6347
  327.5000     6.1830     0.2728     0.0256     2.3343    72.8486     0.2048    98.3997
  328.0000     6.1842     0.2767     0.0078     2.3314    74.9352     0.2065    98.2417
  328.5000     6.2000     0.2853     0.0155     2.3360    74.6549     0.2053    97.6353
  329.0000     6.2158     0.2862     0.0171     2.3405    74.5225     0.2017    97.8625
  329.5000     6.2168     0.2751     0.0141     2.3459    74.6899     0.1993    98.2160
  330.0000     6.2178     0.2775     0.0115     2.3467    79.2912     0.2004    98.6537
  330.5000     6.2188     0.2762     0.0207     2.3251    80.6598     0.2113    99.0936
  331.0000     6.2200     0.2741     0.0238     2.3185    76.9212     0.2159    99.3840
  331.5000     6.2210     0.2738     0.0180     2.3163    73.4246     0.2168    99.3752
  332.0000     6.2220     0.2744     0.0122     2.3231    74.1798     0.2093    99.0657
  332.5000     6.2230     0.2701     0.0062     2.3413    75.9706     0.1982    97.8613
  333.0000     6.2240     0.2576     0.0006     2.3518    77.1695     0.1931    96.5075
  333.5000     6.2252     0.2402     0.0008     2.3593    77.6361     0.1871    93.6588
  334.0000     6.2262     0.2166     0.0130     2.3886    74.2919     0.1739    88.2333
  334.5000     6.2272     0.2046     0.0191     2.4314    70.1195     0.1476    80.0372
  335.0000     6.2281     0.2019     0.0193     2.4838    67.1765     0.1116    79.0570
  335.5000     6.2292     0.2084     0.0359     2.5020    64.8252     0.1068    79.5716
  336.0000     6.2302     0.2293     0.0675     2.4795    63.6568     0.1154    82.9263
