~VERSION INFORMATION
 VERS.                2.0:   CWLS LOG ASCII STANDARD - VERSION 2.0
 WRAP.                 NO:   ONE LINE PER DEPTH STEP
~WELL INFORMATION
#MNEM.UNIT      DATA TYPE    INFORMATION
#----------   ------------   ------------------------------
 STRT.F           34.0000:   START DEPTH
 STOP.F          517.0000:   STOP DEPTH
 STEP.F            0.5000:   STEP LENGTH
 NULL.          -999.2500:   NO VALUE
 COMP.    FENIX & SCISSON:   COMPANY
 WELL.       NPR #77-S-10:   WELL
 FLD .             TEAPOT:   FIELD
 LOC .      S10 T38N R78W:   LOCATION
 CNTY.            NATRONA:   COUNTY
 STAT.            WYOMING:   STATE
 CTRY. UNITED STATES OF AMERICA:   COUNTRY
 SRVC.              Welex:   SERVICE COMPANY
 DATE.        16-APR-1977:   LOGDATE
 API .       490251033600:   API NUMBER
~CURVE INFORMATION
#MNEM.UNIT       API CODE    CURVE DESCRIPTION
#----------   ------------   ------------------------------
 DEPT.F                  :   
 SPR .MV     07 010 01 00:   SPONTANEOUS POTENTIAL
 ILD .OHMM   07 120 46 00:   INDUCTION LOG DEEP
 ILM .OHMM   07 120 44 00:   INDUCTION LOG MEDIUM
 SGRD.OHMM   07 221 05 00:   SHALLOW SHORT GUARD RESISTIVITY
 CALD.IN     45 280 60 00:   CALIPER FROM DENSITY LOG
 GRD .GAPI   45 310 01 00:   GAMMA RAY FROM DENSITY LOG
 CORR.G/C3   45 356 01 00:   DENSITY CORRECTION
 RHOB.G/C3   45 350 01 00:   BULK DENSITY
 DPHI.DEC    45 890 12 00:   DENSITY POROSITY SANDSTONE
~PARAMETER INFORMATION
#MNEM.UNIT          VALUE    DESCRIPTION
#----------   ------------   ------------------------------
 PD  .                 GL:   PERMANENT DATUM
 EPD .F              5210:   ELEVATION PERMANENT DATUM
 LMF .                 GL:   LOG MEASURED FROM
 DMF .                 GL:   DRILLING MEASURED FROM
 EGL .F              5210:   GROUND LEVEL
 DATE.        16-APR-1977:   RUN DATE
 RUN .                  1:   RUN NUMBER
 DD  .F               525:   DEPTH DRILLER
 DL  .F               519:   DEPTH LOGGER
 BLI .F               517:   BOTTOM LOG INTERVAL
 TLI .F                30:   TOP LOG INTERVAL
 CS  .IN            8.625:   CASING SIZE
 BS  .IN            7.875:   BIT SIZE
 BSD .F               525:   BIT SIZE AT DEPTH
 DFT .            KCL MUD:   DRILLING FLUID TYPE
 DFD .                8.9:   DRILLING FLUID DENSITY
 BHT .F                61:   BOTTOM HOLE TEMPERATURE
 TCS .HRS            0300:   TIME CURCULATED STOPPED
 MRT .F                61:   MAXIMUM RECORDED TEMPERATURE
 ENGI.               DOAK:   RECORDING ENGINEER
 WITN.      B. HARRINGTON:   WITNESSED BY
 CLNT.            A2DTECH:   CLIENT CODE
 ORIG.           5" PRINT:   ORIGIN OF DATA
 UWI .       490251033600:   UNIQUE WELL ID
 DICO. A2D Technologies, Inc.:   DIGITIZING COMPANY
~OTHER INFORMATION
~A   DEPT      SPR        ILD        ILM       SGRD       CALD        GRD       CORR       RHOB       DPHI   
# ...
  326.0000   -38.2833    22.9898    29.7920    31.9969     7.7326    68.6248     0.0292     2.3247     0.1929
  326.5000   -38.2671    22.3778    29.3899    28.2782     7.7481    68.1836     0.0277     2.3277     0.1911
  327.0000   -38.2509    21.7787    28.8245    24.4802     7.7786    67.7440     0.0321     2.3337     0.1869
  327.5000   -38.2347    21.3457    28.8470    22.5489     7.7791    67.9006     0.0366     2.3398     0.1812
  328.0000   -38.3714    21.2120    30.5762    21.7968     7.7797    68.3561     0.0395     2.3457     0.1768
  328.5000   -38.3511    21.0792    30.7430    27.9521     7.7653    68.8117     0.0410     2.3510     0.1726
  329.0000   -38.3349    20.9471    30.9841    34.8706     7.7660    69.1194     0.0394     2.3570     0.1687
  329.5000   -38.3187    20.9633    32.0966    25.5839     7.7515    69.1265     0.0334     2.3645     0.1696
  330.0000   -38.3025    21.1214    36.3714    28.9798     7.7522    68.5357     0.0273     2.3559     0.1747
  330.5000   -38.4351    21.2807    38.4659    39.2708     7.7529    67.9449     0.0228     2.3390     0.1837
  331.0000   -38.4189    21.7392    39.0228    40.1134     7.7510    67.5036     0.0197     2.3383     0.1828
  331.5000   -38.5521    22.5160    37.9957    30.6733     7.7486    67.3612     0.0182     2.3465     0.1785
  332.0000   -38.6845    22.6858    36.9886    28.0592     7.7462    67.3700     0.0196     2.3525     0.1747
  332.5000   -38.6679    22.8570    36.2508    36.9890     7.7438    67.5266     0.0211     2.3594     0.1717
  333.0000   -38.6517    23.1888    35.0538    23.4046     7.7410    67.9821     0.0241     2.3578     0.1733
  333.5000   -38.6354    23.5255    32.2909    35.6161     7.7565    68.4394     0.0255     2.3496     0.1778
  334.0000   -38.6190    24.7047    31.2188    46.8495     7.7571    68.5960     0.0270     2.3541     0.1745
  334.5000   -38.6017    25.7647    36.1170    45.5946     7.7725    68.6031     0.0269     2.3563     0.1733
  335.0000   -38.7357    26.3197    36.3878    40.1649     7.7733    68.1617     0.0254     2.3524     0.1766
  335.5000   -38.7181    26.8930    31.2895    29.9738     7.7887    68.4828     0.0223     2.3421     0.1820
  336.0000   -38.6992    27.2773    28.0382    21.8401     7.8042    69.9714     0.0192     2.3294     0.1904
  336.5000   -38.6830    27.1062    27.6694    22.7749     7.8197    72.7191     0.0162     2.3219     0.1935
  337.0000   -38.6668    26.9364    29.6752    44.1671     7.8352    77.1660     0.0162     2.3324     0.1865
  337.5000   -38.5018    26.7377    30.5292    39.5760     7.8509    78.7120     0.0207     2.3639     0.1634
  338.0000   -38.3367    25.5253    29.9259    29.0361     7.8663    78.5003     0.0266     2.3776     0.1539
  338.5000   -38.3205    25.3615    28.5355    27.3043     7.8669    79.7115     0.0326     2.3923     0.1526
  339.0000   -38.3043    25.5568    28.3552    30.9286     7.8824    80.6098     0.0340     2.3886     0.1545
  339.5000   -38.2881    25.5725    30.6215    35.7661     7.8847    80.1629     0.0355     2.3871     0.1548
  340.0000   -38.4248    25.5883    30.8511    34.0997     7.8986    80.1647     0.0354     2.3879     0.1545
  340.5000   -38.5533    24.9071    30.0380    31.6267     7.9141    80.1662     0.0354     2.3886     0.1536
  341.0000   -38.6900    23.4220    28.8418    29.9460     7.9147    79.4203     0.0338     2.3916     0.1518
  341.5000   -38.9714    22.3315    27.8842    28.1599     7.9152    78.0761     0.0323     2.3980     0.1488
  342.0000   -39.1040    21.5876    26.2240    26.7575     7.9159    78.3769     0.0322     2.4074     0.1441
  342.5000   -39.3814    20.7250    24.1571    38.5821     7.9165    78.9762     0.0322     2.4126     0.1390
  343.0000   -39.5180    20.4504    23.5166    30.5500     7.9171    79.2763     0.0322     2.4179     0.1363
  343.5000   -39.4978    20.0438    23.5345    27.0805     7.9176    76.8865     0.0306     2.4179     0.1414
  344.0000   -39.4815    19.6484    23.5524    26.7236     7.9182    77.1869     0.0276     2.3984     0.1477
  344.5000   -39.4653    19.3881    23.0807    26.9250     7.9189    77.7863     0.0245     2.3887     0.1534
  345.0000   -39.4491    19.0026    22.3002    27.5027     7.9195    78.2362     0.0215     2.3827     0.1561
  345.5000   -39.4329    18.7566    21.8793    27.5177     7.9200    77.1873     0.0184     2.3805     0.1579
  346.0000   -39.4167    18.5081    22.5094    27.1557     7.9206    74.0179     0.0169     2.3820     0.1588
  346.5000   -39.4003    18.2658    22.3709    26.6144     7.9212    73.4573     0.0138     2.3805     0.1594
  347.0000   -39.3839    18.1514    22.6255    26.0839     7.9217    74.8045     0.0138     2.3767     0.1609
  347.5000   -39.3676    18.0400    25.1997    25.5639     7.9145    76.0018     0.0137     2.3715     0.1633
  348.0000   -39.3512    18.0516    27.2086    24.8822     7.9078    77.4980     0.0107     2.3625     0.1685
  348.5000   -39.3316    18.1877    28.3808    24.8958     7.9011    78.5458     0.0076     2.3534     0.1759
  349.0000   -39.3154    18.4518    28.7972    25.6059     7.8945    79.4441     0.0046     2.3490     0.1786
  349.5000   -39.2992    18.5910    28.2281    27.2598     7.8878    79.8940     0.0030     2.3513     0.1750
  350.0000   -39.2846    18.9914    27.8568    29.6271     7.8806    79.5965     0.0015     2.3594     0.1712
  350.5000   -39.2713    19.8096    27.3081    32.3365     7.9101    78.4022     0.0030     2.3727     0.1658
  351.0000   -39.4102    20.2397    27.5182    33.2499     7.9245    77.5068     0.0074     2.3835     0.1559
  351.5000   -39.5457    20.5370    29.7328    33.2704     7.9390    77.2093     0.0119     2.3993     0.1454
  352.0000   -39.6786    20.6877    30.5670    32.8347     7.9385    75.5665     0.0223     2.4195     0.1361
  352.5000   -39.8140    20.7020    29.1140    31.9607     7.9381    74.5167     0.0298     2.4394     0.1295
  353.0000   -39.8002    20.5625    27.3744    31.1100     7.9526    74.3736     0.0345     2.4542     0.1229
  353.5000   -39.9360    20.0273    25.9172    30.2818     7.9520    77.6756     0.0345     2.4562     0.1211
  354.0000   -40.0714    19.6022    25.2702    29.6798     7.9366    82.0003     0.0330     2.4345     0.1273
  354.5000   -40.0580    18.8323    24.9174    28.8898     7.9362    84.3934     0.0330     2.4061     0.1420
  355.0000   -40.0425    18.4576    24.7896    28.0326     7.9508    86.6370     0.0330     2.3746     0.1564
  355.5000   -40.0208    18.1081    24.8092    26.8129     7.9503    88.7311     0.0330     2.3686     0.1666
  356.0000   -39.8690    17.7303    24.8318    24.6977     7.9498    89.9281     0.0345     2.3746     0.1618
  356.5000   -39.8557    17.4978    24.8506    24.3743     7.9494    89.1825     0.0314     2.3716     0.1627
  357.0000   -39.8423    17.4097    24.8694    24.3893     7.9340    87.8387     0.0269     2.3597     0.1689
  357.5000   -39.8263    17.6637    24.8882    24.4044     7.9336    86.4949     0.0239     2.3552     0.1728
  358.0000   -39.9651    17.3138    24.7310    24.2515     7.9182    85.0015     0.0239     2.3702     0.1713
  358.5000   -39.9485    17.0912    24.4149    24.2665     7.9177    83.8072     0.0223     2.3777     0.1659
  359.0000   -39.9364    16.8657    24.0983    24.4496     7.9172    82.0150     0.0223     2.3815     0.1605
  359.5000   -39.9220    16.6489    22.8206    24.6340     7.9168    80.8206     0.0238     2.3852     0.1570
  360.0000   -39.9087    16.8918    22.0588    21.9213     7.9164    81.6093     0.0238     2.3822     0.1578
  360.5000   -39.8955    17.2569    22.8552    22.0867     7.9159    82.3183     0.0223     2.3739     0.1623
  361.0000   -39.9368    17.2688    23.6758    23.3544     7.9155    80.6759     0.0192     2.3612     0.1683
  361.5000   -40.0210    17.2807    24.1896    24.0227     7.9150    80.3780     0.0177     2.3492     0.1731
  362.0000   -40.0044    17.1737    24.3710    24.2039     7.9146    81.1273     0.0147     2.3380     0.1790
