~VERSION INFORMATION
 VERS.                2.0:   CWLS LOG ASCII STANDARD - VERSION 2.0
 WRAP.                 NO:   ONE LINE PER DEPTH STEP
~WELL INFORMATION
#MNEM.UNIT      DATA TYPE    INFORMATION
#----------   ------------   ------------------------------
 STRT.F           64.0000:   START DEPTH
 STOP.F          795.0000:   STOP DEPTH
 STEP.F            0.5000:   STEP LENGTH
 NULL.          -999.2500:   NO VALUE
 COMP. LAWRENCE/ALLISON INC:   COMPANY
 WELL.      23-61 SX #2-2:   WELL
 FLD .             TEAPOT:   FIELD
 LOC .       S2 T38N R78W:   LOCATION
 CNTY.            NATRONA:   COUNTY
 STAT.            WYOMING:   STATE
 CTRY. UNITED STATES OF AMERICA:   COUNTRY
 SRVC.              Welex:   SERVICE COMPANY
 DATE.        14-AUG-1985:   LOGDATE
 API .       490251103800:   API NUMBER
~CURVE INFORMATION
#MNEM.UNIT       API CODE    CURVE DESCRIPTION
#----------   ------------   ------------------------------
 DEPT.F                  :   
 SPR .MV     07 010 01 00:   SPONTANEOUS POTENTIAL
 ILD .OHMM   07 120 46 00:   INDUCTION LOG DEEP
 ILM .OHMM   07 120 44 00:   INDUCTION LOG MEDIUM
 SGRD.OHMM   07 221 05 00:   SHALLOW SHORT GUARD RESISTIVITY
 DPHI.DEC    45 890 12 00:   DENSITY POROSITY SANDSTONE
 NPHI.DEC    42 890 03 00:   NEUTRON POROSITY SANDSTONE
 GRD .GAPI   45 310 01 00:   GAMMA RAY FROM DENSITY LOG
 CALD.IN     45 280 60 00:   CALIPER FROM DENSITY
 CORR.G/C3   45 356 01 00:   DENSITY CORRECTION
 RHOB.G/C3   45 350 01 00:   BULK DENSITY
~PARAMETER INFORMATION
#MNEM.UNIT          VALUE    DESCRIPTION
#----------   ------------   ------------------------------
 PD  .                 GL:   PERMANENT DATUM
 EPD .F              5112:   ELEVATION PERMANENT DATUM
 LMF .                 GL:   LOG MEASURED FROM
 DMF .                 GL:   DRILLING MEASURED FROM
 EGL .F              5112:   GROUND LEVEL
 DATE.        14-AUG-1985:   RUN DATE
 RUN .                  1:   RUN NUMBER
 DD  .F               800:   DEPTH DRILLER
 DL  .F               797:   DEPTH LOGGER
 BLI .F               795:   BOTTOM LOG INTERVAL
 TLI .F                76:   TOP LOG INTERVAL
 CS  .IN            8.625:   CASING SIZE
 CBD .F                76:   CASING BOTTOM DRILLER
 CBL .F                76:   CASING BOTTOM LOGGER
 BS  .IN            7.875:   BIT SIZE
 BSD .F               800:   BIT SIZE AT DEPTH
 DFT .                KCL:   DRILLING FLUID TYPE
 MSS .               TANK:   MUD SAMPLE SOURCE
 RMS .OHMM           0.22:   RESISTIVITY MUD SAMPLE
 MST .F                64:   MUD SAMPLE TEMPERATURE
 MFSS.               MEAS:   MUD FILTRATE SAMPLE SOURCE
 TCS .HRS            2230:   TIME CURCULATED STOPPED
 TLAB.HRS            0200:   TIME LOGGER AT BOTTOM
 LUN .               1892:   LOGGING UNIT NUMBER
 LUL .             CASPER:   LOGGING UNIT LOCATION
 ENGI.         T. QUINLAN:   RECORDING ENGINEER
 WITN.        N. JENNINGS:   WITNESSED BY
 CLNT.            A2DTECH:   CLIENT CODE
 ORIG.        2" 5" PRINT:   ORIGIN OF DATA
 UWI .       490251103800:   UNIQUE WELL ID
 DICO. A2D Technologies, Inc.:   DIGITIZING COMPANY
 R1  . POROSITY WITH SANDSTONE:   REMARKS 1
~OTHER INFORMATION
~A   DEPT      SPR        ILD        ILM       SGRD       DPHI       NPHI         GRD      CALD       CORR       RHOB   
# ...
  265.0000   -52.9148     7.0232     8.5130     9.5189     0.1422     0.3154   101.7460     8.0089     0.0314     2.4423
  265.5000   -52.4664     7.1042     8.5083     9.3166     0.1425     0.3155   103.5536     8.0089     0.0313     2.4383
  266.0000   -52.1674     7.2288     8.5036     9.5084     0.1456     0.3204   105.6151     8.0089     0.0288     2.4351
  266.5000   -50.9716     7.3079     8.4988     9.8405     0.1475     0.3234   106.4500     8.0089     0.0272     2.4321
  267.0000   -49.9253     7.3539     8.4941    10.0445     0.1496     0.3242   105.8431     8.0089     0.0249     2.4297
  267.5000   -49.6263     7.4521     8.4894    10.0375     0.1493     0.3204   104.6409     8.0089     0.0218     2.4319
  268.0000   -51.4200     7.4991     8.4847    10.0319     0.1445     0.3169   103.4386     8.0089     0.0249     2.4409
  268.5000   -52.1674     7.4926     8.4800    10.0966     0.1394     0.3152   102.2364     8.0089     0.0307     2.4498
  269.0000   -52.4664     7.4874     8.4753    10.2328     0.1352     0.3180   101.0342     8.0089     0.0338     2.4566
  269.5000   -52.7653     7.4823     8.5311    10.2988     0.1319     0.3217   101.6206     8.0089     0.0375     2.4625
  270.0000   -53.2138     7.4771     8.5861    10.2930     0.1292     0.3232   102.2041     8.0089     0.0419     2.4655
  270.5000   -53.3632     7.4719     8.6414    10.0742     0.1312     0.3238   103.0853     8.0089     0.0425     2.4585
  271.0000   -53.6622     7.3121     8.6354     9.8600     0.1333     0.3248   104.2611     8.0089     0.0394     2.4531
  271.5000   -53.9611     7.2562     8.6306     9.5829     0.1367     0.3260   105.4398     8.0089     0.0362     2.4432
  272.0000   -53.9611     7.1507     8.5658     9.3778     0.1413     0.3269   105.7262     8.0089     0.0331     2.4370
  272.5000   -53.9611     7.0961     8.4424     9.2444     0.1439     0.3258   105.7139     8.0089     0.0300     2.4377
  273.0000   -54.1106     7.0418     8.4377     9.2392     0.1446     0.3246   105.7022     8.0089     0.0307     2.4353
  273.5000   -54.1106     7.0370     8.3162     9.2341     0.1464     0.3240   105.3928     8.0089     0.0328     2.4306
  274.0000   -54.5590     7.0321     8.1964     9.2289     0.1495     0.3234   103.2817     8.0089     0.0335     2.4313
  274.5000   -54.5590     7.0272     8.1919     9.2976     0.1453     0.3244   101.7647     8.0089     0.0357     2.4395
  275.0000   -54.5590     6.9736     8.1873     9.4139     0.1405     0.3256   100.8928     8.0089     0.0402     2.4477
  275.5000   -54.5590     6.8722     8.1828     9.4745     0.1369     0.3262   101.4739     8.0089     0.0476     2.4561
  276.0000   -54.7085     6.8196     8.1782     9.3367     0.1345     0.3268   102.0603     8.0089     0.0483     2.4566
  276.5000   -55.0075     6.7674     8.1737     9.2667     0.1372     0.3245   103.2391     8.0089     0.0414     2.4486
  277.0000   -54.8580     6.7627     8.1692     9.3264     0.1412     0.3213   105.6054     8.0089     0.0345     2.4416
  277.5000   -54.1106     6.8055     8.1646     9.4522     0.1464     0.3178   107.9746     8.0089     0.0283     2.4320
  278.0000   -52.1674     6.8484     8.1601     9.5810     0.1519     0.3136   109.7515     8.0089     0.0222     2.4243
  278.5000   -51.5695     6.8904     8.1556     9.3761     0.1537     0.3128   107.6535     8.0089     0.0183     2.4220
  279.0000   -51.5695     7.0325     8.3246     9.3708     0.1528     0.3143   104.6656     8.0089     0.0197     2.4242
  279.5000   -51.1211     7.1763     8.5543     9.3656     0.1486     0.3161   105.5467     8.0089     0.0234     2.4377
  280.0000   -50.3737     7.2709     8.7344     9.1028     0.1369     0.3174   106.4278     8.0089     0.0271     2.4694
  280.5000   -49.1779     7.4195     8.8593     9.0345     0.1198     0.3114   106.7166     7.9643     0.0293     2.5147
  281.0000   -49.1779     7.4144     9.0936    10.3095     0.1021     0.3053   105.2138     7.9494     0.0300     2.5328
  281.5000   -49.7758     7.5147     9.0883    13.3389     0.0882     0.2960   101.6307     7.9048     0.0291     2.5441
  282.0000   -51.7190     7.5621     8.8333    17.0192     0.0833     0.2948    94.1785     7.8899     0.0275     2.5227
  282.5000   -52.1674     7.6098     8.6345    14.5892     0.0976     0.2997    88.8096     7.9048     0.0221     2.5045
  283.0000   -52.1674     7.5503     8.3435    10.5778     0.1119     0.3039    88.5002     7.9669     0.0198     2.4816
  283.5000   -52.7653     7.3888     8.2808     9.3242     0.1198     0.3115    92.8092     8.0238     0.0219     2.4686
  284.0000   -53.3632     7.3323     8.3354     9.0007     0.1289     0.3152    96.6230     8.0387     0.0279     2.4617
  284.5000   -53.6622     7.1755     8.3296     9.5774     0.1332     0.3188   101.2597     7.9940     0.0324     2.4571
  285.0000   -53.6522     7.1705     8.5022     9.7760     0.1351     0.3219   103.0366     7.9792     0.0330     2.4562
  285.5000   -52.7264     7.3184     8.5570     9.7692     0.1354     0.3246   103.9177     7.9643     0.0337     2.4561
  286.0000   -50.9236     7.4667     8.7320     9.7638     0.1348     0.3265   103.0102     7.9643     0.0336     2.4560
  286.5000   -49.1024     7.6194     8.7894     9.7583     0.1315     0.3249   102.7008     7.9643     0.0365     2.4582
  287.0000   -47.5117     7.8118     8.7833     9.8226     0.1319     0.3189   101.7962     7.9643     0.0357     2.4612
  287.5000   -46.5868     7.9907     8.7785    10.0936     0.1292     0.3128   101.7845     7.9792     0.0340     2.4717
  288.0000   -46.1883     8.2097     8.5321    10.3014     0.1240     0.3092   103.8561     7.9792     0.0446     2.4859
  288.5000   -46.9357     8.1470     8.2350    10.8110     0.1183     0.3108   105.9277     7.9792     0.0521     2.4736
  289.0000   -48.5800     7.9727     8.0039    11.1108     0.1266     0.3143   107.1064     7.9643     0.0543     2.4675
  289.5000   -50.5232     7.9118     7.8886    11.1047     0.1300     0.3155   107.6929     7.9643     0.0542     2.4613
  290.0000   -52.1674     8.0736     8.0521    10.6435     0.1315     0.3158   108.8687     7.9643     0.0541     2.4582
  290.5000   -50.3737     8.4718     8.5085    10.4901     0.1331     0.3180   109.4524     7.9792     0.0517     2.4558
  291.0000   -48.2810     8.8897     8.8057    10.3390     0.1353     0.3195   109.1428     7.9792     0.0478     2.4542
  291.5000   -46.6368     9.0731     9.0499    10.3333     0.1367     0.3168   107.6212     7.9940     0.0356     2.4518
  292.0000   -47.6831     8.6331     8.4943    10.3275     0.1370     0.3144   102.7579     8.0089     0.0302     2.4517
  292.5000   -47.9821     8.3897     8.2559    10.5402     0.1380     0.3123   102.5600     8.0089     0.0294     2.4516
  293.0000   -47.5336     8.3256     8.3091    10.8330     0.1356     0.3129   107.6185     8.0089     0.0346     2.4538
  293.5000   -47.0852     8.4367     8.4802    11.2131     0.1344     0.3145   114.4393     8.0089     0.0375     2.4552
  294.0000   -49.1779     8.7302     8.7154    11.5217     0.1332     0.3157   117.7014     8.0238     0.0374     2.4596
  294.5000   -50.3737     8.9087     8.9583    11.6833     0.1305     0.3164   120.6687     8.0238     0.0366     2.4656
  295.0000   -50.3737     9.0909     9.2055    11.7605     0.1260     0.3149   114.7017     8.0238     0.0373     2.4753
  295.5000   -49.4768     9.0845     9.2004    11.8281     0.1206     0.3122   109.9280     8.0238     0.0402     2.4858
  296.0000   -48.8789     9.0782     9.1953    11.8214     0.1164     0.3083   106.0473     8.0238     0.0462     2.4910
  296.5000   -48.5800     9.1355     9.3193    11.9116     0.1149     0.3050   102.4641     8.0261     0.0529     2.4886
  297.0000   -47.8326     9.2575     9.4450    12.0582     0.1177     0.3059   101.5595     8.0387     0.0498     2.4786
  297.5000   -46.1883     9.3159     9.6395    12.1359     0.1238     0.3096   102.7680     8.0536     0.0436     2.4708
  298.0000   -45.1420     9.4386     9.7017    12.3841     0.1277     0.3123   104.8414     8.0536     0.0375     2.4670
