~VERSION INFORMATION
 VERS.                2.0:   CWLS LOG ASCII STANDARD - VERSION 2.0
 WRAP.                 NO:   ONE LINE PER DEPTH STEP
~WELL INFORMATION
#MNEM.UNIT      DATA TYPE    INFORMATION
#----------   ------------   ------------------------------
 STRT.F           30.0000:   START DEPTH
 STOP.F          602.0000:   STOP DEPTH
 STEP.F            0.5000:   STEP LENGTH
 NULL.          -999.2500:   NO VALUE
 COMP. FENIX & SCISSON U.S NAVY:   COMPANY
 WELL.   S-3 NPR #3 #51-3:   WELL
 FLD .             TEAPOT:   FIELD
 LOC .       S3 T38N R78W:   LOCATION
 CNTY.            NATRONA:   COUNTY
 STAT.            WYOMING:   STATE
 CTRY. UNITED STATES OF AMERICA:   COUNTRY
 SRVC.              Welex:   SERVICE COMPANY
 DATE.        08-MAR-1977:   LOGDATE
 API .       490251030800:   API NUMBER
~CURVE INFORMATION
#MNEM.UNIT       API CODE    CURVE DESCRIPTION
#----------   ------------   ------------------------------
 DEPT.F                  :   
 SPR .MV     07 010 01 00:   SPONTANEOUS POTENTIAL
 ILD .OHMM   07 120 46 00:   INDUCTION LOG DEEP
 ILM .OHMM   07 120 44 00:   INDUCTION LOG MEDIUM
 SGRD.OHMM   07 221 05 00:   SHALLOW SHORT GUARD RESISTIVITY
 CALD.IN     45 280 60 00:   CALIPER FROM DENSITY LOG
 CORR.G/C3   45 356 01 00:   DENSITY CORRECTION
 RHOB.G/C3   45 350 01 00:   BULK DENSITY
 DPHI.DEC    45 890 12 00:   DENSITY POROSITY SANDSTONE
 GRD .GAPI   45 310 01 00:   GAMMA RAY FROM DENSITY LOG
~PARAMETER INFORMATION
#MNEM.UNIT          VALUE    DESCRIPTION
#----------   ------------   ------------------------------
 PD  .                 GL:   PERMANENT DATUM
 EPD .F              5140:   ELEVATION PERMANENT DATUM
 LMF .                 GL:   LOG MEASURED FROM
 DAPD.F                  :   FEET ABOVE PERMANENT DATUM
 DMF .                 GL:   DRILLING MEASURED FROM
 EKB .F                  :   KELLING BUSHING
 EDF .F                  :   DRILLING FLOOR
 EGL .F              5140:   GROUND LEVEL
 DATE.             3-8-77:   RUN DATE
 RUN .                  1:   RUN NUMBER
 DD  .F               611:   DEPTH DRILLER
 DL  .F               555:   DEPTH LOGGER
 BLI .F               553:   BOTTOM LOG INTERVAL
 TLI .F                40:   TOP LOG INTERVAL
 CS  .IN            8.625:   CASING SIZE
 CBD .F                40:   CASING BOTTOM DRILLER
 CBL .F                40:   CASING BOTTOM LOGGER
 BS  .IN            7.875:   BIT SIZE
 BSD .F               611:   BIT SIZE AT DEPTH
 DFT .           CHEM GEL:   DRILLING FLUID TYPE
 DFD .                8.6:   DRILLING FLUID DENSITY
 DFV .                 42:   DRILLING FLUID VISCOSITY
 DFPH.                  8:   DRILLING FLUID PH
 DFL .                3.2:   DRILLING FLUID LOSS
 MSS .           FLOWLINE:   MUD SAMPLE SOURCE
 RMS .OHMM           1.49:   RESISTIVITY MUD SAMPLE
 MST .F                48:   MUD SAMPLE TEMPERATURE
 RMF .OHMM           1.07:   RESISTIVITY MUD FILTRATE SAMPLE
 MFST.F                48:   MUD FILTRATE SAMPLE TEMPERATURE
 RMC .OHMM           2.34:   RESISTIVITY MUD CAKE
 MCST.F                48:   MUD CAKE SAMPLE TEMPERATURE
 MFSS.           MEASURED:   MUD FILTRATE SAMPLE SOURCE
 MCSS.           MEASURED:   MUD CAKE SAMPLE SOURCE
 RMB .OHMM           1.19:   RESISTIVITY MUD AT BHT
 BHT .F                60:   BOTTOM HOLE TEMPERATURE
 TCS .HRS               2:   TIME CURCULATED STOPPED
 TLAB.HRS                :   TIME LOGGER AT BOTTOM
 MRT .F                60:   MAXIMUM RECORDED TEMPERATURE
 LUN .               0716:   LOGGING UNIT NUMBER
 LUL .             VERNAL:   LOGGING UNIT LOCATION
 ENGI.           CALLAHAN:   RECORDING ENGINEER
 WITN.         STUEBINGER:   WITNESSED BY
 CLNT.            A2DTECH:   CLIENT CODE
 ORIG.       2", 5" PRINT:   ORIGIN OF DATA
 UWI .       490251030800:   UNIQUE WELL ID
 DICO. A2D Technologies, Inc.:   DIGITIZING COMPANY
 OS  .                   :   OTHER SERVICES
 PWI .                   :   PRIMARY WELL IDENTIFIER
 R1  .                   :   REMARKS 1
 R2  .                   :   REMARKS 2
 LSRV.                   :   LOG MNEMONIC
~OTHER INFORMATION
~A   DEPT      SPR        ILD        ILM       SGRD       CALD       CORR       RHOB       DPHI        GRD   
# ...
  103.0000   -71.0631     9.7083     9.6896  2000.0000     7.9302     0.0299     2.4977     0.0930   122.0453
  103.5000   -71.5092     9.5049     9.4774  2000.0000     7.9450     0.0359     2.5037     0.0885   120.8349
  104.0000   -71.2139     9.3705     9.2790  1585.1267     7.9449     0.0464     2.5067     0.0897   120.3807
  104.5000   -70.4682     9.2313     9.1478   152.2303     7.9448     0.0509     2.5082     0.0869   120.6814
  105.0000   -70.3218     9.0435     8.9555    18.2022     7.9276     0.0434     2.5007     0.0872   120.9820
  105.5000   -70.3281     8.9156     8.8289     9.6591     7.9145     0.0237     2.4909     0.0960   121.1316
  106.0000   -70.1830     8.7895     8.7041     8.1445     7.8844     0.0298     2.4848     0.0984   120.6766
  106.5000   -68.3875     8.7254     8.7006     5.2265     7.8843     0.0237     2.4909     0.0996   119.9199
  107.0000   -64.6388     8.7219     8.6972     6.4755     7.8841     0.0342     2.5029     0.0981   117.5005
  107.5000   -57.8870     8.7782     8.8140     6.5265     7.8990     0.0492     2.5112     0.0873   118.3233
  108.0000   -50.3846     8.8980     8.8726     6.7298     7.8988     0.0537     2.5119     0.0846   120.3683
  108.5000   -42.4724     9.0803     8.9307     7.6903     7.9286     0.0401     2.5059     0.0849   120.3669
  109.0000   -31.7773     9.1401     9.0506     7.0742     7.9284     0.0311     2.4931     0.0973   120.6679
  109.5000   -29.9805     9.0725     9.3664     9.5895     7.9283     0.0265     2.4705     0.1095   121.1192
  110.0000   -28.9345     8.8824     9.9634    10.2031     7.9281     0.0340     2.4923     0.1122   122.3262
  110.5000   -28.1875     8.6964     9.6866     8.1147     7.9280     0.0295     2.4938     0.1005   124.2946
  111.0000   -28.0435     8.6329     8.7888     9.1873     7.9278    -0.0007     2.4735     0.1101   125.4955
  111.5000   -27.7332     8.6286     8.6048     7.9407     7.9277    -0.0127     2.4525     0.1183   125.0405
  112.0000   -27.1541     8.6852     8.6611     9.1801     7.9275     0.0008     2.4697     0.1198   124.4348
  112.5000   -27.0077     8.6817     8.8998    11.2953     7.9274     0.0173     2.4961     0.0972   123.6781
  113.0000   -27.0140     8.7386     8.9580    11.9341     7.9272     0.0308     2.5066     0.0879   123.2235
  113.5000   -27.0190     8.7959     8.9545    11.9291     7.9271     0.0338     2.5096     0.0860   123.2220
  114.0000   -27.0240     8.9150     8.9509    11.9234     7.9269     0.0353     2.5103     0.0837   123.6737
  114.5000   -27.0303     8.9734     8.9474    11.9186     7.9268     0.0307     2.5064     0.0960   124.3711
  115.0000   -27.3357     9.0322     8.9437    12.0801     7.9266     0.0262     2.4884     0.0981   126.2388
  115.5000   -27.3407     9.0913     9.0640    12.7631     7.9265     0.0171     2.4832     0.1014   125.1796
  116.0000   -27.0454     9.0868     9.1242    12.2187     7.9413     0.0231     2.4637     0.0996   123.9696
  116.5000   -27.0504     9.1463     9.1839    11.9824     7.9562     0.0336     2.4607     0.1066   124.7235
  117.0000   -27.3654     9.2702     9.3074    12.4846     7.9410     0.0381     2.4757     0.1099   125.4773
  117.5000   -27.8125     9.2656     9.4333    13.2822     7.9259     0.0428     2.4689     0.1126   126.3847
  118.0000   -27.6674     9.3273     9.6264    14.0333     7.8808     0.0592     2.4411     0.1237   127.3112
  118.5000   -27.6724     9.3226     9.7567    13.4540     7.8330     0.0757     2.4380     0.1255   128.3426
  119.0000   -27.6775     9.3188     9.8215    13.8279     7.7308     0.0892     2.4575     0.1156   128.4926
  119.5000   -27.5323     9.3143     9.8167    14.1140     7.6408     0.0937     2.4869     0.1057   128.3397
  120.0000   -27.5375     9.3106     9.8127    13.7216     7.5659     0.0937     2.5042     0.0958   128.0362
  120.5000   -27.5437     9.3070     9.8079    13.2493     7.4909     0.0921     2.5125     0.0864   127.8836
  121.0000   -28.2994     9.3033     9.8040    12.9718     7.4608     0.0891     2.5049     0.0849   127.7311
  121.5000   -28.4546     9.3642     9.8692    13.1462     7.5055     0.0519     2.4786     0.0967   127.7296
  122.0000   -28.3093     9.4911     9.9329    13.3242     7.5707     0.0300     2.4658     0.1126   128.1810
  122.5000   -28.3146     9.6196    10.1371    13.7882     7.7298     0.0227     2.4764     0.1102   128.7838
  123.0000   -28.3208     9.7489    10.2743    13.9763     7.8494     0.0167     2.4787     0.1054   129.8397
  123.5000   -28.3259     9.8810    10.4124    13.9694     7.8642     0.0212     2.4957     0.0994   131.4999
  124.0000   -28.9319     9.9457    10.4082    13.6652     7.8791     0.0121     2.5057     0.0976   133.4622
  124.5000   -29.3874     9.9408    10.3324    13.1136     7.8789    -0.0030     2.4650     0.1087   134.6727
  125.0000   -29.8429     9.9369    10.3283    13.0179     7.8787    -0.0166     2.4515     0.1207   135.2720
  125.5000   -30.1482     9.9329    10.3232    13.1045     7.8936    -0.0061     2.4695     0.1150   134.6663
  126.0000   -30.1532     9.9290    10.3918    13.1892     7.9084     0.0060     2.4786     0.1098   135.5712
  126.5000   -30.1584     9.9250    10.3866    13.2754     7.9082     0.0182     2.4973     0.1018   134.6630
  127.0000   -30.1645     9.9901    10.6739    13.1786     7.9081     0.0350     2.5064     0.0925   131.0362
  127.5000   -30.4699    10.1244    10.9692    13.3571     7.9079     0.0450     2.5086     0.0829   129.5241
  128.0000   -30.6251    10.1204    11.4421    14.4072     7.8928     0.0420     2.5026     0.0841   129.9799
  128.5000   -30.6301    10.3287    11.7446    14.5030     7.8777     0.0389     2.5018     0.0898   127.7054
  129.0000   -30.4850    10.3964    11.9047    14.4958     7.8925     0.0434     2.5063     0.0862   124.6856
  129.5000   -30.3399    10.5372    12.2328    14.8955     7.8923     0.0223     2.4965     0.0931   124.8355
  130.0000   -30.1947    10.6789    12.2279    15.0988     7.8922     0.0178     2.4747     0.0979   124.3805
  130.5000   -30.5013    10.7499    12.2229    14.7810     7.8771     0.0255     2.4792     0.0994   123.0195
  131.0000   -30.8067    10.9703    12.2170    14.6732     7.8620     0.0358     2.4898     0.0997   120.4501
  131.5000   -31.4123    11.1960    12.2122    15.0793     7.8019     0.0418     2.4965     0.0982   118.7734
  132.0000   -32.0180    11.3465    12.5512    15.4967     7.6812     0.0478     2.5019     0.0940   116.9725
  132.5000   -32.3245    11.5013    12.8971    15.1706     7.6220     0.0523     2.5063     0.0895   115.7626
  133.0000   -32.4797    11.6560    13.5405    15.1646     7.6368     0.0537     2.5070     0.0871   114.4016
  133.5000   -32.4847    11.8140    14.2950    15.4768     7.6666     0.0401     2.4995     0.0958   113.3428
  134.0000   -32.1894    11.9739    14.6904    19.1752     7.7413     0.0281     2.4829     0.1037   113.3413
  134.5000   -32.0443    12.1349    14.7880    25.6380     7.8011     0.0159     2.4611     0.1116   114.5483
  135.0000   -31.5989    12.1301    14.0818    16.6803     7.8009    -0.0006     2.4446     0.1171   117.7542
  135.5000   -31.4538    12.1253    13.3125    15.3456     7.7109    -0.0097     2.4280     0.1328   121.3426
  136.0000   -31.6102    11.9537    12.8589    15.6615     7.7407    -0.0112     2.4121     0.1488   122.5496
  136.5000   -32.0657    11.8665    12.5029    15.0167     7.7855    -0.0007     2.4047     0.1503   123.3034
  137.0000   -32.6713    11.6975    12.4117    14.6005     7.8003     0.0158     2.4438     0.1397   124.0573
  137.5000   -33.2833    11.3734    12.4068    14.5934     7.8301     0.0206     2.5167     0.1229   125.4153
  138.0000   -33.8839    11.2126    12.4880    14.5876     7.8449     0.0158     2.5160     0.1040   126.1853
  138.5000   -33.8889    11.0540    12.4818    14.5818     7.8597     0.0158     2.5002     0.1019   124.3439
  139.0000   -33.8939    10.8976    12.4769    14.5760     7.8596     0.0172     2.4896     0.0959   124.2025
