~VERSION INFORMATION
 VERS.                2.0:   CWLS LOG ASCII STANDARD - VERSION 2.0
 WRAP.                 NO:   ONE LINE PER DEPTH STEP
~WELL INFORMATION
#MNEM.UNIT      DATA TYPE    INFORMATION
#----------   ------------   ------------------------------
 STRT.F            0.0000:   START DEPTH
 STOP.F          825.0000:   STOP DEPTH
 STEP.F            0.5000:   STEP LENGTH
 NULL.          -999.2500:   NO VALUE
 COMP. BROWN JOHN E&C INC:   COMPANY
 WELL. NAVAL PETROLEUM RESERVE 3 SHX- #21-1-2:   WELL
 FLD .             TEAPOT:   FIELD
 LOC .       S2 T38N R78W:   LOCATION
 CNTY.            NATRONA:   COUNTY
 STAT.            WYOMING:   STATE
 CTRY. UNITED STATES OF AMERICA:   COUNTRY
 SRVC.     Atlas Wireline:   SERVICE COMPANY
 DATE.        11-NOV-1991:   LOGDATE
 API .       490252247600:   API NUMBER
~CURVE INFORMATION
#MNEM.UNIT       API CODE    CURVE DESCRIPTION
#----------   ------------   ------------------------------
 DEPT.F                  :   
 GRR .GAPI   07 310 01 00:   GAMMA RAY
 RFOC.OHMM   07 220 04 00:   RESISTIVITY FOCUSED LOG
 RILD.OHMM   07 120 46 00:   INDUCTION LOG DEEP RESISTIVITY
 RILM.OHMM   07 120 44 00:   INDUCTION LOG MEDIUM RESISTIVITY
 SPR .MV     07 010 01 00:   SPONTANEOUS POTENTIAL
~PARAMETER INFORMATION
#MNEM.UNIT          VALUE    DESCRIPTION
#----------   ------------   ------------------------------
 PD  .                 GL:   PERMANENT DATUM
 EPD .F              5110:   ELEVATION PERMANENT DATUM
 LMF .                 KB:   LOG MEASURED FROM
 DAPD.F                10:   FEET ABOVE PERMANENT DATUM
 DMF .                 KB:   DRILLING MEASURED FROM
 EKB .F              5120:   KELLING BUSHING
 EGL .F              5110:   GROUND LEVEL
 DATE.        11-NOV-1991:   RUN DATE
 RUN .                  1:   RUN NUMBER
 DD  .F               830:   DEPTH DRILLER
 DL  .F               527:   DEPTH LOGGER
 BLI .F               525:   BOTTOM LOG INTERVAL
 CS  .IN            9.625:   CASING SIZE
 CBD .F                58:   CASING BOTTOM DRILLER
 CBL .F                58:   CASING BOTTOM LOGGER
 BS  .IN             8.75:   BIT SIZE
 BSD .F               830:   BIT SIZE AT DEPTH
 DFT .          KCL WATER:   DRILLING FLUID TYPE
 RMS .OHMM          0.248:   RESISTIVITY MUD SAMPLE
 MST .F                93:   MUD SAMPLE TEMPERATURE
 BHT .F               104:   BOTTOM HOLE TEMPERATURE
 TCS .HRS               2:   TIME CURCULATED STOPPED
 MRT .F               104:   MAXIMUM RECORDED TEMPERATURE
 LUN .            HL 6274:   LOGGING UNIT NUMBER
 LUL .             CASPER:   LOGGING UNIT LOCATION
 ENGI.       P. RASMUSSEN:   RECORDING ENGINEER
 WITN.        GARY STRONG:   WITNESSED BY
 CLNT.            A2DTECH:   CLIENT CODE
 ORIG.           5" PRINT:   ORIGIN OF DATA
 UWI .       490252247600:   UNIQUE WELL ID
 DICO. A2D Technologies, Inc.:   DIGITIZING COMPANY
~OTHER INFORMATION
~A    DEPT       GRR     RFOC       RILD       RILM        SPR   
# ...
  549.0000   126.3655     3.9494     3.5415     3.3592   -71.5003
  549.5000   124.2588     3.4380     3.5670     3.4767   -71.5076
  550.0000   117.6632     3.5092     3.6404     3.5488   -71.6648
  550.5000   111.6665     4.6144     3.7153     3.5976   -71.6720
  551.0000   112.2566     4.7228     3.7656     3.6466   -71.8292
  551.5000   115.5413     4.3150     3.8431     3.6456   -71.6812
  552.0000   116.7305     4.6230     3.9769     3.7246   -71.0705
  552.5000   116.4221     5.0919     4.2900     3.8779   -70.0538
  553.0000   114.2954     5.1976     4.5644     4.0695   -69.9093
  553.5000   113.4084     5.1902     4.7270     4.3303   -70.3682
  554.0000   117.5914     5.3035     4.9894     4.7045   -70.8252
  554.5000   119.3791     5.6946     5.3081     5.1825   -70.8325
  555.0000   120.5680     6.3013     5.6864     5.5372   -70.5399
  555.5000   119.6611     6.5666     5.9667     5.8905   -69.9440
  556.0000   120.5506     6.7030     6.4014     6.2229   -69.4832
  556.5000   121.4401     6.8889     6.7061     6.4389   -69.5141
  557.0000   119.9022     6.9353     6.8441     6.5252   -70.0940
  557.5000   119.3269     6.8852     6.8414     6.3867   -70.6830
  558.0000   121.7112     6.8358     6.7779     6.2519   -70.9872
  558.5000   120.5049     6.6919     6.6491     6.1625   -70.9916
  559.0000   115.1069     6.5090     6.4202     6.0325   -70.8449
  559.5000   113.3018     6.3293     6.2857     5.9052   -70.6993
  560.0000   113.5925     6.1976     6.1086     5.8208   -70.2550
  560.5000   114.1826     6.0686     5.9828     5.6979   -69.8850
  561.0000   112.9761     5.9423     6.0225     5.6117   -69.6640
  561.5000   113.5642     5.8591     6.0195     5.4593   -69.8194
  562.0000   120.7411     5.8982     5.8123     5.2705   -69.8238
  562.5000   121.9322     5.8966     5.1291     5.0531   -69.9781
  563.0000   121.3225     5.8495     4.3120     4.5203   -69.9824
  563.5000   120.1162     5.6926     3.9391     3.4960   -70.1367
  564.0000   125.4967     5.3268     3.9375     3.2602   -70.4409
  564.5000   129.9810     4.0372     3.9949     3.3270   -70.5962
  565.0000   130.2698     3.5140     4.1009     3.3746   -70.5997
  565.5000   123.9714     3.3234     4.1564     3.5861   -69.8554
  566.0000   110.1903     3.5211     4.2714     3.9768   -68.2106
  566.5000   108.0858     5.5409     4.6397     4.3796   -66.4158
  567.0000   111.0711     6.3608     4.8346     4.7900   -64.7710
  567.5000   115.8528     6.6744     5.0726     5.0955   -64.6244
  568.0000   120.3351     6.4442     5.4342     5.3090   -65.5294
  568.5000   125.4222     6.2657     5.9983     5.5330   -66.7390
  569.0000   126.3493     6.1771     6.4116     5.7689   -67.8091
  569.5000   127.7918     6.3042     6.5429     6.0456   -68.5420
  570.0000   128.3841     6.4338     6.6321     6.2554   -68.8462
  570.5000   122.6846     6.6117     6.7219     6.4278   -68.8506
  571.0000   117.2867     6.7011     6.7453     6.4699   -68.2552
  571.5000   110.6911     6.7443     6.7723     6.4655   -67.2101
  572.0000   110.9818     6.7891     6.8291     6.3731   -67.0505
  572.5000   114.7106     6.8327     6.8840     6.3242   -67.9735
  573.0000   113.6107     6.8300     6.8961     6.2351   -68.2729
  573.5000   112.7499     6.8272     6.8926     6.2311   -67.9783
  574.0000   112.7412     6.7774     6.8423     6.1847   -67.6828
  574.5000   115.4271     6.7256     6.7923     6.1814   -67.9870
  575.0000   119.6101     6.6251     6.6962     6.1354   -68.8909
  575.5000   127.9846     6.4933     6.5559     6.1321   -68.8953
  576.0000   126.1795     6.4459     6.4185     6.1288   -67.7002
  576.5000   123.4483     6.4887     6.4617     6.0832   -67.2548
  577.0000   122.8686     6.6215     6.5545     6.0798   -67.2594
  577.5000   125.2530     6.7576     6.7291     6.0759   -67.1136
  578.0000   128.2383     6.8019     6.8669     6.1582   -66.8192
  578.5000   131.5230     6.8463     6.8642     6.2408   -66.3727
  579.0000   130.9155     6.9173     6.7670     6.2808   -65.4786
  579.5000   126.7151     6.9361     6.4890     6.0628   -65.0332
  580.0000   122.5148     6.9326     6.0524     5.5760   -65.0376
  580.5000   121.9073     6.8820     5.8037     4.9153   -65.3418
  581.0000   123.3956     6.5995     5.6820     4.6833   -65.9469
  581.5000   123.0853     5.7442     5.6792     4.6808   -66.5510
  582.0000   122.7794     4.9653     5.6378     4.8432   -66.4043
  582.5000   125.4631     4.7286     5.5580     5.2970   -66.4098
  583.0000   135.0353     5.2875     5.5557     5.4808   -66.5641
  583.5000   136.2263     6.0739     5.4771     5.4779   -66.8683
  584.0000   129.3292     6.2722     5.3996     5.3996   -66.8726
  584.5000   119.0747     6.4012     5.2500     5.2102   -67.0270
  585.0000   122.1240     6.3545     4.5903     4.8606   -67.1823
  585.5000   125.7081     6.7128     4.2318     4.3180   -67.3366
  586.0000   126.5976     6.4372     4.2009     3.4573   -67.3409
  586.5000   127.4871     4.6481     4.2578     3.1578   -67.0454
  587.0000   127.7800     3.5967     4.2561     3.2674   -66.5989
  587.5000   126.2721     3.3762     4.1958     3.7252   -65.1051
  588.0000   123.2694     3.5687     4.1652     4.0181   -64.5097
  588.5000   121.1387     5.2556     4.3703     4.1889   -65.2769
  589.0000   121.4534     6.4210     4.6521     4.3916   -66.0189
  589.5000   123.2411     6.4636     4.9274     4.9040   -66.3231
  590.0000   123.8334     6.3716     5.4098     5.4383   -66.1775
  590.5000   123.2237     6.3251     6.1255     5.5881   -66.0319
  591.0000   122.9156     6.4107     6.4271     5.7421   -65.8853
  591.5000   122.3081     6.4981     6.6509     5.8191   -65.8907
  592.0000   122.5987     6.5912     6.6482     5.8565   -65.8951
  592.5000   125.0451     6.7666     6.4193     5.8128   -65.7495
  593.0000   124.3756     6.8589     5.7437     5.4577   -65.4540
  593.5000   120.7740     6.8554     4.9915     3.8043   -65.6094
  594.0000   119.8671     6.6196     4.7270     3.5976   -65.9136
  594.5000   119.2596     4.8801     4.6280     3.8002   -66.0679
  595.0000   118.6521     4.0189     4.5942     3.9869   -66.2222
  595.5000   120.7392     3.8009     4.6247     4.1540   -66.2265
  596.0000   124.9221     3.8366     4.6869     4.2981   -66.2309
  596.5000   125.8116     5.7918     4.7833     4.5478   -65.9354
  597.0000   120.7109     6.5122     4.9842     4.7963   -65.1912
  597.5000   118.3070     6.7387     5.2734     5.0671   -64.5959
  598.0000   117.1007     6.9251     6.0035     5.7771   -63.7007
  598.5000   115.5950     7.0194     6.5664     6.0610   -63.2553
  599.0000   114.9875     7.0653     6.7951     6.2713   -63.1086
  599.5000   116.4758     7.0131     6.7923     6.3996   -63.7138
  600.0000   118.2635     6.9619     6.8850     6.3520   -64.1679
  600.5000   121.3621     7.0074     6.9300     6.3486   -64.6222
  601.0000   125.7289     7.0532     6.9747     6.5680   -64.7774
  601.5000   128.7142     7.0993     7.0203     6.7499   -64.9317
  602.0000   125.1127     7.1454     7.0245     6.6525   -64.7851
  602.5000   114.9243     7.1925     7.1117     6.5574   -64.6395
  603.0000   111.3228     7.1888     7.1093     6.5995   -64.3440
  603.5000   112.8111     7.2366     7.1060     6.7346   -63.8997
  604.0000   116.0958     7.2832     7.0541     6.8249   -63.4522
  604.5000   115.7217     7.2802     6.9543     6.7272   -63.6507
  605.0000   111.5852     7.3278     6.8559     6.4938   -65.8773
  605.5000   110.6782     7.1736     6.8058     6.3129   -67.2324
  606.0000   115.4599     6.9750     6.7561     6.3542   -67.8381
  606.5000   114.8524     7.0213     6.8003     6.4842   -67.8452
  607.0000   111.2509     7.1156     6.8924     6.5379   -67.6996
  607.5000   111.1976     7.4657     7.0824     6.7650   -67.5555
  608.0000   113.6287     7.7790     7.3799     7.1975   -67.8627
  608.5000   112.6348     7.8843     7.6368     7.6047   -68.1683
  609.0000   104.9264     7.9909     7.6431     7.6553   -68.3241
  609.5000    98.9297     7.8771     7.1201     7.3398   -68.0301
