~VERSION INFORMATION
 VERS.                2.0:   CWLS LOG ASCII STANDARD - VERSION 2.0
 WRAP.                 NO:   ONE LINE PER DEPTH STEP
~WELL INFORMATION
#MNEM.UNIT      DATA TYPE    INFORMATION
#----------   ------------   ------------------------------
 STRT.F          690.5000:   START DEPTH
 STOP.F         2366.0000:   STOP DEPTH
 STEP.F            0.5000:   STEP LENGTH
 NULL.          -999.2500:   NO VALUE
 COMP. LAWRENCE/ALLISON INC:   COMPANY
 WELL.  NPR 3 #26SHX10-10:   WELL
 FLD .             TEAPOT:   FIELD
 LOC .      S10 T38N R78W:   LOCATION
 CNTY.            NATRONA:   COUNTY
 STAT.            WYOMING:   STATE
 CTRY. UNITED STATES OF AMERICA:   COUNTRY
 SRVC.            Unknown:   SERVICE COMPANY
 DATE.        30-DEC-1992:   LOGDATE
 API .       490251113600:   API NUMBER
~CURVE INFORMATION
#MNEM.UNIT       API CODE    CURVE DESCRIPTION
#----------   ------------   ------------------------------
 DEPT.F                  :   
 ROP .MIN/FT 91 810 01 00:   RATE OF DRILLING PENETRATION
 TGAS.UNITS  91 830 01 00:   TOTAL GAS FROM HOTWIRE
~PARAMETER INFORMATION
#MNEM.UNIT          VALUE    DESCRIPTION
#----------   ------------   ------------------------------
 EKB .F              5235:   KELLING BUSHING
 EGL .F              5225:   GROUND LEVEL
 DATE.           12-30-92:   RUN DATE
 DD  .F              2365:   DEPTH DRILLER
 BLI .F              2360:   BOTTOM LOG INTERVAL
 TLI .F              2160:   TOP LOG INTERVAL
 CS  .IN            8.625:   CASING SIZE
 CBD .F               675:   CASING BOTTOM DRILLER
 TCS .HRS            0200:   TIME CURCULATED STOPPED
 TLAB.HRS            1700:   TIME LOGGER AT BOTTOM
 ENGI.               HUSK:   RECORDING ENGINEER
 WITN.              TOWER:   WITNESSED BY
 CLNT.            A2DTECH:   CLIENT CODE
 ORIG.           5" PRINT:   ORIGIN OF DATA
 UWI .       490251113600:   UNIQUE WELL ID
 DICO. A2D Technologies, Inc.:   DIGITIZING COMPANY
~OTHER INFORMATION
~A   DEPT      ROP         TGAS 
  690.5000  -999.2500     2.8316
  691.0000  -999.2500     2.4368
  691.5000     0.4693     2.0438
  692.0000     0.5540     2.0653
  692.5000     0.6602     2.0728
  693.0000     0.7576     2.0802
  693.5000     0.8715     2.0876
  694.0000     0.9351     2.0951
  694.5000     0.9670     2.1025
  695.0000     0.9884     2.1099
  695.5000     0.9993     2.1174
  696.0000     0.9891     2.1248
  696.5000     0.9261     2.1323
  697.0000     0.8525     2.1397
  697.5000     0.8107     2.1471
  698.0000     0.8321     2.1546
  698.5000     0.8543     2.1620
  699.0000     0.8871     2.1694
  699.5000     0.9386     2.1769
  700.0000     0.9811     2.1843
  700.5000     1.0552     2.1918
  701.0000     1.1610     2.1992
  701.5000     1.2668     2.2066
  702.0000     1.3093     2.2141
  702.5000     1.2147     2.2215
  703.0000     1.0884     2.2290
  703.5000     1.0149     2.2364
  704.0000     1.2895     2.2438
  704.5000     1.3953     2.2513
  705.0000     1.4905     2.2587
  705.5000     1.5119     2.2661
  706.0000     1.5123     2.2736
  706.5000     1.5019     2.2810
  707.0000     1.4918     2.2885
  707.5000     1.5132     2.2959
  708.0000     1.5246     2.3033
  708.5000     1.6102     2.3108
  709.0000     1.7041     2.3182
  709.5000     1.7466     2.3257
  710.0000     1.7258     2.3331
  710.5000     1.6839     2.3405
  711.0000     1.6315     2.3480
  711.5000     1.5790     2.3554
  712.0000     1.4844     2.3628
  712.5000     1.4320     2.3703
  713.0000     1.3373     2.3777
  713.5000     1.2636     2.3852
  714.0000     1.1557     2.3926
  714.5000     1.0727     2.4000
  715.0000     1.0327     2.4075
  715.5000     1.0120     2.4149
  716.0000     1.0123     2.4224
  716.5000     1.0126     2.4298
  717.0000     1.0234     2.4372
  717.5000     1.0343     2.4447
  718.0000     0.9819     2.4521
  718.5000     0.8872     2.4595
  719.0000     0.8137     2.4670
  719.5000     0.7819     2.4744
  720.0000     0.7721     2.4819
  720.5000     0.7619     2.4957
  721.0000     0.7623     1.6684
  721.5000     0.7626     1.2802
  722.0000     0.7523     1.3397
  722.5000     0.7527     1.4044
  723.0000     0.7530     1.4690
  723.5000     0.7638     1.5336
  724.0000     0.7641     1.5982
  724.5000     0.7645     1.6629
  725.0000     0.7648     1.7275
  725.5000     0.7651     1.7921
  726.0000     0.7672     1.8567
  726.5000     0.8291     1.9214
  727.0000     0.8927     1.9860
  727.5000     0.9457     2.0506
  728.0000     0.9777     2.1152
  728.5000     0.9780     2.1799
  729.0000     0.9888     2.2445
  729.5000     0.9892     2.3091
  730.0000     0.9895     2.3738
  730.5000     0.9898     2.4384
  731.0000     0.9901     2.5030
  731.5000     0.9904     2.5676
  732.0000     0.9908     2.6323
  732.5000     0.9911     2.6969
  733.0000     0.9808     2.7615
  733.5000     0.9812     2.8261
  734.0000     0.9815     2.8908
  734.5000     0.9818     2.9554
  735.0000     0.9821     3.0200
  735.5000     0.9824     3.0847
  736.0000     0.9827     3.1493
  736.5000     0.9830     3.2139
  737.0000     0.9833     3.2785
  737.5000     0.9836     3.3432
  738.0000     0.9840     3.4078
  738.5000     0.9843     3.4724
  739.0000     0.9846     3.5370
  739.5000     0.9955     3.6017
  740.0000     1.0802     3.2206
  740.5000     1.3020     3.2312
  741.0000     1.4606     3.2401
  741.5000     1.5347     3.2489
  742.0000     1.5350     3.2578
  742.5000     1.5353     3.2667
  743.0000     1.5357     3.2755
  743.5000     1.5360     3.2844
  744.0000     1.5258     3.2933
  744.5000     1.3468     3.3021
  745.0000     1.1361     3.3110
  745.5000     0.9149     3.3198
  746.0000     0.7675     3.3287
  746.5000     0.7678     3.3376
  747.0000     0.7787     3.3464
  747.5000     0.7790     3.3553
  748.0000     0.7793     3.3642
  748.5000     0.7796     3.3730
  749.0000     0.7800     3.3819
  749.5000     0.7803     3.3908
  750.0000     0.7806     3.4011
  750.5000     0.7806     3.3880
  751.0000     0.7806     3.3723
  751.5000     0.7700     3.3567
  752.0000     0.7806     3.3410
  752.5000     0.8333     3.3254
  753.0000     0.9388     3.3097
  753.5000     1.0127     3.2941
  754.0000     1.0338     3.2784
  754.5000     1.0127     3.2628
  755.0000     1.0021     3.2471
  755.5000     0.9916     3.2315
  756.0000     0.9916     3.2158
  756.5000     0.9810     3.2002
  757.0000     0.9810     3.1846
  757.5000     1.0127     3.1689
  758.0000     1.0865     3.1533
  758.5000     1.2025     3.1376
  759.0000     1.3080     3.1220
  759.5000     1.4135     3.1063
  760.0000     1.5401     3.0907
  760.5000     1.6465     3.0750
  761.0000     1.7788     3.0594
  761.5000     1.9515     3.0437
  762.0000     1.9726     3.0281
  762.5000     1.9409     3.0124
  763.0000     1.8776     2.9968
  763.5000     1.8143     2.9811
  764.0000     1.7616     2.9655
  764.5000     1.7089     2.9498
  765.0000     1.6456     2.9342
  765.5000     1.5928     2.9185
  766.0000     1.4959     2.9029
  766.5000     1.3397     2.8873
  767.0000     1.0338     2.8716
  767.5000     0.8228     2.8560
  768.0000     0.7806     2.8403
  768.5000     0.7595     2.8247
  769.0000     0.7806     2.8090
  769.5000     0.7911     2.7934
  770.0000     0.7911     2.7777
  770.5000     0.7806     2.7621
  771.0000     0.7595     2.7679
  771.5000     0.7595     2.7980
  772.0000     0.7806     2.8228
  772.5000     0.8333     2.8476
  773.0000     0.9072     2.8725
  773.5000     0.9599     2.8953
  774.0000     0.9810     2.9241
  774.5000     0.9916     2.9462
  775.0000     0.9916     2.9546
  775.5000     0.9810     2.9380
  776.0000     0.9916     2.9213
  776.5000     0.9929     2.9047
  777.0000     1.0021     2.8881
  777.5000     1.0021     2.8714
  778.0000     0.9705     2.8548
  778.5000     0.8966     2.8381
  779.0000     0.8333     2.8215
  779.5000     0.7806     2.8049
  780.0000     0.7489     2.7882
  780.5000     0.7489     2.7716
  781.0000     0.7384     2.7549
  781.5000     0.7384     2.7383
  782.0000     0.7384     2.7217
  782.5000     0.7384     2.7050
  783.0000     0.7384     2.6884
  783.5000     0.7489     2.6717
  784.0000     0.7489     2.6551
  784.5000     0.7489     2.6385
  785.0000     0.7384     2.6218
  785.5000     0.7489     2.6052
  786.0000     0.8228     2.5885
  786.5000     0.8972     2.5719
  787.0000     0.9404     2.5553
  787.5000     0.9705     2.5386
  788.0000     0.9916     2.5220
  788.5000     1.0021     2.5053
  789.0000     1.0021     2.4887
  789.5000     0.9916     2.4721
  790.0000     0.9705     2.4554
  790.5000     0.9494     2.4388
  791.0000     0.8650     2.4221
  791.5000     0.8014     2.4055
  792.0000     0.7806     2.3889
  792.5000     0.7700     2.3722
  793.0000     0.7700     2.3556
  793.5000     0.7700     2.3390
  794.0000     0.7700     2.3223
  794.5000     0.7700     2.3057
  795.0000     0.7700     2.2890
  795.5000     0.7700     2.2724
  796.0000     0.7595     2.2558
  796.5000     0.7700     2.2391
  797.0000     0.7700     2.2225
  797.5000     0.7700     2.2058
  798.0000     0.7806     2.1892
  798.5000     0.7806     2.1726
  799.0000     0.7806     2.1559
  799.5000     0.7806     2.1393
  800.0000     0.7806     1.2777
  800.5000     0.7811     1.2643
  801.0000     0.7817     1.2484
  801.5000     0.7822     1.2324
  802.0000     0.7827     1.2165
  802.5000     0.7832     1.2005
  803.0000     0.7839     1.1845
  803.5000     0.7949     1.1686
  804.0000     0.7849     1.1526
  804.5000     0.7854     1.1366
  805.0000     0.7965     1.1207
  805.5000     0.7863     1.1047
  806.0000     0.7975     1.0887
  806.5000     0.8297     1.0728
  807.0000     0.8829     1.0568
  807.5000     0.9580     1.0408
  808.0000     1.0122     1.0249
  808.5000     1.0216     1.0089
  809.0000     0.9062     0.9929
  809.5000     0.8012     0.9770
  810.0000     0.7700     0.9610
  810.5000     0.7599     0.9451
  811.0000     0.7499     0.9291
  811.5000     0.7506     0.9131
