~VERSION INFORMATION
 VERS.                2.0:   CWLS LOG ASCII STANDARD - VERSION 2.0
 WRAP.                 NO:   ONE LINE PER DEPTH STEP
~WELL INFORMATION
#MNEM.UNIT      DATA TYPE    INFORMATION
#----------   ------------   ------------------------------
 STRT.F           30.0000:   START DEPTH
 STOP.F          440.0000:   STOP DEPTH
 STEP.F            0.5000:   STEP LENGTH
 NULL.          -999.2500:   NO VALUE
 COMP. LAWRENCE/ALLISON INC:   COMPANY
 WELL. NPR #3 #52-31 SX 10:   WELL
 FLD .             TEAPOT:   FIELD
 LOC .      S10 T38N R78W:   LOCATION
 CNTY.            NATRONA:   COUNTY
 STAT.            WYOMING:   STATE
 CTRY. UNITED STATES OF AMERICA:   COUNTRY
 SRVC.           Gearhart:   SERVICE COMPANY
 DATE.        27-SEP-1988:   LOGDATE
 API .       490251124800:   API NUMBER
~CURVE INFORMATION
#MNEM.UNIT       API CODE    CURVE DESCRIPTION
#----------   ------------   ------------------------------
 DEPT.F                  :   
 GRR .GAPI   07 310 01 00:   GAMMA RAY FROM RES. LOG.
 RLL .OHMM   07 220 00 00:   LATEROLOG RESISTIVITY
 ILD .OHMM   07 120 46 00:   INDUCTION LOG DEEP
 ILM .OHMM   07 120 44 00:   INDUCTION LOG MEDIUM
 SPR .MV     07 010 01 00:   SPONTANEOUS POTENTIAL
~PARAMETER INFORMATION
#MNEM.UNIT          VALUE    DESCRIPTION
#----------   ------------   ------------------------------
 PD  .                 GL:   PERMANENT DATUM
 EPD .F              5179:   ELEVATION PERMANENT DATUM
 LMF .                 KB:   LOG MEASURED FROM
 DAPD.F                 8:   FEET ABOVE PERMANENT DATUM
 DMF .                 KB:   DRILLING MEASURED FROM
 EKB .F              5187:   KELLING BUSHING
 EDF .F              5185:   DRILLING FLOOR
 EGL .F              5179:   GROUND LEVEL
 DATE.            9-27-88:   RUN DATE
 RUN .                  1:   RUN NUMBER
 DD  .F               441:   DEPTH DRILLER
 DL  .F               442:   DEPTH LOGGER
 BLI .F               441:   BOTTOM LOG INTERVAL
 TLI .F                40:   TOP LOG INTERVAL
 CS  .IN            9.625:   CASING SIZE
 CBD .F                50:   CASING BOTTOM DRILLER
 CBL .F                50:   CASING BOTTOM LOGGER
 BS  .IN             8.75:   BIT SIZE
 BSD .F               441:   BIT SIZE AT DEPTH
 DFT .                MUD:   DRILLING FLUID TYPE
 MSS .           MUD TANK:   MUD SAMPLE SOURCE
 RMS .OHMM              2:   RESISTIVITY MUD SAMPLE
 MST .F                64:   MUD SAMPLE TEMPERATURE
 RMF .OHMM            2.4:   RESISTIVITY MUD FILTRATE SAMPLE
 MFST.F                66:   MUD FILTRATE SAMPLE TEMPERATURE
 RMC .OHMM              3:   RESISTIVITY MUD CAKE
 MCST.F                67:   MUD CAKE SAMPLE TEMPERATURE
 MFSS.                  M:   MUD FILTRATE SAMPLE SOURCE
 MCSS.                  M:   MUD CAKE SAMPLE SOURCE
 RMB .OHMM            1.3:   RESISTIVITY MUD AT BHT
 BHT .F                70:   BOTTOM HOLE TEMPERATURE
 TCS .HRS            0910:   TIME CURCULATED STOPPED
 TLAB.HRS            1113:   TIME LOGGER AT BOTTOM
 MRT .F                70:   MAXIMUM RECORDED TEMPERATURE
 LUN .               7597:   LOGGING UNIT NUMBER
 LUL .           GILLETTE:   LOGGING UNIT LOCATION
 ENGI.         WEATHERMON:   RECORDING ENGINEER
 WITN.             STRONG:   WITNESSED BY
 CLNT.            A2DTECH:   CLIENT CODE
 ORIG.       2", 5" PRINT:   ORIGIN OF DATA
 UWI .       490251124800:   UNIQUE WELL ID
 DICO. A2D Technologies, Inc.:   DIGITIZING COMPANY
~OTHER INFORMATION
~A   DEPT       GRR       RLL        ILD        ILM        SPR   
# ...
  274.0000    70.4737    19.2378    23.8796    21.0073  -103.0801
  274.5000    69.7983    19.6703    24.2229    21.1300  -103.4861
  275.0000    70.9865    19.9144    24.5710    21.4753  -103.9051
  275.5000    72.6826    20.0636    24.9241    21.8626  -103.8393
  276.0000    73.9322    20.2558    25.2823    22.2569  -103.7135
  276.5000    74.6012    20.5637    25.6456    22.5685  -103.5902
  277.0000    74.2205    20.3711    25.7046    22.3582  -103.5215
  277.5000    73.8697    20.2140    25.7046    22.1875  -103.5260
  278.0000    75.0051    20.0569    25.7046    21.9479  -103.5005
  278.5000    75.7898    19.9024    25.7046    22.2933  -102.5638
  279.0000    75.5924    19.8123    25.9865    22.6567  -102.1253
  279.5000    75.7862    20.1957    26.4443    23.0261  -101.6397
  280.0000    77.3663    20.5079    26.9103    23.4015  -101.1490
  280.5000    78.6948    20.9502    27.3844    23.7830  -100.3617
  281.0000    77.6817    20.9095    27.9472    24.1719   -99.8916
  281.5000    76.7197    20.8338    27.6136    24.5138   -99.8527
  282.0000    77.7135    20.7575    27.2207    24.8352   -99.8242
  282.5000    78.8412    21.2978    26.8316    25.2312   -99.7960
  283.0000    77.7680    21.7485    26.4496    24.6607   -99.7675
  283.5000    75.9484    21.1802    26.0672    23.7049   -99.7391
  284.0000    74.0901    20.5149    25.5094    22.7861   -99.7036
  284.5000    73.3981    19.9386    24.8559    21.9029   -99.3917
  285.0000    75.1141    19.2049    24.2238    21.0540   -98.6908
  285.5000    77.0680    18.4906    23.6074    20.4040   -97.9933
  286.0000    79.0234    17.8135    23.0068    20.0119   -97.2952
  286.5000    80.9709    17.5140    22.4160    19.6273   -96.9185
  287.0000    82.9170    17.4613    21.9341    19.4187   -97.3687
  287.5000    84.6908    17.4030    21.8417    19.3599   -97.6766
  288.0000    86.1762    17.3449    21.7498    19.3013   -97.5075
  288.5000    87.6530    17.2869    21.6582    19.2701   -97.3407
  289.0000    88.3071    17.2365    21.5441    19.5102   -97.1828
  289.5000    87.4261    17.1744    21.7211    19.6660   -97.2982
  290.0000    84.5082    17.0778    21.9618    19.7617   -97.2863
  290.5000    81.6420    17.2153    22.2053    19.8577   -97.2836
  291.0000    81.5072    17.3830    22.4515    19.9543   -97.2898
  291.5000    82.7287    17.5599    22.6513    20.0514   -97.0358
  292.0000    83.9268    17.6077    22.8089    20.1489   -96.7211
  292.5000    83.5269    17.6581    22.9675    20.3677   -96.7401
  293.0000    80.2632    17.7085    23.2066    20.6663   -96.8217
  293.5000    77.0902    17.8241    23.1516    20.8279   -96.6518
  294.0000    75.9083    17.9688    23.0431    20.9513   -95.9997
  294.5000    78.5043    18.1146    22.9353    20.8229   -95.3560
  295.0000    81.2451    18.2250    22.8278    20.6597   -95.2706
  295.5000    83.4479    17.8155    22.7208    20.4978   -95.2876
  296.0000    81.6733    17.4952    22.6168    20.3372   -94.4840
  296.5000    79.7092    17.2340    22.4210    20.1782   -93.4446
  297.0000    77.7725    17.2344    22.0378    20.0210   -92.8588
  297.5000    77.6077    17.2365    21.6584    19.8585   -93.2170
  298.0000    80.4255    17.2365    21.2864    19.4909   -93.8090
  298.5000    82.7630    17.2365    20.9207    19.1457   -93.9351
  299.0000    83.0059    16.8805    20.5655    18.9279   -93.5872
  299.5000    82.3101    16.5210    20.5028    18.7094   -93.5342
  300.0000    81.0967    16.1692    20.4409    18.4934   -93.6972
  300.5000    79.8757    16.0014    20.3746    18.2800   -93.8452
  301.0000    78.7284    16.0014    20.4305    18.1788   -93.0453
  301.5000    77.7527    16.0014    20.5063    18.1166   -92.8588
  302.0000    76.7700    16.0014    20.5822    18.0564   -92.8744
  302.5000    75.8667    16.0014    20.6583    18.3963   -92.1505
  303.0000    75.8425    16.3034    20.7347    18.8126   -91.2976
  303.5000    75.8767    16.5940    20.8116    19.2701   -90.6820
  304.0000    77.5254    16.8918    20.8880    19.4501   -90.6957
  304.5000    78.6467    17.0786    20.9509    19.2717   -90.8036
  305.0000    77.3086    16.8820    20.7823    19.1401   -90.9055
  305.5000    75.9181    16.6384    20.6404    19.0094   -91.0240
  306.0000    76.0576    16.3990    20.4995    18.9128   -90.1601
  306.5000    77.3521    16.1629    20.3596    18.5790   -88.8522
  307.0000    78.5335    15.9303    20.2206    18.2698   -88.0585
  307.5000    77.7821    15.7009    20.0545    17.9676   -87.7061
  308.0000    75.1108    15.4749    19.8213    17.6703   -87.1404
  308.5000    71.1855    15.2519    19.5908    17.5063   -86.6746
  309.0000    70.6116    15.1064    19.3630    17.3824   -86.9549
  309.5000    70.6178    15.0487    19.1378    17.2593   -89.8368
  310.0000    70.9286    14.9913    18.9153    17.1371   -88.4581
  310.5000    71.9005    14.9339    18.6953    17.0156   -86.8822
  311.0000    72.8827    14.8767    18.4779    16.8581   -86.5059
  311.5000    72.6439    14.5650    18.1176    16.5452   -86.1173
  312.0000    72.1771    14.1067    17.8659    16.2406   -85.7338
  312.5000    72.4494    13.7797    17.6178    15.9363   -85.5120
  313.0000    75.0298    13.6700    17.3731    15.8058   -85.3635
  313.5000    76.6743    13.5364    17.1318    15.7100   -85.2149
  314.0000    76.1345    13.5820    17.0089    15.6161   -85.5149
  314.5000    74.7447    13.6414    16.9209    15.5228   -86.0070
  315.0000    73.3621    13.7010    16.8334    15.4300   -85.8172
  315.5000    72.6336    13.7608    16.7464    15.3975   -85.5067
  316.0000    72.6332    13.7910    16.6598    15.3744   -85.1939
  316.5000    73.1229    13.7904    16.5738    15.3514   -84.8745
  317.0000    74.0241    13.7907    16.4877    15.3285   -84.6999
  317.5000    74.9294    13.7914    16.3548    15.3055   -84.5051
  318.0000    75.8405    13.7904    16.1901    15.2826   -84.1386
  318.5000    76.6220    13.5910    16.0268    15.1488   -83.9049
  319.0000    75.9796    13.2955    15.8546    14.8835   -83.6679
  319.5000    75.3262    13.0064    15.7095    14.6233   -83.4280
  320.0000    75.5482    12.7237    15.5544    14.3646   -83.1930
  320.5000    76.4010    12.4502    15.4009    14.2742   -82.9440
  321.0000    76.9217    12.5140    15.2488    14.2070   -82.7588
  321.5000    76.1480    12.5773    15.0983    14.1415   -82.6535
  322.0000    75.4019    12.6410    14.9816    14.0760   -82.5577
  322.5000    75.8485    12.6846    14.9417    14.0109   -82.4603
  323.0000    77.3482    12.5628    14.9020    13.9460   -82.2902
  323.5000    78.8589    12.4566    14.8623    13.8025   -81.6164
  324.0000    80.3712    12.3520    14.8228    13.6053   -80.9517
  324.5000    81.8882    12.2352    14.7832    13.4945   -80.6753
  325.0000    83.4034    12.1159    14.7434    13.4112   -80.8856
  325.5000    84.5850    12.1826    14.7185    13.5190   -81.0925
  326.0000    83.2391    12.2666    14.9205    13.6724   -81.3004
  326.5000    81.9215    12.3649    15.0760    13.8275   -81.5106
  327.0000    80.5898    12.5260    15.2331    13.9684   -81.4902
  327.5000    78.6452    12.6888    15.3919    14.1935   -81.3340
  328.0000    75.8757    12.8537    15.5524    14.4222   -81.1805
  328.5000    73.1062    13.0207    15.7144    14.7174   -81.0140
  329.0000    71.8446    13.1642    15.8534    14.6410   -80.8530
  329.5000    72.9338    13.0716    15.6605    14.5373   -80.7527
  330.0000    74.8627    12.9755    15.4615    14.4344   -80.6945
  330.5000    76.8411    12.8801    15.2748    14.3322   -80.6410
  331.0000    75.6182    12.7854    15.0454    14.2308   -80.5587
  331.5000    73.8335    12.6838    14.7819    14.0167   -80.0025
  332.0000    73.4898    12.4324    14.5230    13.6952   -79.2958
  332.5000    76.4721    12.1643    14.2768    13.3811   -78.5563
  333.0000    79.7191    11.9020    14.0729    13.0742   -77.9521
  333.5000    81.1568    11.5581    13.8719    12.7743   -78.0106
  334.0000    80.3085    11.5677    13.6737    12.4812   -78.0803
  334.5000    79.1500    11.5849    13.5484    12.3350   -78.1614
