~VERSION INFORMATION
 VERS.                2.0:   CWLS LOG ASCII STANDARD - VERSION 2.0
 WRAP.                 NO:   ONE LINE PER DEPTH STEP
~WELL INFORMATION
#MNEM.UNIT      DATA TYPE    INFORMATION
#----------   ------------   ------------------------------
 STRT.F           34.5000:   START DEPTH
 STOP.F          756.0000:   STOP DEPTH
 STEP.F            0.5000:   STEP LENGTH
 NULL.          -999.2500:   NO VALUE
 COMP. FENIX & SCISSON INC:   COMPANY
 WELL.    36 SX 11 #36-11:   WELL
 FLD .        TEAPOT DOME:   FIELD
 LOC .      S11 T38N R78W:   LOCATION
 CNTY.            NATRONA:   COUNTY
 STAT.            WYOMING:   STATE
 CTRY. UNITED STATES OF AMERICA:   COUNTRY
 SRVC.           BIRDWELL:   SERVICE COMPANY
 DATE.        21-FEB-1978:   LOGDATE
 API .       490251059700:   API NUMBER
~CURVE INFORMATION
#MNEM.UNIT       API CODE    CURVE DESCRIPTION
#----------   ------------   ------------------------------
 DEPT.F                  :   
 SPR .MV     05 010 01 00:   SPONTANEOUS POTENTIAL FROM RES.
 SN  .OHMM   05 040 16 00:   SHORT NORMAL 16"
 ILD .OHMM   05 120 46 00:   INDUCTION LOG DEEP
 RHOB.G/C3   45 350 01 00:   BULK DENSITY
 DPHI.DEC    45 890 12 00:   DENSITY POROSITY SANDSTONE
 GRD .GAPI   45 310 01 00:   GAMMA RAY FROM DENSITY LOG
 CALD.IN     45 280 60 00:   CALIPER
 CORR.G/C3   45 356 01 00:   DENSITY CORRECTION
~PARAMETER INFORMATION
#MNEM.UNIT          VALUE    DESCRIPTION
#----------   ------------   ------------------------------
 PD  .                 GL:   PERMANENT DATUM
 EPD .F              5175:   ELEVATION PERMANENT DATUM
 LMF .                 KB:   LOG MEASURED FROM
 DAPD.F                 4:   FEET ABOVE PERMANENT DATUM
 DMF .                 KB:   DRILLING MEASURED FROM
 EKB .F              5179:   KELLING BUSHING
 EGL .F              5175:   GROUND LEVEL
 DATE.          2-21-1978:   RUN DATE
 RUN .                  1:   RUN NUMBER
 DD  .F               765:   DEPTH DRILLER
 DL  .F               760:   DEPTH LOGGER
 BLI .F               754:   BOTTOM LOG INTERVAL
 TLI .F                40:   TOP LOG INTERVAL
 CS  .IN            8.625:   CASING SIZE
 CBD .F                39:   CASING BOTTOM DRILLER
 CBL .F                40:   CASING BOTTOM LOGGER
 BS  .IN            7.875:   BIT SIZE
 BSD .F               765:   BIT SIZE AT DEPTH
 DFT .         LIGNO/SULF:   DRILLING FLUID TYPE
 DFD .                8.6:   DRILLING FLUID DENSITY
 DFV .                 33:   DRILLING FLUID VISCOSITY
 DFPH.               10.5:   DRILLING FLUID PH
 DFL .                 84:   DRILLING FLUID LOSS
 MSS .          FLOW LINE:   MUD SAMPLE SOURCE
 RMS .OHMM            1.8:   RESISTIVITY MUD SAMPLE
 MST .F                56:   MUD SAMPLE TEMPERATURE
 RMF .OHMM            1.8:   RESISTIVITY MUD FILTRATE SAMPLE
 MFST.F                58:   MUD FILTRATE SAMPLE TEMPERATURE
 RMC .OHMM              4:   RESISTIVITY MUD CAKE
 MCST.F                62:   MUD CAKE SAMPLE TEMPERATURE
 MFSS.               MEAS:   MUD FILTRATE SAMPLE SOURCE
 RMB .OHMM           1.48:   RESISTIVITY MUD AT BHT
 BHT .F                68:   BOTTOM HOLE TEMPERATURE
 TCS .HRS               5:   TIME CURCULATED STOPPED
 MRT .F                68:   MAXIMUM RECORDED TEMPERATURE
 LUN .               2958:   LOGGING UNIT NUMBER
 LUL .               CASP:   LOGGING UNIT LOCATION
 ENGI.            POINTER:   RECORDING ENGINEER
 WITN.           MCGINLEY:   WITNESSED BY
 CLNT.            A2DTECH:   CLIENT CODE
 ORIG.       2", 5" PRINT:   ORIGIN OF DATA
 UWI .       490251059700:   UNIQUE WELL ID
 DICO. A2D Technologies, Inc.:   DIGITIZING COMPANY
~OTHER INFORMATION
~A   DEPT      SPR         SN        ILD       RHOB       DPHI         GRD      CALD       CORR   
# ...
  642.0000   -33.0368    11.1500    10.7415     2.4043     0.1442    76.5789     8.0141    -0.0018
  642.5000   -33.0616    11.1574    10.7497     2.4218     0.1396    74.5795     8.0141     0.0016
  643.0000   -33.0863    11.1648    10.7579     2.4267     0.1396    73.6875     8.0141     0.0029
  643.5000   -33.1112    11.1722    10.7661     2.4334     0.1398    73.2883     8.0141     0.0015
  644.0000   -33.1368    11.1796    10.7743     2.4340     0.1390    73.2421     8.0141     0.0000
  644.5000   -33.1684    11.1871    10.7826     2.4315     0.1400    73.0771     8.0141    -0.0016
  645.0000   -32.9050    11.1945    10.7908     2.4311     0.1453    72.9338     8.0141    -0.0031
  645.5000   -32.6338    11.2020    10.7990     2.4273     0.1506    73.7659     8.0141    -0.0046
  646.0000   -32.3629    11.2094    10.8074     2.4181     0.1558    77.1421     8.0141    -0.0061
  646.5000   -32.1525    11.2208    10.8129     2.4178     0.1606    82.3165     8.0141    -0.0062
  647.0000   -32.1568    11.1988    10.7723     2.4200     0.1547    82.9105     8.0124    -0.0043
  647.5000   -32.1572    11.1530    10.7400     2.4107     0.1506    81.6085     8.0098    -0.0025
  648.0000   -32.1573    11.1068    10.7076     2.4088     0.1488    80.3125     8.0071    -0.0006
  648.5000   -32.1573    11.0607    10.6753     2.4193     0.1471    79.9203     8.0044     0.0014
  649.0000   -32.1573    11.0149    10.6431     2.4268     0.1462    80.0019     8.0017     0.0024
  649.5000   -32.1573    10.9692    10.6110     2.4206     0.1496    80.1038     7.9990    -0.0087
  650.0000   -32.1571    10.9238    10.5790     2.4138     0.1526    80.5135     7.9963    -0.0202
  650.5000   -32.1425    10.8785    10.5471     2.4106     0.1502    82.0376     7.9936    -0.0194
  651.0000   -32.0911    10.8334    10.5153     2.4194     0.1423    81.7243     7.9910    -0.0126
  651.5000   -32.0404    10.7885    10.4835     2.4292     0.1345    78.2857     7.9883    -0.0057
  652.0000   -31.9903    10.7438    10.4519     2.4390     0.1278    77.3287     7.9856    -0.0010
  652.5000   -31.9554    10.7121    10.4204     2.4427     0.1269    78.1694     7.9829    -0.0006
  653.0000   -31.9419    10.7044    10.3890     2.4473     0.1258    80.3639     7.9802     0.0040
  653.5000   -31.9231    10.6973    10.3576     2.4582     0.1220    83.7765     7.9775     0.0091
  654.0000   -31.9044    10.6902    10.3253     2.4632     0.1162    87.1564     7.9750     0.0090
  654.5000   -31.8856    10.6831    10.3248     2.4641     0.1161    89.6764     7.9583     0.0093
  655.0000   -31.8668    10.6760    10.3248     2.4643     0.1158    90.8158     7.9330     0.0145
  655.5000   -31.8480    10.6689    10.3248     2.4660     0.1150    91.9782     7.9075     0.0256
  656.0000   -31.8292    10.6618    10.3248     2.4806     0.1106    92.5522     7.8817     0.0461
  656.5000   -31.8104    10.6547    10.3248     2.4956     0.1058    90.8222     7.8732     0.0479
  657.0000   -31.7927    10.6476    10.3248     2.5008     0.1022    89.0776     7.8735     0.0474
  657.5000   -31.7768    10.6406    10.3248     2.5016     0.1022    87.3455     7.8553     0.0559
  658.0000   -31.7058    10.6336    10.3248     2.5024     0.1022    85.7946     7.8347     0.0645
  658.5000   -31.5678    10.6265    10.3251     2.5006     0.1044    85.8524     7.8135     0.0630
  659.0000   -31.1733    10.6199    10.3256     2.4901     0.1116    86.2409     7.8147     0.0551
  659.5000   -30.7043    10.5777    10.2402     2.4781     0.1194    86.4660     7.8183     0.0470
  660.0000   -30.3618    10.4892    10.1371     2.4653     0.1264    85.4486     7.8217     0.0428
  660.5000   -31.1150    10.4009    10.0346     2.4581     0.1339    84.3102     7.8251     0.0418
  661.0000   -31.7672    10.3133     9.9333     2.4499     0.1408    80.4653     7.8284     0.0409
  661.5000   -31.8775    10.2265     9.8330     2.4413     0.1473    80.5839     7.8312     0.0401
  662.0000   -32.0193    10.1404     9.7337     2.4213     0.1539    81.8816     7.8636     0.0392
  662.5000   -32.1645    10.0550     9.6354     2.4003     0.1605    83.1646     7.9033     0.0383
  663.0000   -32.3097     9.9703     9.5381     2.3944     0.1622    84.3395     7.9429     0.0374
  663.5000   -32.4539     9.8863     9.4418     2.4014     0.1559    84.5496     7.9712     0.0366
  664.0000   -32.5568     9.8031     9.3465     2.4047     0.1582    84.8218     7.9531     0.0357
  664.5000   -32.5278     9.7205     9.2521     2.4004     0.1577    85.0928     7.9361     0.0339
  665.0000   -32.5016     9.5954     9.1296     2.4089     0.1558    85.4503     7.9183     0.0287
  665.5000   -32.4756     9.4252     9.0047     2.4056     0.1538    87.3890     7.9447     0.0237
  666.0000   -32.4496     9.2581     8.8814     2.3995     0.1519    89.3490     7.9906     0.0185
  666.5000   -32.4239     9.0819     8.7598     2.4043     0.1499    92.8604     8.0222     0.0218
  667.0000   -32.3986     8.9075     8.6399     2.4140     0.1479    93.7822     8.0254     0.0286
  667.5000   -32.3695     8.7366     8.4839     2.4194     0.1466    90.1809     7.9933     0.0355
  668.0000   -32.1680     8.5689     8.2947     2.4129     0.1443    86.9696     7.9608     0.0424
  668.5000   -31.5244     8.4044     8.1098     2.4188     0.1411    85.7552     7.9537     0.0496
  669.0000   -30.8907     8.2431     7.9289     2.4276     0.1406    86.7037     7.9535     0.0440
  669.5000   -30.3269     8.0849     7.7522     2.4362     0.1452    89.1746     7.9536     0.0347
  670.0000   -30.3406     7.8921     7.5792     2.4278     0.1465    92.3830     7.9536     0.0281
  670.5000   -30.3425     7.6801     7.4012     2.4189     0.1336    95.6338     7.9536     0.0361
  671.0000   -30.3440     7.3684     7.1609     2.4358     0.1297    96.5118     7.9536     0.0440
  671.5000   -30.1752     7.0528     6.8435     2.4533     0.1262    96.8345     7.9536     0.0486
  672.0000   -29.8757     6.7507     6.4177     2.4616     0.1234    98.2168     7.9536     0.0487
  672.5000   -29.5751     6.3299     6.0185     2.4511     0.1248   100.2032     7.9536     0.0481
  673.0000   -29.2729     5.8426     5.6440     2.4497     0.1265   104.7607     7.9536     0.0476
  673.5000   -28.9735     5.3928     5.3548     2.4623     0.1278   109.2235     7.9536     0.0472
  674.0000   -28.7896     4.9729     5.3548     2.4618     0.1330   113.6846     7.9536     0.0419
  674.5000   -29.1908     4.9208     5.4769     2.4387     0.1494   118.1772     7.9536     0.0296
  675.0000   -29.5826     5.3201     5.5668     2.4076     0.1657   120.2394     7.9536     0.0100
  675.5000   -29.9734     6.0143     5.6582     2.3759     0.1770   110.5452     7.9537    -0.0126
  676.0000   -30.3649     6.8022     5.7454     2.3730     0.1181    99.7264     7.9648     0.0122
  676.5000   -30.7344     7.5519     6.2729     2.4298     0.0990    88.7995     7.9770     0.0369
  677.0000   -30.8237     7.9601     6.9375     2.4926     0.0990    88.8598     7.9893     0.0347
  677.5000   -30.9140     8.1854     7.4215     2.4986     0.0998    92.6358     8.0015     0.0220
  678.0000   -31.0066     8.3561     7.9270     2.4939     0.1002    92.2401     8.0138     0.0111
  678.5000   -31.1012     8.4944     8.1695     2.4815     0.1016    90.5308     8.0260     0.0068
  679.0000   -31.1304     8.6350     8.2506     2.4747     0.1048    90.2257     8.0383     0.0050
  679.5000   -30.6676     8.7729     8.3324     2.4807     0.1080    93.2305     8.0505     0.0009
  680.0000   -30.1997     8.8980     8.4150     2.4902     0.1112    96.3181     8.0628    -0.0031
  680.5000   -30.2646     9.0249     8.4984     2.4863     0.1145    99.2172     8.0744    -0.0027
  681.0000   -30.4097     9.1535     8.5823     2.4760     0.1151    97.2112     8.0700     0.0041
  681.5000   -30.5429     9.2840     8.6619     2.4694     0.1138    95.4966     8.0627     0.0111
  682.0000   -30.5632     9.4650     8.7704     2.4792     0.1107    94.8043     8.0554     0.0180
