~VERSION INFORMATION
 VERS.                2.0:   CWLS LOG ASCII STANDARD - VERSION 2.0
 WRAP.                 NO:   ONE LINE PER DEPTH STEP
~WELL INFORMATION
#MNEM.UNIT      DATA TYPE    INFORMATION
#----------   ------------   ------------------------------
 STRT.F           16.0000:   START DEPTH
 STOP.F          306.0000:   STOP DEPTH
 STEP.F            0.5000:   STEP LENGTH
 NULL.          -999.2500:   NO VALUE
 COMP. LAWRENCE-ALLISON &AS:   COMPANY
 WELL. NPR ##3 51-66SX10UI2:   WELL
 FLD .             TEAPOT:   FIELD
 LOC .      S10 T38N R78W:   LOCATION
 CNTY.            NATRONA:   COUNTY
 STAT.            WYOMING:   STATE
 CTRY. UNITED STATES OF AMERICA:   COUNTRY
 SRVC.      Dresser Atlas:   SERVICE COMPANY
 DATE.        16-JAN-1985:   LOGDATE
 API .       490251100300:   API NUMBER
~CURVE INFORMATION
#MNEM.UNIT       API CODE    CURVE DESCRIPTION
#----------   ------------   ------------------------------
 DEPT.F                  :   
 AC  .US/F   60 520 00 00:   ACOUSTIC SONIC
 CALD.IN     45 280 60 00:   CALIPER FROM DENSITY LOG
 CNC .DEC    42 890 03 00:   COMPENSATED NEUTRON POROSITY SANDSTONE
 CORR.G/C3   45 356 01 00:   DENSITY CORRECTION
 GRD .GAPI   45 310 01 00:   GAMMA RAY FROM DENSITY LOG
 PORD.DEC    45 890 12 00:   POROSITY DENSITY SANDSTONE
 RHOB.G/C3   45 350 01 00:   BULK DENSITY
~PARAMETER INFORMATION
#MNEM.UNIT          VALUE    DESCRIPTION
#----------   ------------   ------------------------------
 PD  .                 GL:   PERMANENT DATUM
 EPD .F              5156:   ELEVATION PERMANENT DATUM
 LMF .                 GL:   LOG MEASURED FROM
 DMF .                 GL:   DRILLING MEASURED FROM
 EGL .F              5156:   GROUND LEVEL
 DATE.        16-JAN-1985:   RUN DATE
 RUN .                  1:   RUN NUMBER
 DD  .F               308:   DEPTH DRILLER
 DL  .F               308:   DEPTH LOGGER
 BLI .F               306:   BOTTOM LOG INTERVAL
 TLI .F                20:   TOP LOG INTERVAL
 CS  .IN            8.625:   CASING SIZE
 CBD .F                20:   CASING BOTTOM DRILLER
 CBL .F                20:   CASING BOTTOM LOGGER
 BS  .IN            7.875:   BIT SIZE
 BSD .F               308:   BIT SIZE AT DEPTH
 DFT .          KCL-WATER:   DRILLING FLUID TYPE
 MSS .               TANK:   MUD SAMPLE SOURCE
 RMS .OHMM           0.11:   RESISTIVITY MUD SAMPLE
 MST .F                88:   MUD SAMPLE TEMPERATURE
 RMF .OHMM           0.08:   RESISTIVITY MUD FILTRATE SAMPLE
 MFST.F                88:   MUD FILTRATE SAMPLE TEMPERATURE
 RMC .OHMM           0.13:   RESISTIVITY MUD CAKE
 MCST.F                88:   MUD CAKE SAMPLE TEMPERATURE
 MFSS.               CALC:   MUD FILTRATE SAMPLE SOURCE
 MCSS.               CALC:   MUD CAKE SAMPLE SOURCE
 BHT .F               100:   BOTTOM HOLE TEMPERATURE
 TCS .HRS               2:   TIME CURCULATED STOPPED
 MRT .F               100:   MAXIMUM RECORDED TEMPERATURE
 LUN .               6270:   LOGGING UNIT NUMBER
 LUL .                 FM:   LOGGING UNIT LOCATION
 ENGI.          E. GOVETT:   RECORDING ENGINEER
 WITN.             GROOMS:   WITNESSED BY
 CLNT.            A2DTECH:   CLIENT CODE
 ORIG.           5" PRINT:   ORIGIN OF DATA
 UWI .       490251100300:   UNIQUE WELL ID
 DICO. A2D Technologies, Inc.:   DIGITIZING COMPANY
~OTHER INFORMATION
~A   DEPT        AC      CALD          CNC     CORR         GRD      PORD       RHOB   
# ...
  152.5000   125.2352     7.9992     0.3879    -0.0061    98.1878     0.2288     2.2958
  153.0000   130.1866     7.9991     0.4057     0.0105    96.9833     0.2478     2.2611
  153.5000   132.9591     7.9989     0.3930     0.0090    95.4781     0.2593     2.2453
  154.0000   133.7782     7.9988     0.3686     0.0029    92.3187     0.2611     2.2438
  154.5000   131.1413     7.9836     0.3495    -0.0062    91.2647     0.2396     2.2830
  155.0000   128.1287     7.9834     0.3571    -0.0199    97.4536     0.2164     2.3102
  155.5000   125.1913     7.9683     0.3629    -0.0304   109.3065     0.2097     2.3283
  156.0000   122.3290     7.9531     0.3562    -0.0334   116.0720     0.2064     2.3457
  156.5000   119.5928     7.9529     0.3323    -0.0183   118.1758     0.1844     2.3774
  157.0000   116.9618     7.9528     0.3185    -0.0063   119.0766     0.1638     2.4038
  157.5000   112.6884     7.9526     0.3103     0.0013   119.8270     0.1358     2.4462
  158.0000   109.9763     7.9525     0.3203     0.0179   120.7379     0.1288     2.4657
  158.5000   108.9172     7.9674     0.3317     0.0254   120.5757     0.1305     2.4596
  159.0000   109.2855     7.9822     0.3236     0.0133   119.6720     0.1361     2.4506
  159.5000   109.7290     8.0272     0.3106     0.0058   118.1667     0.1379     2.4475
  160.0000   110.0973     7.9970     0.3082     0.0133   115.3082     0.1340     2.4528
  160.5000   110.3156     7.9495     0.3223     0.0208   112.2992     0.1273     2.4664
  161.0000   109.8562     7.9365     0.3203     0.0072   110.4932     0.1234     2.4755
  161.5000   109.4651     7.9664     0.3118    -0.0034   109.4216     0.1225     2.4755
  162.0000   108.8641     7.9513     0.3055    -0.0109   111.6930     0.1246     2.4717
  162.5000   110.0589     7.9511     0.3094    -0.0157   116.6539     0.1303     2.4642
  163.0000   111.1785     7.9509     0.3146    -0.0110   120.8630     0.1356     2.4445
  163.5000   113.5754     7.9508     0.3191    -0.0049   122.0646     0.1545     2.4287
  164.0000   115.8221     7.9507     0.3297     0.0011   122.3639     0.1645     2.4105
  164.5000   116.3407     7.9505     0.3445     0.0071   121.7458     0.1657     2.4045
  165.0000   116.1831     7.9504     0.3387     0.0147   116.5714     0.1572     2.4181
  165.5000   115.1239     7.9502     0.3307     0.0207   112.1336     0.1554     2.4211
  166.0000   113.4576     7.9501     0.3249     0.0284   114.5381     0.1488     2.4287
  166.5000   112.7032     7.9499     0.3306     0.0358   120.4014     0.1373     2.4513
  167.0000   112.0949     7.9498     0.3318     0.0388   122.6555     0.1267     2.4709
  167.5000   111.4865     7.9496     0.3230     0.0342   123.4185     0.1203     2.4785
  168.0000   109.9014     7.9547     0.3197     0.0146   117.9308     0.1211     2.4770
  168.5000   108.8423     7.9644     0.3315    -0.0036   115.4328     0.1228     2.4762
  169.0000   107.7080     7.9642     0.3025    -0.0051   114.3787     0.1219     2.4815
  169.5000   106.5737     7.9791     0.2899     0.0043   112.8735     0.1177     2.4868
  170.0000   105.5897     7.9789     0.2720     0.0175   111.8194     0.1128     2.4951
  170.5000   104.7558     7.9788     0.2796     0.0296   113.4721     0.1086     2.4961
  171.0000   104.5980     7.9786     0.2902     0.0281   113.9218     0.1125     2.4898
  171.5000   104.7394     7.9785     0.2953     0.0220   114.7248     0.1155     2.4874
  172.0000   104.9575     7.9633     0.3003     0.0129   117.2268     0.1180     2.4815
  172.5000   105.2507     7.9481     0.3062    -0.0097   119.3306     0.1202     2.4747
  173.0000   105.5439     7.9630     0.3059    -0.0297   119.0284     0.1255     2.4687
  173.5000   106.2128     7.9629     0.3145    -0.0355   116.6209     0.1282     2.4657
  174.0000   106.8065     7.9627     0.3319    -0.0234   112.2586     0.1288     2.4642
  174.5000   107.0997     7.9625     0.3288    -0.0023   110.9012     0.1270     2.4695
  175.0000   107.3178     7.9624     0.3059     0.0189   111.5790     0.1246     2.4795
  175.5000   107.4766     7.9622     0.2979     0.0158   112.1039     0.1213     2.4823
  176.0000   107.9024     7.9621     0.2905     0.0128   109.3953     0.1195     2.4823
  176.5000   108.2707     7.9620     0.2970     0.0098   110.4465     0.1177     2.4845
  177.0000   108.7893     7.9453     0.3144     0.0218   114.5052     0.1155     2.4868
  177.5000   109.2328     7.8714     0.3195     0.0339   116.9097     0.1131     2.4906
  178.0000   109.6011     7.8261     0.3168     0.0384   118.9033     0.1119     2.4929
  178.5000   109.8211     7.9012     0.3083     0.0203   121.8689     0.1113     2.4936
  179.0000   110.1876     7.9462     0.3124     0.0142   124.2735     0.1134     2.4845
  179.5000   111.2321     7.9761     0.3310     0.0157   126.3773     0.1252     2.4694
  180.0000   113.2328     7.9609     0.3424     0.0188   124.4209     0.1367     2.4453
  180.5000   114.8225     7.9457     0.3440     0.0217   120.3593     0.1469     2.4332
  181.0000   115.1927     7.9455     0.3307     0.0232   117.9519     0.1482     2.4340
  181.5000   113.9063     7.9471     0.3234     0.0232   119.0732     0.1401     2.4523
  182.0000   111.7953     7.9603     0.3283     0.0428   120.2046     0.1230     2.4823
  182.5000   107.8812     7.9601     0.3222     0.0504   114.3381     0.1095     2.4981
  183.0000   106.6627     7.9600     0.3038     0.0428   111.0284     0.1044     2.5057
  183.5000   106.0411     7.9899     0.2949     0.0245   109.8240     0.1038     2.5072
  184.0000   106.2045     8.0048     0.2963     0.0156   113.8827     0.1050     2.5034
  184.5000   106.6480     8.0046     0.3005     0.0110   117.4953     0.1080     2.4981
  185.0000   106.9412     8.0045     0.2948     0.0201   116.5113     0.1119     2.4898
  185.5000   106.8587     8.0043     0.2905     0.0306   114.6298     0.1155     2.4830
  186.0000   106.4757     7.9892     0.2933     0.0261   116.8840     0.1177     2.4785
  186.5000   106.0176     7.9890     0.3026     0.0004   120.4916     0.1212     2.4702
  187.0000   105.5595     7.9889     0.3120    -0.0481   121.2424     0.1276     2.4649
  187.5000   105.1766     7.9887     0.3026    -0.0600   118.5338     0.1291     2.4611
  188.0000   104.9436     7.9885     0.2942    -0.0480   116.5473     0.1300     2.4642
  188.5000   104.9347     7.9734     0.2918    -0.0268   114.9215     0.1273     2.4679
  189.0000   105.0776     7.9582     0.3090    -0.0178   114.4689     0.1279     2.4672
  189.5000   105.4460     7.9580     0.3132    -0.0027   114.3171     0.1264     2.4732
  190.0000   106.2651     7.9429     0.3002     0.0124   114.4664     0.1213     2.4808
  190.5000   107.1594     7.9427     0.3008     0.0245   114.6150     0.1168     2.4860
  191.0000   107.5277     7.9425     0.2975     0.0275   116.1173     0.1137     2.4883
  191.5000   107.7458     7.9424     0.2957     0.0410   118.7248     0.1128     2.4906
  192.0000   107.8136     7.9422     0.2982     0.0607   121.2268     0.1122     2.4921
  192.5000   107.8814     7.9421     0.3126     0.0697   124.2329     0.1110     2.4951
  193.0000   107.8738     7.9570     0.3184     0.0425   125.8856     0.1092     2.4966
  193.5000   107.7898     7.9568     0.3071     0.0274   126.6363     0.1068     2.4996
  194.0000   107.5571     7.9567     0.2981     0.0077   123.3263     0.1047     2.5034
  194.5000   107.4747     7.9565     0.3024    -0.0091   119.4076     0.1056     2.5057
  195.0000   107.3922     7.9564     0.3054    -0.0119   118.0351     0.1122     2.4936
  195.5000   107.3849     7.9412     0.3042    -0.0089   119.2614     0.1168     2.4845
  196.0000   107.3776     7.9410     0.3020     0.0016   120.9141     0.1189     2.4830
  196.5000   107.2951     7.9108     0.3072     0.0137   122.7171     0.1174     2.4838
  197.0000   107.2878     7.8956     0.3118     0.0227   120.4601     0.1195     2.4830
  197.5000   107.2051     7.8804     0.3175     0.0122   117.7518     0.1249     2.4774
