~VERSION INFORMATION
 VERS.                2.0:   CWLS LOG ASCII STANDARD - VERSION 2.0
 WRAP.                 NO:   ONE LINE PER DEPTH STEP
~WELL INFORMATION
#MNEM.UNIT      DATA TYPE    INFORMATION
#----------   ------------   ------------------------------
 STRT.F           60.0000:   START DEPTH
 STOP.F          748.0000:   STOP DEPTH
 STEP.F            0.5000:   STEP LENGTH
 NULL.          -999.2500:   NO VALUE
 COMP.               NAVY:   COMPANY
 WELL.        S-11 #31-11:   WELL
 FLD .             TEAPOT:   FIELD
 LOC .      S11 T38N R78W:   LOCATION
 CNTY.            NATRONA:   COUNTY
 STAT.            WYOMING:   STATE
 CTRY. UNITED STATES OF AMERICA:   COUNTRY
 SRVC.      NL McCullough:   SERVICE COMPANY
 DATE.        10-AUG-1961:   LOGDATE
 API .       490250637600:   API NUMBER
~CURVE INFORMATION
#MNEM.UNIT       API CODE    CURVE DESCRIPTION
#----------   ------------   ------------------------------
 DEPT.F                  :   
 GRN .GAPI   35 310 01 00:   GAMMA RAY
 NEUT.NAPI   35 330 01 00:   NEUTRON
~PARAMETER INFORMATION
#MNEM.UNIT          VALUE    DESCRIPTION
#----------   ------------   ------------------------------
 PD  .                 GL:   PERMANENT DATUM
 EPD .F              5157:   ELEVATION PERMANENT DATUM
 LMF .                 KB:   LOG MEASURED FROM
 DAPD.F                56:   FEET ABOVE PERMANENT DATUM
 DMF .                 KB:   DRILLING MEASURED FROM
 EKB .F              5162:   KELLING BUSHING
 EGL .F              5157:   GROUND LEVEL
 DATE.        10-AUG-1961:   RUN DATE
 RUN .                  1:   RUN NUMBER
 DD  .F               760:   DEPTH DRILLER
 DL  .F               749:   DEPTH LOGGER
 BLI .F               748:   BOTTOM LOG INTERVAL
 TLI .F                60:   TOP LOG INTERVAL
 BS  .IN            7.875:   BIT SIZE
 BSD .F               760:   BIT SIZE AT DEPTH
 DFT .       OIL EMULSION:   DRILLING FLUID TYPE
 DFD .                9.5:   DRILLING FLUID DENSITY
 TCS .HRS            0130:   TIME CURCULATED STOPPED
 ENGI.            JACKSON:   RECORDING ENGINEER
 WITN.          JORGENSEN:   WITNESSED BY
 CLNT.            A2DTECH:   CLIENT CODE
 ORIG.       2", 5" PRINT:   ORIGIN OF DATA
 UWI .       490250637600:   UNIQUE WELL ID
 DICO. A2D Technologies, Inc.:   DIGITIZING COMPANY
~OTHER INFORMATION
~A   DEPT        GRN     NEUT   
# ...
  424.5000     6.3032   500.7745
  425.0000     6.1590   500.7535
  425.5000     5.9686   503.3636
  426.0000     6.0906   508.2406
  426.5000     6.1561   501.8058
  427.0000     6.0206   471.2735
  427.5000     5.8970   454.0827
  428.0000     5.7482   450.1315
  428.5000     5.7035   453.8715
  429.0000     5.9624   460.5527
  429.5000     6.1605   468.1391
  430.0000     6.2485   479.4236
  430.5000     6.3058   481.9342
  431.0000     6.3770   481.6425
  431.5000     6.3465   479.2039
  432.0000     6.1530   474.7151
  432.5000     5.9295   474.3406
  433.0000     5.5484   496.0266
  433.5000     5.4899   506.5918
  434.0000     5.6109   536.5146
  434.5000     5.6446   540.4777
  435.0000     5.6493   530.4441
  435.5000     5.7316   522.0351
  436.0000     5.8285   514.5240
  436.5000     5.8526   513.4289
  437.0000     5.6500   526.4057
  437.5000     5.6250   528.0720
  438.0000     5.8294   525.3453
  438.5000     6.0007   542.7833
  439.0000     6.1320   572.4636
  439.5000     6.1850   572.2106
  440.0000     6.1167   538.6576
  440.5000     6.1014   497.0360
  441.0000     6.2925   490.3942
  441.5000     6.3435   498.9743
  442.0000     6.1009   506.7629
  442.5000     6.0572   495.8201
  443.0000     5.8625   471.3029
  443.5000     5.7898   474.9107
  444.0000     5.7360   479.6885
  444.5000     5.6176   428.2792
  445.0000     5.5735   418.8896
  445.5000     5.8343   422.3099
  446.0000     5.9179   445.5419
  446.5000     5.7100   449.9773
  447.0000     5.3992   450.8315
  447.5000     5.3341   451.9969
  448.0000     5.5836   456.2978
  448.5000     5.9599   466.5307
  449.0000     6.2427   479.8660
  449.5000     6.3208   502.1625
  450.0000     6.5227   529.0131
  450.5000     6.0805   485.9206
  451.0000     6.1037   479.8392
  451.5000     6.1554   481.6354
  452.0000     6.1322   487.3449
  452.5000     6.1241   479.7571
  453.0000     6.1919   449.5749
  453.5000     6.2976   463.0743
  454.0000     6.5930   490.9047
  454.5000     6.6760   502.1564
  455.0000     6.7590   530.7534
  455.5000     7.0165   498.2845
  456.0000     7.0844   457.5392
  456.5000     6.8032   449.9644
  457.0000     6.6965   466.4781
  457.5000     6.6506   474.7155
  458.0000     6.7187   534.9498
  458.5000     6.4968   531.8835
  459.0000     6.4899   510.7159
  459.5000     6.5273   490.1597
  460.0000     6.7014   478.9769
  460.5000     6.5264   485.7071
  461.0000     6.6549   483.3943
  461.5000     6.6773   496.1531
  462.0000     6.6085   491.5667
  462.5000     6.6157   490.0075
  463.0000     6.6304   491.4756
  463.5000     6.6936   470.3104
  464.0000     6.7584   467.2440
  464.5000     6.5188   457.4085
  465.0000     6.1582   449.8077
  465.5000     6.1122   449.0151
  466.0000     6.2180   471.5575
  466.5000     6.4527   452.4718
  467.0000     6.3840   472.2070
  467.5000     5.9512   454.8227
  468.0000     5.9129   453.2635
  468.5000     6.2840   463.7616
  469.0000     6.5036   437.3987
  469.5000     6.3286   409.3999
  470.0000     6.2296   433.4624
  470.5000     6.1836   354.2715
  471.0000     6.2287   324.8299
  471.5000     6.1574   319.5158
  472.0000     6.0439   295.3363
  472.5000     6.0307   253.0838
  473.0000     5.7565   241.7281
  473.5000     5.7410   224.3438
  474.0000     5.9528   270.2601
  474.5000     6.1496   295.0762
  475.0000     6.4677   293.5170
  475.5000     6.6114   326.6225
  476.0000     6.5579   367.2638
  476.5000     6.5119   399.6205
  477.0000     6.6506   398.0106
  477.5000     6.7647   412.6220
  478.0000     6.9959   425.8350
  478.5000     7.0108   422.7556
  479.0000     6.9343   421.9500
  479.5000     6.9264   433.2017
  480.0000     7.0245   414.3102
  480.5000     7.0771   390.1436
  481.0000     7.0236   385.5702
  481.5000     6.9245   384.7646
  482.0000     6.8710   382.4518
  482.5000     7.0905   376.3842
  483.0000     7.2569   348.4367
  483.5000     7.6813   343.8762
  484.0000     7.3546   331.7539
  484.5000     7.0803   356.5700
  485.0000     6.8372   385.9077
  485.5000     6.9095   387.3628
  486.0000     7.1403   424.2362
  486.5000     7.2082   414.3876
  487.0000     7.1243   424.8727
  487.5000     7.0328   440.6459
  488.0000     7.2296   460.1869
  488.5000     7.2140   471.4516
  489.0000     7.4183   459.3423
  489.5000     7.7213   502.2313
  490.0000     7.3643   530.0617
  490.5000     7.0301   525.4883
  491.0000     6.9159   487.7573
  491.5000     6.8623   466.6050
  492.0000     6.8012   440.1907
  492.5000     6.2300   464.9939
  493.0000     6.1243   449.5853
  493.5000     6.1096   464.8898
  494.0000     6.4731   470.8665
  494.5000     6.7306   444.9636
  495.0000     6.8212   439.8657
  495.5000     7.1090   462.4211
  496.0000     6.8051   449.5452
  496.5000     6.7060   451.0003
  497.0000     6.8952   428.3409
  497.5000     7.3120   437.3448
  498.0000     7.3722   425.2356
  498.5000     7.4097   404.8239
  499.0000     7.2575   394.9754
  499.5000     7.1130   393.4162
  500.0000     6.9836   401.9356
  500.5000     6.9753   407.9283
  501.0000     7.0732   439.2404
  501.5000     7.0043   451.2643
  502.0000     7.1779   473.8160
  502.5000     7.2759   472.2644
  503.0000     7.4117   454.1340
  503.5000     7.4414   439.0290
  504.0000     7.4786   469.8701
  504.5000     7.6979   463.7970
  505.0000     7.9250   471.2883
  505.5000     7.7725   495.3583
  506.0000     7.5063   469.6208
  506.5000     7.8394   473.0145
  507.0000     7.6491   482.4028
  507.5000     7.5270   480.8511
  508.0000     7.1623   426.5489
  508.5000     7.2374   423.5012
  509.0000     7.5270   431.7460
  509.5000     7.4036   460.3264
  510.0000     7.0989   476.1071
  510.5000     7.5987   513.7416
  511.0000     7.9318   494.8575
  511.5000     8.0752   504.6096
  512.0000     7.9911   516.8445
  512.5000     7.4974   472.1166
  513.0000     7.3602   434.3931
  513.5000     7.3595   398.9299
  514.0000     7.1768   399.7187
  514.5000     7.1459   410.3995
  515.0000     7.1299   416.1181
  515.5000     7.2506   433.4059
  516.0000     7.6140   412.2612
  516.5000     7.4122   400.1705
  517.0000     7.7794   415.9511
  517.5000     8.2187   392.5345
  518.0000     8.4989   415.8510
  518.5000     8.2022   409.0243
  519.0000     8.1333   425.5585
  519.5000     7.8899   429.2819
  520.0000     7.7982   431.7006
  520.5000     7.6306   399.8033
  521.0000     7.2810   393.7301
  521.5000     7.1590   355.4904
  522.0000     7.1039   331.3940
  522.5000     7.2790   342.7760
  523.0000     7.1039   403.0044
  523.5000     6.8832   467.3510
  524.0000     6.9991   449.2206
  524.5000     7.1818   451.4368
  525.0000     7.3818   462.6960
  525.5000     7.2520   461.8979
  526.0000     7.3576   446.7217
  526.5000     7.3722   452.7659
  527.0000     7.4017   461.2714
  527.5000     7.4619   463.9806
  528.0000     7.7417   423.9852
  528.5000     7.9003   435.9980
  529.0000     7.7783   420.8819
  529.5000     7.8231   398.9836
  530.0000     8.1790   419.2857
  530.5000     8.2088   423.7627
  531.0000     7.7984   436.5290
  531.5000     7.4260   477.9425
  532.0000     7.1750   491.4513
  532.5000     7.0226   511.7534
  533.0000     6.9653   542.6057
  533.5000     6.7103   560.7161
  534.0000     6.8641   514.6342
  534.5000     7.0425   509.1483
  535.0000     7.2089   496.2318
  535.5000     7.0033   486.6183
  536.0000     6.8966   498.6310
  536.5000     7.1915   481.2542
  537.0000     7.2290   472.9091
  537.5000     7.1979   488.6898
  538.0000     7.3338   495.4387
  538.5000     7.1888   482.5833
  539.0000     7.1275   499.1064
  539.5000     6.8310   496.8011
  540.0000     6.9517   483.2033
  540.5000     7.0135   519.3195
  541.0000     6.8138   534.3466
  541.5000     6.7123   535.0565
  542.0000     6.3621   556.8649
  542.5000     6.3187   598.7196
  543.0000     6.5910   612.5408
  543.5000     6.6282   600.3037
  544.0000     6.6656   586.8190
  544.5000     6.6345   582.2530
  545.0000     6.6717   570.1512
  545.5000     6.7772   565.5852
