~VERSION INFORMATION
 VERS.                2.0:   CWLS LOG ASCII STANDARD - VERSION 2.0
 WRAP.                 NO:   ONE LINE PER DEPTH STEP
~WELL INFORMATION
#MNEM.UNIT      DATA TYPE    INFORMATION
#----------   ------------   ------------------------------
 STRT.F          690.5000:   START DEPTH
 STOP.F         2366.0000:   STOP DEPTH
 STEP.F            0.5000:   STEP LENGTH
 NULL.          -999.2500:   NO VALUE
 COMP. LAWRENCE/ALLISON INC:   COMPANY
 WELL.  NPR 3 #26SHX10-10:   WELL
 FLD .             TEAPOT:   FIELD
 LOC .      S10 T38N R78W:   LOCATION
 CNTY.            NATRONA:   COUNTY
 STAT.            WYOMING:   STATE
 CTRY. UNITED STATES OF AMERICA:   COUNTRY
 SRVC.            Unknown:   SERVICE COMPANY
 DATE.        30-DEC-1992:   LOGDATE
 API .       490251113600:   API NUMBER
~CURVE INFORMATION
#MNEM.UNIT       API CODE    CURVE DESCRIPTION
#----------   ------------   ------------------------------
 DEPT.F                  :   
 ROP .MIN/FT 91 810 01 00:   RATE OF DRILLING PENETRATION
 TGAS.UNITS  91 830 01 00:   TOTAL GAS FROM HOTWIRE
~PARAMETER INFORMATION
#MNEM.UNIT          VALUE    DESCRIPTION
#----------   ------------   ------------------------------
 EKB .F              5235:   KELLING BUSHING
 EGL .F              5225:   GROUND LEVEL
 DATE.           12-30-92:   RUN DATE
 DD  .F              2365:   DEPTH DRILLER
 BLI .F              2360:   BOTTOM LOG INTERVAL
 TLI .F              2160:   TOP LOG INTERVAL
 CS  .IN            8.625:   CASING SIZE
 CBD .F               675:   CASING BOTTOM DRILLER
 TCS .HRS            0200:   TIME CURCULATED STOPPED
 TLAB.HRS            1700:   TIME LOGGER AT BOTTOM
 ENGI.               HUSK:   RECORDING ENGINEER
 WITN.              TOWER:   WITNESSED BY
 CLNT.            A2DTECH:   CLIENT CODE
 ORIG.           5" PRINT:   ORIGIN OF DATA
 UWI .       490251113600:   UNIQUE WELL ID
 DICO. A2D Technologies, Inc.:   DIGITIZING COMPANY
~OTHER INFORMATION
~A   DEPT      ROP         TGAS 
# ...
 2270.0000     0.4202     0.0000
 2270.5000     0.4202     0.0000
 2271.0000     0.4202     0.0000
 2271.5000     0.4097     0.0000
 2272.0000     0.4097     0.0000
 2272.5000     0.3887     0.0000
 2273.0000     0.3887     0.0000
 2273.5000     0.3887     0.0000
 2274.0000     0.3887     0.0000
 2274.5000     0.3887     0.0000
 2275.0000     0.3782     0.0000
 2275.5000     0.3782     0.0000
 2276.0000     0.3782     0.0000
 2276.5000     0.3782     0.0000
 2277.0000     0.3782     0.0000
 2277.5000     0.3676     0.0000
 2278.0000     0.3676     0.0000
 2278.5000     0.3676     0.0000
 2279.0000     0.3666     0.0000
 2279.5000     0.3361     0.0000
 2280.0000     0.3361     0.0000
 2280.5000     0.4202     0.0000
 2281.0000     0.5567     0.0000
 2281.5000     0.7773     0.0000
 2282.0000     1.0084     0.0000
 2282.5000     1.0084     0.0000
 2283.0000     1.0084     0.0000
 2283.5000     1.0084     0.0000
 2284.0000     0.9979     0.0000
 2284.5000     0.9874     0.0000
 2285.0000     0.9244     0.0000
 2285.5000     0.8193     0.0000
 2286.0000     0.7773     0.0000
 2286.5000     0.7773     0.0000
 2287.0000     0.7668     0.0000
 2287.5000     0.7668     0.0000
 2288.0000     0.7668     0.0000
 2288.5000     0.7773     0.0000
 2289.0000     0.7773     0.0000
 2289.5000     0.7248     0.0000
 2290.0000     0.6933     0.0000
 2290.5000     0.6828     0.0000
 2291.0000     0.6933     0.0000
 2291.5000     0.7145     0.0000
 2292.0000     0.8025     0.0000
 2292.5000     1.0189     0.0000
 2293.0000     1.2290     0.0000
 2293.5000     1.4601     0.0000
 2294.0000     1.6807     0.0000
 2294.5000     1.8277     0.0000
 2295.0000     1.8908     0.0000
 2295.5000     1.9433     0.0000
 2296.0000     1.9853     0.0000
 2296.5000     1.9643     0.0000
 2297.0000     1.7647     0.0000
 2297.5000     1.6492     0.0000
 2298.0000     1.6387     0.0000
 2298.5000     1.6702     0.0000
 2299.0000     1.8592     0.0000
 2299.5000     2.1534     0.0000
 2300.0000     2.3553     0.0000
 2300.5000     2.5135     0.0030
 2301.0000     2.6584     0.0060
 2301.5000     2.8487     0.0090
 2302.0000     3.2790     0.0120
 2302.5000     3.1744     0.0149
 2303.0000     3.0588     0.0179
 2303.5000     2.9520     0.0209
 2304.0000     2.7871     0.0239
 2304.5000     2.6509     0.0269
 2305.0000     2.5253     0.0299
 2305.5000     2.3261     0.0329
 2306.0000     2.1689     0.0359
 2306.5000     1.9698     0.0389
 2307.0000     1.7706     0.0418
 2307.5000     1.5426     0.0448
 2308.0000     1.5855     0.0478
 2308.5000     1.7194     0.0508
 2309.0000     1.8669     0.0538
 2309.5000     2.0353     0.0568
 2310.0000     1.9937     0.0598
 2310.5000     1.8471     0.0628
 2311.0000     1.6584     0.0658
 2311.5000     1.4172     0.0687
 2312.0000     1.3231     0.0717
 2312.5000     1.4478     0.0747
 2313.0000     1.7337     0.0777
 2313.5000     1.9757     0.0807
 2314.0000     2.0391     0.0837
 2314.5000     1.9450     0.0867
 2315.0000     1.7353     0.0897
 2315.5000     1.5782     0.0927
 2316.0000     1.4735     0.0956
 2316.5000     1.3989     0.0986
 2317.0000     1.3274     0.1016
 2317.5000     1.3172     0.1046
 2318.0000     1.3282     0.1076
 2318.5000     1.4021     0.1106
 2319.0000     1.4761     0.1136
 2319.5000     1.6131     0.1197
 2320.0000     1.8130     0.1280
 2320.5000     2.0445     0.1363
 2321.0000     2.3010     0.2501
 2321.5000     2.5076     0.3640
 2322.0000     2.5396     0.4779
 2322.5000     2.5294     0.5918
 2323.0000     2.5404     0.8113
 2323.5000     2.5618     0.9254
 2324.0000     2.5516     0.7071
 2324.5000     2.4366     0.2023
 2325.0000     2.2374     0.1049
 2325.5000     1.8615     0.1153
 2326.0000     1.3665     0.1235
 2326.5000     1.4515     0.1318
 2327.0000     1.8408     0.1400
 2327.5000     2.2921     0.1483
 2328.0000     3.2799     0.1566
 2328.5000     3.5008     0.1648
 2329.0000     3.3227     0.1732
 2329.5000     3.0687     0.1817
 2330.0000     2.3638     0.1917
 2330.5000     1.3072     0.1999
 2331.0000     1.2970     0.2082
 2331.5000     1.3816     0.2164
 2332.0000     1.4975     0.2239
 2332.5000     1.5083     0.2336
 2333.0000     1.4143     0.2412
 2333.5000     1.3307     0.2495
 2334.0000     1.2992     0.2577
 2334.5000     1.2895     0.2660
 2335.0000     1.2900     0.1686
 2335.5000     1.2904     0.1789
 2336.0000     1.3223     0.1872
 2336.5000     1.3753     0.1954
 2337.0000     1.4597     0.2037
 2337.5000     1.4706     0.2120
 2338.0000     1.4605     0.2202
 2338.5000     1.4071     0.1225
 2339.0000     1.3545     0.1311
 2339.5000     1.3148     0.1394
 2340.0000     1.2941     0.1476
 2340.5000     1.2630     0.0502
 2341.0000     1.3685     0.0606
 2341.5000     1.4950     0.0688
 2342.0000     1.5479     0.0771
 2342.5000     1.5378     0.0853
 2343.0000     1.5277     0.0000
 2343.5000     1.5176     0.0000
 2344.0000     1.5391     0.0045
 2344.5000     1.5501     0.0127
 2345.0000     1.5925     0.0000
 2345.5000     1.6769     0.0000
 2346.0000     1.7719     0.0000
 2346.5000     1.6882     0.0000
 2347.0000     1.6151     0.0000
 2347.5000     1.5945     0.0000
 2348.0000     1.5950     0.0000
 2348.5000     1.6375     0.0000
 2349.0000     1.6379     0.0000
 2349.5000     1.6068     0.0000
 2350.0000     1.5652     0.0000
 2350.5000     1.4596     0.0000
 2351.0000     1.4590     0.0000
 2351.5000     1.4374     0.0000
 2352.0000     1.4159     0.0000
 2352.5000     1.3839     0.0000
 2353.0000     1.3573     0.0000
 2353.5000     1.3619     0.0000
 2354.0000     1.4993     0.0000
 2354.5000     1.6492     0.0000
 2355.0000     1.8854     0.0000
 2355.5000     2.3156     0.0000
 2356.0000     2.2310     0.0000
 2356.5000     2.0414     0.0000
 2357.0000     1.8833     0.0000
 2357.5000     1.7568     0.0000
 2358.0000     1.6617     0.0000
 2358.5000     1.5562     0.0000
 2359.0000     1.4296     0.0000
 2359.5000     1.3451     0.2008
 2360.0000     1.2598     0.3169
 2360.5000     1.1848     0.3454
 2361.0000     1.0913     0.4455
 2361.5000     1.0383     0.4558
 2362.0000     1.0482     0.4661
 2362.5000     1.1528     0.4764
 2363.0000     1.2468     0.5924
 2363.5000     1.2778     0.7083
 2364.0000     1.2879     0.8242
 2364.5000     1.2873     0.8345
 2365.0000     1.2868     0.5070
 2365.5000     1.2862  -999.2500
 2366.0000     1.2846  -999.2500
