~VERSION INFORMATION
 VERS.                2.0:   CWLS LOG ASCII STANDARD - VERSION 2.0
 WRAP.                 NO:   ONE LINE PER DEPTH STEP
~WELL INFORMATION
#MNEM.UNIT      DATA TYPE    INFORMATION
#----------   ------------   ------------------------------
 STRT.F            2.0000:   START DEPTH
 STOP.F          595.0000:   STOP DEPTH
 STEP.F            0.5000:   STEP LENGTH
 NULL.          -999.2500:   NO VALUE
 COMP.       F D SERV INC:   COMPANY
 WELL.    73-5 SX-3 #73-3:   WELL
 FLD .             TEAPOT:   FIELD
 LOC .       S3 T38N R78W:   LOCATION
 CNTY.            NATRONA:   COUNTY
 STAT.            WYOMING:   STATE
 CTRY. UNITED STATES OF AMERICA:   COUNTRY
 SRVC.     Atlas Wireline:   SERVICE COMPANY
 DATE.        01-MAY-1992:   LOGDATE
 API .       490252252200:   API NUMBER
~CURVE INFORMATION
#MNEM.UNIT       API CODE    CURVE DESCRIPTION
#----------   ------------   ------------------------------
 DEPT.F                  :   
 CALD.IN     45 280 60 00:   CALIPER FROM DENSITY
 CORR.G/C3   45 356 01 00:   DENSITY CORRECTION
 DEN .G/C3   45 350 01 00:   COMPENSATED BULK DENSTIY
 GRD .GAPI   45 310 01 00:   GAMMA RAY FROM DENSITY LOG
 RILD.OHMM   07 120 46 00:   INDUCTION LOG DEEP RESISTIVITY
 RILM.OHMM   07 120 44 00:   INDUCTION LOG MEDIUM RESISTIVITY
 PORD.DEC    45 890 12 00:   POROSITY DENSITY SANDSTONE
~PARAMETER INFORMATION
#MNEM.UNIT          VALUE    DESCRIPTION
#----------   ------------   ------------------------------
 PD  .                 GL:   PERMANENT DATUM
 EPD .F              5147:   ELEVATION PERMANENT DATUM
 LMF .                 KB:   LOG MEASURED FROM
 DAPD.F                 5:   FEET ABOVE PERMANENT DATUM
 DMF .                 KB:   DRILLING MEASURED FROM
 EKB .F              5152:   KELLING BUSHING
 EGL .F              5147:   GROUND LEVEL
 DATE.        01-MAY-1992:   RUN DATE
 RUN .                  1:   RUN NUMBER
 DD  .F               600:   DEPTH DRILLER
 DL  .F               603:   DEPTH LOGGER
 BLI .F               601:   BOTTOM LOG INTERVAL
 TLI .F                 2:   TOP LOG INTERVAL
 CS  .IN            8.625:   CASING SIZE
 CBD .F                46:   CASING BOTTOM DRILLER
 CBL .F                53:   CASING BOTTOM LOGGER
 BS  .IN            7.875:   BIT SIZE
 BSD .F               600:   BIT SIZE AT DEPTH
 DFT .                AIR:   DRILLING FLUID TYPE
 TCS .HRS               1:   TIME CURCULATED STOPPED
 LUN .            HL-6274:   LOGGING UNIT NUMBER
 LUL .             CASPER:   LOGGING UNIT LOCATION
 ENGI.             ZIEGER:   RECORDING ENGINEER
 WITN.             STRONG:   WITNESSED BY
 CLNT.            A2DTECH:   CLIENT CODE
 ORIG.           5" PRINT:   ORIGIN OF DATA
 UWI .       490252252200:   UNIQUE WELL ID
 DICO. A2D Technologies, Inc.:   DIGITIZING COMPANY
~OTHER INFORMATION
~A    DEPT    CALD       CORR        DEN         GRD      RILD       RILM       PORD   
# ...
  548.0000     7.8386    -0.0194     2.5367   140.4873    10.3216    10.2498     0.0712
  548.5000     7.8383    -0.0202     2.5366   142.3507    10.1751    10.1043     0.0703
  549.0000     7.8379    -0.0230     2.5365   144.3663    10.1009     9.9609     0.0688
  549.5000     7.8376    -0.0233     2.5364   140.4536     9.9575     9.8195     0.0680
  550.0000     7.8524    -0.0234     2.5381   137.6238     9.8848     9.8161     0.0676
  550.5000     7.8370    -0.0209     2.5392   135.9295     9.8129     9.7587     0.0667
  551.0000     7.8367    -0.0185     2.5406   137.7251     9.7366     9.7013     0.0657
  551.5000     7.8515    -0.0119     2.5467   139.5207     9.5964     9.5338     0.0643
  552.0000     7.8680    -0.0060     2.5524   140.4141     9.3924     9.3324     0.0603
  552.5000     7.8789    -0.0123     2.5571   140.4052     9.1289     9.1993     0.0565
  553.0000     7.8780    -0.0185     2.5627   140.3963     8.9348     9.0050     0.0545
  553.5000     7.8772    -0.0217     2.5641   140.6903     8.8061     8.9362     0.0542
  554.0000     7.8765    -0.0219     2.5519   142.4837     8.7401     8.8671     0.0561
  554.5000     7.8758    -0.0190     2.5457   144.5801     8.7352     8.7462     0.0618
  555.0000     7.8740    -0.0192     2.5456   144.8719     8.6696     8.6810     0.0637
  555.5000     7.8592    -0.0164     2.5470   143.9608     8.6561     8.6171     0.0643
  556.0000     7.8583    -0.0166     2.5484   141.8427     8.5997     8.6135     0.0637
  556.5000     7.8425    -0.0168     2.5513   141.2361     8.5940     8.6100     0.0625
  557.0000     7.8417    -0.0169     2.5527   146.1915     8.5893     8.6064     0.0613
  557.5000     7.8410    -0.0171     2.5541   149.0380     8.5845     8.6029     0.0604
  558.0000     7.8403    -0.0173     2.5539   150.2321     8.5201     8.6595     0.0599
  558.5000     7.8395    -0.0175     2.5538   150.5240     8.5154     8.6559     0.0593
  559.0000     7.8388    -0.0177     2.5537   151.4151     8.3928     8.5922     0.0587
  559.5000     7.8381    -0.0118     2.5521   153.2107     8.3298     8.5289     0.0593
  560.0000     7.8373    -0.0089     2.5459   155.0063     8.2099     8.4073     0.0639
  560.5000     7.8366    -0.0060     2.5352   156.2004     8.0916     8.2873     0.0684
  561.0000     7.8358    -0.0063     2.5275   157.3945     7.9751     8.1691     0.0730
  561.5000     7.8351    -0.0065     2.5289   158.5887     7.9152     8.0526     0.0763
  562.0000     7.8494    -0.0066     2.5349   159.4820     7.8559     7.9377     0.0730
  562.5000     7.8487    -0.0098     2.5393   156.4656     7.7969     7.8792     0.0697
  563.0000     7.8478    -0.0130     2.5407   148.3364     7.7926     7.8760     0.0664
  563.5000     7.8470    -0.0193     2.5436   145.6207     7.6804     7.8726     0.0652
  564.0000     7.8312    -0.0225     2.5450   147.7171     7.5171     7.8060     0.0640
  564.5000     7.8305    -0.0227     2.5464  -999.2500     7.2050     7.3353     0.0635
  565.0000     7.8297    -0.0198     2.5445  -999.2500     7.0028     6.9342     0.0632
  565.5000     7.8290    -0.0170     2.5321  -999.2500     6.8063     6.7878     0.0645
  566.0000     7.8132    -0.0172     2.5200  -999.2500     6.8025     6.7850     0.0713
  566.5000     7.8125    -0.0174     2.5081  -999.2500     6.8464     6.8782     0.0922
  567.0000     7.7967    -0.0175     2.5004  -999.2500     6.8905     6.9720     0.0986
  567.5000     7.7809    -0.0208     2.4927  -999.2500     6.9436     7.1158     0.1017
  568.0000     7.7801    -0.0209     2.5122  -999.2500     7.0767     7.3141     0.0938
  568.5000     7.7794    -0.0181     2.5242  -999.2500     7.1732     7.4658     0.0821
  569.0000     7.7786    -0.0183     2.5316  -999.2500     7.3711     7.6739     0.0718
  569.5000     7.7777    -0.0154     2.5361  -999.2500     7.5756     7.8330     0.0673
  570.0000     7.7770    -0.0126     2.5420  -999.2500     7.7857     8.1077     0.0637
  570.5000     7.7913    -0.0097     2.5449  -999.2500     8.0016     8.3921     0.0616
  571.0000     7.7906    -0.0039     2.5463  -999.2500     8.3975     8.6261     0.0610
  571.5000     7.8051    -0.0040     2.5477  -999.2500     8.6909     8.9286     0.0610
  572.0000     7.8041    -0.0072     2.5460  -999.2500     8.9944     9.1146     0.0623
  572.5000     7.8186    -0.0104     2.5414  -999.2500     9.1171     9.3721     0.0638
  573.0000     7.8177    -0.0136     2.5397  -999.2500     9.2401     9.6370     0.0656
  573.5000     7.8170    -0.0108     2.5366  -999.2500     9.2996     9.7603     0.0669
  574.0000     7.8162    -0.0110     2.5335  -999.2500     9.2932     9.7552     0.0687
  574.5000     7.8004  -999.2500  -999.2500  -999.2500     9.3544     9.6834  -999.2500
  575.0000     7.7997  -999.2500  -999.2500  -999.2500     9.3480     9.6794  -999.2500
  575.5000     7.7990  -999.2500  -999.2500  -999.2500     9.3428     9.6081  -999.2500
  576.0000     7.7960  -999.2500  -999.2500  -999.2500     9.2082     9.5374  -999.2500
  576.5000     7.7822  -999.2500  -999.2500  -999.2500     9.0756     9.4672  -999.2500
  577.0000     7.7815  -999.2500  -999.2500  -999.2500     9.0075     9.3974  -999.2500
  577.5000     7.7808  -999.2500  -999.2500  -999.2500     8.9994     9.3282  -999.2500
  578.0000     7.7650  -999.2500  -999.2500  -999.2500     8.8728     9.2596  -999.2500
  578.5000     7.7642  -999.2500  -999.2500  -999.2500     8.8678     9.2557  -999.2500
  579.0000     7.7785  -999.2500  -999.2500  -999.2500     8.9252     9.2519  -999.2500
  579.5000     7.7778  -999.2500  -999.2500  -999.2500     8.9190     9.2481  -999.2500
  580.0000  -999.2500  -999.2500  -999.2500  -999.2500     8.9141     9.2443  -999.2500
  580.5000  -999.2500  -999.2500  -999.2500  -999.2500     8.9092     9.2404  -999.2500
  581.0000  -999.2500  -999.2500  -999.2500  -999.2500     8.8423     9.2366  -999.2500
  581.5000  -999.2500  -999.2500  -999.2500  -999.2500     8.7150     9.1669  -999.2500
  582.0000  -999.2500  -999.2500  -999.2500  -999.2500     8.5297     8.8456  -999.2500
  582.5000  -999.2500  -999.2500  -999.2500  -999.2500     8.2904     8.5356  -999.2500
  583.0000  -999.2500  -999.2500  -999.2500  -999.2500     8.0017     8.2364  -999.2500
  583.5000  -999.2500  -999.2500  -999.2500  -999.2500     7.6161     7.6875  -999.2500
  584.0000  -999.2500  -999.2500  -999.2500  -999.2500     7.2998     7.1664  -999.2500
  584.5000  -999.2500  -999.2500  -999.2500  -999.2500     6.8997     6.7274  -999.2500
  585.0000  -999.2500  -999.2500  -999.2500  -999.2500     6.1674     6.3153  -999.2500
  585.5000  -999.2500  -999.2500  -999.2500  -999.2500     5.5515     5.4905  -999.2500
  586.0000  -999.2500  -999.2500  -999.2500  -999.2500     4.8257     4.6420  -999.2500
  586.5000  -999.2500  -999.2500  -999.2500  -999.2500     4.1367     4.0357  -999.2500
  587.0000  -999.2500  -999.2500  -999.2500  -999.2500     3.5461     3.7360  -999.2500
  587.5000  -999.2500  -999.2500  -999.2500  -999.2500     3.1258     3.3400  -999.2500
  588.0000  -999.2500  -999.2500  -999.2500  -999.2500     2.7554     2.8436  -999.2500
  588.5000  -999.2500  -999.2500  -999.2500  -999.2500     2.6408     2.6141  -999.2500
  589.0000  -999.2500  -999.2500  -999.2500  -999.2500     2.5660     2.6313  -999.2500
  589.5000  -999.2500  -999.2500  -999.2500  -999.2500     2.6230     2.8599  -999.2500
  590.0000  -999.2500  -999.2500  -999.2500  -999.2500     2.7544     3.1302  -999.2500
  590.5000  -999.2500  -999.2500  -999.2500  -999.2500     2.9163     3.5725  -999.2500
  591.0000  -999.2500  -999.2500  -999.2500  -999.2500     3.2464     3.9407  -999.2500
  591.5000  -999.2500  -999.2500  -999.2500  -999.2500     3.8361     4.3482  -999.2500
  592.0000  -999.2500  -999.2500  -999.2500  -999.2500     4.6939     4.8364  -999.2500
  592.5000  -999.2500  -999.2500  -999.2500  -999.2500     5.5465     9.4722  -999.2500
  593.0000  -999.2500  -999.2500  -999.2500  -999.2500     6.1123     9.7362  -999.2500
