~VERSION INFORMATION
 VERS.                2.0:   CWLS LOG ASCII STANDARD - VERSION 2.0
 WRAP.                 NO:   ONE LINE PER DEPTH STEP
~WELL INFORMATION
#MNEM.UNIT      DATA TYPE    INFORMATION
#----------   ------------   ------------------------------
 STRT.F           30.0000:   START DEPTH
 STOP.F          562.0000:   STOP DEPTH
 STEP.F            0.5000:   STEP LENGTH
 NULL.          -999.2500:   NO VALUE
 COMP. LAWRENCE/ALLISON INC:   COMPANY
 WELL. 81-16 SHX-SX-10 #10-10:   WELL
 FLD .             TEAPOT:   FIELD
 LOC .      S10 T38N R78W:   LOCATION
 CNTY.            NATRONA:   COUNTY
 STAT.            WYOMING:   STATE
 CTRY. UNITED STATES OF AMERICA:   COUNTRY
 SRVC.           Gearhart:   SERVICE COMPANY
 DATE.        03-JUN-1987:   LOGDATE
 API .       490251113300:   API NUMBER
~CURVE INFORMATION
#MNEM.UNIT       API CODE    CURVE DESCRIPTION
#----------   ------------   ------------------------------
 DEPT.F                  :   
 GRR .GAPI   07 310 01 00:   GAMMA RAY FROM RES. LOG.
 RILD.OHMM   07 120 46 00:   INDUCTION LOG DEEP RESISTIVITY
 RILM.OHMM   07 120 44 00:   INDUCTION LOG MEDIUM RESISTIVITY
~PARAMETER INFORMATION
#MNEM.UNIT          VALUE    DESCRIPTION
#----------   ------------   ------------------------------
 PD  .                 GL:   PERMANENT DATUM
 EPD .F              5169:   ELEVATION PERMANENT DATUM
 LMF .                 KB:   LOG MEASURED FROM
 DAPD.F                 8:   FEET ABOVE PERMANENT DATUM
 DMF .                 KB:   DRILLING MEASURED FROM
 EKB .F              5177:   KELLING BUSHING
 EDF .F              5175:   DRILLING FLOOR
 EGL .F              5169:   GROUND LEVEL
 DATE.             6-3-87:   RUN DATE
 RUN .                  1:   RUN NUMBER
 DD  .F               570:   DEPTH DRILLER
 DL  .F               570:   DEPTH LOGGER
 BLI .F               562:   BOTTOM LOG INTERVAL
 TLI .F                30:   TOP LOG INTERVAL
 CS  .IN            8.625:   CASING SIZE
 CBD .F                50:   CASING BOTTOM DRILLER
 CBL .F                49:   CASING BOTTOM LOGGER
 BS  .IN            7.875:   BIT SIZE
 BSD .F               570:   BIT SIZE AT DEPTH
 DFT .               FOAM:   DRILLING FLUID TYPE
 TCS .HRS            0930:   TIME CURCULATED STOPPED
 TLAB.HRS            1101:   TIME LOGGER AT BOTTOM
 MRT .F                80:   MAXIMUM RECORDED TEMPERATURE
 LUN .               7597:   LOGGING UNIT NUMBER
 LUL .           GILLETTE:   LOGGING UNIT LOCATION
 ENGI. WEATHERMON/JOHNSTON:   RECORDING ENGINEER
 WITN.             STRONG:   WITNESSED BY
 CLNT.            A2DTECH:   CLIENT CODE
 ORIG.       2", 5" PRINT:   ORIGIN OF DATA
 UWI .       490251113300:   UNIQUE WELL ID
 DICO. A2D Technologies, Inc.:   DIGITIZING COMPANY
~OTHER INFORMATION
~A   DEPT       GRR      RILD       RILM   
# ...
  394.0000    89.5948    17.2051    16.6313
  394.5000    90.2926    17.0274    16.4718
  395.0000    91.0084    16.7453    16.3113
  395.5000    90.6287    16.4677    16.0620
  396.0000    89.7844    16.1948    15.7637
  396.5000    89.1710    15.9264    15.4732
  397.0000    90.1513    15.6625    15.1878
  397.5000    91.9235    15.4029    14.9078
  398.0000    93.6145    15.1477    14.6329
  398.5000    93.3008    14.8966    14.3631
  399.0000    92.8683    14.6622    14.0983
  399.5000    94.3158    14.9242    13.8575
  400.0000    96.1161    15.1816    14.0746
  400.5000    96.4948    15.4424    14.2797
  401.0000    94.1817    15.7544    14.4879
  401.5000    91.6560    16.2982    14.6990
  402.0000    91.0583    16.8607    14.9133
  402.5000    92.1556    18.4253    15.7282
  403.0000    93.2121    20.6579    16.7263
  403.5000    92.0419    23.1609    19.4538
  404.0000    87.2548    25.9550    22.7612
  404.5000    80.3399    28.8906    27.5315
  405.0000    73.1170    32.9141    34.3592
  405.5000    66.1678    37.2216    43.2579
  406.0000    66.6101    41.1350    49.6074
  406.5000    67.6508    43.8683    56.8269
  407.0000    68.7004    46.7832    57.1510
  407.5000    71.2297    48.8856    57.3641
  408.0000    75.4770    48.8856    55.0328
  408.5000    79.7307    47.3936    53.3257
  409.0000    81.4350    45.5499    52.2134
  409.5000    78.9625    43.7779    52.4263
  410.0000    75.1563    42.0748    52.5979
  410.5000    71.2768    41.3291    52.7170
  411.0000    69.5957    40.8788    51.1999
  411.5000    70.0582    39.8078    48.6780
  412.0000    75.1133    38.7783    45.5427
  412.5000    78.2684    37.7771    42.6267
  413.0000    79.3289    36.8021    39.8974
  413.5000    80.3516    35.8529    38.5435
  414.0000    83.1520    35.0489    37.5150
  414.5000    84.3207    34.5938    36.6823
  415.0000    82.4448    34.1446    35.9156
  415.5000    80.2930    33.7012    35.1690
  416.0000    80.2141    33.2635    34.4380
  416.5000    81.6673    32.8316    33.7221
  417.0000    85.0433    32.4052    33.1703
  417.5000    85.4108    31.9844    32.9493
  418.0000    83.3741    31.5691    32.7299
  418.5000    81.4160    31.4158    32.5118
  419.0000    80.1945    31.4158    32.3151
  419.5000    82.2754    31.4158    32.4389
  420.0000    85.9779    31.4175    32.5527
  420.5000    89.5985    31.3190    32.6566
  421.0000    91.9798    31.1582    32.7456
  421.5000    91.4514    30.9975    32.8349
  422.0000    88.9228    30.8310    32.9289
  422.5000    86.7935    30.6393    32.5899
  423.0000    86.9515    30.4415    32.2369
  423.5000    88.7108    30.2533    31.8876
  424.0000    90.3529    29.8746    31.5422
  424.5000    89.4855    29.5232    31.2005
  425.0000    87.3438    29.1760    30.6856
  425.5000    85.1470    28.8328    30.1267
  426.0000    84.9866    28.4937    29.5780
  426.5000    86.4631    28.0175    29.0393
  427.0000    88.2273    27.4137    28.4823
  427.5000    88.7654    26.8752    27.7935
  428.0000    88.2189    26.3618    27.1203
  428.5000    86.4165    25.8583    26.4584
  429.0000    84.7446    25.3644    25.9284
  429.5000    85.0254    24.8800    25.6234
  430.0000    85.6207    24.4048    25.3221
  430.5000    87.1115    23.9387    25.0242
  431.0000    89.4134    23.4814    24.7299
  431.5000    91.4476    23.0329    24.4391
  432.0000    92.3723    22.5927    23.8474
  432.5000    92.8647    22.1610    23.1752
  433.0000    92.6474    21.7660    22.7313
  433.5000    91.0207    21.6738    22.5279
  434.0000    89.3856    21.5375    22.2838
  434.5000    87.7610    21.4030    22.0424
  435.0000    87.7211    21.2689    21.8036
  435.5000    88.4691    21.1357    21.5674
  436.0000    89.2154    21.0033    21.3338
  436.5000    86.9590    20.8717    21.1027
  437.0000    84.1335    20.6919    20.9446
  437.5000    82.7032    20.3196    20.8515
  438.0000    82.9063    19.9542    20.7588
  438.5000    82.7168    19.5950    20.6665
  439.0000    80.5689    19.2411    20.5725
  439.5000    78.9876    18.9023    19.9080
  440.0000    81.4173    18.5864    19.2432
  440.5000    86.5154    18.2106    18.5554
  441.0000    91.4807    17.8425    18.2889
  441.5000    89.8178    17.4818    17.9370
  442.0000    86.7115    17.1284    17.5887
  442.5000    87.8229    16.7821    17.2472
  443.0000    90.0016    16.4429    16.9124
  443.5000    92.2176    16.1105    16.5840
  444.0000    94.4278    15.7848    16.2620
  444.5000    96.6858    15.5991    15.9577
  445.0000    97.1312    15.4997    15.9270
  445.5000    93.0100    15.4009    15.8907
  446.0000    89.7903    15.3027    15.8546
  446.5000    89.3182    15.2207    15.8185
  447.0000    90.6684    15.2016    15.7824
  447.5000    91.0640    15.1826    15.7465
  448.0000    88.5005    15.1634    15.7106
  448.5000    87.5199    15.1444    15.6748
  449.0000    89.4645    15.1253    15.6302
  449.5000    92.9989    15.1063    15.5794
  450.0000    96.5299    15.0872    15.5288
  450.5000   100.0451    15.0358    15.4784
  451.0000    99.2453    14.9708    15.4280
  451.5000    97.9228    14.9062    15.3783
  452.0000    96.5532    14.8419    15.2915
  452.5000    95.3240    14.7779    15.1973
  453.0000    95.4422    14.7141    15.1035
  453.5000    95.5885    14.6507    15.0103
  454.0000    95.6768    14.5875    14.9176
  454.5000    94.4562    14.5249    14.8256
  455.0000    93.3073    14.4283    14.7341
  455.5000    94.0044    14.3329    14.6431
  456.0000    95.8360    14.2382    14.5526
  456.5000    97.7707    14.1198    14.4630
  457.0000    98.6800    14.1211    14.3889
  457.5000    97.8414    14.1205    14.4331
  458.0000    97.0172    14.1206    14.4784
  458.5000    97.3393    14.1207    14.5239
  459.0000    99.7568    14.1207    14.5697
  459.5000   102.4144    14.1207    14.6161
  460.0000   105.0735    14.1208    14.6622
  460.5000   104.5342    14.1204    14.5249
  461.0000   102.2737    14.1253    14.3938
  461.5000   100.0386    14.0015    14.2356
  462.0000    98.1868    13.8228    14.0791
  462.5000    98.8904    13.6463    13.9243
  463.0000   100.1080    13.4721    13.7712
  463.5000   100.3320    13.3001    13.6198
  464.0000    97.1266    13.1303    13.4701
  464.5000    94.4048    12.9627    13.3220
  465.0000    95.7767    12.7972    13.0784
  465.5000    98.0600    12.6340    12.9204
  466.0000    99.8809    12.4726    12.7642
  466.5000   100.0585    12.3469    12.6100
  467.0000   100.1102    12.2028    12.4575
  467.5000    99.7790    12.0604    12.3070
  468.0000    99.4833    11.9197    12.1582
  468.5000    97.9333    11.7807    11.9723
  469.0000    96.5209    11.6430    11.5786
  469.5000    95.5906    11.4796    11.1978
  470.0000    94.6822    11.3009    10.8506
  470.5000    93.9374    11.1250    10.5530
  471.0000    96.2032    10.9522    10.3308
  471.5000   100.3985    10.7827    10.1133
  472.0000   104.6368    10.6121     9.6940
  472.5000   106.4290    10.1582     9.2338
  473.0000   103.7846     9.5484     8.7954
  473.5000   101.0910     8.7978     7.8971
  474.0000   101.0171     7.9358     7.1342
  474.5000   108.8652     7.1484     6.5265
  475.0000   117.8072     6.6454     5.9787
  475.5000   126.7761     6.6526     5.7229
  476.0000   135.7599     6.7676     5.6163
  476.5000   139.1644     6.9496     6.0201
  477.0000   127.1935     7.3334     6.5188
  477.5000   117.5350     7.9358     7.2175
  478.0000   110.0696     8.5866     8.0522
  478.5000   106.9340     9.3999     8.9834
  479.0000   107.9334    10.2734     9.6340
  479.5000   109.0035    10.7201    10.0846
  480.0000   109.9817    10.9622    10.2894
  480.5000   109.8945    11.1202    10.4971
  481.0000   109.7818    11.2804    10.7080
  481.5000   109.6737    11.4835    11.0035
  482.0000   109.5999    11.7458    11.3244
  482.5000   110.2648    12.0140    11.6545
  483.0000   111.8636    12.2884    11.9944
  483.5000   113.3492    12.5691    12.2691
  484.0000   111.2659    12.8528    12.4899
  484.5000   108.5058    13.0727    12.7146
