~VERSION INFORMATION
 VERS.                2.0:   CWLS LOG ASCII STANDARD - VERSION 2.0
 WRAP.                 NO:   ONE LINE PER DEPTH STEP
~WELL INFORMATION
#MNEM.UNIT      DATA TYPE    INFORMATION
#----------   ------------   ------------------------------
 STRT.F           70.0000:   START DEPTH
 STOP.F         1072.0000:   STOP DEPTH
 STEP.F            0.5000:   STEP LENGTH
 NULL.          -999.2500:   NO VALUE
 COMP. LAWRENCE/ALLISON INC:   COMPANY
 WELL.    67-66 SX #11-11:   WELL
 FLD .             TEAPOT:   FIELD
 LOC .      S11 T38N R78W:   LOCATION
 CNTY.            NATRONA:   COUNTY
 STAT.            WYOMING:   STATE
 CTRY. UNITED STATES OF AMERICA:   COUNTRY
 SRVC.      Dresser Atlas:   SERVICE COMPANY
 DATE.        03-FEB-1986:   LOGDATE
 API .       490251105700:   API NUMBER
~CURVE INFORMATION
#MNEM.UNIT       API CODE    CURVE DESCRIPTION
#----------   ------------   ------------------------------
 DEPT.F                  :   
 RILD.OHMM   07 120 46 00:   RESISTIVITY INDUCTION LOG DEEP
 RILM.OHMM   07 120 44 00:   RESISTIVITY INDUCTION LOG MEDIUM
 GRD .GAPI   45 310 01 00:   GAMMA RAY FROM DENSITY LOG
 CALD.IN     45 280 60 00:   CALIPER FROM DENSITY LOG
 CORR.G/C3   45 356 01 00:   DENSITY CORRECTION
 PORD.DEC    45 890 12 00:   POROSITY DENSITY SANDSTONE
 DEN .G/C3   45 350 01 00:   COMPENSATED BULK DENSTIY
~PARAMETER INFORMATION
#MNEM.UNIT          VALUE    DESCRIPTION
#----------   ------------   ------------------------------
 PD  .                 GL:   PERMANENT DATUM
 EPD .F              5245:   ELEVATION PERMANENT DATUM
 LMF .                 GL:   LOG MEASURED FROM
 DMF .                 GL:   DRILLING MEASURED FROM
 EGL .F              5245:   GROUND LEVEL
 DATE.        03-FEB-1986:   RUN DATE
 RUN .                  1:   RUN NUMBER
 DD  .F              1120:   DEPTH DRILLER
 DL  .F              1074:   DEPTH LOGGER
 BLI .F              1068:   BOTTOM LOG INTERVAL
 TLI .F                86:   TOP LOG INTERVAL
 CS  .IN            8.625:   CASING SIZE
 CBD .F                86:   CASING BOTTOM DRILLER
 CBL .F                86:   CASING BOTTOM LOGGER
 BS  .IN             6.25:   BIT SIZE
 BSD .F              1120:   BIT SIZE AT DEPTH
 DFT .                AIR:   DRILLING FLUID TYPE
 TCS .HRS               2:   TIME CURCULATED STOPPED
 LUN .               6274:   LOGGING UNIT NUMBER
 LUL .           GILLETTE:   LOGGING UNIT LOCATION
 ENGI.             MILLER:   RECORDING ENGINEER
 WITN.           JENNINGS:   WITNESSED BY
 CLNT.            A2DTECH:   CLIENT CODE
 ORIG.           5" PRINT:   ORIGIN OF DATA
 UWI .       490251105700:   UNIQUE WELL ID
 DICO. A2D Technologies, Inc.:   DIGITIZING COMPANY
~OTHER INFORMATION
~A   DEPT     RILD       RILM        GRD       CALD       CORR       PORD        DEN   
# ...
  206.5000     5.0419     5.0155   129.5698     6.5704     0.0781     0.1600     2.4079
  207.0000     4.9797     4.9176   131.1062     6.6020     0.0647     0.1640     2.4012
  207.5000     4.9171     4.8876   133.5311     6.6183     0.0483     0.1648     2.3990
  208.0000     4.9226     4.8590   133.8634     6.6346     0.0621     0.1563     2.4180
  208.5000     4.9969     4.9332   134.1956     6.6061     0.0804     0.1476     2.4332
  209.0000     5.0723     5.0071   138.4143     6.5772     0.0957     0.1403     2.4445
  209.5000     5.2206     5.1529   142.3340     6.5636     0.0899     0.1376     2.4529
  210.0000     5.4106     5.3398   145.6558     6.5650     0.0735     0.1390     2.4455
  210.5000     5.6075     5.5334   144.4933     6.5976     0.0646     0.1435     2.4358
  211.0000     5.8115     5.7341   144.2193     6.6126     0.0815     0.1420     2.4405
  211.5000     5.9402     5.8605   144.5531     6.5990     0.0967     0.1341     2.4566
  212.0000     6.0298     6.0311   145.5227     6.6003     0.1060     0.1277     2.4642
  212.5000     6.1208     6.0780   146.1136     6.6316     0.1017     0.1271     2.4686
  213.0000     6.2131     6.1317   146.1462     6.6329     0.0898     0.1292     2.4641
  213.5000     6.2633     6.1755   144.9837     6.6492     0.0901     0.1319     2.4605
  214.0000     6.2703     6.1819   141.4296     6.6655     0.0752     0.1375     2.4515
  214.5000     6.2323     6.1883   139.0703     6.6221     0.0565     0.1396     2.4434
  215.0000     6.1962     6.1097   140.8982     6.5786     0.0560     0.1387     2.4487
  215.5000     6.0756     5.9906   143.0242     6.5646     0.0657     0.1353     2.4556
  216.0000     5.9024     5.8333   143.6554     6.5813     0.0792     0.1326     2.4602
  216.5000     5.6721     5.6410   142.4929     6.5674     0.0898     0.1334     2.4573
  217.0000     5.4538     5.4174   141.9200     6.5388     0.0990     0.1367     2.4521
  217.5000     5.3124     5.2752   141.9616     6.5854     0.1053     0.1433     2.4402
  218.0000     5.2113     5.1723   141.6876     6.6465     0.0889     0.1505     2.4252
  218.5000     5.1226     5.1407   142.0282     6.6329     0.0711     0.1517     2.4230
  219.0000     5.0441     5.0418   142.3605     6.5895     0.0637     0.1477     2.4307
  219.5000     5.0150     5.0123   141.4969     6.5609     0.0609     0.1477     2.4338
  220.0000     5.0555     4.9817   137.9428     6.5623     0.0612     0.1521     2.4218
  220.5000     5.0963     5.0228   132.8855     6.5786     0.0719     0.1609     2.4137
  221.0000     5.2091     5.0630   133.8240     6.5797     0.0797     0.1635     2.4025
  221.5000     5.2877     5.2104   136.3518     6.5810     0.0769     0.1614     2.4109
  222.0000     5.3675     5.3622   138.0688     6.5973     0.0635     0.1562     2.4222
  222.5000     5.5244     5.4425   138.1016     6.5987     0.0713     0.1514     2.4291
  223.0000     5.6859     5.5757   137.5166     6.6000     0.0745     0.1477     2.4315
  223.5000     5.8522     5.8431   135.1780     6.6014     0.0611     0.1468     2.4300
  224.0000     5.9818     5.9306   132.8197     6.5878     0.0463     0.1456     2.4362
  224.5000     6.0301     5.9367   131.0593     6.5741     0.0646     0.1434     2.4396
  225.0000     6.0368     5.9020   133.7831     6.5456     0.0814     0.1413     2.4433
  225.5000     6.0436     5.8665   137.4039     6.5470     0.0876     0.1403     2.4455
  226.0000     6.0504     5.8737   140.4267     6.5484     0.0923     0.1463     2.4417
  226.5000     6.0558     5.8391   139.5632     6.5647     0.0684     0.1529     2.4335
  227.0000     6.0204     5.8454   136.0090     6.5810     0.0477     0.1583     2.4224
  227.5000     5.9856     5.8516   136.0423     6.5973     0.0306     0.1619     2.4105
  228.0000     5.9510     5.8577   137.2715     6.5987     0.0254     0.1648     2.4038
  228.5000     5.9165     5.8639   136.7068     6.5851     0.0423     0.1666     2.4032
  229.0000     5.9643     5.9108   136.4329     6.5715     0.0514     0.1684     2.4003
  229.5000     6.0125     5.9170   137.0724     6.5878     0.0441     0.1702     2.3966
  230.0000     6.1032     6.0057   139.1984     6.6041     0.0066     0.1683     2.3935
  230.5000     6.1525     6.0957   141.6233     6.6204    -0.0022     0.1653     2.4036
  231.0000     6.2887     6.1021   141.9472     6.5919     0.0101     0.1637     2.4074
  231.5000     6.3836     6.2798   141.6816     6.5633     0.0314     0.1628     2.4068
  232.0000     6.5249     6.4182   142.3538     6.5647     0.0602     0.1614     2.4084
  232.5000     6.5776     6.4695   143.5419     6.5658     0.0679     0.1591     2.4130
  233.0000     6.6307     6.4763   138.7024     6.5671     0.0636     0.1563     2.4229
  233.5000     6.6382     6.4817   132.2483     6.5685     0.0578     0.1494     2.4358
  234.0000     6.6918     6.5788   133.1784     6.5698     0.0942     0.1403     2.4494
  234.5000     6.7459     6.6365   140.3866     6.5713     0.1125     0.1369     2.4533
  235.0000     6.8476     6.7306   140.7673     6.6024     0.1142     0.1393     2.4444
  235.5000     6.9029     6.8315   136.2679     6.6187     0.1069     0.1414     2.4407
  236.0000     7.0071     6.8860   134.7981     6.6201     0.0905     0.1423     2.4468
  236.5000     7.0149     6.8933   139.6230     6.6364     0.0621     0.1392     2.4507
  237.0000     7.0228     6.9005   142.6458     6.6377     0.0562     0.1371     2.4523
  237.5000     7.0290     6.9557   142.6791     6.6238     0.0716     0.1379     2.4494
  238.0000     7.0368     6.9630   137.9292     6.5956     0.0793     0.1406     2.4442
  238.5000     6.9959     6.9703   137.3562     6.5817     0.0780     0.1433     2.4364
  239.0000     6.9554     6.9295   137.9874     6.5834     0.0677     0.1490     2.4292
  239.5000     6.7729     6.8890   136.8332     6.5847     0.0568     0.1511     2.4241
  240.0000     6.5498     6.6619   133.2791     6.5708     0.0438     0.1528     2.4227
  240.5000     6.3780     6.3100   130.9124     6.5725     0.0412     0.1537     2.4205
  241.0000     6.2536     6.1020   132.4488     6.5739     0.0506     0.1570     2.4147
  241.5000     6.1321     6.0245   133.0732     6.5600     0.0673     0.1605     2.4065
  242.0000     6.0949     5.9877   133.4449     6.5318     0.0870     0.1641     2.3968
  242.5000     6.1035     5.9955   134.9825     6.5481     0.0827     0.1692     2.3893
  243.0000     6.1103     5.9589   136.4704     6.5494     0.0558     0.1767     2.3827
  243.5000     6.1172     6.0081   136.7972     6.5508     0.0334     0.1797     2.3816
  244.0000     6.1666     6.0982   131.7435     6.5519     0.0517     0.1766     2.3987
  244.5000     6.2164     6.1033   127.8894     6.5532     0.0564     0.1664     2.4086
  245.0000     6.2666     6.1577   129.7174     6.5695     0.0566     0.1582     2.4162
  245.5000     6.3173     6.2442   132.4413     6.5858     0.0659     0.1557     2.4201
  246.0000     6.3683     6.2940   135.1651     6.5720     0.0827     0.1533     2.4254
  246.5000     6.4644     6.4326   136.3859     6.5586     0.0979     0.1497     2.4308
  247.0000     6.5166     6.4841   132.2422     6.5450     0.0951     0.1472     2.4339
  247.5000     6.7071     6.6269   126.5954     6.5464     0.0908     0.1484     2.4302
  248.0000     6.9769     6.8199   126.3214     6.5627     0.0895     0.1507     2.4273
  248.5000     7.3172     7.2654   131.7442     6.5790     0.0867     0.1495     2.4297
  249.0000     7.6311     7.9023   133.8702     6.5953     0.0885     0.1453     2.4358
  249.5000     7.9585     8.3605   132.7077     6.6116     0.0902     0.1410     2.4434
  250.0000     8.1858     8.8446   128.9696     6.6075     0.0951     0.1359     2.4509
  250.5000     8.2700     8.8553   121.7045     6.5700     0.0981     0.1274     2.4655
  251.0000     8.3541     8.6235   116.6526     6.5570     0.0893     0.1203     2.4761
  251.5000     8.3860     8.3398   114.5889     6.6038     0.0759     0.1124     2.4897
