~VERSION INFORMATION
 VERS.                2.0:   CWLS LOG ASCII STANDARD - VERSION 2.0
 WRAP.                 NO:   ONE LINE PER DEPTH STEP
~WELL INFORMATION
#MNEM.UNIT      DATA TYPE    INFORMATION
#----------   ------------   ------------------------------
 STRT.F           44.0000:   START DEPTH
 STOP.F          485.0000:   STOP DEPTH
 STEP.F            0.5000:   STEP LENGTH
 NULL.          -999.2500:   NO VALUE
 COMP. LAWRENCE/ALLISON INC:   COMPANY
 WELL.      NPR 3 #55-51S:   WELL
 FLD .             TEAPOT:   FIELD
 LOC .       S3 T38N R78W:   LOCATION
 CNTY.            NATRONA:   COUNTY
 STAT.            WYOMING:   STATE
 CTRY. UNITED STATES OF AMERICA:   COUNTRY
 SRVC.      Dresser Atlas:   SERVICE COMPANY
 DATE.        12-DEC-1983:   LOGDATE
 API .       490251095400:   API NUMBER
~CURVE INFORMATION
#MNEM.UNIT       API CODE    CURVE DESCRIPTION
#----------   ------------   ------------------------------
 DEPT.F                  :   
 CALR.IN     10 280 01 00:   CALIPER FROM RESISTIVITY
 RATI.CMP    99 420 01 00:   RATIO
 RES .OHMM   10 220 00 00:   RESISTIVITY
 DEC .       99 000 00 00:   DEC
 P6  .G/C3   99 000 00 00:   P6
 PHAS.       99 000 00 00:   PHASE
 PORE.DEC    99 890 00 00:   PORE
~PARAMETER INFORMATION
#MNEM.UNIT          VALUE    DESCRIPTION
#----------   ------------   ------------------------------
 PD  .                 GL:   PERMANENT DATUM
 EPD .F              5161:   ELEVATION PERMANENT DATUM
 LMF .                 KB:   LOG MEASURED FROM
 DAPD.F                10:   FEET ABOVE PERMANENT DATUM
 DMF .                 KB:   DRILLING MEASURED FROM
 EKB .F              5171:   KELLING BUSHING
 EGL .F              5161:   GROUND LEVEL
 DATE.        12-DEC-1983:   RUN DATE
 RUN .                  1:   RUN NUMBER
 DD  .F               490:   DEPTH DRILLER
 DL  .F               489:   DEPTH LOGGER
 BLI .F               487:   BOTTOM LOG INTERVAL
 TLI .F                 0:   TOP LOG INTERVAL
 CS  .IN            10.75:   CASING SIZE
 CBD .F                52:   CASING BOTTOM DRILLER
 CBL .F                46:   CASING BOTTOM LOGGER
 BS  .IN             8.75:   BIT SIZE
 BSD .F               490:   BIT SIZE AT DEPTH
 DFT .           AIR FOAM:   DRILLING FLUID TYPE
 TCS .HRS               3:   TIME CURCULATED STOPPED
 MRT .F                72:   MAXIMUM RECORDED TEMPERATURE
 LUN .               6274:   LOGGING UNIT NUMBER
 LUL .               GLTE:   LOGGING UNIT LOCATION
 ENGI.             RAUTIO:   RECORDING ENGINEER
 WITN.             GROOMS:   WITNESSED BY
 CLNT.            A2DTECH:   CLIENT CODE
 ORIG.           5" PRINT:   ORIGIN OF DATA
 UWI .       490251095400:   UNIQUE WELL ID
 DICO. A2D Technologies, Inc.:   DIGITIZING COMPANY
~OTHER INFORMATION
~A   DEPT      CALR        RATI        RES       DEC          P6      PHAS        PORE 
# ...
  317.0000     9.0194     0.3754    13.1483    22.5655     2.2797    59.1789     0.3627
  317.5000     9.0189     0.3664    12.1022    23.6201     2.3130    60.8538     0.3797
  318.0000     9.0033     0.3590    11.4516    23.9217     2.3353    62.8449     0.3797
  318.5000     8.9877     0.3530    11.3735    24.5998     2.3553    64.4751     0.3823
  319.0000     8.9721     0.3501    11.0574    25.8933     2.3638    64.8422     0.4084
  319.5000     8.9564     0.3501    10.5894    25.8673     2.3677    64.8484     0.4156
  320.0000     8.9256     0.3502    10.1144    25.2787     2.3631    64.4921     0.4043
  320.5000     8.9251     0.3502    10.2559    25.0531     2.3532    64.1386     0.3983
  321.0000     8.9398     0.3502    10.3994    25.3547     2.3440    64.3255     0.4018
  321.5000     8.9394     0.3488    10.3283    26.0328     2.3533    65.0584     0.4126
  322.0000     8.9542     0.3458    10.2578    26.7109     2.3580    65.8009     0.4305
  322.5000     8.9689     0.3444    10.1176    27.0878     2.3557    66.1501     0.4341
  323.0000     8.9746     0.3429     9.9795    27.3140     2.3558    63.9909     0.4259
  323.5000     8.9832     0.3400    10.0494    27.1638     2.3566    66.3429     0.4186
  324.0000     8.9675     0.3400    10.2608    26.4111     2.3543    65.6273     0.4131
  324.5000     8.9671     0.3416    10.4044    25.4153     2.3506    64.0094     0.3968
  325.0000     8.9666     0.3446    10.7343    24.3537     2.3476    63.1133     0.3850
  325.5000     8.9661     0.3461    10.9976    24.3038     2.3415    63.2999     0.3895
  326.0000     8.9656     0.3464    10.5516    24.9067     2.3384    64.3888     0.3948
  326.5000     8.9955     0.3462    10.4072    25.2836     2.3469    63.8536     0.3993
  327.0000     9.0104     0.3463    10.7000    24.3050     2.3524    63.1308     0.3992
  327.5000     9.0251     0.3464    10.9250    23.7783     2.3570    62.3985     0.4020
  328.0000     9.0398     0.3494    11.0015    23.3268     2.3609    61.7067     0.4117
  328.5000     9.0393     0.3509    11.0023    22.7248     2.3648    61.5324     0.4134
  329.0000     9.0540     0.3525    11.0794    23.0264     2.3687    62.2620     0.4052
  329.5000     9.0536     0.3540    11.1570    23.4785     2.3572    62.8095     0.4025
  330.0000     9.0379     0.3526    11.2352    24.1767     2.3487    63.1766     0.4006
  330.5000     9.0375     0.3511    11.1465    25.0842     2.3433    63.5436     0.4041
  331.0000     9.0369     0.3496    10.8550    25.8141     2.3359    64.0912     0.4014
  331.5000     9.0365     0.3497    10.6329    26.1909     2.3321    64.8191     0.3986
  332.0000     9.0513     0.3497    10.4874    25.2877     2.3276    64.2840     0.3958
  332.5000     9.0356     0.3498    10.6343    24.7610     2.3246    63.5683     0.3930
  333.0000     9.0504     0.3498    10.7831    24.6859     2.3223    63.9645     0.3929
  333.5000     9.0347     0.3499    10.8585    24.9876     2.3201    64.4845     0.3966
  334.0000     9.0343     0.3514    10.4181    25.2892     2.3186    64.8515     0.4064
  334.5000     9.0294     0.3500    10.0647    25.5154     2.3194    65.0382     0.4035
  335.0000     9.0182     0.3485    10.1353    25.7417     2.3225    65.2248     0.4008
  335.5000     9.0329     0.3455    10.2771    26.0476     2.3272    65.4114     0.4116
  336.0000     9.0172     0.3426    10.2778    26.2053     2.3319    65.4176     0.4169
  336.5000     9.0168     0.3441    10.2785    26.3453     2.3350    65.7846     0.4141
  337.0000     9.0164     0.3472    10.2085    26.4963     2.3381    66.3322     0.4132
  337.5000     9.0159     0.3472    10.1387    26.8732     2.3381    67.0602     0.4221
  338.0000     9.0155     0.3383    10.0697    27.1747     2.3359    67.4274     0.4311
  338.5000     9.0150     0.3338     9.9321    26.0456     2.3291    66.5327     0.4121
  339.0000     9.0145     0.3323     9.8641    25.0670     2.3230    65.4561     0.4021
  339.5000     8.9989     0.3342     9.7968    24.7661     2.3177    64.5601     0.3885
  340.0000     8.9833     0.3399    10.0724    25.7455     2.3093    64.3842     0.3920
  340.5000     8.9828     0.3475    10.2134    26.6495     2.3032    65.1138     0.4145
  341.0000     8.9824     0.3460    10.2141    27.1087     2.3109    65.4808     0.4262
  341.5000     8.9819     0.3446     9.9956    27.4032     2.3171    65.8479     0.4240
  342.0000     8.9814     0.3416     9.9368    26.6507     2.3218    66.2150     0.4161
  342.5000     8.9810     0.3402     9.9376    26.5003     2.3264    66.9430     0.4178
  343.0000     8.9806     0.3387    10.0072    27.2538     2.3311    67.8563     0.4340
  343.5000     8.9801     0.3403     9.8705    27.7813     2.3350    68.6012     0.4412
  344.0000     8.9796     0.3404     9.8029    28.3841     2.3397    69.1284     0.4483
  344.5000     8.9944     0.3328     9.6025    27.9326     2.3481    68.4128     0.4455
  345.0000     8.9939     0.3267     9.2129    27.0294     2.3604    68.0565     0.4338
  345.5000     8.9935     0.3209     8.9622    25.9002     2.3705    67.5229     0.4202
  346.0000     9.0082     0.3173     8.4804    24.3193     2.3812    66.4464     0.3966
  346.5000     9.0077     0.3030     8.1928    22.6466     2.3943    65.3698     0.3560
  347.0000     9.0054     0.2910     8.2575    20.6484     2.4059    64.4737     0.3297
  347.5000     8.9917     0.2956     8.6004    19.5764     2.4159    64.4556     0.3188
  348.0000     8.9759     0.3046     8.7208    21.9865     2.4313    65.5688     0.3218
  348.5000     8.9603     0.3122     8.8428    27.9357     2.4421    69.0708     0.3886
  349.0000     8.9447     0.3182     8.4256    27.2582     2.4253    72.5179     0.4585
  349.5000     8.9443     0.3213     8.0280    34.0358     2.4008    75.1527     0.4909
  350.0000     8.9591     0.3198     7.8636    35.2410     2.3870    76.2416     0.5242
  350.5000     8.9585     0.3182     7.9188    34.5637     2.3762    76.2478     0.5305
  351.0000     8.9733     0.3169     8.0296    34.3381     2.3718    75.3522     0.5250
  351.5000     8.9728     0.3170     8.0859    34.4138     2.3665    74.8171     0.5267
  352.0000     8.9724     0.3185     8.1425    34.5668     2.3604    75.1841     0.5294
  352.5000     8.9719     0.3216     8.1366    34.8751     2.3589    75.7317     0.5329
  353.0000     8.9714     0.3231     8.1438    35.2433     2.3590    76.2792     0.5384
  353.5000     8.9710     0.3246     8.1443    35.9967     2.3606    76.8267     0.5446
  354.0000     8.9705     0.3247     8.0886    36.8254     2.3652    77.0133     0.5516
  354.5000     8.9776     0.3247     8.0893    37.2022     2.3691    77.1999     0.5588
  355.0000     8.9849     0.3263     8.1460    37.5791     2.3707    77.2061     0.5659
  355.5000     8.9844     0.3278     8.2600    38.0313     2.3639    77.7537     0.5740
  356.0000     8.9839     0.3294     8.3178    39.3871     2.3624    78.5251     0.5893
  356.5000     8.9835     0.3309     8.2611    40.4417     2.3663    79.9329     0.6000
  357.0000     8.9830     0.3325     7.6723    41.7975     2.3779    81.9241  -999.2500
  357.5000     8.9825     0.3325     7.4610    43.3829     2.3966    83.3739  -999.2500
  358.0000     8.9821     0.3311     7.3565    44.4739     2.4086    82.9029  -999.2500
  358.5000     8.9815     0.3296     7.5108    42.4203     2.4002    80.4995  -999.2500
  359.0000     8.9812     0.3281     7.7880    40.5393     2.3980    79.4230  -999.2500
  359.5000     8.9807     0.3312     8.2100    39.7124     2.3957    79.0667  -999.2500
  360.0000     8.9802     0.3372     8.4965    40.0904     2.3950    79.7962  -999.2500
  360.5000     8.9798     0.3388     8.3198    44.6853     2.4035    80.7046  -999.2500
  361.0000     8.9794     0.3388     8.0907    45.5151     2.4135    82.1544  -999.2500
  361.5000     8.9789     0.3389     7.9225    45.5919     2.4205    83.0628  -999.2500
  362.0000     8.9785     0.3388     7.7577    45.9702     2.4244    83.7908  -999.2500
