~VERSION INFORMATION
 VERS.                2.0:   CWLS LOG ASCII STANDARD - VERSION 2.0
 WRAP.                 NO:   ONE LINE PER DEPTH STEP
~WELL INFORMATION
#MNEM.UNIT      DATA TYPE    INFORMATION
#----------   ------------   ------------------------------
 STRT.F           80.0000:   START DEPTH
 STOP.F          782.0000:   STOP DEPTH
 STEP.F            0.5000:   STEP LENGTH
 NULL.          -999.2500:   NO VALUE
 COMP.            US NAVY:   COMPANY
 WELL. NPR 3 TEAPOT DOM #87-S-34:   WELL
 FLD .             TEAPOT:   FIELD
 LOC .      S34 T39N R78W:   LOCATION
 CNTY.            NATRONA:   COUNTY
 STAT.            WYOMING:   STATE
 CTRY. UNITED STATES OF AMERICA:   COUNTRY
 SRVC.       Schlumberger:   SERVICE COMPANY
 DATE.        07-AUG-1961:   LOGDATE
 API .       490250651100:   API NUMBER
~CURVE INFORMATION
#MNEM.UNIT       API CODE    CURVE DESCRIPTION
#----------   ------------   ------------------------------
 DEPT.F                  :   
 GR  .GAPI   30 310 01 00:   GAMMA RAY
 SPR .MV     05 010 01 00:   SPONTANEOUS POTENTIAL FROM RES.
 ASN .OHMM   05 041 16 00:   AMPLIFIED SHORT NORMAL 16"
 ILD .OHMM   05 120 46 00:   INDUCTION LOG DEEP
 CILD.MMHO   05 110 46 00:   CONDUCTIVITY INDUCTION LOG DEEP
~PARAMETER INFORMATION
#MNEM.UNIT          VALUE    DESCRIPTION
#----------   ------------   ------------------------------
 PD  .                 KB:   PERMANENT DATUM
 EPD .F                  :   ELEVATION PERMANENT DATUM
 LMF .                 KB:   LOG MEASURED FROM
 DAPD.F                  :   FEET ABOVE PERMANENT DATUM
 DMF .                 KB:   DRILLING MEASURED FROM
 EKB .F              5102:   KELLING BUSHING
 EDF .F                  :   DRILLING FLOOR
 EGL .F              5097:   GROUND LEVEL
 DATE.        07-AUG-1961:   RUN DATE
 RUN .                  1:   RUN NUMBER
 DD  .F               770:   DEPTH DRILLER
 DL  .F               783:   DEPTH LOGGER
 BLI .F               782:   BOTTOM LOG INTERVAL
 TLI .F               100:   TOP LOG INTERVAL
 CS  .IN                 :   CASING SIZE
 CBD .F                  :   CASING BOTTOM DRILLER
 CBL .F                  :   CASING BOTTOM LOGGER
 BS  .IN             6.75:   BIT SIZE
 BSD .F               770:   BIT SIZE AT DEPTH
 DFT .       OIL EMULSION:   DRILLING FLUID TYPE
 DFD .               10.4:   DRILLING FLUID DENSITY
 DFV .                 45:   DRILLING FLUID VISCOSITY
 DFPH.                   :   DRILLING FLUID PH
 DFL .                   :   DRILLING FLUID LOSS
 MSS .                   :   MUD SAMPLE SOURCE
 RMS .OHMM           0.95:   RESISTIVITY MUD SAMPLE
 MST .F                72:   MUD SAMPLE TEMPERATURE
 RMF .OHMM               :   RESISTIVITY MUD FILTRATE SAMPLE
 MFST.F                  :   MUD FILTRATE SAMPLE TEMPERATURE
 RMC .OHMM               :   RESISTIVITY MUD CAKE
 MCST.F                  :   MUD CAKE SAMPLE TEMPERATURE
 MFSS.                   :   MUD FILTRATE SAMPLE SOURCE
 MCSS.                   :   MUD CAKE SAMPLE SOURCE
 RMB .OHMM               :   RESISTIVITY MUD AT BHT
 BHT .F                  :   BOTTOM HOLE TEMPERATURE
 TCS .HRS               1:   TIME CURCULATED STOPPED
 TLAB.HRS                :   TIME LOGGER AT BOTTOM
 MRT .F                  :   MAXIMUM RECORDED TEMPERATURE
 LUN .               2544:   LOGGING UNIT NUMBER
 LUL .                   :   LOGGING UNIT LOCATION
 ENGI.             QUINBY:   RECORDING ENGINEER
 WITN.          JORGENSON:   WITNESSED BY
 CLNT.            A2DTECH:   CLIENT CODE
 ORIG.       2", 5" PRINT:   ORIGIN OF DATA
 UWI .       490250651100:   UNIQUE WELL ID
 DICO. A2D Technologies, Inc.:   DIGITIZING COMPANY
 OS  .                   :   OTHER SERVICES
 PWI .                   :   PRIMARY WELL IDENTIFIER
 R1  .                   :   REMARKS 1
 R2  .                   :   REMARKS 2
~OTHER INFORMATION
~A   DEPT       GR        SPR         ASN         ILD      CILD  
# ...
  629.0000    -2.1653   -25.2381    33.4970    29.9261    36.9638
  629.5000    -2.3187   -25.2396    33.3446    29.6995    36.9782
  630.0000    -2.3155   -25.0904    31.6866    29.3222    36.9925
  630.5000     0.9739   -25.0918    30.7062    29.0203    37.0104
  631.0000     3.1680   -25.0936    30.0270    28.7912    37.0247
  631.5000    10.3698   -24.9441    29.7244    27.7386    38.5428
  632.0000    11.7814   -24.6443    30.0242    27.1354    38.5571
  632.5000    11.9410   -24.3449    30.0224    26.8335    38.5714
  633.0000    11.0051   -24.1958    29.7197    27.1340    38.5893
  633.5000    10.0693   -24.1975    29.6430    28.1122    38.6037
  634.0000     9.9151   -24.1990    29.7921    29.0351    38.6180
  634.5000    10.7015   -24.2004    29.7841    29.5415    38.6323
  635.0000    10.8603   -24.2018    28.9606    28.7123    38.6466
  635.5000    10.2382   -24.2345    27.9802    27.2808    38.6645
  636.0000     8.9894   -25.1087    26.9999    25.0964    40.1826
  636.5000     5.7061   -25.4113    25.9442    23.0399    43.2044
  637.0000     5.2389   -25.4128    24.6626    21.2544    47.7300
  637.5000     6.8078   -25.2636    23.1548    20.3500    50.7519
  638.0000    11.3492   -25.2650    22.1745    19.0692    53.7773
  638.5000    13.0738   -25.1158    20.8176    18.0143    55.2954
  639.0000    13.8594   -25.1176    20.0631    17.3358    58.3172
  639.5000    13.8625   -25.1191    19.6099    16.6348    61.3391
  640.0000    13.3961   -24.9699    19.1516    16.1294    62.8571
  640.5000    13.3992   -24.8207    18.7030    15.8275    64.3788
  641.0000    14.8108   -24.5210    18.4004    15.7515    64.3931
  641.5000    16.3788   -24.0709    17.9471    15.4495    65.9112
  642.0000    17.1644   -23.9214    17.5692    15.1377    65.9255
  642.5000    15.9155   -23.7726    17.2666    14.6949    68.9474
  643.0000    15.9187   -23.7741    17.0170    14.3930    71.9728
  643.5000    15.9218   -23.7758    16.7362    14.1663    73.4909
  644.0000    15.9249   -23.9279    16.5089    14.0150    73.5052
  644.5000    16.7475   -24.3811    16.4321    13.8637    73.5195
  645.0000    19.7077   -24.6837    16.3554    13.7875    73.5338
  645.5000    20.9567   -24.9867    16.3504    13.7868    73.5517
  646.0000    21.4146   -25.1388    16.2768    13.8615    73.5661
  646.5000    21.1047   -25.2908    16.2754    13.9361    73.5804
  647.0000    21.7881   -25.2922    16.2739    13.9352    73.5947
  647.5000    24.5546   -25.4443    16.2725    14.0160    72.1053
  648.0000    27.0616   -25.4461    16.2711    14.1595    72.1232
  648.5000    27.3777   -25.4475    16.2696    14.2343    72.1375
  649.0000    26.9114   -25.4489    16.3435    14.3840    72.1518
  649.5000    25.5060   -25.2994    16.4173    14.5340    72.1661
  650.0000    23.6353   -25.3012    16.4908    14.6837    70.6767
  650.5000    21.1299   -24.8494    16.5648    14.8139    69.4548
  651.0000    17.3772   -24.5482    16.5633    14.9440    68.2328
  651.5000    15.9719   -24.2470    16.5615    15.0512    67.6241
  652.0000    16.6011   -24.2470    16.5600    15.0482    67.6063
  652.5000    16.7599   -24.2470    16.4833    15.0447    67.5918
  653.0000    19.1113   -24.3976    16.4065    14.8911    67.5773
  653.5000    22.8703   -24.5482    16.2545    14.7376    69.0666
  654.0000    24.5950   -24.5482    16.1024    14.5841    69.0521
  654.5000    26.1631   -24.6988    16.0253    14.5059    70.5413
  655.0000    27.4182   -24.6988    15.9486    14.3524    72.0306
  655.5000    27.1084   -24.8494    15.7966    14.1235    72.0124
  656.0000    25.5458   -25.1506    15.7198    13.8940    73.5053
  656.5000    27.5842   -25.3012    15.6431    13.6652    74.9946
  657.0000    28.8393   -25.3012    15.4907    13.5116    76.4802
  657.5000    28.6852   -25.3012    15.3386    13.2828    77.9699
  658.0000    25.4027   -25.0000    15.2619    13.0540    77.9549
  658.5000    21.8065   -24.5482    15.1098    12.9005    79.4442
  659.0000    21.9662   -24.2470    14.9578    12.8976    79.4261
  659.5000    22.1252   -24.0964    14.8811    12.8945    79.4116
  660.0000    23.6407   -23.9458    14.8793    12.9670    77.8933
  660.5000    25.9015   -24.0964    14.9531    13.0394    77.8788
  661.0000    26.2034   -24.0964    14.9517    13.1118    77.8643
  661.5000    25.4236   -24.2470    14.9502    13.1842    77.8497
  662.0000    24.9514   -24.3976    14.9488    13.1805    77.8316
  662.5000    26.9954   -24.5482    14.9470    13.2529    77.8171
  663.0000    27.3115   -24.6988    14.8702    13.2500    76.2989
  663.5000    26.8452   -24.8494    14.8688    13.2470    77.7917
  664.0000    28.4133   -25.0000    14.7168    13.1681    77.7736
  664.5000    30.4509   -25.1506    14.6400    13.0899    77.7591
  665.0000    30.9236   -25.1506    14.5582    13.0117    77.7444
  665.5000    32.3352   -25.0000    14.3356    12.8581    77.7265
  666.0000    35.6247   -25.0000    14.1835    12.7799    79.2194
  666.5000    35.7836   -24.8494    14.0315    12.6264    79.2012
  667.0000    30.6232   -24.6988    13.8041    12.4729    80.6941
  667.5000    29.3744   -24.6988    13.6521    12.3118    80.6760
  668.0000    28.5943   -24.5482    13.5186    12.0898    82.1652
  668.5000    29.2243   -24.3761    13.3673    12.0869    83.6545
  669.0000    28.6014   -23.9458    13.2161    11.9334    85.1437
  669.5000    27.5084   -23.6446    13.0648    11.8551    86.6330
  670.0000    26.7298   -23.4940    12.9887    11.7769    86.6149
  670.5000    26.1062   -23.4940    12.8372    11.6234    86.6003
  671.0000    26.1095   -23.3434    12.7611    11.5452    86.5858
  671.5000    26.2692   -23.4940    12.6099    11.4669    88.0752
  672.0000    25.1331   -23.6526    12.5338    11.3127    88.0602
  672.5000    23.1378   -23.9458    12.4577    11.3098    89.5462
  673.0000    23.4662   -24.0964    12.3814    11.1563    89.5317
  673.5000    25.3428   -24.0964    12.3805    11.1533    91.0246
  674.0000    25.5024   -24.0964    12.3796    11.0751    91.0065
  674.5000    25.1926   -24.0964    12.3035    10.9969    90.9920
  675.0000    23.3178   -24.0964    12.2274    10.9187    90.9774
  675.5000    21.9117   -24.0964    12.1511    10.8404    90.9624
  676.0000    22.5417   -24.0964    12.1502    10.7615    90.9448
  676.5000    23.6403   -23.9458    12.1493    10.6833    90.9303
  677.0000    24.2686   -23.6446    12.1485    10.6804    90.9158
  677.5000    23.6458   -23.3434    12.2227    10.7535    90.9013
  678.0000    29.1271   -22.8916    12.2216    10.7498    90.8868
  678.5000    29.9127   -22.5904    12.2207    10.8222    92.3760
  679.0000    29.2899   -22.2892    12.2198    10.8193    92.3579
  679.5000    28.3541   -22.1386    12.2189    10.7410    92.3434
  680.0000    27.8870   -22.1386    12.2180    10.6621    93.8363
  680.5000    26.6390   -21.9880    12.2169    10.6592    93.8181
  681.0000    25.5459   -22.4398    12.2160    10.6563    92.2999
  681.5000    27.5843   -23.0422    12.3655    10.5781    92.2854
  682.0000    28.0569   -23.4940    12.4398    10.5751    92.2707
  682.5000    28.9277   -23.6446    12.4389    10.5722    92.2527
  683.0000    29.4710   -23.6446    12.4378    10.4940    93.7420
  683.5000    29.2572   -23.6446    12.4369    10.4910    93.7275
  684.0000    27.4428   -23.6446    12.3608    10.4874    93.7130
  684.5000    28.5542   -23.6446    12.3599    10.4845    93.6985
  685.0000    34.4914   -23.4940    12.2838    10.4816    92.1802
  685.5000    35.4336   -23.4940    12.2827    10.5547    92.1654
  686.0000    35.7497   -23.4940    12.2818    10.6271    92.1476
  686.5000    34.5009   -23.3434    12.2809    10.6234    90.6293
  687.0000    33.7214   -23.0422    12.2800    10.6958    90.6148
  687.5000    33.8805   -22.7410    12.2039    10.7682    89.0965
  688.0000    32.6325   -22.2892    12.2028    10.7645    86.0745
  688.5000    33.4181   -22.1386    12.2019    10.8377    84.5563
  689.0000    34.8297   -21.9880    12.2010    10.9100    82.8770
  689.5000    35.4589   -21.9880    12.2001    10.9817    81.5161
