~VERSION INFORMATION
 VERS.                2.0:   CWLS LOG ASCII STANDARD - VERSION 2.0
 WRAP.                 NO:   ONE LINE PER DEPTH STEP
~WELL INFORMATION
#MNEM.UNIT      DATA TYPE    INFORMATION
#----------   ------------   ------------------------------
 STRT.F            2.0000:   START DEPTH
 STOP.F          518.0000:   STOP DEPTH
 STEP.F            0.5000:   STEP LENGTH
 NULL.          -999.2500:   NO VALUE
 COMP. LAWRENCE/ALLISON INC:   COMPANY
 WELL.    54-51 SX #10-10:   WELL
 FLD .             TEAPOT:   FIELD
 LOC .      S10 T38N R78W:   LOCATION
 CNTY.            NATRONA:   COUNTY
 STAT.            WYOMING:   STATE
 CTRY. UNITED STATES OF AMERICA:   COUNTRY
 SRVC.            Unknown:   SERVICE COMPANY
 DATE.        14-AUG-1984:   LOGDATE
 API .       490251098800:   API NUMBER
~CURVE INFORMATION
#MNEM.UNIT       API CODE    CURVE DESCRIPTION
#----------   ------------   ------------------------------
 DEPT.F                  :   
 CALD.IN     45 280 60 00:   CALIPER
 DEN .G/C3   45 350 01 00:   COMPENSATED BULK DENSTIY
 CORR.G/C3   45 356 01 00:   DENSITY CORRECTION
 CNC .DEC    42 890 03 00:   NEUTRON POROSITY SANDSTONE
 PORD.DEC    45 890 12 00:   POROSITY DENSITY SANDSTONE
 GRR .GAPI   07 310 01 00:   GAMMA RAY FROM RES. LOG.
 RFOC.OHMM   07 220 04 00:   RESISTIVITY FOCUSED LOG
 RILD.OHMM   07 120 46 00:   INDUCTION LOG DEEP RESISTIVITY
 RILM.OHMM   07 120 44 00:   INDUCTION LOG MEDIUM RESISTIVITY
 AC  .US/F   60 520 00 00:   ACOUSTIC SONIC
 SPR .MV     07 010 01 00:   SPONTANEOUS POTENTIAL
~PARAMETER INFORMATION
#MNEM.UNIT          VALUE    DESCRIPTION
#----------   ------------   ------------------------------
 PD  .                 GL:   PERMANENT DATUM
 EPD .F              5197:   ELEVATION PERMANENT DATUM
 LMF .                 GL:   LOG MEASURED FROM
 DMF .                 GL:   DRILLING MEASURED FROM
 EGL .F              5197:   GROUND LEVEL
 DATE.        14-AUG-1984:   RUN DATE
 RUN .                  1:   RUN NUMBER
 DD  .F               530:   DEPTH DRILLER
 DL  .F               520:   DEPTH LOGGER
 BLI .F               518:   BOTTOM LOG INTERVAL
 CS  .IN            9.625:   CASING SIZE
 CBD .F                40:   CASING BOTTOM DRILLER
 CBL .F                42:   CASING BOTTOM LOGGER
 BS  .IN            7.875:   BIT SIZE
 BSD .F               530:   BIT SIZE AT DEPTH
 DFT .          KCL WATER:   DRILLING FLUID TYPE
 MSS .           FLOWLINE:   MUD SAMPLE SOURCE
 RMS .OHMM            .19:   RESISTIVITY MUD SAMPLE
 MST .F                80:   MUD SAMPLE TEMPERATURE
 RMB .OHMM            .17:   RESISTIVITY MUD AT BHT
 BHT .F                90:   BOTTOM HOLE TEMPERATURE
 TCS .HRS               4:   TIME CURCULATED STOPPED
 MRT .F                90:   MAXIMUM RECORDED TEMPERATURE
 LUN .               6274:   LOGGING UNIT NUMBER
 LUL .               GLTE:   LOGGING UNIT LOCATION
 ENGI.             RAUTIO:   RECORDING ENGINEER
 WITN.              FIVAS:   WITNESSED BY
 CLNT.            A2DTECH:   CLIENT CODE
 ORIG.       2", 5" PRINT:   ORIGIN OF DATA
 UWI .       490251098800:   UNIQUE WELL ID
 DICO. A2D Technologies, Inc.:   DIGITIZING COMPANY
~OTHER INFORMATION
~A    DEPT    CALD        DEN       CORR        CNC       PORD         GRR      RFOC       RILD       RILM         AC        SPR   
# ...
  246.0000     7.9539     2.3438     0.0045     0.3107     0.2165    94.4139     8.7520     6.8209     6.4026   109.1059    78.6425
  246.5000     7.9531     2.4041    -0.0082     0.2791     0.1689    88.8976    11.1632     7.1603     7.3616   100.3341    78.9890
  247.0000     7.9523     2.4482    -0.0149     0.2609     0.1351    87.5849    11.9803     7.6550     8.4643    96.3639    79.2068
  247.5000     7.9515     2.4816    -0.0180     0.2528     0.1176    87.7447    11.7619     8.4968     9.5937    94.5562    79.4134
  248.0000     7.9506     2.4873    -0.0077     0.2508     0.1147    87.6122    11.6586     9.8015    10.6134    94.4721    79.6711
  248.5000     7.9498     2.4876     0.0052     0.2574     0.1144    86.4029    11.5579    10.6065    10.9306    94.7606    79.9181
  249.0000     7.9490     2.4853     0.0093     0.2571     0.1144    85.8696    11.5278    11.3181    11.0000    95.0746    80.1639
  249.5000     7.9482     2.4830    -0.0027     0.2555     0.1187    87.1359    11.8498    11.3181    11.0698    95.2550    80.4103
  250.0000     7.9473     2.4755    -0.0156     0.2588     0.1227    88.8085    11.6880    11.0953    11.1401    95.4726    80.6610
  250.5000     7.9465     2.4684    -0.0222     0.2666     0.1247    91.3195    11.5107    10.9099    11.2108    96.2562    80.8838
  251.0000     7.9457     2.4703    -0.0113     0.2754     0.1212    91.8878    11.3362    11.4315    11.2819    97.0789    81.1214
  251.5000     7.9448     2.4763    -0.0008     0.2795     0.1195    91.7626    11.1643    12.2233    11.5756    97.8607    81.7291
  252.0000     7.9440     2.4820     0.0097     0.2741     0.1170    91.3693    11.0105    12.9895    12.4942    97.6888    82.3974
  252.5000     7.9432     2.4864     0.0193     0.2600     0.1132    88.2533    12.6351    14.4843    13.4858    96.7620    83.0675
  253.0000     7.9423     2.4899     0.0246     0.2455     0.1138    82.6679    14.1987    16.0033    15.1030    96.0344    83.7366
  253.5000     7.9415     2.4834     0.0301     0.2361     0.1168    74.5351    15.8662    17.6816    16.9917    95.2759    84.4059
  254.0000     7.9407     2.4697     0.0329     0.2285     0.1296    66.4301    17.9123    20.2285    18.9279    93.8682    85.0902
  254.5000     7.9399     2.4362     0.0350     0.2232     0.1483    58.9726    20.2222    23.2773    23.8124    92.5871    85.5512
  255.0000     7.9390     2.4318     0.0405     0.2317     0.1425    54.9745    22.8299    26.1026    23.2808    98.0597    85.9500
  255.5000     7.9382     2.4548     0.0523     0.2374     0.1345    51.9624    24.7033    27.6470    22.2386   117.7612    86.3443
  256.0000     7.9374     2.4603     0.0639     0.2429     0.1295    52.4675    24.0522    28.2868    21.5336   140.9845    86.7392
  256.5000     7.9365     2.4181     0.0852     0.2515     0.1655    56.8443    22.1258    28.6991    21.8090   140.4624    87.1341
  257.0000     7.9357     2.3799     0.0713     0.2600     0.1923    60.9806    22.5057    29.1174    22.0410   140.1201    87.5293
  257.5000     7.9349     2.3433     0.0491     0.2675     0.2001    63.0166    23.3308    29.5418    22.2717   140.1492    87.9337
  258.0000     7.9354     2.3343     0.0229     0.2687     0.2046    62.4870    24.1861    29.6835    22.5049   140.2258    88.1925
  258.5000     7.9368     2.3414     0.0071     0.2699     0.1989    60.3654    24.4775    29.3225    22.7404   141.5622    88.4095
  259.0000     7.9383     2.3483     0.0151     0.2710     0.1937    60.0138    24.4130    29.1368    22.9785   143.9303    88.6237
  259.5000     7.9398     2.3551     0.0227     0.2770     0.1929    58.8606    24.3622    29.8247    23.2191   140.1492    88.8383
  260.0000     7.9413     2.3476     0.0258     0.2892     0.1994    56.6760    24.3115    30.4750    23.4621   144.2724    89.0531
  260.5000     7.9428     2.3192     0.0291     0.2978     0.2209    52.3277    24.2593    31.3603    23.6942   147.4440    89.2679
  261.0000     7.9443     2.2910     0.0384     0.2937     0.2314    50.4379    25.0825    31.2235    23.9119   148.0037    89.4828
  261.5000     7.9458     2.2836     0.0461     0.2844     0.2346    50.3096    26.0857    31.0096    24.1318   152.2948    89.6975
  262.0000     7.9472     2.2873     0.0380     0.2737     0.2312    50.8151    27.0756    30.7972    24.4762   153.7811    89.9121
  262.5000     7.9487     2.2964     0.0302     0.2663     0.2284    53.8119    26.6086    30.5863    24.4202   145.1144    90.0964
  263.0000     7.9502     2.2900     0.0245     0.2639     0.2346    54.9867    25.8640    30.3768    24.2973   135.8707    90.2502
  263.5000     7.9517     2.2793     0.0216     0.2643     0.2396    55.5562    26.3451    30.1687    24.1739   122.9353    90.4041
  264.0000     7.9532     2.2792     0.0185     0.2647     0.2339    54.4573    27.4542    29.9620    24.0512   139.9503    90.5578
  264.5000     7.9527     2.2964     0.0155     0.2627     0.2237    52.9368    28.3515    29.6835    23.9290   106.6169    90.7115
  265.0000     7.9434     2.3080     0.0129     0.2644     0.2178    51.6104    26.6632    29.8985    23.8075   106.6667    90.8652
  265.5000     7.9343     2.3198     0.0151     0.2683     0.2138    54.0096    25.1378    30.3918    23.6866   107.1642    91.0191
  266.0000     7.9253     2.3265     0.0179     0.2628     0.2108    56.7357    24.0320    31.0275    23.5947   107.3134    91.1725
  266.5000     7.9162     2.3269     0.0207     0.2552     0.2126    59.5551    24.7445    30.8410    24.0162   106.5837    91.3255
  267.0000     7.9072     2.3198     0.0236     0.2599     0.2148    59.8331    25.4522    30.4714    24.3626   105.9204    91.3950
  267.5000     7.8979     2.3179     0.0266     0.2684     0.2146    59.2481    26.3324    30.1061    24.7033   105.0249    91.3662
  268.0000     7.9021     2.3237     0.0215     0.2755     0.2122    58.7578    27.4524    29.6835    24.1806   104.2786    91.3384
  268.5000     7.9130     2.3233     0.0143     0.2699     0.2120    59.8111    28.3515    29.8717    23.5653   103.8308    91.3101
  269.0000     7.9241     2.3136     0.0072     0.2722     0.2189    57.1729    27.2359    30.1007    22.8182   105.3731    91.2817
  269.5000     7.9342     2.2878     0.0043     0.2791     0.2276    52.8298    25.3300    30.3315    23.4919   108.1095    91.2539
  270.0000     7.9310     2.2593     0.0010     0.2870     0.2500    50.8245    23.3576    30.5126    24.7442   109.5167    91.2273
  270.5000     7.9275     2.2396     0.0221     0.2807     0.2599    52.4338    21.9235    30.3188    26.5072   110.2985    91.1966
  271.0000     7.9240     2.2597     0.0300     0.2753     0.2512    55.6263    23.5491    30.1299    26.1719   108.4577    90.9956
  271.5000     7.9206     2.2835     0.0011     0.2699     0.2352    57.7186    25.2632    29.9422    25.5140   106.6255    90.8008
  272.0000     7.9172     2.3060    -0.0067     0.2592     0.2191    56.7046    27.0864    29.7093    24.8727   104.9327    90.6078
  272.5000     7.9137     2.3204    -0.0085     0.2483     0.2128    58.7922    26.6929    30.0697    24.2537   103.2346    90.4150
  273.0000     7.9103     2.3185    -0.0103     0.2487     0.2139    60.9169    26.2266    30.7124    24.5555   102.9202    90.2222
  273.5000     7.9069     2.3168    -0.0101     0.2505     0.2144    61.8234    25.8619    31.3649    24.9335   102.3637    90.0294
  274.0000     7.9034     2.3213    -0.0097     0.2519     0.2117    61.6145    26.0134    31.3649    25.3172   101.6919    89.8366
  274.5000     7.9000     2.3269     0.0137     0.2483     0.2083    61.5168    26.1628    30.7975    25.6275   100.9518    89.6438
  275.0000     7.8966     2.3267     0.0085     0.2472     0.2089    62.6998    26.3433    30.0969    25.4620   100.6524    89.4510
  275.5000     7.8931     2.3227    -0.0030     0.2519     0.2118    63.8152    26.2692    29.4091    25.3251   100.6496    89.2582
  276.0000     7.8897     2.3186    -0.0146     0.2560     0.2137    64.1086    26.1768    28.7374    25.1889   100.6484    89.0654
