~VERSION INFORMATION
 VERS.                2.0:   CWLS LOG ASCII STANDARD - VERSION 2.0
 WRAP.                 NO:   ONE LINE PER DEPTH STEP
~WELL INFORMATION
#MNEM.UNIT      DATA TYPE    INFORMATION
#----------   ------------   ------------------------------
 STRT.F           90.0000:   START DEPTH
 STOP.F          928.0000:   STOP DEPTH
 STEP.F            0.5000:   STEP LENGTH
 NULL.          -999.2500:   NO VALUE
 COMP.  UNITED STATE NAVY:   COMPANY
 WELL.      NPR 3 #58-S-2:   WELL
 FLD .             TEAPOT:   FIELD
 LOC .       S2 T38N R78W:   LOCATION
 CNTY.            NATRONA:   COUNTY
 STAT.            WYOMING:   STATE
 CTRY. UNITED STATES OF AMERICA:   COUNTRY
 SRVC.       Schlumberger:   SERVICE COMPANY
 DATE.        26-JUN-1962:   LOGDATE
 API .       490250639500:   API NUMBER
~CURVE INFORMATION
#MNEM.UNIT       API CODE    CURVE DESCRIPTION
#----------   ------------   ------------------------------
 DEPT.F                  :   
 ASN .OHMM   05 041 16 00:   AMPLIFIED SHORT NORMAL 16"
 ILD .OHMM   05 120 46 00:   INDUCTION LOG DEEP
 CILD.MMHO   05 110 46 00:   CONDUCTIVITY INDUCTION LOG DEEP
 SPR .MV     05 010 01 00:   SPONTANEOUS POTENTIAL FROM RES.
 GR  .GAPI   30 310 01 00:   GAMMA RAY
~PARAMETER INFORMATION
#MNEM.UNIT          VALUE    DESCRIPTION
#----------   ------------   ------------------------------
 PD  .                 KB:   PERMANENT DATUM
 EKB .F              5189:   KELLING BUSHING
 EGL .F              5184:   GROUND LEVEL
 DATE.        26-JUN-1962:   RUN DATE
 RUN .                  1:   RUN NUMBER
 DD  .F               925:   DEPTH DRILLER
 DL  .F               929:   DEPTH LOGGER
 BLI .F               928:   BOTTOM LOG INTERVAL
 TLI .F                90:   TOP LOG INTERVAL
 BS  .IN             6.75:   BIT SIZE
 BSD .F               925:   BIT SIZE AT DEPTH
 DFT .       OIL EMULSION:   DRILLING FLUID TYPE
 DFD .                 10:   DRILLING FLUID DENSITY
 DFV .                 50:   DRILLING FLUID VISCOSITY
 DFL .                3.7:   DRILLING FLUID LOSS
 RMS .OHMM            4.7:   RESISTIVITY MUD SAMPLE
 MST .F                83:   MUD SAMPLE TEMPERATURE
 RMF .OHMM            3.8:   RESISTIVITY MUD FILTRATE SAMPLE
 MFST.F                83:   MUD FILTRATE SAMPLE TEMPERATURE
 RMC .OHMM            4.4:   RESISTIVITY MUD CAKE
 MCST.F                83:   MUD CAKE SAMPLE TEMPERATURE
 TCS .HRS               1:   TIME CURCULATED STOPPED
 LUN .               2503:   LOGGING UNIT NUMBER
 LUL .               CSPR:   LOGGING UNIT LOCATION
 ENGI.             DANNER:   RECORDING ENGINEER
 WITN.          JORGENSEN:   WITNESSED BY
 CLNT.            A2DTECH:   CLIENT CODE
 ORIG.      2" & 5" PRINT:   ORIGIN OF DATA
 UWI .       490250639500:   UNIQUE WELL ID
 DICO. A2D Technologies, Inc.:   DIGITIZING COMPANY
~OTHER INFORMATION
~A   DEPT        ASN        ILD      CILD       SPR         GR   
# ...
  517.0000     9.9853    10.0960   104.0021   -52.0826  -999.2500
  517.5000     9.9857     9.9475   105.4870   -51.3273  -999.2500
  518.0000     9.9862     9.8741   107.7275   -51.3183  -999.2500
  518.5000     9.9716     9.8756   109.2200   -51.3093  -999.2500
  519.0000     9.9722     9.8771   109.9567   -51.1510  -999.2500
  519.5000     9.9727     9.8036   109.9379   -50.6942  -999.2500
  520.0000     9.9581     9.7302   110.6785   -50.6852  -999.2500
  520.5000     9.8926     9.5817   110.6596   -50.6762  -999.2500
  521.0000     9.8061     9.5766   110.6445   -50.6672  -999.2500
  521.5000     9.7616     9.8096   111.3851   -50.6582  -999.2500
  522.0000     9.7677     9.8861   111.3662   -50.9477  -999.2500
  522.5000     9.7953     9.8876   112.1068   -51.0879  -999.2500
  523.0000     9.7304     9.8141   112.8436   -51.2304  -999.2500
  523.5000     9.6560     9.5158   114.3285   -51.2192  -999.2500
  524.0000     9.5842     9.3674   115.0690   -51.0609  -999.2500
  524.5000     9.5098     9.2190   115.8058   -51.0538  -999.2500
  525.0000     9.4178     9.2205   116.5426   -51.1944  -999.2500
  525.5000     9.3309     9.2220   116.5238   -51.6332  -999.2500
  526.0000     9.2887     9.2984   116.5087   -51.6239  -999.2500
  526.5000     9.2742     9.2999   116.4936   -51.3020  -999.2500
  527.0000     9.3069     9.3764   116.4785   -50.9980  -999.2500
  527.5000     9.3396     9.6028   116.4634   -50.7015  -999.2500
  528.0000     9.4427     9.8292   116.4483   -50.6925  -999.2500
  528.5000     9.4409     9.5308   116.4332   -50.6836  -999.2500
  529.0000     9.3772     9.3071   116.4181   -50.6746  -999.2500
  529.5000     9.2728     9.0841   116.4031   -50.6656  -999.2500
  530.0000     9.1834     9.0856   116.3910   -50.8060  -999.2500
  530.5000     9.0810     9.0117   116.5161   -50.7968  -999.2500
  531.0000     9.0215     9.0886   117.8653   -50.7878  -999.2500
  531.5000     9.0088     9.0901   118.7216   -50.7788  -999.2500
  532.0000     9.0243     9.0916   120.0908   -50.7698  -999.2500
  532.5000     9.0247     9.0177   122.4310   -50.7608  -999.2500
  533.0000     9.0085     8.9443   125.4134   -50.6025  -999.2500
  533.5000     8.8708     8.6463   129.2285   -50.5935  -999.2500
  534.0000     8.6299     8.4229   132.2007   -50.5845  -999.2500
  534.5000     8.3576     8.1995   136.6167   -50.5755  -999.2500
  535.0000     8.0300     7.9762   140.3512   -50.5665  -999.2500
  535.5000     7.7623     7.7524   144.1256   -50.4082  -999.2500
  536.0000     7.5858     7.5290   147.0683   -50.3992  -999.2500
  536.5000     7.5128     7.5309   147.7745   -50.3902  -999.2500
  537.0000     7.4696     7.6073   147.7594   -50.6797  -999.2500
  537.5000     7.4875     7.7588   147.7444   -51.2677  -999.2500
  538.0000     7.7013     7.9852   145.4736   -52.0050  -999.2500
  538.5000     8.0925     8.1366   142.4510   -52.2967  -999.2500
  539.0000     8.3120     8.3630   138.6765   -52.4370  -999.2500
  539.5000     8.3725     8.4395   134.9021   -51.9780  -999.2500
  540.0000     8.4178     8.5159   133.3832   -51.3719  -999.2500
  540.5000     8.4332     8.5924   131.1125   -51.0644  -999.2500
  541.0000     8.4926     8.5939   129.5936   -50.7569  -999.2500
  541.5000     8.5531     8.5954   128.8267   -50.4494  -999.2500
  542.0000     8.5385     8.5969   129.5639   -51.3359  -999.2500
  542.5000     8.4933     8.5984   130.3007   -51.9262  -999.2500
  543.0000     8.4181     8.5249   131.0376   -52.0664  -999.2500
  543.5000     8.3294     8.4515   131.7744   -51.3089  -999.2500
  544.0000     8.2705     8.4530   132.5106   -50.2551  -999.2500
  544.5000     8.2554     8.3791   133.2481   -50.2461  -999.2500
  545.0000     8.2109     8.2311   133.9850   -50.0878  -999.2500
  545.5000     8.1514     8.0827   135.4767   -50.0788  -999.2500
  546.0000     8.1531     8.0842   135.4578   -50.0717  -999.2500
  546.5000     8.2581     8.2356   135.4427   -50.0627  -999.2500
  547.0000     8.3334     8.3870   134.6757   -50.2033  -999.2500
  547.5000     8.3936     8.5385   133.1569   -50.1767  -999.2500
  548.0000     8.4392     8.6149   130.8862   -50.0358  -999.2500
  548.5000     8.5145     8.6914   128.6154   -50.0268  -999.2500
  549.0000     8.5598     8.6929   127.8485   -50.0179  -999.2500
  549.5000     8.5604     8.6944   127.0815   -50.1617  -999.2500
  550.0000     8.6507     8.6996   126.2128   -50.7463  -999.2500
  550.5000     8.7858     8.7486   125.5314   -51.1866  -999.2500
  551.0000     8.8009     8.7736   126.2608   -51.6269  -999.2500
  551.5000     8.7561     8.6972   126.9827   -51.9179  -999.2500
  552.0000     8.6363     8.6267   127.7046   -51.3134  -999.2500
  552.5000     8.5015     8.6282   128.4264   -51.1567  -999.2500
  553.0000     8.5017     8.6297   129.1483   -51.4478  -999.2500
  553.5000     8.5468     8.6311   129.1108   -51.7388  -999.2500
  554.0000     8.5619     8.6326   129.0808   -50.8358  -999.2500
  554.5000     8.5470     8.5592   129.8027   -50.3806  -999.2500
  555.0000     8.5322     8.5607   129.7727   -50.2239  -999.2500
  555.5000     8.5174     8.5622   130.4946   -50.0672  -999.2500
  556.0000     8.5025     8.4887   130.4646   -50.2090  -999.2500
  556.5000     8.6526     8.4903   131.9383   -50.5000  -999.2500
  557.0000     8.6977     8.4167   132.6602   -51.0896  -999.2500
  557.5000     8.3831     8.4186   132.6302   -51.6791  -999.2500
  558.0000     8.2183     8.3447   131.8483   -51.9701  -999.2500
  558.5000     8.5783     8.1963   131.0665   -51.9627  -999.2500
  559.0000     8.4435     8.1982   131.0364   -51.8060  -999.2500
  559.5000     8.2337     8.1997   131.7594   -51.7985  -999.2500
  560.0000     8.2789     8.2012   133.2331   -51.9403  -999.2500
  560.5000     8.2819     8.2027   134.7067   -51.7836  -999.2500
  561.0000     8.2192     8.1288   135.4286   -51.7761  -999.2500
  561.5000     8.1894     8.1307   135.3977   -51.7687  -999.2500
  562.0000     8.1445     8.1322   135.3677   -51.7612  -999.2500
  562.5000     8.0847     8.0583   135.3377   -51.7537  -999.2500
  563.0000     8.0699     8.0602   135.3077   -51.7463  -999.2500
  563.5000     8.1000     8.1367   135.2777   -51.7388  -999.2500
  564.0000     8.1301     8.0628   136.0000   -52.1791  -999.2500
  564.5000     8.1603     8.0647   135.9696   -52.6194  -999.2500
  565.0000     8.1904     7.9909   136.6918   -52.7612  -999.2500
  565.5000     8.2056     7.9927   137.4136   -52.7537  -999.2500
  566.0000     8.1457     7.9193   138.1353   -52.7463  -999.2500
  566.5000     8.0709     7.9207   138.8571   -52.7388  -999.2500
  567.0000     7.9811     7.9222   139.5790   -52.1343  -999.2500
  567.5000     7.9063     7.9237   140.3133   -51.8284  -999.2500
  568.0000     7.8915     7.9252   141.0228   -51.8209  -999.2500
  568.5000     7.8766     7.9267   140.9649   -51.8134  -999.2500
  569.0000     7.9067     8.0032   138.7068   -51.6567  -999.2500
  569.5000     7.9669     8.0047   136.3784   -51.6493  -999.2500
  570.0000     8.0720     8.1561   134.1353   -51.6418  -999.2500
  570.5000     8.1771     8.2326   132.6015   -51.9328  -999.2500
  571.0000     8.2672     8.3090   131.8195   -52.2239  -999.2500
  571.5000     8.4023     8.5354   130.2857   -51.6194  -999.2500
  572.0000     8.5823     8.6868   128.7519   -51.4627  -999.2500
  572.5000     8.5825     8.6883   127.2180   -51.4552  -999.2500
  573.0000     8.5826     8.6898   126.4360   -51.5970  -999.2500
  573.5000     8.5828     8.6160   126.4060   -51.5896  -999.2500
  574.0000     8.5829     8.6178   127.1289   -50.9851  -999.2500
  574.5000     8.6280     8.6193   127.8508   -50.9776  -999.2500
  575.0000     8.6132     8.5459   128.5727   -50.9701  -999.2500
  575.5000     8.5382     8.5473   128.6739   -51.2612  -999.2500
  576.0000     8.4034     8.4739   129.2646   -51.4030  -999.2500
  576.5000     8.3585     8.4754   130.7383   -51.5448  -999.2500
  577.0000     8.3285     8.3266   132.2046   -51.5373  -999.2500
  577.5000     8.2836     8.1781   132.9340   -51.6791  -999.2500
