~VERSION INFORMATION
 VERS.                2.0:   CWLS LOG ASCII STANDARD - VERSION 2.0
 WRAP.                 NO:   ONE LINE PER DEPTH STEP
~WELL INFORMATION
#MNEM.UNIT      DATA TYPE    INFORMATION
#----------   ------------   ------------------------------
 STRT.F           33.0000:   START DEPTH
 STOP.F          957.0000:   STOP DEPTH
 STEP.F            0.5000:   STEP LENGTH
 NULL.          -999.2500:   NO VALUE
 COMP. TESORO PETROLEUM CORP:   COMPANY
 WELL.  NPR #3 46-S-14 #3:   WELL
 FLD .             TEAPOT:   FIELD
 LOC .      S14 T38N R78W:   LOCATION
 CNTY.            NATRONA:   COUNTY
 STAT.            WYOMING:   STATE
 CTRY. UNITED STATES OF AMERICA:   COUNTRY
 SRVC.       Schlumberger:   SERVICE COMPANY
 DATE.        25-JUN-1970:   LOGDATE
 API .       490251023100:   API NUMBER
~CURVE INFORMATION
#MNEM.UNIT       API CODE    CURVE DESCRIPTION
#----------   ------------   ------------------------------
 DEPT.F                  :   
 SPR .MV     05 010 01 00:   SPONTANEOUS POTENTIAL FROM RES.
 ILD .OHMM   05 120 46 00:   INDUCTION LOG DEEP
 CILD.MMHO   05 110 46 00:   CONDUCTIVITY INDUCTION LOG DEEP
 ASN .OHMM   05 041 16 00:   AMPLIFIED SHORT NORMAL 16"
 GR  .GAPI   30 310 01 00:   GAMMA RAY
 CALD.IN     45 280 60 00:   CALIPER FROM DENSITY LOG
 CORR.G/C3   45 356 01 00:   DENSITY CORRECTION
 DPHI.DEC    45 890 12 00:   DENSITY POROSITY SANDSTONE
 RHOB.G/C3   45 350 01 00:   BULK DENSITY
~PARAMETER INFORMATION
#MNEM.UNIT          VALUE    DESCRIPTION
#----------   ------------   ------------------------------
 PD  .                 GL:   PERMANENT DATUM
 EPD .F              5271:   ELEVATION PERMANENT DATUM
 LMF .                 KB:   LOG MEASURED FROM
 DAPD.F                10:   FEET ABOVE PERMANENT DATUM
 DMF .                 KB:   DRILLING MEASURED FROM
 EKB .F              5281:   KELLING BUSHING
 EDF .F              5280:   DRILLING FLOOR
 EGL .F              5271:   GROUND LEVEL
 DATE.        25-JUN-1970:   RUN DATE
 RUN .                  1:   RUN NUMBER
 DD  .F               950:   DEPTH DRILLER
 DL  .F               958:   DEPTH LOGGER
 BLI .F               957:   BOTTOM LOG INTERVAL
 TLI .F                33:   TOP LOG INTERVAL
 CS  .IN            10.75:   CASING SIZE
 CBD .F                30:   CASING BOTTOM DRILLER
 CBL .F                33:   CASING BOTTOM LOGGER
 BS  .IN                9:   BIT SIZE
 BSD .F               950:   BIT SIZE AT DEPTH
 DFT .         MO-MAR MUD:   DRILLING FLUID TYPE
 DFD .                9.7:   DRILLING FLUID DENSITY
 DFV .                 62:   DRILLING FLUID VISCOSITY
 DFPH.                7.4:   DRILLING FLUID PH
 DFL .                5.6:   DRILLING FLUID LOSS
 MSS .           FLOWLINE:   MUD SAMPLE SOURCE
 RMS .OHMM           1.40:   RESISTIVITY MUD SAMPLE
 MST .F                85:   MUD SAMPLE TEMPERATURE
 RMF .OHMM           0.85:   RESISTIVITY MUD FILTRATE SAMPLE
 MFST.F                87:   MUD FILTRATE SAMPLE TEMPERATURE
 MFSS.               MEAS:   MUD FILTRATE SAMPLE SOURCE
 RMB .OHMM           1.06:   RESISTIVITY MUD AT BHT
 BHT .F               112:   BOTTOM HOLE TEMPERATURE
 TCS .HRS               1:   TIME CURCULATED STOPPED
 MRT .F               112:   MAXIMUM RECORDED TEMPERATURE
 LUN .               7037:   LOGGING UNIT NUMBER
 LUL .                GLT:   LOGGING UNIT LOCATION
 ENGI.           KNOSTMAN:   RECORDING ENGINEER
 WITN.                MAY:   WITNESSED BY
 CLNT.            A2DTECH:   CLIENT CODE
 ORIG.         2.5" PRINT:   ORIGIN OF DATA
 UWI .       490251023100:   UNIQUE WELL ID
 DICO. A2D Technologies, Inc.:   DIGITIZING COMPANY
~OTHER INFORMATION
~A   DEPT       SPR        ILD       CILD       ASN         GR       CALD       CORR       DPHI       RHOB   
# ...
  361.5000   -39.9575     6.2121   167.1732     6.6061  -999.2500     9.3721     0.0069     0.1334     2.4201
  362.0000   -39.9635     6.2121   167.1732     6.5915  -999.2500     9.3722     0.0100     0.1376     2.4232
  362.5000   -39.9696     6.2121   166.3500     6.6970  -999.2500     9.3421     0.0120     0.1419     2.4256
  363.0000   -39.9757     6.2803   165.6535     6.8182  -999.2500     9.3121     0.0131     0.1430     2.4248
  363.5000   -39.9828     6.3636   164.1337     6.9091  -999.2500     9.3122     0.0132     0.1432     2.4233
  364.0000   -39.9885     6.3788   162.6140     7.0045  -999.2500     9.2822     0.0132     0.1447     2.4188
  364.5000   -39.9939     6.5417   159.1643     7.0699  -999.2500     9.2521     0.0194     0.1411     2.4190
  365.0000   -40.0000     6.7424   153.4954     7.1352  -999.2500     9.2523     0.0395     0.1314     2.4248
  365.5000   -39.7015     6.9697   149.1440     7.1818  -999.2500     9.2524     0.0442     0.1259     2.4383
  366.0000   -39.7082     7.2727   144.3769     7.2121  -999.2500     9.2526     0.0403     0.1229     2.4485
  366.5000   -39.7143     7.4242   139.8176     7.2121  -999.2500     9.2527     0.0316     0.1235     2.4523
  367.0000   -39.7213     7.4394   138.2979     7.2121  -999.2500     9.2529     0.0265     0.1263     2.4599
  367.5000   -39.7270     7.5758   135.2203     7.2045  -999.2500     9.2530     0.0319     0.1307     2.4449
  368.0000   -39.5886     7.5758   133.7386     7.1392  -999.2500     9.2906     0.0351     0.1251     2.4481
  368.5000   -39.4347     7.4242   133.7386     7.0435  -999.2500     9.3137     0.0352     0.1174     2.4641
  369.0000   -39.4407     7.2727   134.4529     6.9091  -999.2500     9.3139     0.0166     0.1185     2.4662
  369.5000   -39.4174     6.9697   135.2584     6.8182  -999.2500     9.3141     0.0270     0.1233     2.4541
  370.0000   -39.2604     6.6667   138.2979     6.6633  -999.2500     9.3142     0.0417     0.1246     2.4559
  370.5000   -39.1550     6.3182   147.4164     6.4613  -999.2500     9.3144     0.0506     0.1195     2.4693
  371.0000   -39.1611     5.7121   167.8470     6.1891  -999.2500     9.3145     0.0507     0.1172     2.4739
  371.5000   -39.1672     5.1667   190.7014     5.8314  -999.2500     9.3147     0.0430     0.1295     2.4180
  372.0000   -39.1915     4.5455   223.8913     5.1702  -999.2500     9.3148     0.0137     0.1451     2.3996
  372.5000   -39.4833     3.9394   271.2604     4.4460  -999.2500     9.3150     0.0045     0.1618     2.3931
  373.0000   -39.4894     3.3333   332.2051     3.7273  -999.2500     9.3151     0.0076     0.1813     2.3750
  373.5000   -39.4954     3.0152   393.1497     3.3939  -999.2500     9.3153     0.0071     0.2183     2.3133
  374.0000   -39.5023     2.5455   443.7690     3.1818  -999.2500     9.3154     0.0098     0.2516     2.2397
  374.5000   -39.5080     2.4242   470.6860     2.9515  -999.2500     9.3156     0.0416     0.2971     2.1702
  375.0000   -38.9058     2.3485   560.7891     2.6246  -999.2500     9.3157     0.0556     0.3012     2.1354
  375.5000   -38.8673     2.4242   598.7719     2.4242  -999.2500     9.3159     0.0695     0.3012     2.1308
  376.0000   -38.5248     2.4242   604.0325     2.3636  -999.2500     9.3160     0.0741     0.2989     2.1136
  376.5000   -38.1824     2.5758   592.7051     2.3636  -999.2500     9.3162     0.0271     0.2900     2.1339
  377.0000   -37.7143     2.7273   543.5419     2.4848  -999.2500     9.3163     0.0223     0.2684     2.1937
  377.5000   -37.7211     2.9167   486.3222     2.6706  -999.2500     9.3467     0.0108     0.2320     2.2899
  378.0000   -37.7268     3.2424   406.3210     2.9495  -999.2500     9.3770     0.0044     0.1986     2.3883
  378.5000   -37.7325     4.0530   324.4738     3.5895  -999.2500     9.3773     0.0187     0.1504     2.4383
  379.0000   -37.7386     6.0606   227.4267     4.9944  -999.2500     9.4075     0.0219     0.1336     2.4459
  379.5000   -38.3526     7.2727   129.1793     6.7273  -999.2500     9.3775     0.0234     0.1325     2.4459
  380.0000   -38.5005     9.3939   101.8237     8.0606  -999.2500     9.3776     0.0230     0.1310     2.4490
  380.5000   -38.9737    12.9015    80.5471     9.8285  -999.2500     9.3778     0.0142     0.1220     2.4530
  381.0000   -39.5873    13.0303    74.4681    12.4242  -999.2500     9.3478     0.0143     0.1130     2.4628
  381.5000   -40.2009    12.7424    74.4681    13.1818  -999.2500     9.3479     0.0143     0.1106     2.4734
  382.0000   -40.8146    11.2121    80.5164    12.9405  -999.2500     9.3480     0.0004     0.1178     2.4689
  382.5000   -41.1246     9.0909    92.4774    11.6019  -999.2500     9.3180     0.0097     0.1252     2.4568
  383.0000   -41.1307     7.5758   118.5410    10.2431  -999.2500     9.3181     0.0206     0.1405     2.4374
  383.5000   -41.1368     6.3485   150.4559     8.1818  -999.2500     9.3183     0.0167     0.1596     2.3828
  384.0000   -41.1439     5.7273   176.2918     7.1448  -999.2500     9.3184     0.0052     0.1787     2.3645
  384.5000   -40.5416     5.2500   199.5035     6.0480  -999.2500     9.3186     0.0290     0.1892     2.3482
  385.0000   -39.9394     4.9242   208.8651     5.5241  -999.2500     9.3188     0.0540     0.1880     2.3237
  385.5000   -39.3131     4.8485   214.2857     5.3636  -999.2500     9.3189     0.0670     0.2316     2.2740
  386.0000   -38.7349     4.8485   217.3252     5.3636  -999.2500     9.3190     0.0362     0.2098     2.3201
  386.5000   -38.4366     5.0000   217.3252     5.4545  -999.2500     9.3494     0.0084     0.1855     2.3679
  387.0000   -38.4438     5.3182   215.8055     6.2256  -999.2500     9.3193     0.0087     0.1733     2.3922
  387.5000   -38.4508     5.6439   202.1277     7.6467  -999.2500     9.3195     0.0153     0.1597     2.4028
  388.0000   -38.4565     6.3030   170.1123     8.2076  -999.2500     9.3196     0.0178     0.1512     2.4107
  388.5000   -38.7661     7.3712   136.3296     8.5345  -999.2500     9.3198     0.0147     0.1524     2.4064
  389.0000   -39.0760     8.4848   114.5696     8.9091  -999.2500     9.3200     0.0142     0.1567     2.3978
  389.5000   -39.1591     9.0909   103.1862     9.2727  -999.2500     9.3201     0.0210     0.1532     2.4045
  390.0000   -39.6960     9.6970    97.2644     9.6061  -999.2500     9.3202     0.0210     0.1466     2.4089
  390.5000   -40.0061    10.0227    92.7052     9.8676  -999.2500     9.3204     0.0178     0.1483     2.3918
  391.0000   -40.3170    10.3485    91.1854    11.0791  -999.2500     9.3205     0.0082     0.1604     2.3685
  391.5000   -40.9305    10.6061    89.6657    11.5079  -999.2500     9.3207     0.0021     0.1654     2.3616
  392.0000   -41.2402    10.9091    89.6657    11.6375  -999.2500     9.3208     0.0130     0.1737     2.3707
  392.5000   -41.6312    11.2121    88.1459    11.8350  -999.2500     9.3210     0.0273     0.1725     2.3782
  393.0000   -42.1641    11.5152    86.6261    11.9899  -999.2500     9.3212     0.0304     0.1665     2.3813
  393.5000   -42.4742    11.5152    86.6261    12.1035  -999.2500     9.3213     0.0336     0.1653     2.3794
  394.0000   -42.7854    11.5455    86.6261    12.1006  -999.2500     9.3215     0.0336     0.1750     2.3689
  394.5000   -42.7911    11.6667    86.6261    12.2500  -999.2500     9.3216     0.0352     0.1738     2.3691
  395.0000   -42.7967    11.8182    86.6261    12.2472  -999.2500     9.3218     0.0336     0.1735     2.3752
  395.5000   -42.8024    11.8674    86.6261    12.2448  -999.2500     9.3219     0.0258     0.1755     2.3673
  396.0000   -42.8085    12.0303    86.6261    12.2423  -999.2500     9.3221     0.0056     0.1787     2.3653
  396.5000   -42.8146    12.1212    85.1064    12.3914  -999.2500     9.3222     0.0046     0.1642     2.3782
  397.0000   -42.8207    12.2273    85.1064    12.4714  -999.2500     9.3224     0.0091     0.1587     2.3888
  397.5000   -42.8279    12.4242    85.1064    12.6896  -999.2500     9.3225     0.0076     0.1575     2.3949
