~VERSION INFORMATION
 VERS.                2.0:   CWLS LOG ASCII STANDARD - VERSION 2.0
 WRAP.                 NO:   ONE LINE PER DEPTH STEP
~WELL INFORMATION
#MNEM.UNIT      DATA TYPE    INFORMATION
#----------   ------------   ------------------------------
 STRT.F           90.0000:   START DEPTH
 STOP.F         1032.5000:   STOP DEPTH
 STEP.F            0.5000:   STEP LENGTH
 NULL.          -999.2500:   NO VALUE
 COMP. U S NAVY/INTEX OIL CO:   COMPANY
 WELL. NAVAL PETROLEUM RESERVE 3  #62-S-14:   WELL
 FLD .        TEAPOT DOME:   FIELD
 LOC .      S14 T38N R78W:   LOCATION
 CNTY.            NATRONA:   COUNTY
 STAT.            WYOMING:   STATE
 CTRY. UNITED STATES OF AMERICA:   COUNTRY
 SRVC.       Schlumberger:   SERVICE COMPANY
 DATE.        04-JUL-1962:   LOGDATE
 API .       490250631700:   API NUMBER
~CURVE INFORMATION
#MNEM.UNIT       API CODE    CURVE DESCRIPTION
#----------   ------------   ------------------------------
 DEPT.F                  :   
 GR  .GAPI   30 310 01 00:   GAMMA RAY
 CALM.IN     15 280 01 00:   CALIPER FROM MICRO LOG
 SPR .MV     06 010 01 00:   SPONTANEOUS POTENTIAL FROM RES.
 ASN .OHMM   06 041 16 00:   AMPLIFIED SHORT NORMAL 16"
 ILD .OHMM   06 120 46 00:   INDUCTION LOG DEEP
 CILD.MMHO   06 110 46 00:   CONDUCTIVITY INDUCTION LOG DEEP
~PARAMETER INFORMATION
#MNEM.UNIT          VALUE    DESCRIPTION
#----------   ------------   ------------------------------
 PD  .                 GL:   PERMANENT DATUM
 EPD .F              5246:   ELEVATION PERMANENT DATUM
 LMF .                 KB:   LOG MEASURED FROM
 DAPD.F                 5:   FEET ABOVE PERMANENT DATUM
 DMF .                 KB:   DRILLING MEASURED FROM
 EKB .F              5251:   KELLING BUSHING
 EGL .F              5246:   GROUND LEVEL
 DATE.             7-4-62:   RUN DATE
 RUN .                  1:   RUN NUMBER
 DD  .F              1036:   DEPTH DRILLER
 DL  .F              1033:   DEPTH LOGGER
 BLI .F              1032:   BOTTOM LOG INTERVAL
 TLI .F                90:   TOP LOG INTERVAL
 CBD .F                10:   CASING BOTTOM DRILLER
 BS  .IN             6.75:   BIT SIZE
 BSD .F              1036:   BIT SIZE AT DEPTH
 DFT .                GEL:   DRILLING FLUID TYPE
 DFD .               10.2:   DRILLING FLUID DENSITY
 DFV .                 48:   DRILLING FLUID VISCOSITY
 DFL .                4.8:   DRILLING FLUID LOSS
 MSS .          FLOW LINE:   MUD SAMPLE SOURCE
 RMS .OHMM            5.6:   RESISTIVITY MUD SAMPLE
 MST .F                70:   MUD SAMPLE TEMPERATURE
 RMF .OHMM           5.57:   RESISTIVITY MUD FILTRATE SAMPLE
 MFST.F                70:   MUD FILTRATE SAMPLE TEMPERATURE
 RMC .OHMM           5.32:   RESISTIVITY MUD CAKE
 MCST.F                70:   MUD CAKE SAMPLE TEMPERATURE
 MFSS.                  M:   MUD FILTRATE SAMPLE SOURCE
 MCSS.                  M:   MUD CAKE SAMPLE SOURCE
 RMB .OHMM            4.3:   RESISTIVITY MUD AT BHT
 BHT .F                90:   BOTTOM HOLE TEMPERATURE
 TCS .HRS               1:   TIME CURCULATED STOPPED
 MRT .F                90:   MAXIMUM RECORDED TEMPERATURE
 LUN .               2503:   LOGGING UNIT NUMBER
 LUL .               CSPR:   LOGGING UNIT LOCATION
 ENGI.             KNOBEL:   RECORDING ENGINEER
 WITN.          JORGENSEN:   WITNESSED BY
 CLNT.            A2DTECH:   CLIENT CODE
 ORIG.   1", 2", 5" PRINT:   ORIGIN OF DATA
 UWI .       490250631700:   UNIQUE WELL ID
 DICO. A2D Technologies, Inc.:   DIGITIZING COMPANY
~OTHER INFORMATION
~A   DEPT       GR       CALM        SPR          ASN        ILD      CILD  
# ...
  402.0000  -999.2500  -999.2500   -40.5462     5.0873     4.9599   189.8617
  402.5000  -999.2500  -999.2500   -40.3699     5.0929     4.9604   194.4445
  403.0000  -999.2500  -999.2500   -40.1904     5.0237     4.9624   199.5792
  403.5000  -999.2500  -999.2500   -40.2240     4.9538     4.9555   215.9319
  404.0000  -999.2500  -999.2500   -40.4102     4.8283     4.4744   241.1723
  404.5000  -999.2500  -999.2500   -40.5902     4.5046     3.9394   264.3948
  405.0000  -999.2500  -999.2500   -40.7704     4.1349     3.3858   301.4045
  405.5000  -999.2500  -999.2500   -40.6553     3.8180     3.1850   336.6841
  406.0000  -999.2500  -999.2500   -40.1311     3.5265     3.0778   354.2855
  406.5000  -999.2500  -999.2500   -39.6287     3.4047     3.0879   362.3507
  407.0000  -999.2500  -999.2500   -39.1213     3.5054     3.1310   363.3547
  407.5000  -999.2500  -999.2500   -38.5904     3.6316     3.1746   364.0656
  408.0000  -999.2500  -999.2500   -39.0439     3.5318     3.2183   359.6622
  408.5000  -999.2500  -999.2500   -39.5716     3.4014     3.2875   348.1964
  409.0000  -999.2500  -999.2500   -40.0992     3.6493     3.5167   320.0601
  409.5000  -999.2500  -999.2500   -40.6506     3.9963     3.7475   289.7856
  410.0000  -999.2500  -999.2500   -40.6371     4.0870     3.9777   261.9363
  410.5000  -999.2500  -999.2500   -40.4427     4.1391     4.2056   236.9862
  411.0000  -999.2500  -999.2500   -40.2409     4.3048     4.3821   227.3173
  411.5000  -999.2500  -999.2500   -40.0404     4.4818     4.4427   222.2978
  412.0000  -999.2500  -999.2500   -39.8273     4.6601     4.5059   218.3568
  412.5000  -999.2500  -999.2500   -39.9516     4.7583     4.5684   214.7688
  413.0000  -999.2500  -999.2500   -40.1874     4.7958     4.6316   213.6931
  413.5000  -999.2500  -999.2500   -40.4287     4.8145     4.6433   212.6174
  414.0000  -999.2500  -999.2500   -40.6695     4.7871     4.6166   211.8597
  414.5000  -999.2500  -999.2500   -40.9187     4.7002     4.5902   218.3851
  415.0000  -999.2500  -999.2500   -40.8713     4.5606     4.5392   227.5885
  415.5000  -999.2500  -999.2500   -40.6521     4.4098     4.2880   236.7405
  416.0000  -999.2500  -999.2500   -40.4323     4.2400     4.0569   257.1080
  416.5000  -999.2500  -999.2500   -40.2121     4.0686     3.8288   277.4559
  417.0000  -999.2500  -999.2500   -39.9922     3.8947     3.6028   292.6052
  417.5000  -999.2500  -999.2500   -39.7720     3.7667     3.4483   302.5676
  418.0000  -999.2500  -999.2500   -39.5517     3.6812     3.4084   303.8227
  418.5000  -999.2500  -999.2500   -39.3354     3.7348     3.3661   308.7094
  419.0000  -999.2500  -999.2500   -39.2009     3.7954     3.3243   319.1583
  419.5000  -999.2500  -999.2500   -39.3091     3.6350     3.2825   331.3947
  420.0000  -999.2500  -999.2500   -39.4094     3.4239     3.2408   343.6310
  420.5000  -999.2500  -999.2500   -39.5073     3.3640     3.1997   352.4783
  421.0000  -999.2500  -999.2500   -39.5412     3.5618     3.1526   355.5177
  421.5000  -999.2500  -999.2500   -39.3787     3.3247     2.9596   366.3545
  422.0000  -999.2500  -999.2500   -39.2246     3.1262     2.7581   383.6965
  422.5000  -999.2500  -999.2500   -39.0704     3.0721     2.5568   407.3647
  423.0000  -999.2500  -999.2500   -38.9163     2.9478     2.3548   440.9604
  423.5000  -999.2500  -999.2500   -38.7621     2.8105     2.1616   474.5560
  424.0000  -999.2500  -999.2500   -38.6080     2.7172     2.1942   484.6533
  424.5000  -999.2500  -999.2500   -38.4539     2.7138     2.2389   467.6337
  425.0000  -999.2500  -999.2500   -38.2995     2.8356     2.3340   445.2640
  425.5000  -999.2500  -999.2500   -38.1423     2.9381     2.5395   421.7213
  426.0000  -999.2500  -999.2500   -37.9734     2.9376     2.7427   394.5933
  426.5000  -999.2500  -999.2500   -38.3482     3.0365     2.9463   368.5917
  427.0000  -999.2500  -999.2500   -38.7675     3.3079     3.1498   336.6460
  427.5000  -999.2500  -999.2500   -38.9528     3.7608     3.3535   303.9016
  428.0000  -999.2500  -999.2500   -38.8677     3.9520     3.5577   271.0352
  428.5000  -999.2500  -999.2500   -38.7712     3.9386     3.7541   253.2268
  429.0000  -999.2500  -999.2500   -39.0862     3.9043     3.8104   253.0449
  429.5000  -999.2500  -999.2500   -39.2934     3.8678     3.8522   256.8676
  430.0000  -999.2500  -999.2500   -39.5044     3.8154     3.7264   270.8521
  430.5000  -999.2500  -999.2500   -39.7108     3.7161     3.5953   285.3581
  431.0000  -999.2500  -999.2500   -39.8884     3.6233     3.4650   300.4609
  431.5000  -999.2500  -999.2500   -39.6947     3.5344     3.3344   320.6433
  432.0000  -999.2500  -999.2500   -39.5076     3.4074     3.2064   352.6119
  432.5000  -999.2500  -999.2500   -39.3183     3.2749     2.9434   391.3782
  433.0000  -999.2500  -999.2500   -39.1292     3.1421     2.6116   431.0822
  433.5000  -999.2500  -999.2500   -38.9401     3.0093     2.3289   469.4389
  434.0000  -999.2500  -999.2500   -38.7511     2.8759     2.2473   488.4703
  434.5000  -999.2500  -999.2500   -38.5621     2.7476     2.1530   490.4810
  435.0000  -999.2500  -999.2500   -38.3728     2.8715     2.2938   469.4389
  435.5000  -999.2500  -999.2500   -38.1794     3.0330     2.4605   444.3387
  436.0000  -999.2500  -999.2500   -37.9692     3.1529     2.6296   418.5337
  436.5000  -999.2500  -999.2500   -38.5463     3.0711     2.8518   384.6914
  437.0000  -999.2500  -999.2500   -39.1856     3.2381     3.2987   341.5190
  437.5000  -999.2500  -999.2500   -39.8231     4.1404     3.7359   298.3467
  438.0000  -999.2500  -999.2500   -40.4612     4.4755     4.1725   255.1743
  438.5000  -999.2500  -999.2500   -40.6756     4.6679     4.6118   218.7647
  439.0000  -999.2500  -999.2500   -40.4800     4.8040     4.8576   202.2702
  439.5000  -999.2500  -999.2500   -40.2818     4.9394     5.0090   195.6012
  440.0000  -999.2500  -999.2500   -40.0812     5.0554     5.1595   194.0281
  440.5000  -999.2500  -999.2500   -40.0444     5.1163     5.3099   193.0240
  441.0000  -999.2500  -999.2500   -40.1682     5.2066     5.4605   188.0160
  441.5000  -999.2500  -999.2500   -40.2925     5.4140     5.6111   182.3685
  442.0000  -999.2500  -999.2500   -40.4185     5.6232     5.7617   176.7209
  442.5000  -999.2500  -999.2500   -40.5523     5.8843     5.9123   171.0734
  443.0000  -999.2500  -999.2500   -40.7479     6.1318     6.0632   165.8317
  443.5000  -999.2500  -999.2500   -41.0831     6.3856     6.2135   163.5661
  444.0000  -999.2500  -999.2500   -41.4156     6.5258     6.3681   161.4524
  444.5000  -999.2500  -999.2500   -41.5273     6.6168     6.5219   159.3387
  445.0000  -999.2500  -999.2500   -41.3138     6.6430     6.6625   157.9666
  445.5000  -999.2500  -999.2500   -41.1066     6.6434     6.6389   158.5706
  446.0000  -999.2500  -999.2500   -40.8988     6.6432     6.6096   159.1618
  446.5000  -999.2500  -999.2500   -40.6924     6.6365     6.5807   159.7525
  447.0000  -999.2500  -999.2500   -40.4861     6.6221     6.5519   160.2646
  447.5000  -999.2500  -999.2500   -40.4783     6.5974     6.5233   160.7668
  448.0000  -999.2500  -999.2500   -40.6684     6.5733     6.4946   161.2689
  448.5000  -999.2500  -999.2500   -40.8589     6.5494     6.4658   161.7711
  449.0000  -999.2500  -999.2500   -41.0506     6.5260     6.4371   162.2732
  449.5000  -999.2500  -999.2500   -41.2420     6.5101     6.4084   162.7754
  450.0000  -999.2500  -999.2500   -41.4334     6.4958     6.3797   163.2775
  450.5000  -999.2500  -999.2500   -41.6250     6.4815     6.3510   163.8277
  451.0000  -999.2500  -999.2500   -41.8161     6.4665     6.3224   164.6760
  451.5000  -999.2500  -999.2500   -42.0123     6.4629     6.2939   166.3507
  452.0000  -999.2500  -999.2500   -42.2000     6.4630     6.2631   168.0286
  452.5000  -999.2500  -999.2500   -42.3926     6.4303     6.1656   169.7080
  453.0000  -999.2500  -999.2500   -42.5862     6.3675     6.0593   171.3828
  453.5000  -999.2500  -999.2500   -42.7782     6.3050     5.9533   173.0594
