~VERSION INFORMATION
 VERS.                2.0:   CWLS LOG ASCII STANDARD - VERSION 2.0
 WRAP.                 NO:   ONE LINE PER DEPTH STEP
~WELL INFORMATION
#MNEM.UNIT      DATA TYPE    INFORMATION
#----------   ------------   ------------------------------
 STRT.F           28.5000:   START DEPTH
 STOP.F          625.0000:   STOP DEPTH
 STEP.F            0.5000:   STEP LENGTH
 NULL.          -999.2500:   NO VALUE
 COMP. FENIX & SCISSON INC:   COMPANY
 WELL.    NPR ##3 13-SX-3:   WELL
 FLD .             TEAPOT:   FIELD
 LOC .       S3 T38N R78W:   LOCATION
 CNTY.            NATRONA:   COUNTY
 STAT.            WYOMING:   STATE
 CTRY. UNITED STATES OF AMERICA:   COUNTRY
 SRVC.       Schlumberger:   SERVICE COMPANY
 DATE.        25-FEB-1977:   LOGDATE
 API .       490251028400:   API NUMBER
~CURVE INFORMATION
#MNEM.UNIT       API CODE    CURVE DESCRIPTION
#----------   ------------   ------------------------------
 DEPT.F                  :   
 SPR .MV     07 010 01 00:   SPONTANEOUS POTENTIAL
 ILD .OHMM   07 120 46 00:   INDUCTION LOG DEEP
 LL8 .OHMM   07 220 08 00:   LATEROLOG-8 RES.
 ILM .OHMM   07 120 44 00:   INDUCTION LOG MEDIUM
 GRD .GAPI   45 310 01 00:   GAMMA RAY FROM DENSITY LOG
 CALD.IN     45 280 60 00:   CALIPER
 RHOB.G/C3   45 350 01 00:   BULK DENSITY
 CORR.G/C3   45 356 01 00:   DENSITY CORRECTION
 DPOR.DEC    45 890 12 00:   DENSITY POROSITY SANDSTONE
~PARAMETER INFORMATION
#MNEM.UNIT          VALUE    DESCRIPTION
#----------   ------------   ------------------------------
 PD  .                 GL:   PERMANENT DATUM
 EPD .F              5227:   ELEVATION PERMANENT DATUM
 LMF .                 GL:   LOG MEASURED FROM
 DMF .                 GL:   DRILLING MEASURED FROM
 EKB .F              5232:   KELLING BUSHING
 EGL .F              5227:   GROUND LEVEL
 DATE.          2-25-1977:   RUN DATE
 RUN .                  1:   RUN NUMBER
 DD  .F               629:   DEPTH DRILLER
 DL  .F               626:   DEPTH LOGGER
 BLI .F               620:   BOTTOM LOG INTERVAL
 TLI .F                40:   TOP LOG INTERVAL
 CS  .IN            8.625:   CASING SIZE
 CBD .F                40:   CASING BOTTOM DRILLER
 CBL .F                40:   CASING BOTTOM LOGGER
 BS  .IN            7.875:   BIT SIZE
 BSD .F               629:   BIT SIZE AT DEPTH
 DFT .                KCL:   DRILLING FLUID TYPE
 DFD .                8.8:   DRILLING FLUID DENSITY
 DFV .                 45:   DRILLING FLUID VISCOSITY
 DFPH.                  8:   DRILLING FLUID PH
 DFL .                8.2:   DRILLING FLUID LOSS
 MSS .                PIT:   MUD SAMPLE SOURCE
 RMS .OHMM           .508:   RESISTIVITY MUD SAMPLE
 MST .F                60:   MUD SAMPLE TEMPERATURE
 RMF .OHMM           .419:   RESISTIVITY MUD FILTRATE SAMPLE
 MFST.F                58:   MUD FILTRATE SAMPLE TEMPERATURE
 MFSS.                  M:   MUD FILTRATE SAMPLE SOURCE
 RMB .OHMM            .41:   RESISTIVITY MUD AT BHT
 BHT .F                75:   BOTTOM HOLE TEMPERATURE
 TCS .HRS            1700:   TIME CURCULATED STOPPED
 TLAB.HRS            2130:   TIME LOGGER AT BOTTOM
 MRT .F                75:   MAXIMUM RECORDED TEMPERATURE
 LUN .               5642:   LOGGING UNIT NUMBER
 LUL .               CSPR:   LOGGING UNIT LOCATION
 ENGI.             MARTIN:   RECORDING ENGINEER
 CLNT.            A2DTECH:   CLIENT CODE
 ORIG.       2", 5" PRINT:   ORIGIN OF DATA
 UWI .       490251028400:   UNIQUE WELL ID
 DICO. A2D Technologies, Inc.:   DIGITIZING COMPANY
~OTHER INFORMATION
~A   DEPT      SPR        ILD        LL8        ILM         GRD      CALD         RHOB     CORR       DPOR   
# ...
  539.5000   -39.7984    12.1258     9.8583    10.9956    89.7370     8.2065     2.2726     0.0397     0.2286
  540.0000   -39.4646    12.0444     9.7874    10.6363    89.3744     8.2117     2.2862     0.0514     0.2188
  540.5000   -39.1307    11.9787     9.4704    10.3248    89.0127     8.2685     2.2746     0.0378     0.2403
  541.0000   -38.7967    11.9133     9.1033    10.3723    89.0171     8.3263     2.2563     0.0205     0.2344
  541.5000   -38.4626    11.8483     8.7504    10.4126    89.4146     8.3822     2.2813     0.0181     0.2213
  542.0000   -38.1319    11.7836     8.3466    10.4207    90.2913     8.3923     2.3068     0.0147     0.2082
  542.5000   -37.9238    11.7193     8.4652    10.0423    91.7205     8.2467     2.3203     0.0094     0.1987
  543.0000   -38.3584    11.6553     8.7416    10.0853    92.8223     8.2219     2.3169    -0.0029     0.2018
  543.5000   -39.0411    11.5917     8.6168    10.1280    92.6950     8.2177     2.3183    -0.0009     0.2028
  544.0000   -39.7287    11.5285     8.5024    10.1356    92.7353     8.2137     2.3267    -0.0085     0.1970
  544.5000   -40.2365    11.4656     8.7416    10.1356    93.3315     8.2097     2.3351    -0.0032     0.1912
  545.0000   -40.4955    11.4030     8.5928    10.2298    93.8714     8.2056     2.3333     0.0074     0.1943
  545.5000   -40.7573    11.3408     8.4512    10.2121    93.5709     8.2015     2.3278    -0.0022     0.1992
  546.0000   -41.0199    11.2789     8.3466    10.1952    91.2432     8.1974     2.3244    -0.0125     0.1900
  546.5000   -41.2855    11.2173     8.5350    10.1782    90.5745     8.1932     2.3332    -0.0072     0.1939
  547.0000   -41.1559    11.1561     8.7612    10.1614    91.1464     8.1891     2.3269    -0.0023     0.1967
  547.5000   -40.9678    11.0952     9.0710    10.1444    90.2983     8.1850     2.3328     0.0070     0.1908
  548.0000   -40.7749    11.0347     8.8343    10.1356    88.3413     8.1809     2.3409     0.0176     0.1878
  548.5000   -40.7353    10.9745     8.4933     9.9289    87.8195     8.1767     2.3424     0.0250     0.1890
  549.0000   -41.0502    10.9146     8.1937     9.7406    88.5131     8.1726     2.3379     0.0121     0.1904
  549.5000   -41.3642    10.8550     8.2232     9.5558    89.2022     8.1687     2.3403     0.0157     0.1837
  550.0000   -41.4884    10.8134     8.2501     9.5003    90.7646     8.1717     2.3540     0.0200     0.1764
  550.5000   -40.9734    10.7061     8.2777     9.5003    92.6614     8.1946     2.3677     0.0350     0.1690
  551.0000   -40.4639    10.6094     8.3051     9.5003    93.2056     8.2169     2.3811     0.0578     0.1581
  551.5000   -40.4426    10.5136     8.3325     9.4614    92.3824     8.2411     2.3901     0.0637     0.1613
  552.0000   -40.6955    10.4186     8.3466     9.3283    93.5211     8.1899     2.3753     0.0663     0.1676
  552.5000   -41.0607    10.3246     8.1005     9.1971    95.3241     8.1135     2.3635     0.0623     0.1739
  553.0000   -41.4846    10.2313     7.9389     9.0005    94.7783     8.0518     2.3504     0.0556     0.1802
  553.5000   -42.1696    10.1389     7.7805     8.7773    94.0315     8.0961     2.3297     0.0362     0.1951
  554.0000   -42.8325    10.0474     7.6253     8.5595    93.1747     8.1417     2.3388     0.0165     0.1890
  554.5000   -43.4947     9.9566     7.4733     8.3472    94.1904     8.1868     2.3577     0.0034     0.1772
  555.0000   -44.1617     9.8667     7.3331     8.1937    96.0069     8.2256     2.3767    -0.0025     0.1654
  555.5000   -44.7943     9.7776     7.3331     8.3137    98.7006     8.2257     2.3958     0.0055     0.1536
  556.0000   -45.4052     9.6893     7.3331     8.4102   101.2972     8.2256     2.4147     0.0175     0.1417
  556.5000   -46.0137     9.6018     7.6050     8.5059   103.2284     8.2256     2.4261     0.0130     0.1371
  557.0000   -46.6233     9.1583     7.9373     8.5088   103.8159     8.2255     2.4195     0.0050     0.1388
  557.5000   -47.2330     8.6753     8.2698     8.1183   105.1069     8.2255     2.4135    -0.0031     0.1473
  558.0000   -47.8427     8.2178     7.3805     7.8962   108.8694     8.2255     2.3992    -0.0049     0.1583
  558.5000   -48.4529     7.8109     6.9373     7.3794   117.1158     8.2255     2.3822     0.0062     0.1693
  559.0000   -49.0611     7.4598     8.5024     6.7293   121.5423     8.2255     2.3599     0.0128     0.1780
  559.5000   -49.6856     7.1224     5.3969     6.1380   122.6048     8.2255     2.3699     0.0090     0.1683
  560.0000   -49.4286     6.8102     3.4673     5.7152   116.4055     8.2255     2.4136     0.0000     0.1411
  560.5000   -48.7741     7.0336     4.2188     5.7059   106.7656     8.2255     2.4585    -0.0053     0.1138
  561.0000   -48.7434     7.4104     5.3603     6.4893   100.0977     8.2255     2.4872    -0.0026     0.1021
  561.5000   -48.8366     7.8075     6.8107     7.1030    98.8463     8.2255     2.4815    -0.0001     0.1042
  562.0000   -49.1718     8.2959     7.7038     7.7729    98.1819     8.2255     2.4878     0.0024     0.1015
  562.5000   -49.8192     8.8637     8.1820     8.5087   100.5049     8.2255     2.4962     0.0049     0.0978
  563.0000   -50.4633     9.4704     8.6899     8.9855   102.7805     8.2255     2.4933     0.0073     0.0975
  563.5000   -51.0570    10.0386     9.2274     9.4094   105.0377     8.2255     2.4915     0.0128     0.0978
  564.0000   -50.9679    10.5175     9.7967     9.8528   107.8307     8.2255     2.5048     0.0191     0.0898
  564.5000   -50.8598    10.4381    10.1356    10.2298   106.3815     8.2255     2.5118     0.0172     0.0814
  565.0000   -50.7544    10.3248     9.8173    10.0089   103.5122     8.2255     2.5001     0.0090     0.0875
  565.5000   -50.6498    10.3554     9.5003     9.8583   101.4669     8.2255     2.4937     0.0006     0.0990
  566.0000   -50.5454    10.4085     9.6906    10.1304   100.7639     8.2255     2.4982    -0.0030     0.0942
  566.5000   -50.4407    10.6492    10.0312    10.3187   100.6599     8.2255     2.4848    -0.0019     0.0902
  567.0000   -50.3346    10.8840    10.3248    10.5105   100.7289     8.2255     2.4877     0.0050     0.0950
  567.5000   -50.1647    11.1241    10.3248    10.7059   101.0327     8.2255     2.4918     0.0120     0.0918
  568.0000   -49.9022    11.4303    10.4584    10.9138   101.8071     8.2255     2.4879     0.0118     0.0984
  568.5000   -49.6405    11.3173    10.7020    11.0152   103.1999     8.2255     2.4692     0.0066     0.1052
  569.0000   -49.3822    11.2209    10.9513    11.0152   103.1363     8.2256     2.4511     0.0013     0.1120
  569.5000   -48.9195    11.3410    11.1176    11.0152   102.8405     8.2257     2.4527     0.0016     0.1159
  570.0000   -48.3473    11.4309    10.9660    11.0152   104.8716     8.2248     2.4531     0.0087     0.1146
  570.5000   -47.7695    11.5215    10.8077    11.0152   103.1436     8.2045     2.4443     0.0156     0.1164
  571.0000   -47.1822    11.6128    10.6517    11.0152    99.3114     8.1842     2.4436     0.0179     0.1183
  571.5000   -47.1174    11.7049    10.5161    11.1686    95.6714     8.1639     2.4476     0.0121     0.1202
  572.0000   -47.8927    11.7977    10.8016    11.2654    96.0764     8.1469     2.4459     0.0065     0.1198
  572.5000   -48.6718    11.8912    11.1203    11.3631    96.5435     8.1710     2.4536     0.0015     0.1153
  573.0000   -49.0208    11.9854    10.8463    11.4303    96.2061     8.1952     2.4616    -0.0004     0.1114
  573.5000   -49.3305    12.0804    10.4207    11.5210    95.8657     8.2192     2.4668    -0.0021     0.1086
  574.0000   -49.5576    12.1761    10.6018    11.6210    96.9967     8.2428     2.4616     0.0056     0.1058
  574.5000   -49.7885    12.2726    10.9659    11.7217    97.5989     8.2456     2.4566     0.0062     0.1108
  575.0000   -49.8768    12.3699    11.3426    11.8234    96.7074     8.2456     2.4513    -0.0007     0.1149
  575.5000   -49.8784    12.4680    11.7519    11.9259    95.8169     8.2455     2.4580    -0.0011     0.1141
