~VERSION INFORMATION
 VERS.                2.0:   CWLS LOG ASCII STANDARD - VERSION 2.0
 WRAP.                 NO:   ONE LINE PER DEPTH STEP
~WELL INFORMATION
#MNEM.UNIT      DATA TYPE    INFORMATION
#----------   ------------   ------------------------------
 STRT.F           14.0000:   START DEPTH
 STOP.F          630.0000:   STOP DEPTH
 STEP.F            0.5000:   STEP LENGTH
 NULL.          -999.2500:   NO VALUE
 COMP. LAWRENCE/ALLISON INC:   COMPANY
 WELL.    78-53 SX #10-10:   WELL
 FLD .             TEAPOT:   FIELD
 LOC .      S10 T38N R78W:   LOCATION
 CNTY.            NATRONA:   COUNTY
 STAT.            WYOMING:   STATE
 CTRY. UNITED STATES OF AMERICA:   COUNTRY
 SRVC.           Gearhart:   SERVICE COMPANY
 DATE.        08-JUL-1986:   LOGDATE
 API .       490251108200:   API NUMBER
~CURVE INFORMATION
#MNEM.UNIT       API CODE    CURVE DESCRIPTION
#----------   ------------   ------------------------------
 DEPT.F                  :   
 GRR .GAPI   07 310 01 00:   GAMMA RAY FROM RES. LOG.
 RILD.OHMM   07 120 46 00:   INDUCTION LOG DEEP RESISTIVITY
 RILM.OHMM   07 120 44 00:   INDUCTION LOG MEDIUM
~PARAMETER INFORMATION
#MNEM.UNIT          VALUE    DESCRIPTION
#----------   ------------   ------------------------------
 PD  .                 GL:   PERMANENT DATUM
 EPD .F              5152:   ELEVATION PERMANENT DATUM
 LMF .                 KB:   LOG MEASURED FROM
 DAPD.F                 5:   FEET ABOVE PERMANENT DATUM
 DMF .                 KB:   DRILLING MEASURED FROM
 EKB .F              5157:   KELLING BUSHING
 EGL .F              5152:   GROUND LEVEL
 DATE.             7-8-86:   RUN DATE
 RUN .                  1:   RUN NUMBER
 DD  .F               630:   DEPTH DRILLER
 DL  .F               634:   DEPTH LOGGER
 BLI .F               625:   BOTTOM LOG INTERVAL
 TLI .F                47:   TOP LOG INTERVAL
 CS  .IN            8.625:   CASING SIZE
 CBD .F                47:   CASING BOTTOM DRILLER
 CBL .F                47:   CASING BOTTOM LOGGER
 BS  .IN            7.875:   BIT SIZE
 BSD .F               630:   BIT SIZE AT DEPTH
 DFT .               FOAM:   DRILLING FLUID TYPE
 TCS .HRS            1530:   TIME CURCULATED STOPPED
 TLAB.HRS            1644:   TIME LOGGER AT BOTTOM
 MRT .F                65:   MAXIMUM RECORDED TEMPERATURE
 LUN .               7609:   LOGGING UNIT NUMBER
 LUL .           GILLETTE:   LOGGING UNIT LOCATION
 ENGI.         WEATHERMON:   RECORDING ENGINEER
 WITN.             STRONG:   WITNESSED BY
 CLNT.            A2DTECH:   CLIENT CODE
 ORIG.       2", 5" PRINT:   ORIGIN OF DATA
 UWI .       490251108200:   UNIQUE WELL ID
 DICO. A2D Technologies, Inc.:   DIGITIZING COMPANY
~OTHER INFORMATION
~A   DEPT       GRR      RILD       RILM   
# ...
  196.0000    95.1367    11.0573    10.6052
  196.5000    95.1026    11.0194    10.6052
  197.0000    94.3042    10.9816    10.5718
  197.5000    93.3574    10.9440    10.5395
  198.0000    92.7568    10.9085    10.5073
  198.5000    94.3440    10.8557    10.4752
  199.0000    97.1587    10.8061    10.4431
  199.5000    98.7174    10.7567    10.4074
  200.0000    96.5329    10.7075    10.4070
  200.5000    94.4507    10.6585    10.4494
  201.0000    93.8851    10.6098    10.4879
  201.5000    94.6587    10.5613    10.5266
  202.0000    95.4980    10.5131    10.5650
  202.5000    97.3127    10.4650    10.6052
  203.0000    99.2054    10.4172    10.4963
  203.5000   100.2329    10.3696    10.4835
  204.0000    99.6947    10.3222    10.4707
  204.5000    99.1746    10.2750    10.4579
  205.0000    98.4387    10.2280    10.4452
  205.5000    97.6982    10.1813    10.4320
  206.0000    96.9583    10.1347    10.4217
  206.5000    96.2194    10.0150    10.5060
  207.0000    95.4798     9.7732    10.3173
  207.5000    95.0831     9.5358    10.1015
  208.0000    95.1387     9.3041     9.8902
  208.5000    96.0990     9.0780     9.6318
  209.0000    95.8529     8.8574     9.2662
  209.5000    95.2065     8.5436     8.9511
  210.0000    94.5443     8.5919     8.8569
  210.5000    93.8933     8.6832     8.7517
  211.0000    93.9945     8.7755     8.6248
  211.5000    94.1497     8.8687     8.6545
  212.0000    94.6877     8.9629     8.6934
  212.5000    97.1582     9.0581     8.7330
  213.0000    99.5996     9.1544     8.7727
  213.5000   101.9951     9.2516     8.8125
  214.0000   102.4871     9.3499     8.8525
  214.5000   101.0664     9.4024     8.8927
  215.0000    99.7428     9.4287     8.9331
  215.5000    98.7564     9.4551     8.9559
  216.0000    99.2756     9.4741     8.9525
  216.5000   101.4059     9.7898     9.2533
  217.0000   102.0604    10.1184     9.4610
  217.5000   102.3314    10.0934     9.6041
  218.0000   100.8321    10.0660     9.7335
  218.5000    99.1498    10.0387     9.8645
  219.0000    97.4535    10.0115     9.9973
  219.5000    97.1376     9.9843    10.1320
  220.0000    98.4784     9.9572    10.2684
  220.5000   101.0421     9.9300    10.4077
  221.0000   102.9938     9.8522    10.3881
  221.5000   102.7171     9.7744    10.3552
  222.0000    99.7731     9.6973    10.3224
  222.5000    97.4639     9.6207    10.2139
  223.0000    99.8095     9.5448    10.1539
  223.5000   103.2014     9.4694    10.0206
  224.0000   105.0324     9.3946     9.8891
  224.5000   101.6759     9.3205     9.7451
  225.0000    98.3427     9.2469     9.7768
  225.5000    97.7645     9.2046     9.8127
  226.0000    99.6317     9.1925     9.8486
  226.5000   101.5528     9.1803     9.8847
  227.0000   101.8778     9.1682     9.9300
  227.5000   102.1098     9.1561     9.8125
  228.0000   102.3533     9.1440     9.6150
  228.5000   102.4574     9.1319     9.3891
  229.0000   102.4327     9.1133     9.1684
  229.5000   101.6857     9.0844     9.0585
  230.0000   100.9011     9.0557     8.9764
  230.5000   100.1036     9.0270     8.8950
  231.0000   100.6217     8.9984     8.8144
  231.5000   101.4083     8.9700     8.7345
  232.0000   100.1578     8.9416     8.6553
  232.5000    97.9883     8.9133     8.5768
  233.0000    95.7884     8.8851     8.4991
  233.5000    95.0530     8.7345     8.4220
  234.0000    97.5064     8.4734     8.3463
  234.5000   101.4099     8.2166     8.2252
  235.0000   105.2997     7.9682     8.1056
  235.5000   108.8758     7.7274     7.9879
  236.0000   108.3458     7.4939     7.8718
  236.5000   107.9577     7.2821     7.7772
  237.0000   108.4906     7.2139     7.3529
  237.5000   108.9553     7.3049     7.1452
  238.0000   108.2013     7.3640     7.1466
  238.5000   107.9003     7.3858     7.1465
  239.0000   107.6303     7.4071     7.1440
  239.5000   107.3240     7.4212     7.1465
  240.0000   106.2857     7.6279     7.7263
  240.5000   105.2976     7.7976     7.9129
  241.0000   104.7033     7.8748     8.0079
  241.5000   102.9349     7.9519     8.1034
  242.0000   100.7325     8.0302     8.2007
  242.5000    98.7161     8.1092     8.3061
  243.0000    98.7609     8.1890     8.3873
  243.5000    99.1871     8.2695     8.4637
  244.0000   100.0015     8.3061     8.3905
  244.5000   101.7281     8.1996     8.3269
  245.0000   103.5452     8.1085     8.2637
  245.5000   105.3902     7.9995     8.2011
  246.0000   105.8654     8.0002     8.1217
  246.5000   106.0403     7.7670     7.9759
  247.0000   106.1248     7.6049     7.8327
  247.5000   105.4605     7.4431     7.6921
  248.0000   103.8896     7.2428     7.5610
  248.5000   103.7077     6.9702     7.1923
  249.0000   104.3372     6.7101     6.8583
  249.5000   104.9248     6.4595     6.5397
  250.0000   103.9835     6.2189     6.2360
  250.5000   101.9704     5.9863     5.9527
  251.0000   100.0071     5.9219     5.7305
  251.5000    97.9771     5.9564     5.5448
  252.0000    98.1255     6.0221     5.5750
  252.5000    98.6815     6.0912     5.6444
  253.0000    97.9725     6.3754     5.9641
  253.5000    97.2478     6.6861     6.3006
  254.0000    97.6105     7.0121     6.6563
  254.5000    99.9350     7.3537     7.0318
  255.0000   100.6480     7.6597     7.4202
  255.5000   101.3046     7.9654     7.7263
  256.0000   103.1393     8.2835     8.0386
  256.5000   106.6460     8.4637     8.3640
  257.0000   108.1598     8.5706     8.5849
  257.5000   106.2918     8.6243     8.6734
  258.0000   104.1028     8.6243     8.7627
  258.5000   101.9306     8.7198     8.8533
  259.0000   100.0668     8.8280     8.9448
  259.5000    99.1490     8.9375     9.0372
  260.0000    99.2016     9.0484     9.1306
  260.5000   100.8814     9.1606     9.2108
  261.0000   103.3500     9.2108     9.2108
  261.5000   106.6531     9.1365     9.2108
  262.0000   108.4561     9.0405     9.2108
  262.5000   108.5072     8.9453     9.3056
  263.0000   105.5791     8.8513     9.3123
  263.5000   104.3535     8.7583     9.3400
  264.0000   104.0742     8.7057     9.3593
  264.5000   103.8057     8.6968     9.3858
  265.0000   103.7735     8.6831     9.3715
  265.5000   105.8580     8.6694     9.3423
  266.0000   107.4872     8.6556     9.3128
  266.5000   107.4467     8.6419     9.2360
  267.0000   106.0566     8.6280     9.1121
  267.5000   104.7201     8.6146     8.9872
  268.0000   104.2591     8.6010     8.9147
  268.5000   104.4166     8.5873     8.8373
  269.0000   103.7528     8.5737     8.7613
  269.5000   103.0967     8.5601     8.6858
  270.0000   102.4587     8.5466     8.6110
  270.5000   102.6346     8.4764     8.5369
  271.0000   104.2410     8.3054     8.4637
  271.5000   104.0455     8.1379     8.2573
  272.0000   103.4744     7.9737     8.0566
  272.5000   103.6552     7.7846     7.8609
  273.0000   104.2354     7.5118     7.6699
  273.5000   104.8473     7.2486     7.4835
  274.0000   103.8111     6.6216     7.2311
  274.5000   102.2295     6.0040     6.8083
  275.0000   102.0423     5.4932     6.4089
  275.5000   102.0448     4.9802     5.9060
  276.0000   102.0361     4.4675     5.1682
  276.5000   101.3927     4.0080     4.5258
  277.0000    99.2939     3.5945     3.9631
  277.5000    97.6240     3.3665     3.4704
  278.0000    97.5793     3.1985     3.1463
  278.5000    98.9821     3.0352     3.0211
  279.0000    99.0130     2.9506     2.9268
  279.5000    95.7719     2.9560     2.8712
  280.0000    93.5212     2.9524     2.9389
  280.5000    95.6824     3.1847     3.0420
  281.0000   100.2908     3.5190     3.3315
  281.5000   105.0375     3.8763     3.6454
  282.0000   106.8704     4.2703     3.9865
  282.5000   108.1500     4.7043     4.4003
  283.0000   111.1749     5.1825     4.8972
  283.5000   114.8619     5.6346     5.4383
  284.0000   118.7647     5.9480     5.9219
  284.5000   118.2387     6.1107     6.0966
  285.0000   116.3304     6.2068     6.2929
  285.5000   114.3870     6.2068     6.3843
  286.0000   113.9009     6.0600     6.3431
  286.5000   113.5265     5.8690     6.2204
