~VERSION INFORMATION
 VERS.                2.0:   CWLS LOG ASCII STANDARD - VERSION 2.0
 WRAP.                 NO:   ONE LINE PER DEPTH STEP
~WELL INFORMATION
#MNEM.UNIT      DATA TYPE    INFORMATION
#----------   ------------   ------------------------------
 STRT.F           36.0000:   START DEPTH
 STOP.F          557.0000:   STOP DEPTH
 STEP.F            0.5000:   STEP LENGTH
 NULL.          -999.2500:   NO VALUE
 COMP. FENIX & SCISSON U.S. NAVY:   COMPANY
 WELL.        NPR #62-S-3:   WELL
 FLD .             TEAPOT:   FIELD
 LOC .       S3 T38N R78W:   LOCATION
 CNTY.            NATRONA:   COUNTY
 STAT.            WYOMING:   STATE
 CTRY. UNITED STATES OF AMERICA:   COUNTRY
 SRVC.              Welex:   SERVICE COMPANY
 DATE.        07-MAY-1977:   LOGDATE
 API .       490251035000:   API NUMBER
~CURVE INFORMATION
#MNEM.UNIT       API CODE    CURVE DESCRIPTION
#----------   ------------   ------------------------------
 DEPT.F                  :   
 SPR .MV     07 010 01 00:   SPONTANEOUS POTENTIAL
 ILD .OHMM   07 120 46 00:   INDUCTION LOG DEEP
 ILM .OHMM   07 120 44 00:   INDUCTION LOG MEDIUM
 SGRD.OHMM   07 221 05 00:   SHALLOW SHORT GUARD RESISTIVITY
 GRD .GAPI   45 310 01 00:   GAMMA RAY FROM DENSITY LOG
 CALD.IN     45 280 60 00:   CALIPER FROM DENSITY LOG
 CORR.G/C3   45 356 01 00:   DENSITY CORRECTION
 RHOB.G/C3   45 350 01 00:   BULK DENSITY
 DPHI.DEC    45 890 12 00:   DENSITY POROSITY SANDSTONE
 NEUT.NAPI   35 330 01 00:   NEUTRON
~PARAMETER INFORMATION
#MNEM.UNIT          VALUE    DESCRIPTION
#----------   ------------   ------------------------------
 PD  .                 GL:   PERMANENT DATUM
 EPD .F              5136:   ELEVATION PERMANENT DATUM
 LMF .                 GL:   LOG MEASURED FROM
 DMF .                 GL:   DRILLING MEASURED FROM
 EGL .F              5136:   GROUND LEVEL
 DATE.        07-MAY-1977:   RUN DATE
 RUN .                  1:   RUN NUMBER
 DD  .F               560:   DEPTH DRILLER
 DL  .F               560:   DEPTH LOGGER
 BLI .F               558:   BOTTOM LOG INTERVAL
 TLI .F                35:   TOP LOG INTERVAL
 CS  .IN            8.625:   CASING SIZE
 CBD .F                40:   CASING BOTTOM DRILLER
 CBL .F                42:   CASING BOTTOM LOGGER
 BS  .IN            7.875:   BIT SIZE
 BSD .F               560:   BIT SIZE AT DEPTH
 DFT .             KCLMUD:   DRILLING FLUID TYPE
 DFD .                8.8:   DRILLING FLUID DENSITY
 MSS .           FLOWLINE:   MUD SAMPLE SOURCE
 RMS .OHMM           0.24:   RESISTIVITY MUD SAMPLE
 MST .F                60:   MUD SAMPLE TEMPERATURE
 RMF .OHMM           0.20:   RESISTIVITY MUD FILTRATE SAMPLE
 MFST.F                60:   MUD FILTRATE SAMPLE TEMPERATURE
 RMC .OHMM           0.29:   RESISTIVITY MUD CAKE
 MCST.F                60:   MUD CAKE SAMPLE TEMPERATURE
 MFSS.               MEAS:   MUD FILTRATE SAMPLE SOURCE
 MCSS.               MEAS:   MUD CAKE SAMPLE SOURCE
 RMB .OHMM             17:   RESISTIVITY MUD AT BHT
 BHT .F                71:   BOTTOM HOLE TEMPERATURE
 TCS .HRS            0230:   TIME CURCULATED STOPPED
 MRT .F                71:   MAXIMUM RECORDED TEMPERATURE
 LUN .               8611:   LOGGING UNIT NUMBER
 LUL .           GILLETTE:   LOGGING UNIT LOCATION
 ENGI.            C. DOCK:   RECORDING ENGINEER
 WITN.           ROB LYON:   WITNESSED BY
 CLNT.            A2DTECH:   CLIENT CODE
 ORIG.           5" PRINT:   ORIGIN OF DATA
 UWI .       490251035000:   UNIQUE WELL ID
 DICO. A2D Technologies, Inc.:   DIGITIZING COMPANY
~OTHER INFORMATION
~A   DEPT      SPR        ILD        ILM       SGRD        GRD       CALD       CORR       RHOB       DPHI       NEUT   
# ...
  103.0000   -38.8364     8.0267    10.3994    12.5066   129.2168     7.8878     0.0008     2.4911     0.1096  -999.2500
  103.5000   -38.8235     7.8635    10.1178    11.9180   130.4295     7.8890     0.0009     2.4897     0.1092  -999.2500
  104.0000   -38.8132     7.7583     9.8429    11.5959   130.0005     7.8902     0.0009     2.5018     0.1089  -999.2500
  104.5000   -38.8030     7.7075     9.7185    11.5187   127.0341     7.8764     0.0010     2.4884     0.1117  -999.2500
  105.0000   -38.7927     7.7107     9.7243    11.6038   123.0230     7.8627    -0.0005     2.4832     0.1137  -999.2500
  105.5000   -38.9314     7.8225    10.0712    11.6886   122.9973     7.8490    -0.0011     2.4811     0.1151  -999.2500
  106.0000   -39.0702     7.8806    10.7230    11.7739   124.4037     7.8502    -0.0018     2.4856     0.1151  -999.2500
  106.5000   -39.0596     8.0509    11.8186    12.1093   124.1239     7.8364    -0.0025     2.4865     0.1148  -999.2500
  107.0000   -39.1987     8.1676    13.0261    12.5408   123.3964     7.8227    -0.0024     2.4812     0.1172  -999.2500
  107.5000   -39.3374     8.4026    13.5844    14.2132   122.0718     7.8239    -0.0031     2.4752     0.1189  -999.2500
  108.0000   -39.3246     8.5244    13.1290    14.9254   120.1503     7.8099    -0.0031     2.4717     0.1183  -999.2500
  108.5000   -39.4659     8.7696    11.7596    14.2229   117.1839     7.7962    -0.0045     2.4838     0.1162  -999.2500
  109.0000   -39.4530     8.9591    11.9290    13.3650   113.6205     7.7977    -0.0059     2.4786     0.1152  -999.2500
  109.5000   -39.4428     9.0257    12.1009    13.9546   114.2363     7.8138    -0.0059     2.4750     0.1161  -999.2500
  110.0000   -39.5841     9.0928    12.1907    14.7538   116.1953     7.8150    -0.0073     2.4781     0.1176  -999.2500
  110.5000   -39.5712     9.0965    12.1125    13.9503   115.6170     7.8162    -0.0072     2.4812     0.1182  -999.2500
  111.0000   -39.7100     9.1003    11.9518    14.3477   113.5462     7.8323    -0.0072     2.4730     0.1202  -999.2500
  111.5000   -39.8513     9.0361    11.7933    13.6724   113.1124     7.8485    -0.0071     2.4648     0.1253  -999.2500
  112.0000   -39.8385     8.8568    11.5566    12.9389   115.8224     7.8496    -0.0055     2.4574     0.1274  -999.2500
  112.5000   -39.9776     8.7375    11.2468    12.8528   118.2292     7.8508    -0.0047     2.4620     0.1246  -999.2500
  113.0000   -39.9669     8.6198    11.0172    13.3120   119.8897     7.8670    -0.0039     2.4703     0.1210  -999.2500
  113.5000   -40.1058     8.6243    10.6286    13.6911   120.2069     7.8682    -0.0031     2.4756     0.1195  -999.2500
  114.0000   -40.3935     8.6278    10.0833    12.9566   118.5838     7.8694    -0.0030     2.4735     0.1198  -999.2500
  114.5000   -40.3830     8.7529    10.3008    13.2335   116.5130     7.8706    -0.0029     2.4736     0.1179  -999.2500
  115.0000   -40.2235     8.8179    10.1642    13.7052   114.4422     7.8718    -0.0029     2.4811     0.1125  -999.2500
  115.5000   -40.0620     9.0716     9.9603    13.0602   113.2669     7.8879    -0.0020     2.4939     0.1052  -999.2500
  116.0000   -40.0517     9.4640     9.6264    13.3393   115.6736     7.8891    -0.0020     2.5090     0.0968  -999.2500
  116.5000   -40.0415     9.6012     9.4976    13.8147   118.5282     7.8751    -0.0012     2.5188     0.0922  -999.2500
  117.0000   -39.8821     9.8087     9.5033    14.5069   120.7857     7.8766     0.0004     2.5219     0.0916  -999.2500
  117.5000   -40.0235     9.8127     9.3772    14.2130   122.7447     7.8778     0.0012     2.5212     0.0937  -999.2500
  118.0000   -40.0106     9.6796     9.3160    13.4505   124.1067     7.8637     0.0013     2.5093     0.1027  -999.2500
  118.5000   -40.0003     9.5502     9.0672    13.6524   124.7178     7.8354     0.0006     2.4930     0.1078  -999.2500
  119.0000   -39.9901     9.4205     8.8853    13.7429   122.8009     7.8366    -0.0001     2.4885     0.1119  -999.2500
  119.5000   -39.9798     9.2946     8.7664    13.3724   118.0435     7.8225    -0.0015     2.4819     0.1173  -999.2500
  120.0000   -39.9695     9.1694     8.5906    13.0099   115.6695     7.8240    -0.0022     2.4734     0.1203  -999.2500
  120.5000   -39.9592     9.1092     8.5363    13.0154   117.1854     7.8252    -0.0029     2.4739     0.1194  -999.2500
  121.0000   -40.0984     9.0496     8.4231    13.3861   118.6966     7.8264    -0.0020     2.4832     0.1145  -999.2500
  121.5000   -40.3858     8.9903     8.4273    13.6723   119.0092     7.8426    -0.0005     2.4966     0.1085  -999.2500
  122.0000   -40.3755     8.9941     8.4321    13.7721   117.3908     7.8285     0.0011     2.5033     0.1054  -999.2500
  122.5000   -40.5191     9.0673     8.4978    13.7768   116.2155     7.8300     0.0027     2.5033     0.1045  -999.2500
  123.0000   -40.8020     9.2018     8.6164    13.7815   115.3340     7.8312     0.0035     2.5019     0.1045  -999.2500
  123.5000   -40.9408     9.3264     8.6804    13.5963   115.6559     7.8474     0.0043     2.5020     0.1053  -999.2500
  124.0000   -40.9279     9.3948     8.8674    13.2289   116.8687     7.8635     0.0051     2.4991     0.1062  -999.2500
  124.5000   -40.9177     9.2046     9.0576    13.7957   117.9322     7.8647     0.0044     2.4894     0.1077  -999.2500
  125.0000   -40.9091     9.0806     9.1881    14.6893   118.3986     7.8659     0.0023     2.4865     0.1116  -999.2500
  125.5000   -41.0478     8.9574     9.3852    14.0954   120.0592     7.8671     0.0001     2.4844     0.1136  -999.2500
  126.0000   -41.0376     8.8376     9.5204    13.4320   122.3167     7.8683    -0.0014     2.4807     0.1151  -999.2500
  126.5000   -41.3254     8.7177     9.7246    13.3437   118.9026     7.8542    -0.0021     2.4755     0.1175  -999.2500
  127.0000   -41.3125     8.6606    10.0021    13.1644   117.8718     7.8557    -0.0028     2.4748     0.1196  -999.2500
  127.5000   -41.3022     8.6038    10.2876    13.0779   120.8803     7.8417    -0.0034     2.4839     0.1168  -999.2500
  128.0000   -41.2920     8.4879    10.5811    13.0826   123.5856     7.8432    -0.0026     2.4885     0.1144  -999.2500
  128.5000   -41.2817     8.4323    10.8081    13.0880   122.1118     7.8292    -0.0025     2.4893     0.1124  -999.2500
  129.0000   -41.2714     8.3779    11.1165    13.0924   120.1902     7.8456    -0.0025     2.4894     0.1101  -999.2500
  129.5000   -41.4127     8.3230    11.2767    13.0969   118.7164     7.8468    -0.0032     2.4903     0.1098  -999.2500
  130.0000   -41.5515     8.2685    11.4392    13.1014   117.0895     7.8627    -0.0023     2.4971     0.1098  -999.2500
  130.5000   -41.6902     8.2719    11.5240    13.1059   114.3381     7.8639    -0.0023     2.4912     0.1131  -999.2500
  131.0000   -41.8290     8.2754    11.5295    13.1104   114.8423     7.8800    -0.0030     2.4778     0.1161  -999.2500
  131.5000   -41.8161     8.2788    11.6957    13.1148   116.6440     7.8961    -0.0044     2.4719     0.1193  -999.2500
  132.0000   -41.8058     8.3403    11.8709    13.1193   118.8716     7.8973    -0.0058     2.4704     0.1211  -999.2500
  132.5000   -41.7956     8.4023    12.1189    13.1238   119.5703     7.9134    -0.0065     2.4728     0.1210  -999.2500
  133.0000   -41.6363     8.4058    12.3095    13.1283   118.6761     7.9146    -0.0072     2.4661     0.1231  -999.2500
  133.5000   -41.6259     8.4683    12.4719    13.0409   118.8938     7.9158    -0.0071     2.4707     0.1216  -999.2500
  134.0000   -41.6155     8.4719    12.4779    12.9563   120.4149     7.9021    -0.0071     2.4772     0.1140  -999.2500
  134.5000   -41.6051     8.4761    12.4839    12.8711   121.9082     7.9033    -0.0055     2.4907     0.1068  -999.2500
  135.0000   -41.5926     8.5391    12.4038    12.7865   122.9677     7.8895    -0.0047     2.4996     0.1064  -999.2500
  135.5000   -41.5823     8.6025    11.9880    12.8800   123.4139     7.8758    -0.0038     2.4962     0.1109  -999.2500
  136.0000   -41.7236     8.7272    10.9626    12.8845   120.8716     7.8615    -0.0023     2.4845     0.1145  -999.2500
