~VERSION INFORMATION
 VERS.                2.0:   CWLS LOG ASCII STANDARD - VERSION 2.0
 WRAP.                 NO:   ONE LINE PER DEPTH STEP
~WELL INFORMATION
#MNEM.UNIT      DATA TYPE    INFORMATION
#----------   ------------   ------------------------------
 STRT.F           25.0000:   START DEPTH
 STOP.F          832.0000:   STOP DEPTH
 STEP.F            0.5000:   STEP LENGTH
 NULL.          -999.2500:   NO VALUE
 COMP.          U.S. NAVY:   COMPANY
 WELL. RES 3 TEAPOT DOM #32-S-2:   WELL
 FLD .        TEAPOT DOME:   FIELD
 LOC .       S2 T38N R78W:   LOCATION
 CNTY.            NATRONA:   COUNTY
 STAT.            WYOMING:   STATE
 CTRY. UNITED STATES OF AMERICA:   COUNTRY
 SRVC. Schlumberger Well Surveying Corp:   SERVICE COMPANY
 DATE.        03-AUG-1959:   LOGDATE
 API .       490250646800:   API NUMBER
~CURVE INFORMATION
#MNEM.UNIT       API CODE    CURVE DESCRIPTION
#----------   ------------   ------------------------------
 DEPT.F                  :   
 SPR .MV     05 010 01 00:   SPONTANEOUS POTENTIAL FROM RES.
 ILD .OHMM   05 120 46 00:   INDUCTION LOG DEEP
 CILD.MMHO   05 110 46 00:   CONDUCTIVITY INDUCTION LOG DEEP
 ASN .OHMM   05 041 16 00:   AMPLIFIED SHORT NORMAL 16"
~PARAMETER INFORMATION
#MNEM.UNIT          VALUE    DESCRIPTION
#----------   ------------   ------------------------------
 LMF .                 KB:   LOG MEASURED FROM
 DMF .                 KB:   DRILLING MEASURED FROM
 EKB .F              5126:   KELLING BUSHING
 EGL .F              5122:   GROUND LEVEL
 DATE.           8-3-1959:   RUN DATE
 RUN .                  1:   RUN NUMBER
 DD  .F               840:   DEPTH DRILLER
 DL  .F               841:   DEPTH LOGGER
 BLI .F               835:   BOTTOM LOG INTERVAL
 TLI .F                17:   TOP LOG INTERVAL
 CBD .F                17:   CASING BOTTOM DRILLER
 CBL .F                17:   CASING BOTTOM LOGGER
 BS  .IN             6.75:   BIT SIZE
 BSD .F               840:   BIT SIZE AT DEPTH
 DFT .                GEL:   DRILLING FLUID TYPE
 DFD .                9.5:   DRILLING FLUID DENSITY
 DFV .                100:   DRILLING FLUID VISCOSITY
 DFPH.                9.5:   DRILLING FLUID PH
 DFL .                  4:   DRILLING FLUID LOSS
 RMS .OHMM              4:   RESISTIVITY MUD SAMPLE
 MST .F                73:   MUD SAMPLE TEMPERATURE
 RMF .OHMM            3.9:   RESISTIVITY MUD FILTRATE SAMPLE
 MFST.F                73:   MUD FILTRATE SAMPLE TEMPERATURE
 RMC .OHMM            4.1:   RESISTIVITY MUD CAKE
 MCST.F                73:   MUD CAKE SAMPLE TEMPERATURE
 RMB .OHMM              4:   RESISTIVITY MUD AT BHT
 BHT .F                73:   BOTTOM HOLE TEMPERATURE
 TCS .HRS               1:   TIME CURCULATED STOPPED
 LUN .               2523:   LOGGING UNIT NUMBER
 LUL .              CSPR.:   LOGGING UNIT LOCATION
 ENGI.             ATWOOD:   RECORDING ENGINEER
 WITN.             MARTIN:   WITNESSED BY
 CLNT.            A2DTECH:   CLIENT CODE
 ORIG.           5" PRINT:   ORIGIN OF DATA
 UWI .       490250646800:   UNIQUE WELL ID
 DICO. A2D Technologies, Inc.:   DIGITIZING COMPANY
~OTHER INFORMATION
~A   DEPT      SPR        ILD       CILD        ASN   
# ...
  171.0000  -108.9877     3.7778   304.5146     4.0013
  171.5000  -109.0588     3.9315   275.6107     4.1416
  172.0000  -109.1490     4.0934   239.4807     4.3023
  172.5000  -109.1908     4.2421   236.1236     4.4194
  173.0000  -109.1064     4.4206   230.5282     4.5761
  173.5000  -109.0405     4.5375   228.6817     4.6766
  174.0000  -108.9686     4.5775   226.2198     4.6983
  174.5000  -108.9000     4.6202   223.7578     4.6670
  175.0000  -108.8297     4.5934   220.6804     4.6051
  175.5000  -108.7601     4.4727   222.0233     4.5187
  176.0000  -108.6902     4.3594   223.8138     4.3843
  176.5000  -108.6206     4.2477   225.7627     4.2732
  177.0000  -108.5509     4.1354   233.0068     4.1539
  177.5000  -108.4813     4.0232   248.4064     4.0357
  178.0000  -108.4116     3.9114   260.6974     3.9232
  178.5000  -108.3420     3.7985   273.0124     3.7917
  179.0000  -108.2723     3.6881   282.3094     3.7003
  179.5000  -108.2027     3.5730   290.6301     3.6534
  180.0000  -108.1330     3.4671   296.3294     3.5970
  180.5000  -108.0634     3.3396   301.2534     3.5480
  181.0000  -107.9937     3.2580   320.2775     3.4949
  181.5000  -107.9241     3.2413   331.6920     3.4442
  182.0000  -107.8542     3.2179   332.5873     3.3917
  182.5000  -107.7848     3.1908   327.4715     3.3413
  183.0000  -107.7142     3.1824   323.3789     3.2856
  183.5000  -107.6460     3.1177   318.2632     3.2324
  184.0000  -107.5733     3.0075   325.5489     3.1142
  184.5000  -107.5090     2.9172   332.1849     3.0113
  185.0000  -107.4259     2.8196   371.8592     2.8888
  185.5000  -107.3906     2.7230   403.4420     2.8058
  186.0000  -107.4864     2.6307   443.1271     2.7224
  186.5000  -107.5634     2.5236   446.0974     2.6802
  187.0000  -107.6461     2.4478   451.2973     2.7728
  187.5000  -107.7255     2.4058   450.4882     2.8430
  188.0000  -107.8067     2.3585   449.0735     2.9214
  188.5000  -107.8871     2.4130   446.9221     2.9969
  189.0000  -107.9681     2.7045   438.7304     3.0910
  189.5000  -108.0484     2.9816   408.5912     3.3535
  190.0000  -108.1298     3.2357   390.5336     3.5933
  190.5000  -108.2089     3.5444   310.5312     3.8624
  191.0000  -108.2924     3.7290   263.2393     3.8850
  191.5000  -108.3680     3.6717   255.4039     3.8390
  192.0000  -108.4665     3.6534   258.3667     3.8186
  192.5000  -108.4107     3.6103   255.6538     3.7581
  193.0000  -108.2942     3.5168   263.5906     3.7116
  193.5000  -108.2024     3.4246   274.3338     3.6369
  194.0000  -108.0996     3.3355   282.7596     3.5332
  194.5000  -108.0024     3.2455   293.4756     3.4437
  195.0000  -107.9026     3.1549   306.9529     3.3502
  195.5000  -107.8030     3.0668   325.0655     3.2559
  196.0000  -107.7058     2.9737   343.2252     3.1592
  196.5000  -107.6029     2.8897   361.4100     3.1023
  197.0000  -107.5110     2.7850   384.1360     3.0682
  197.5000  -107.3880     2.7310   386.5256     3.1004
  198.0000  -107.4737     2.8069   389.0567     3.1987
  198.5000  -107.6445     2.8606   387.7605     3.2783
  199.0000  -107.7804     2.9468   387.1075     3.3834
  199.5000  -107.9317     3.1483   383.7053     3.4430
  200.0000  -108.0748     3.5352   357.5027     3.7276
  200.5000  -108.2223     3.9017   322.2928     4.1733
  201.0000  -108.3674     4.2598   286.9167     4.5298
  201.5000  -108.5141     4.6554   251.6391     4.8264
  202.0000  -108.6593     4.7921   221.1666     4.8878
  202.5000  -108.8142     4.8914   207.1556     4.9928
  203.0000  -108.8140     5.0041   204.9758     5.1022
  203.5000  -108.7770     5.1100   203.3304     5.2269
  204.0000  -108.7494     5.2314   200.8438     5.4007
  204.5000  -108.7171     5.3746   197.3680     5.5779
  205.0000  -108.6877     5.5447   191.9427     5.7565
  205.5000  -108.6568     5.7086   186.5175     5.9365
  206.0000  -108.6270     5.8799   181.0922     6.1149
  206.5000  -108.5974     6.0399   175.6670     6.2952
  207.0000  -108.5673     6.2233   170.2417     6.4733
  207.5000  -108.5395     6.3229   164.8165     6.5412
  208.0000  -108.5052     6.3151   158.9078     6.5544
  208.5000  -108.4572     6.3258   157.8096     6.5232
  209.0000  -108.0580     6.3271   157.6562     6.4992
  209.5000  -107.6535     6.3335   158.9221     6.4672
  210.0000  -106.8351     6.3373   160.1880     6.4668
  210.5000  -105.5677     6.3423   161.4539     6.5022
  211.0000  -104.2830     6.3467   162.7198     6.5309
  211.5000  -103.2661     6.3515   163.5452     6.5660
  212.0000  -104.6596     6.3563   163.8843     6.5801
  212.5000  -106.4509     6.3610   164.2234     6.5618
  213.0000  -107.9751     6.3658   164.5624     6.5443
  213.5000  -108.2391     6.3703   164.9015     6.5255
  214.0000  -108.3077     6.3753   165.2406     6.5079
  214.5000  -108.4358     6.3792   165.5797     6.4888
  215.0000  -108.4619     6.3853   165.9188     6.4720
  215.5000  -108.4287     6.3873   165.5685     6.4523
  216.0000  -108.4001     6.3967   164.6643     6.4700
  216.5000  -108.3681     6.3916   163.7601     6.6295
  217.0000  -108.3386     6.4708   161.9051     6.7973
  217.5000  -108.3088     6.6187   159.3733     6.9592
  218.0000  -108.2796     6.7492   157.1173     7.0953
  218.5000  -108.2506     6.8878   153.4408     7.2126
  219.0000  -108.2208     7.0220   150.1253     7.3244
  219.5000  -108.1928     7.1590   146.8099     7.4105
  220.0000  -108.1616     7.2941   143.4945     7.4769
  220.5000  -108.1369     7.4321   140.1790     7.5447
  221.0000  -108.0904     7.5650   137.4217     7.5687
  221.5000  -107.9165     7.7075   135.6610     7.5335
  222.0000  -107.7512     7.8323   134.1540     7.3908
  222.5000  -107.5857     7.9881   132.9454     7.2126
  223.0000  -107.4205     7.9060   134.3897     7.0444
  223.5000  -107.2552     7.7113   135.5953     6.8913
  224.0000  -107.0898     7.4973   136.5264     6.7059
  224.5000  -106.9245     6.8495   141.8979     6.4832
  225.0000  -106.7592     6.2706   158.1244     6.2599
  225.5000  -106.5935     5.6853   176.2399     5.7758
  226.0000  -106.4283     5.0991   216.2041     5.1388
  226.5000  -106.2620     4.5223   247.2310     4.5213
  227.0000  -106.0982     3.9233   288.3022     3.7682
  227.5000  -105.9295     3.3669   329.5358     3.5107
  228.0000  -105.7694     2.7126   370.7434     3.3833
  228.5000  -105.5839     2.3243   411.7555     3.3171
  229.0000  -105.6429     2.3462   442.1732     3.3796
  229.5000  -105.8841     2.2944   452.4665     3.4507
  230.0000  -106.1111     2.3228   456.7451     3.6927
  230.5000  -106.3477     3.0231   425.3357     4.2416
  231.0000  -106.5796     3.9660   384.5121     5.0206
  231.5000  -106.8130     4.8488   322.8367     6.2180
  232.0000  -107.0482     5.7799   252.0501     7.5666
  232.5000  -107.2776     6.6506   181.2636     7.8329
  233.0000  -107.5184     7.6308   133.0457     8.4836
  233.5000  -107.7375     8.2988   117.8550     8.9364
  234.0000  -108.0013     8.7051   101.6115     9.1943
  234.5000  -108.0481     8.8529    98.8063     9.2480
  235.0000  -107.8397     8.5891    99.5524     8.8720
  235.5000  -107.6694     8.3627   105.1925     8.5832
  236.0000  -107.4776     7.8366   119.2798     8.2794
  236.5000  -107.3001     7.2624   133.9481     7.6559
  237.0000  -107.1100     6.7159   148.6163     6.6697
  237.5000  -106.9359     6.1143   163.2846     6.2463
  238.0000  -106.7350     5.8016   173.2856     5.8571
  238.5000  -106.6564     5.7143   178.6034     5.7717
  239.0000  -106.6460     5.8146   193.3572     5.9073
  239.5000  -106.8119     6.1498   207.8245     6.0613
  240.0000  -107.1663     6.4389   221.5757     6.1968
  240.5000  -107.4773     6.7406   199.1799     7.2669
  241.0000  -107.8135     7.0706   177.8406     8.2928
  241.5000  -108.1058     7.7317   156.5013     8.8789
  242.0000  -108.3077     8.4061   135.1620     9.1167
  242.5000  -108.4887     8.9909   115.9355     9.3550
  243.0000  -108.6728     9.2536   105.9982     9.5946
  243.5000  -108.8552     9.5381   101.3966     9.8355
