~VERSION INFORMATION
 VERS.                2.0:   CWLS LOG ASCII STANDARD - VERSION 2.0
 WRAP.                 NO:   ONE LINE PER DEPTH STEP
~WELL INFORMATION
#MNEM.UNIT      DATA TYPE    INFORMATION
#----------   ------------   ------------------------------
 STRT.F            0.0000:   START DEPTH
 STOP.F          530.0000:   STOP DEPTH
 STEP.F            0.5000:   STEP LENGTH
 NULL.          -999.2500:   NO VALUE
 COMP.   LAWRENCE-ALLISON:   COMPANY
 WELL. NPR 3 #51-56SX10 OB3:   WELL
 FLD .             TEAPOT:   FIELD
 LOC .      S10 T38N R78W:   LOCATION
 CNTY.            NATRONA:   COUNTY
 STAT.            WYOMING:   STATE
 CTRY. UNITED STATES OF AMERICA:   COUNTRY
 SRVC.           Gearhart:   SERVICE COMPANY
 DATE.        28-JUN-1987:   LOGDATE
 API .       490251100800:   API NUMBER
~CURVE INFORMATION
#MNEM.UNIT       API CODE    CURVE DESCRIPTION
#----------   ------------   ------------------------------
 DEPT.F                  :   
 CALD.IN     45 280 60 00:   CALIPER ROM DENSITY LOG
 CNC .DEC    45 890 03 00:   NEUTRON POROSITY SANDSTONE
 CORR.G/C3   45 356 01 00:   DENSITY CORRECTION
 DEN .G/C3   45 350 01 00:   COMPENSATED BULK DENSTIY
 PORD.DEC    45 890 12 00:   POROSITY DENSITY SANDSTONE
 GRR .GAPI   07 310 01 00:   GAMMA RAY
 ILD .OHMM   07 120 46 00:   INDUCTION LOG DEEP
 ILM .OHMM   07 120 44 00:   INDUCTION LOG MEDIUM
 LL  .OHMM   07 220 00 00:   LATEROLOG RESISTIVITY
 SPR .MV     07 010 01 00:   SPONTANEOUS POTENTIAL
 DT  .US/F   60 520 00 00:   INTERVAL TRANSIT TIME
~PARAMETER INFORMATION
#MNEM.UNIT          VALUE    DESCRIPTION
#----------   ------------   ------------------------------
 PD  .                 GL:   PERMANENT DATUM
 EPD .F              5198:   ELEVATION PERMANENT DATUM
 LMF .                 KB:   LOG MEASURED FROM
 DAPD.F                 8:   FEET ABOVE PERMANENT DATUM
 DMF .                 KB:   DRILLING MEASURED FROM
 EKB .F              5206:   KELLING BUSHING
 EDF .F              5204:   DRILLING FLOOR
 EGL .F              5198:   GROUND LEVEL
 DATE.        28-JUN-1987:   RUN DATE
 RUN .                  1:   RUN NUMBER
 DD  .F               535:   DEPTH DRILLER
 DL  .F               536:   DEPTH LOGGER
 BLI .F               533:   BOTTOM LOG INTERVAL
 BS  .IN             7.87:   BIT SIZE
 BSD .F               535:   BIT SIZE AT DEPTH
 DFT .                MUD:   DRILLING FLUID TYPE
 RMS .OHMM           0.84:   RESISTIVITY MUD SAMPLE
 MST .F                57:   MUD SAMPLE TEMPERATURE
 RMF .OHMM           0.63:   RESISTIVITY MUD FILTRATE SAMPLE
 MFST.F                57:   MUD FILTRATE SAMPLE TEMPERATURE
 RMC .OHMM           1.05:   RESISTIVITY MUD CAKE
 MCST.F                57:   MUD CAKE SAMPLE TEMPERATURE
 MFSS.               CALC:   MUD FILTRATE SAMPLE SOURCE
 MCSS.               CALC:   MUD CAKE SAMPLE SOURCE
 RMB .OHMM           0.59:   RESISTIVITY MUD AT BHT
 BHT .F                80:   BOTTOM HOLE TEMPERATURE
 TCS .HRS            1200:   TIME CURCULATED STOPPED
 TLAB.HRS            1322:   TIME LOGGER AT BOTTOM
 LUN .               7650:   LOGGING UNIT NUMBER
 LUL .           GILLETTE:   LOGGING UNIT LOCATION
 ENGI. JOHNSTON/HUCKFELDT:   RECORDING ENGINEER
 WITN.             STRONG:   WITNESSED BY
 CLNT.            A2DTECH:   CLIENT CODE
 ORIG.      2.5" 5" PRINT:   ORIGIN OF DATA
 UWI .       490251100800:   UNIQUE WELL ID
 DICO. A2D Technologies, Inc.:   DIGITIZING COMPANY
~OTHER INFORMATION
~A    DEPT    CALD        CNC       CORR        DEN       PORD         GRR         ILD        ILM       LL        SPR         DT   
# ...
  244.0000     6.4937     0.2359     0.0944     2.5410     0.0835   116.7087     7.4773     7.4314     7.6866   -45.6814    96.1730
  244.5000     6.4942     0.2284     0.0630     2.5298     0.0979   116.7177     7.4803     7.3958     7.6896   -45.3782    93.0792
  245.0000     6.4800     0.2130     0.0495     2.5048     0.1116   116.7283     7.4832     7.3350     7.6927   -45.3753    90.7413
  245.5000     6.4806     0.2091     0.0587     2.4659     0.1266   116.1364     7.4862     7.3375     7.5904   -45.0721    89.3103
  246.0000     6.4663     0.2182     0.0845     2.4644     0.1282   104.7337     7.4893     7.3401     7.5934   -45.0691    88.5584
  246.5000     6.4669     0.2505     0.0650     2.4931     0.1128   104.7424     7.4924     7.2425     7.4924   -45.0661    89.1695
  247.0000     6.4824     0.2484     0.0440     2.5113     0.1011   106.5529     7.4955     7.2449     7.4955   -45.0631    92.7273
  247.5000     6.4830     0.2460     0.0110     2.5046     0.1095   108.9640     7.4986     7.2473     7.3957   -45.0601    97.7211
  248.0000     6.4835     0.2538     0.0066     2.4790     0.1344   109.5736     7.5017     7.2497     7.2974   -45.0571   100.9010
  248.5000     6.4691     0.2659     0.0233     2.3932     0.1675   109.4345     7.5048     7.2521     7.2003   -45.0541   106.4840
  249.0000     6.4699     0.2792     0.0340     2.3699     0.1880   107.6737     7.2004     7.2546     7.1046   -45.0510   107.7909
  249.5000     6.4704     0.2840     0.0432     2.3601     0.1943   104.6376     7.0113     7.2476     6.9696   -45.0475   108.7032
  250.0000     6.4710     0.2931     0.0614     2.3489     0.2069   103.4034     6.7298     7.1277     6.8702   -45.0446   110.1361
  250.5000     6.4720     0.3027     0.0661     2.3187     0.2204   103.0103     6.5494     6.7780     6.7322   -45.0417   113.3239
  251.0000     6.4729     0.3021     0.0586     2.3091     0.2213   107.1611     6.3738     6.5133     6.5522   -45.0388   113.5545
  251.5000     6.4737     0.2970     0.0377     2.3137     0.2186   109.9630     6.3764     6.0636     6.3766   -45.0359   112.8052
  252.0000     6.4895     0.2920     0.0272     2.3273     0.2091   112.6503     6.2054     5.4495     5.6347   -45.0330   110.4673
  252.5000     6.4904     0.2842     0.0258     2.3635     0.1852   114.4608     6.0390     5.3344     5.1892   -44.7297   108.3561
  253.0000     6.4764     0.2731     0.0275     2.3952     0.1652   116.8719     6.0327     5.5984     5.2635   -44.7267   106.6949
  253.5000     6.4773     0.2646     0.0381     2.4119     0.1588   118.6824     5.8795     5.6780     5.4130   -44.7237   104.8705
  254.0000     6.4782     0.2640     0.0277     2.4217     0.1540   116.2887     5.7814     5.6021     5.6612   -44.7207   103.9878
  254.5000     6.4790     0.2742     0.0143     2.4022     0.1645   114.4957     5.7241     5.4516     6.4049   -44.7177   104.6379
  255.0000     6.4799     0.2766     0.0430     2.3789     0.1867   114.5045     5.6955     5.3051     6.3570   -44.7147   107.1741
  255.5000     6.4957     0.2709     0.0628     2.3458     0.1981   114.5135     5.6508     5.1625     5.9244   -44.8538   109.5981
  256.0000     6.4817     0.2645     0.0689     2.3255     0.2119   114.3143     5.6531     4.8184     5.4722   -45.0090   111.3417
  256.5000     6.4976     0.2638     0.0570     2.3188     0.2155   111.8368     5.5784     4.7558     5.3520   -45.0055   111.2701
  257.0000     6.4985     0.2500     0.0435     2.3196     0.2146   109.1712     5.5807     4.9376     5.2809   -44.7023   110.0672
  257.5000     6.4843     0.2379     0.0150     2.3261     0.2103   104.9383     5.6604     5.5376     5.3252   -44.6994   107.7293
  258.0000     6.4557     0.2385     0.0151     2.3512     0.1995   104.9489     5.7413     5.7996     5.5853   -44.6965   102.1411
  258.5000     6.4566     0.2433     0.0152     2.3733     0.1863   106.7878     5.9861     5.9379     6.0695   -44.3933    97.5356
  259.0000     6.4575     0.2439     0.0063     2.3982     0.1714   107.9717     6.4159     5.8220     6.5052   -44.3904    96.4827
  259.5000     6.4583     0.2330     0.0034     2.3983     0.1671   107.3798     6.6896     5.7804     6.7827   -44.3874    96.4123
  260.0000     6.4592     0.2306     0.0193     2.3810     0.1770   106.7879     6.6924     5.7032     6.7854   -44.3844    96.0396
  260.5000     6.4601     0.2402     0.0433     2.3773     0.1809   106.1952     6.6952     5.6274     6.7881   -44.3814    94.9866
  261.0000     6.4610     0.2480     0.0400     2.3879     0.1773   106.2048     6.6722     5.6292     6.7909   -44.3784    94.7584
  261.5000     6.4619     0.2586     0.0175     2.4015     0.1658   106.2135     6.4869     5.6311     6.7005   -44.3754    95.7529
  262.0000     6.4628     0.2606     0.0131     2.3986     0.1646   109.8258     6.4318     5.6330     6.5721   -44.3724    98.6567
  262.5000     6.4636     0.2570     0.0313     2.3708     0.1826   107.4321     6.3029     5.6349     6.3835   -44.0691   102.5220
  263.0000     6.4645     0.2516     0.0405     2.3399     0.2012   107.4414     5.9043     5.5573     6.0913   -44.2382   103.1761
  263.5000     6.4654     0.2570     0.0406     2.3400     0.2036   106.8489     5.0946     5.3953     5.9750   -44.3634   102.1998
  264.0000     6.4663     0.2717     0.0392     2.3592     0.1916   107.2113     4.8231     4.8979     5.5738   -44.3600   100.3154
  264.5000     6.4672     0.2726     0.0288     2.3687     0.1852   110.3072     4.7588     4.1090     4.9495   -44.0568   100.1682
  265.0000     6.4681     0.2686     0.0213     2.3613     0.1891   112.2823     4.8270     4.1860     4.8269   -44.0539   100.8549
  265.5000     6.4689     0.2602     0.0184     2.3493     0.1975   112.2913     4.8960     4.3923     4.7627   -44.0510   101.0869
  266.0000     6.4698     0.2701     0.0201     2.3508     0.1983   111.9560     5.1057     4.7168     4.8981   -44.0481   101.3945
  266.5000     6.4709     0.2722     0.0247     2.3547     0.1938   107.5061     5.3355     4.9958     5.1070   -44.3455   101.5509
  267.0000     6.4716     0.2634     0.0401     2.3540     0.1935   105.7130     5.6518     5.4990     5.4737   -44.3423   101.8584
  267.5000     6.4725     0.2607     0.0491     2.3480     0.1976   105.1201     5.9674     6.0582     5.7877   -44.3393   101.9392
  268.0000     6.4735     0.2677     0.0266     2.3375     0.2039   105.7304     6.3420     6.3161     6.1377   -44.0360   101.6421
  268.5000     6.4744     0.2685     0.0041     2.3383     0.2039   111.1445     6.7180     6.4059     6.4940   -44.0330    99.6821
  269.0000     6.4602     0.2627    -0.0003     2.3452     0.2008   111.7578     6.9227     6.4970     6.8787   -44.0300    98.1756
  269.5000     6.4761     0.2543     0.0104     2.3603     0.1912   108.6836     7.2266     6.6809     7.1568   -44.0270    96.8959
  270.0000     6.4771     0.2395     0.0271     2.3784     0.1800   105.4455     7.6401     6.8732     7.3673   -43.7231    96.9767
  270.5000     6.4780     0.2386     0.0106     2.3747     0.1845   101.4484     7.7493     7.1731     7.4348   -43.4199    97.7377
  271.0000     6.4788     0.2413    -0.0013     2.3634     0.1866   100.3772     7.7524     7.3835     7.4379   -42.8165    98.7573
  271.5000     6.4797     0.2518     0.0199     2.3582     0.1910   101.6067     7.7555     7.5740     7.4410   -41.9127    99.8647
  272.0000     6.4806     0.2557     0.0215     2.3538     0.1940   103.8959     7.7586     7.6102     7.4446   -41.3092    99.8579
  272.5000     6.4814     0.2469    -0.0055     2.3501     0.1958   105.2102     7.7617     7.6844     7.4475   -41.3063    99.6482
  273.0000     6.4824     0.2460    -0.0129     2.3540     0.1946   102.9570     7.8726     7.7365     7.4505   -41.9400    99.5036
  273.5000     6.4832     0.2448    -0.0007     2.3668     0.1888   100.4234     7.8759     7.9047     7.4535   -43.1023    99.4319
  274.0000     6.4841     0.2427     0.0432     2.3774     0.1800   101.6350     7.9885     8.0177     7.4565   -43.0991    99.6652
