~VERSION INFORMATION
 VERS.                2.0:   CWLS LOG ASCII STANDARD - VERSION 2.0
 WRAP.                 NO:   ONE LINE PER DEPTH STEP
~WELL INFORMATION
#MNEM.UNIT      DATA TYPE    INFORMATION
#----------   ------------   ------------------------------
 STRT.F            0.0000:   START DEPTH
 STOP.F         4112.0000:   STOP DEPTH
 STEP.F            0.5000:   STEP LENGTH
 NULL.          -999.2500:   NO VALUE
 COMP. LAWRENCE-ALLISON &AS:   COMPANY
 WELL. N P R 3-76-1-SX #3-3:   WELL
 FLD .          N.P.R. #3:   FIELD
 LOC .       S3 T38N R78W:   LOCATION
 CNTY.            NATRONA:   COUNTY
 STAT.            WYOMING:   STATE
 CTRY. UNITED STATES OF AMERICA:   COUNTRY
 SRVC.      Dresser Atlas:   SERVICE COMPANY
 DATE.        04-SEP-1983:   LOGDATE
 API .       490251093100:   API NUMBER
~CURVE INFORMATION
#MNEM.UNIT       API CODE    CURVE DESCRIPTION
#----------   ------------   ------------------------------
 DEPT.F                  :   
 DEN .G/C3   45 350 01 00:   COMPENSATED BULK DENSTIY
 CORR.G/C3   45 356 01 00:   DENSITY CORRECTION
 PORD.DEC    45 890 12 00:   POROSITY DENSITY SANDSTONE
 CNC .DEC    42 890 03 00:   NEUTRON POROSITY SANDSTONE
 SPR .MV     07 010 01 00:   SPONTANEOUS POTENTIAL
 GRR .GAPI   07 310 01 00:   GAMMA RAY FROM RES. LOG.
 RFOC.OHMM   07 220 04 00:   RESISTIVITY FOCUSED LOG
 CALD.IN     45 280 60 00:   CALIPER
 AC  .US/F   60 520 00 00:   ACOUSTIC SONIC
 RILD.OHMM   07 120 46 00:   INDUCTION LOG DEEP RESISTIVITY
 RILM.OHMM   07 120 44 00:   INDUCTION LOG MEDIUM RESISTIVITY
~PARAMETER INFORMATION
#MNEM.UNIT          VALUE    DESCRIPTION
#----------   ------------   ------------------------------
 PD  .                 GL:   PERMANENT DATUM
 EPD .F              5147:   ELEVATION PERMANENT DATUM
 LMF .                 KB:   LOG MEASURED FROM
 DAPD.F                10:   FEET ABOVE PERMANENT DATUM
 DMF .                 KB:   DRILLING MEASURED FROM
 EKB .F              5157:   KELLING BUSHING
 EGL .F              5147:   GROUND LEVEL
 DATE.             9-4-83:   RUN DATE
 RUN .                  1:   RUN NUMBER
 DD  .F              4119:   DEPTH DRILLER
 DL  .F              4115:   DEPTH LOGGER
 BLI .F              4112:   BOTTOM LOG INTERVAL
 CS  .IN            9.625:   CASING SIZE
 CBD .F               491:   CASING BOTTOM DRILLER
 CBL .F               494:   CASING BOTTOM LOGGER
 BS  .IN             8.75:   BIT SIZE
 BSD .F              4119:   BIT SIZE AT DEPTH
 DFT .            KCL GEL:   DRILLING FLUID TYPE
 DFD .                8.9:   DRILLING FLUID DENSITY
 DFV .                 46:   DRILLING FLUID VISCOSITY
 DFPH.                  9:   DRILLING FLUID PH
 DFL .               13.6:   DRILLING FLUID LOSS
 MSS .            MUDTANK:   MUD SAMPLE SOURCE
 RMS .OHMM           .315:   RESISTIVITY MUD SAMPLE
 MST .F                92:   MUD SAMPLE TEMPERATURE
 RMF .OHMM            .25:   RESISTIVITY MUD FILTRATE SAMPLE
 MFST.F                84:   MUD FILTRATE SAMPLE TEMPERATURE
 RMC .OHMM             .4:   RESISTIVITY MUD CAKE
 MCST.F                92:   MUD CAKE SAMPLE TEMPERATURE
 MFSS.                  M:   MUD FILTRATE SAMPLE SOURCE
 MCSS.                  C:   MUD CAKE SAMPLE SOURCE
 RMB .OHMM            .22:   RESISTIVITY MUD AT BHT
 BHT .F               132:   BOTTOM HOLE TEMPERATURE
 TCS .HRS               4:   TIME CURCULATED STOPPED
 MRT .F               132:   MAXIMUM RECORDED TEMPERATURE
 LUN .               6274:   LOGGING UNIT NUMBER
 LUL .               GLTE:   LOGGING UNIT LOCATION
 ENGI.             RAUTIO:   RECORDING ENGINEER
 WITN.             STRONG:   WITNESSED BY
 CLNT.            A2DTECH:   CLIENT CODE
 ORIG. 1", 2", 2.5", 5" PRINT:   ORIGIN OF DATA
 UWI .       490251093100:   UNIQUE WELL ID
 DICO. A2D Technologies, Inc.:   DIGITIZING COMPANY
~OTHER INFORMATION
~A    DEPT     DEN       CORR       PORD        CNC        SPR          GRR     RFOC       CALD         AC       RILD       RILM   
# ...
 1220.0000     2.5198    -0.0066     0.0785     0.2579   -49.9182   102.9298     8.5685     9.1467  -999.2500     8.0930     7.7907
 1220.5000     2.5180    -0.0210     0.0795     0.2524   -49.9410    94.4414     8.3976     9.1459  -999.2500     8.0538     7.7628
 1221.0000     2.5236    -0.0308     0.0779     0.2486   -49.9638    94.6209     8.2302     9.1452  -999.2500     8.0146     7.7351
 1221.5000     2.5385    -0.0247     0.0680     0.2474   -49.9866    95.2821     8.0060     9.1445  -999.2500     8.0054     7.7181
 1222.0000     2.5533    -0.0171     0.0580     0.2477   -50.0095    90.2695     8.2531     9.1437  -999.2500     8.0268     7.8347
 1222.5000     2.5686    -0.0092     0.0474     0.2482   -50.0323    85.5953     8.6618     9.1430  -999.2500     8.1103     7.9521
 1223.0000     2.5759    -0.0014     0.0458     0.2519   -50.0552    85.2562     9.2690     9.1422  -999.2500     8.1948     8.0712
 1223.5000     2.5807     0.0063     0.0433     0.2558   -50.0782    89.1949     9.2022     9.1415  -999.2500     8.2801     8.1922
 1224.0000     2.5852     0.0142     0.0401     0.2586   -50.1010    90.6682     9.0917     9.1408  -999.2500     8.3663     8.3046
 1224.5000     2.5899     0.0219     0.0371     0.2518   -50.1240    86.6304     8.9357     9.1400  -999.2500     8.4581     8.2576
 1225.0000     2.5881     0.0298     0.0353     0.2386   -50.1469    84.2848     9.1008     9.1393  -999.2500     8.4809     8.1539
 1225.5000     2.5786     0.0373     0.0369     0.2393   -50.1693    85.4703     9.3989     9.1385  -999.2500     8.5050     8.1783
 1226.0000     2.5661     0.0443     0.0442     0.2450   -50.1925    92.6565     9.6148     9.1378  -999.2500     8.5293     8.2350
 1226.5000     2.5531     0.0514     0.0527     0.2450   -50.1837   110.1798     9.3474     9.1371  -999.2500     8.5536     8.2920
 1227.0000     2.5450     0.0456     0.0603     0.2471   -50.1622   108.5507     9.0643     9.1363  -999.2500     8.5779     8.1111
 1227.5000     2.5494     0.0366     0.0627     0.2507   -50.1408   100.5319     8.7897     9.1356  -999.2500     8.6144     7.8697
 1228.0000     2.5460     0.0284     0.0602     0.2546   -50.1200    92.8589     8.5234     9.1348  -999.2500     8.5024     7.6355
 1228.5000     2.5414     0.0202     0.0627     0.2533   -50.0989    94.6937     8.4042     9.1341  -999.2500     8.2860     7.4083
 1229.0000     2.5366     0.0180     0.0656     0.2519   -50.0778    96.3996     8.3328     9.1334  -999.2500     8.0751     7.1878
 1229.5000     2.5318     0.0205     0.0690     0.2505   -50.0568    98.5630     8.2620     9.1326  -999.2500     7.8726     6.9739
 1230.0000     2.5307     0.0231     0.0717     0.2520   -50.0357    97.4528     8.1918     9.1319  -999.2500     7.6723     6.9151
 1230.5000     2.5322     0.0257     0.0723     0.2564   -50.0147    96.5804     8.1222     9.1311  -999.2500     7.4377     6.9151
 1231.0000     2.5335     0.0373     0.0704     0.2609   -49.9936    97.2246     8.0532     9.1304  -999.2500     7.4430     6.9151
 1231.5000     2.5346     0.0430     0.0690     0.2652   -49.9726   102.1356     8.0113     9.1297  -999.2500     7.4381     6.9151
 1232.0000     2.5355     0.0342     0.0675     0.2673   -49.9516   110.5734     8.0286     9.1289  -999.2500     7.4388     6.9151
 1232.5000     2.5357     0.0336     0.0680     0.2682   -49.9306   116.1644     8.0459     9.1282  -999.2500     7.4412     6.9151
 1233.0000     2.5343     0.0492     0.0686     0.2650   -49.9096   110.7371     8.0633     9.1274  -999.2500     7.4408     6.9151
 1233.5000     2.5312     0.0573     0.0697     0.2580   -49.8885   105.3527     8.0806     9.1267  -999.2500     7.4405     6.9151
 1234.0000     2.5275     0.0461     0.0718     0.2537   -49.8676   102.1496     8.0979     9.1259  -999.2500     7.4405     6.9150
 1234.5000     2.5238     0.0362     0.0739     0.2564   -49.8466    98.8688     8.1153     9.1252  -999.2500     7.4406     6.9147
 1235.0000     2.5202     0.0256     0.0760     0.2631   -49.8254    97.0339     8.1327     9.1245  -999.2500     7.4409     6.9154
 1235.5000     2.5212     0.0140     0.0779     0.2699   -49.8017    98.0764     8.1502     9.1237  -999.2500     7.4411     6.9163
 1236.0000     2.5262     0.0128     0.0766     0.2694   -49.7499   101.3761     8.1678     9.1230  -999.2500     7.4626     6.9461
 1236.5000     2.5330     0.0242     0.0750     0.2683   -49.6896   104.4316     8.1853     9.1222  -999.2500     7.4845     6.9769
 1237.0000     2.5436     0.0343     0.0706     0.2771   -49.6293   108.1674     8.2029     9.1215  -999.2500     7.5067     7.0090
 1237.5000     2.5487     0.0451     0.0654     0.2754   -49.5693   107.5658     8.2206     9.1208  -999.2500     7.5291     7.0409
 1238.0000     2.5519     0.0389     0.0610     0.2696   -49.5092   105.8737     8.2382     9.1200  -999.2500     7.5515     7.0729
 1238.5000     2.5552     0.0277     0.0592     0.2638   -49.4490   100.7413     8.2560     9.1193  -999.2500     7.5741     7.1049
 1239.0000     2.5603     0.0215     0.0575     0.2610   -49.3887    95.8243     8.2738     9.1186  -999.2500     7.5966     7.1372
 1239.5000     2.5661     0.0556     0.0527     0.2635   -49.3287    91.8811     8.2915     9.1178  -999.2500     7.6193     7.1695
 1240.0000     2.5721     0.0749     0.0480     0.2666   -49.2686    94.9693     8.3046     9.1171  -999.2500     7.6420     7.2020
 1240.5000     2.5751     0.0756     0.0442     0.2557   -49.2074    99.5586     8.3045     9.1163  -999.2500     7.6647     7.2346
 1241.0000     2.5659     0.0780     0.0467     0.2450   -49.1488   104.9307     8.3047     9.1156  -999.2500     7.6876     7.2674
 1241.5000     2.5531     0.0830     0.0530     0.2442   -49.0891   105.7636     8.3047     9.1149  -999.2500     7.7105     7.3070
 1242.0000     2.5405     0.0619     0.0593     0.2514   -49.0213   106.4409     8.3046     9.1141  -999.2500     7.7334     7.3046
 1242.5000     2.5279     0.0237     0.0662     0.2592   -49.0687   108.0458     8.3047     9.1134  -999.2500     7.7565     7.3057
 1243.0000     2.5240     0.0137     0.0739     0.2670   -49.1819   110.2074     8.3047     9.1126  -999.2500     7.7796     7.3057
 1243.5000     2.5282     0.0199     0.0725     0.2739   -49.2888   109.7481     8.3046     9.1119  -999.2500     7.8028     7.3054
 1244.0000     2.5317     0.0255     0.0698     0.2739   -49.3919   102.2442     8.3046     9.1111  -999.2500     7.8260     7.3055
 1244.5000     2.5357     0.0175     0.0667     0.2768   -49.4978    95.2174     8.3046     9.1104  -999.2500     7.8493     7.3056
 1245.0000     2.5342     0.0039     0.0679     0.2795   -49.6037    87.5426     8.3046     9.1097  -999.2500     7.8727     7.3056
 1245.5000     2.5321    -0.0093     0.0694     0.2764   -49.7087    89.2244     8.3046     9.1089  -999.2500     7.8961     7.3055
 1246.0000     2.5301    -0.0152     0.0707     0.2690   -49.8012    94.3394     8.3046     9.1082  -999.2500     7.9197     7.3056
 1246.5000     2.5283     0.0020     0.0719     0.2616   -49.8392   100.4877     8.3046     9.1074  -999.2500     7.9432     7.3060
 1247.0000     2.5322     0.0183     0.0690     0.2570   -49.8737   103.5381     8.3042     9.1067  -999.2500     7.9669     7.3043
 1247.5000     2.5360     0.0327     0.0667     0.2639   -49.9074   103.5876     8.3048     9.1060  -999.2500     7.9906     7.3076
 1248.0000     2.5365     0.0250     0.0676     0.2717   -49.9412   103.9135     8.3045     9.1052  -999.2500     8.0360     7.3038
 1248.5000     2.5303     0.0139     0.0702     0.2737   -49.9753   108.8182     8.3032     9.1045  -999.2500     8.1211     7.4405
 1249.0000     2.5305     0.0121     0.0710     0.2715   -50.0090   113.3693     8.3312     9.1038  -999.2500     8.2071     7.5782
 1249.5000     2.5316     0.0199     0.0701     0.2692   -50.0430   109.3244     8.3932     9.1030  -999.2500     8.2940     7.7181
 1250.0000     2.5327     0.0285     0.0692     0.2683   -50.0773   104.8051     8.4549     9.1023  -999.2500     8.3817     7.8618
