~VERSION INFORMATION
 VERS.                2.0:   CWLS LOG ASCII STANDARD - VERSION 2.0
 WRAP.                 NO:   ONE LINE PER DEPTH STEP
~WELL INFORMATION
#MNEM.UNIT      DATA TYPE    INFORMATION
#----------   ------------   ------------------------------
 STRT.F           28.5000:   START DEPTH
 STOP.F          625.0000:   STOP DEPTH
 STEP.F            0.5000:   STEP LENGTH
 NULL.          -999.2500:   NO VALUE
 COMP. FENIX & SCISSON INC:   COMPANY
 WELL.    NPR ##3 13-SX-3:   WELL
 FLD .             TEAPOT:   FIELD
 LOC .       S3 T38N R78W:   LOCATION
 CNTY.            NATRONA:   COUNTY
 STAT.            WYOMING:   STATE
 CTRY. UNITED STATES OF AMERICA:   COUNTRY
 SRVC.       Schlumberger:   SERVICE COMPANY
 DATE.        25-FEB-1977:   LOGDATE
 API .       490251028400:   API NUMBER
~CURVE INFORMATION
#MNEM.UNIT       API CODE    CURVE DESCRIPTION
#----------   ------------   ------------------------------
 DEPT.F                  :   
 SPR .MV     07 010 01 00:   SPONTANEOUS POTENTIAL
 ILD .OHMM   07 120 46 00:   INDUCTION LOG DEEP
 LL8 .OHMM   07 220 08 00:   LATEROLOG-8 RES.
 ILM .OHMM   07 120 44 00:   INDUCTION LOG MEDIUM
 GRD .GAPI   45 310 01 00:   GAMMA RAY FROM DENSITY LOG
 CALD.IN     45 280 60 00:   CALIPER
 RHOB.G/C3   45 350 01 00:   BULK DENSITY
 CORR.G/C3   45 356 01 00:   DENSITY CORRECTION
 DPOR.DEC    45 890 12 00:   DENSITY POROSITY SANDSTONE
~PARAMETER INFORMATION
#MNEM.UNIT          VALUE    DESCRIPTION
#----------   ------------   ------------------------------
 PD  .                 GL:   PERMANENT DATUM
 EPD .F              5227:   ELEVATION PERMANENT DATUM
 LMF .                 GL:   LOG MEASURED FROM
 DMF .                 GL:   DRILLING MEASURED FROM
 EKB .F              5232:   KELLING BUSHING
 EGL .F              5227:   GROUND LEVEL
 DATE.          2-25-1977:   RUN DATE
 RUN .                  1:   RUN NUMBER
 DD  .F               629:   DEPTH DRILLER
 DL  .F               626:   DEPTH LOGGER
 BLI .F               620:   BOTTOM LOG INTERVAL
 TLI .F                40:   TOP LOG INTERVAL
 CS  .IN            8.625:   CASING SIZE
 CBD .F                40:   CASING BOTTOM DRILLER
 CBL .F                40:   CASING BOTTOM LOGGER
 BS  .IN            7.875:   BIT SIZE
 BSD .F               629:   BIT SIZE AT DEPTH
 DFT .                KCL:   DRILLING FLUID TYPE
 DFD .                8.8:   DRILLING FLUID DENSITY
 DFV .                 45:   DRILLING FLUID VISCOSITY
 DFPH.                  8:   DRILLING FLUID PH
 DFL .                8.2:   DRILLING FLUID LOSS
 MSS .                PIT:   MUD SAMPLE SOURCE
 RMS .OHMM           .508:   RESISTIVITY MUD SAMPLE
 MST .F                60:   MUD SAMPLE TEMPERATURE
 RMF .OHMM           .419:   RESISTIVITY MUD FILTRATE SAMPLE
 MFST.F                58:   MUD FILTRATE SAMPLE TEMPERATURE
 MFSS.                  M:   MUD FILTRATE SAMPLE SOURCE
 RMB .OHMM            .41:   RESISTIVITY MUD AT BHT
 BHT .F                75:   BOTTOM HOLE TEMPERATURE
 TCS .HRS            1700:   TIME CURCULATED STOPPED
 TLAB.HRS            2130:   TIME LOGGER AT BOTTOM
 MRT .F                75:   MAXIMUM RECORDED TEMPERATURE
 LUN .               5642:   LOGGING UNIT NUMBER
 LUL .               CSPR:   LOGGING UNIT LOCATION
 ENGI.             MARTIN:   RECORDING ENGINEER
 CLNT.            A2DTECH:   CLIENT CODE
 ORIG.       2", 5" PRINT:   ORIGIN OF DATA
 UWI .       490251028400:   UNIQUE WELL ID
 DICO. A2D Technologies, Inc.:   DIGITIZING COMPANY
~OTHER INFORMATION
~A   DEPT      SPR        ILD        LL8        ILM         GRD      CALD         RHOB     CORR       DPOR   
# ...
   65.0000  -127.1266     8.1183  1567.2365     7.6801   129.9615     7.9051     2.3982    -0.0142     0.1524
   65.5000  -127.6652     8.1183  1568.1782     7.6956   132.8590     7.8051     2.4086    -0.0189     0.1537
   66.0000  -128.9974     8.1183  1569.1207     7.7124   135.6708     7.8952     2.4223    -0.0049     0.1452
   66.5000  -129.9498     8.1247  1570.0636     7.7286   134.3507     8.0346     2.4273     0.0062     0.1383
   67.0000  -130.5212     8.1871  1571.0072     7.7425   132.6429     8.1757     2.4234     0.0093     0.1357
   67.5000  -131.1763     8.2500  1571.9513     7.8235   131.0075     8.2688     2.4200     0.0008     0.1413
   68.0000  -131.0522     8.3135  1572.8960     7.9695   131.7877     8.2731     2.4274     0.0031     0.1369
   68.5000  -130.7881     8.3774  1573.8412     7.9788   132.6966     8.2787     2.4221    -0.0012     0.1407
   69.0000  -130.5242     8.4419  1574.7870     8.0122   133.5985     8.2830     2.4125    -0.0090     0.1457
   69.5000  -130.2731     8.5068  1575.7334     8.0458   134.6333     8.3278     2.4030    -0.0131     0.1486
   70.0000  -129.3398     8.5722  1576.6803     8.0795   136.0745     8.3823     2.4056    -0.0106     0.1505
   70.5000  -128.5715     8.6382  1577.6530     8.1133   137.1671     8.3919     2.4165    -0.0078     0.1453
   71.0000  -128.7320     8.7049  1578.5565     8.1473   131.5352     8.3706     2.4275     0.0026     0.1378
   71.5000  -128.8855     8.7426  1580.3229     8.1814   128.6451     8.3488     2.4386     0.0132     0.1302
   72.0000  -129.0416     8.7416  1581.8314     8.2727   132.3321     8.3268     2.4492     0.0211     0.1247
   72.5000  -129.1963     8.6380  1565.3242     8.0581   135.8667     8.3048     2.4439     0.0141     0.1282
   73.0000  -129.3514     8.4030  1453.7034     7.8903   139.1223     8.2832     2.4378     0.0073     0.1317
   73.5000  -129.5132     8.1745   687.3447     7.7260   141.5132     8.2686     2.4318     0.0006     0.1381
   74.0000  -129.8888     7.9521   726.5591     7.5654   139.6435     8.2901     2.4298    -0.0044     0.1324
   74.5000  -130.7134     7.7358   328.0118     7.4081   134.2843     8.3109     2.4287     0.0016     0.1237
   75.0000  -131.7250     7.5986   517.6250     7.2541   129.0269     8.3316     2.4276     0.0068     0.1304
   75.5000  -133.6170     7.5718  1265.4204     7.1325   125.7855     8.3522     2.4264    -0.0010     0.1358
   76.0000  -132.8367     7.5451   882.2838     7.1448   127.7329     8.3726     2.4230    -0.0087     0.1411
   76.5000  -128.8231     7.5394  1579.8663     7.1605   129.0995     8.3858     2.4124    -0.0067     0.1465
   77.0000  -125.9949     7.5394  1579.8663     7.1762   130.4838     8.3875     2.4183    -0.0027     0.1422
   77.5000  -125.9816     7.5394  1579.8663     7.1919   131.1737     8.3893     2.4218     0.0013     0.1395
   78.0000  -125.9806     7.5394  1579.8663     7.1987   129.3454     8.3909     2.4165     0.0054     0.1420
   78.5000  -125.9758     7.5394  1579.8663     7.0547   130.1431     8.3926     2.4197     0.0095     0.1409
   79.0000  -126.4422     7.5394  1579.8663     6.9788   131.3551     8.3942     2.4234     0.0081     0.1389
   79.5000  -126.9889     7.5394  1579.8663     6.9037   132.5752     8.3959     2.4159     0.0035     0.1477
   80.0000  -126.2120     7.5394  1579.8663     6.8295   133.5774     8.3976     2.4082    -0.0011     0.1496
   80.5000  -123.5081     7.5393  1579.8663     6.8102   133.0819     8.3992     2.4018    -0.0036     0.1519
   81.0000  -123.0499     7.5502  1579.8663     6.8734   129.6644     8.4009     2.3973    -0.0057     0.1542
   81.5000  -122.5860     7.5708  1579.8663     6.9933   125.9580     8.4026     2.3933    -0.0028     0.1565
   82.0000  -123.5713     7.5914  1579.8663     7.1013   122.3769     8.4042     2.4005     0.0023     0.1506
   82.5000  -125.6802     7.6245  1579.8663     7.2109   121.4421     8.3997     2.4086    -0.0006     0.1433
   83.0000  -127.4549     7.7551  1579.8663     7.3222   123.9367     8.3869     2.4168    -0.0021     0.1457
   83.5000  -129.0519     7.8886  1579.8663     7.4353   126.4822     8.3741     2.4239     0.0076     0.1401
   84.0000  -129.3687     8.0244  1579.8663     7.5501   128.4249     8.3612     2.4130     0.0108     0.1466
   84.5000  -129.3757     8.1626  1579.8663     7.6666   129.5779     8.3484     2.3943     0.0104     0.1530
   85.0000  -129.3715     8.3033  1579.8663     7.7515   129.3182     8.3356     2.3881     0.0102     0.1582
   85.5000  -129.2106     8.4467  1579.8663     7.8235   128.5294     8.3228     2.3816     0.0097     0.1645
   86.0000  -128.1381     8.5814  1579.8663     7.9024   126.6677     8.3102     2.3954     0.0163     0.1584
   86.5000  -127.0787     8.5115  1579.8663     7.9937   124.8345     8.2802     2.4113     0.0248     0.1453
   87.0000  -126.3839     8.4466  1579.8663     8.0435   122.7109     8.2413     2.4125     0.0334     0.1457
   87.5000  -126.9962     8.3821  1579.8663     7.7838   123.9209     8.2021     2.4133     0.0462     0.1413
   88.0000  -127.6283     8.3181  1579.8663     7.6968   126.3972     8.1676     2.4151     0.0358     0.1461
   88.5000  -127.8390     8.2547  1579.8663     7.6108   127.0560     8.2045     2.4216     0.0114     0.1425
   89.0000  -125.4206     8.1917  1579.8663     7.5258   127.4155     8.2426     2.4279     0.0134     0.1358
   89.5000  -126.3020     8.1292  1579.8663     7.4417   129.4597     8.2802     2.4342     0.0148     0.1330
   90.0000  -127.5376     8.0671  1579.8663     7.3586   131.4617     8.3174     2.4408     0.0104     0.1302
   90.5000  -128.3419     8.0056  1579.8663     7.2764   133.4603     8.3428     2.4392     0.0060     0.1273
   91.0000  -126.7472     7.9445  1579.8663     7.1951   134.6053     8.3281     2.4343     0.0016     0.1300
   91.5000  -124.3434     7.8839  1579.8663     7.1147   135.5845     8.3145     2.4297     0.0022     0.1349
   92.0000  -126.6318     7.8224  1579.8663     7.0668   135.8173     8.3008     2.4347     0.0049     0.1322
   92.5000  -125.7236     7.9607  1579.8663     7.2806   133.5538     8.2872     2.4406     0.0075     0.1285
   93.0000  -125.5650     8.1366  1579.8663     7.4641   131.3673     8.2736     2.4464     0.0100     0.1249
   93.5000  -124.7816     8.3169  1579.8663     7.6522   129.3192     8.2599     2.4472     0.0097     0.1238
   94.0000  -124.9582     8.5009  1579.8663     7.8451   128.0535     8.2463     2.4422     0.0014     0.1282
   94.5000  -125.3916     8.7172  1579.8663     8.0498   126.9177     8.2328     2.4450    -0.0057     0.1282
   95.0000  -125.2521     8.9610  1579.8663     8.2721   126.1857     8.2357     2.4488     0.0002     0.1242
   95.5000  -124.8026     9.2115  1579.8663     8.5005   126.8544     8.2567     2.4515     0.0001     0.1230
   96.0000  -123.0341     9.4691  1579.8663     8.7352   127.3720     8.2777     2.4467    -0.0037     0.1276
   96.5000  -120.9134     9.8583  1579.8663     8.9763   127.4304     8.2997     2.4420    -0.0076     0.1297
   97.0000  -119.7886     9.8361  1579.8663     9.4128   127.5078     8.2974     2.4398    -0.0077     0.1288
   97.5000  -123.4090     9.7951  1579.8663     9.2692   127.4473     8.2862     2.4403    -0.0109     0.1296
   98.0000  -124.8584     9.6845  1579.8663     9.0056   125.1429     8.2747     2.4363    -0.0163     0.1348
   98.5000  -123.8853     9.4341  1579.8663     8.7498   122.8983     8.2633     2.4288    -0.0109     0.1401
   99.0000  -122.8928     9.1902  1579.8663     8.5007   122.1520     8.2518     2.4307    -0.0040     0.1376
   99.5000  -121.8938     8.9526  1579.8663     8.2590   122.9229     8.2404     2.4326     0.0029     0.1338
  100.0000  -120.8982     8.7212  1579.8663     8.0242   123.6927     8.2284     2.4296     0.0086     0.1373
  100.5000  -119.9007     8.4956  1579.8663     7.7960   124.5296     8.2364     2.4217     0.0002     0.1423
  101.0000  -118.8819     8.2747  1579.8663     7.5743   126.4605     8.2516     2.4170    -0.0065     0.1469
