~VERSION INFORMATION
 VERS.                2.0:   CWLS LOG ASCII STANDARD - VERSION 2.0
 WRAP.                 NO:   ONE LINE PER DEPTH STEP
~WELL INFORMATION
#MNEM.UNIT      DATA TYPE    INFORMATION
#----------   ------------   ------------------------------
 STRT.F           70.0000:   START DEPTH
 STOP.F         1236.0000:   STOP DEPTH
 STEP.F            0.5000:   STEP LENGTH
 NULL.          -999.2500:   NO VALUE
 COMP. U S NAVY/INTEX OIL CO:   COMPANY
 WELL. NAVAL PETROLEUM TE ##3 75S-11:   WELL
 FLD .             TEAPOT:   FIELD
 LOC .      S11 T38N R78W:   LOCATION
 CNTY.            NATRONA:   COUNTY
 STAT.            WYOMING:   STATE
 CTRY. UNITED STATES OF AMERICA:   COUNTRY
 SRVC.         Lane Wells:   SERVICE COMPANY
 DATE.        04-MAR-1960:   LOGDATE
 API .       490250633900:   API NUMBER
~CURVE INFORMATION
#MNEM.UNIT       API CODE    CURVE DESCRIPTION
#----------   ------------   ------------------------------
 DEPT.F                  :   
 GR  .GAPI   30 310 01 00:   GAMMA RAY
 SPR .MV     05 010 01 00:   SPONTANEOUS POTENTIAL FROM RES.
 ILD .OHMM   05 120 46 00:   INDUCTION LOG DEEP
 CILD.MMHO   05 110 46 00:   CONDUCTIVITY INDUCTION LOG DEEP
 ASN .OHMM   05 041 18 00:   AMPLIFIED SHORT NORMAL 18"
~PARAMETER INFORMATION
#MNEM.UNIT          VALUE    DESCRIPTION
#----------   ------------   ------------------------------
 PD  .                 GL:   PERMANENT DATUM
 EPD .F              5252:   ELEVATION PERMANENT DATUM
 LMF .                 KB:   LOG MEASURED FROM
 DAPD.F                 5:   FEET ABOVE PERMANENT DATUM
 DMF .                 KB:   DRILLING MEASURED FROM
 EKB .F              5257:   KELLING BUSHING
 EGL .F              5252:   GROUND LEVEL
 DATE.             3-4-60:   RUN DATE
 RUN .                  1:   RUN NUMBER
 DD  .F              1239:   DEPTH DRILLER
 DL  .F              1238:   DEPTH LOGGER
 BLI .F              1236:   BOTTOM LOG INTERVAL
 TLI .F                70:   TOP LOG INTERVAL
 CS  .IN            8.625:   CASING SIZE
 CBD .F                12:   CASING BOTTOM DRILLER
 BS  .IN            7.875:   BIT SIZE
 BSD .F              1239:   BIT SIZE AT DEPTH
 DFT .                GEL:   DRILLING FLUID TYPE
 DFD .                9.2:   DRILLING FLUID DENSITY
 DFV .                 34:   DRILLING FLUID VISCOSITY
 DFPH.                7.5:   DRILLING FLUID PH
 DFL .                8.5:   DRILLING FLUID LOSS
 MSS .                PIT:   MUD SAMPLE SOURCE
 RMS .OHMM              3:   RESISTIVITY MUD SAMPLE
 MST .F                52:   MUD SAMPLE TEMPERATURE
 RMF .OHMM            2.8:   RESISTIVITY MUD FILTRATE SAMPLE
 MFST.F                55:   MUD FILTRATE SAMPLE TEMPERATURE
 RMC .OHMM            3.3:   RESISTIVITY MUD CAKE
 MCST.F                55:   MUD CAKE SAMPLE TEMPERATURE
 MFSS.                MUD:   MUD FILTRATE SAMPLE SOURCE
 MCSS.              PRESS:   MUD CAKE SAMPLE SOURCE
 RMB .OHMM            2.2:   RESISTIVITY MUD AT BHT
 BHT .F                77:   BOTTOM HOLE TEMPERATURE
 TCS .HRS              .5:   TIME CURCULATED STOPPED
 MRT .F                77:   MAXIMUM RECORDED TEMPERATURE
 LUN .               4474:   LOGGING UNIT NUMBER
 LUL .             CASPER:   LOGGING UNIT LOCATION
 ENGI.      GRIGGS/NELSON:   RECORDING ENGINEER
 WITN.  JORGENSEN/HOLLAND:   WITNESSED BY
 CLNT.            A2DTECH:   CLIENT CODE
 ORIG.       2", 5" PRINT:   ORIGIN OF DATA
 UWI .       490250633900:   UNIQUE WELL ID
 DICO. A2D Technologies, Inc.:   DIGITIZING COMPANY
~OTHER INFORMATION
~A   DEPT       GR        SPR          ILD      CILD         ASN 
# ...
  497.0000  -999.2500   -36.6313     5.2000   203.0782     5.9764
  497.5000  -999.2500   -36.5422     5.1906   204.9438     5.8125
  498.0000  -999.2500   -36.4535     5.1649   210.8702     5.5955
  498.5000  -999.2500   -36.3647     5.1382   216.7966     5.3769
  499.0000  -999.2500   -36.2760     5.0795   222.7230     5.1583
  499.5000  -999.2500   -36.1872     4.8715   228.6494     4.9398
  500.0000  -999.2500   -36.0982     4.6665   235.7714     4.7213
  500.5000  -999.2500   -36.0099     4.4618   246.5880     4.5028
  501.0000  -999.2500   -35.9545     4.2572   257.4045     4.2843
  501.5000  -999.2500   -36.0038     4.0525   268.2211     4.0658
  502.0000  -999.2500   -36.0503     3.8477   279.0376     3.8473
  502.5000  -999.2500   -36.0966     3.6429   289.8542     3.6287
  503.0000  -999.2500   -36.1429     3.4401   300.6707     3.4096
  503.5000  -999.2500   -36.1892     3.3014   311.4873     3.1909
  504.0000  -999.2500   -36.2355     3.3783   322.3039     3.1366
  504.5000  -999.2500   -36.2818     3.4627   322.2946     3.3146
  505.0000  -999.2500   -36.3281     3.5479   315.5748     3.5135
  505.5000  -999.2500   -36.3744     3.6328   308.4781     3.7128
  506.0000  -999.2500   -36.4207     3.7177   301.3596     3.9126
  506.5000  -999.2500   -36.4670     3.8025   294.2492     4.1131
  507.0000  -999.2500   -36.5133     3.8584   287.1406     4.1721
  507.5000  -999.2500   -36.5600     3.8786   280.0321     4.2242
  508.0000  -999.2500   -36.6063     3.8992   272.9236     4.2770
  508.5000  -999.2500   -36.6492     3.9201   269.3517     4.3307
  509.0000  -999.2500   -36.5039     3.9370   269.3517     4.3558
  509.5000  -999.2500   -36.1315     3.8779   269.3517     4.2950
  510.0000  -999.2500   -35.7607     3.7600   277.2081     4.0581
  510.5000  -999.2500   -35.4036     3.5953   285.0213     3.8198
  511.0000  -999.2500   -35.3263     3.4309   292.8346     3.5827
  511.5000  -999.2500   -35.2604     3.2663   300.6479     3.3457
  512.0000  -999.2500   -35.1934     3.1018   321.2591     3.1088
  512.5000  -999.2500   -35.1262     2.9373   350.3674     2.8718
  513.0000  -999.2500   -35.0584     2.7728   379.4757     2.6342
  513.5000  -999.2500   -35.0309     2.6079   408.6049     2.3975
  514.0000  -999.2500   -35.0299     2.4434   437.7502     2.1946
  514.5000  -999.2500   -35.0297     2.3055   466.8912     2.2611
  515.0000  -999.2500   -35.0586     2.3050   475.1096     2.4601
  515.5000  -999.2500   -35.2897     2.5042   456.0773     2.6990
  516.0000  -999.2500   -35.5224     2.7788   430.6021     2.9410
  516.5000  -999.2500   -35.7539     3.0553   405.1269     3.1827
  517.0000  -999.2500   -35.9672     3.3391   379.6516     3.4244
  517.5000  -999.2500   -36.0696     3.4083   354.1764     3.6665
  518.0000  -999.2500   -36.1753     3.4636   328.7012     3.9123
  518.5000  -999.2500   -36.2859     3.5156   303.2260     3.9865
  519.0000  -999.2500   -36.3109     3.5687   297.0587     4.0148
  519.5000  -999.2500   -36.2691     3.5773   295.4829     4.0201
  520.0000  -999.2500   -36.0573     3.5773   293.9071     4.0260
  520.5000  -999.2500   -35.8511     3.5773   291.5758     4.0174
  521.0000  -999.2500   -35.6449     3.5774   292.0731     3.9794
  521.5000  -999.2500   -35.4347     3.5765   294.6792     3.8923
  522.0000  -999.2500   -35.3962     3.5316   297.3047     3.7209
  522.5000  -999.2500   -35.3958     3.4158   300.0786     3.5508
  523.0000  -999.2500   -35.3963     3.3011   313.3888     3.3804
  523.5000  -999.2500   -35.3963     3.1861   327.1322     3.2101
  524.0000  -999.2500   -35.3963     3.0712   340.9390     3.0398
  524.5000  -999.2500   -35.3963     2.9562   354.7295     2.8695
  525.0000  -999.2500   -35.3965     2.8417   368.5176     2.6990
  525.5000  -999.2500   -35.4102     2.7280   382.3058     2.5279
  526.0000  -999.2500   -35.4476     2.6651   398.2589     2.3671
  526.5000  -999.2500   -35.4843     2.6616   415.9919     2.3613
  527.0000  -999.2500   -35.5214     2.8029   433.6895     2.3889
  527.5000  -999.2500   -35.5609     2.9472   441.5192     2.5695
  528.0000  -999.2500   -35.7193     3.0919   430.0458     2.7496
  528.5000  -999.2500   -36.0390     3.2364   410.1914     2.9272
  529.0000  -999.2500   -36.3589     3.3809   390.4066     3.1867
  529.5000  -999.2500   -36.6611     3.5261   370.6436     3.4936
  530.0000  -999.2500   -36.4553     3.6124   350.8806     3.8017
  530.5000  -999.2500   -36.2245     3.6678   331.1176     4.1127
  531.0000  -999.2500   -35.9958     3.7229   311.3546     4.2387
  531.5000  -999.2500   -35.7676     3.7781   291.5916     4.2820
  532.0000  -999.2500   -35.5402     3.8355   285.6530     4.3241
  532.5000  -999.2500   -35.3105     3.8429   283.8417     4.3575
  533.0000  -999.2500   -35.2620     3.8122   284.7112     4.2897
  533.5000  -999.2500   -35.3422     3.7808   291.0437     4.0535
  534.0000  -999.2500   -35.4250     3.7157   305.2915     3.8227
  534.5000  -999.2500   -35.5077     3.5257   319.5392     3.5922
  535.0000  -999.2500   -35.5714     3.3416   333.7869     3.3618
  535.5000  -999.2500   -35.4874     3.1576   348.0347     3.1312
  536.0000  -999.2500   -35.4044     2.9758   362.2857     2.9002
  536.5000  -999.2500   -35.3224     2.8507   376.5302     2.6693
  537.0000  -999.2500   -35.2364     2.8525   390.7779     2.6148
  537.5000  -999.2500   -35.3556     2.8495   399.7617     2.7101
  538.0000  -999.2500   -35.5584     2.9559   390.1028     2.8680
  538.5000  -999.2500   -35.7650     3.0742   374.3927     3.0251
  539.0000  -999.2500   -35.9705     3.1927   358.6826     3.1821
  539.5000  -999.2500   -36.1318     3.3109   342.9724     3.3389
  540.0000  -999.2500   -36.1284     3.4292   327.2623     3.4959
  540.5000  -999.2500   -36.1281     3.5479   311.0105     3.6533
  541.0000  -999.2500   -36.1281     3.6647   304.6993     3.8096
  541.5000  -999.2500   -36.1281     3.7044   298.1627     3.9033
  542.0000  -999.2500   -36.1284     3.7407   291.6261     3.9951
  542.5000  -999.2500   -36.1306     3.7776   285.0895     4.0874
  543.0000  -999.2500   -36.0339     3.8153   283.7421     4.1722
  543.5000  -999.2500   -35.9183     3.8432   286.9594     4.0749
  544.0000  -999.2500   -35.8022     3.7209   290.1766     3.9232
  544.5000  -999.2500   -35.6865     3.5973   293.3938     3.7719
  545.0000  -999.2500   -35.5707     3.4746   300.1902     3.6207
  545.5000  -999.2500   -35.4548     3.3518   309.4622     3.4695
  546.0000  -999.2500   -35.3380     3.2293   318.7323     3.3184
  546.5000  -999.2500   -35.2194     3.1117   328.0063     3.1672
  547.0000  -999.2500   -35.2461     3.0434   337.2783     3.0159
  547.5000  -999.2500   -35.2840     2.9729   346.5504     2.8640
  548.0000  -999.2500   -35.3214     2.9022   355.8224     2.7620
  548.5000  -999.2500   -35.3587     2.8315   365.0944     2.6825
  549.0000  -999.2500   -35.3951     2.7607   374.3664     2.6004
  549.5000  -999.2500   -35.3966     2.6880   383.6384     2.5544
  550.0000  -999.2500   -35.3964     2.6490   392.9104     2.5175
  550.5000  -999.2500   -35.3713     2.6183   400.9616     2.4811
  551.0000  -999.2500   -35.3220     2.5887   405.5577     2.4440
  551.5000  -999.2500   -35.2726     2.5091   412.9500     2.3893
  552.0000  -999.2500   -35.2232     2.4173   427.2018     2.2709
  552.5000  -999.2500   -35.1738     2.3252   441.3800     2.1568
  553.0000  -999.2500   -35.1241     2.2332   455.6013     2.0428
  553.5000  -999.2500   -35.0745     2.1410   469.8160     1.9298
  554.0000  -999.2500   -35.0392     2.0491   484.0459     1.8550
  554.5000  -999.2500   -35.1203     2.0366   498.3680     1.8539
  555.0000  -999.2500   -35.2032     2.0367   513.8196     1.9438
  555.5000  -999.2500   -35.2856     2.1295   513.8704     2.0905
  556.0000  -999.2500   -35.3679     2.2325   493.8814     2.3124
  556.5000  -999.2500   -35.4502     2.3483   472.0655     2.5328
  557.0000  -999.2500   -35.5324     2.4633   450.2527     2.7536
  557.5000  -999.2500   -35.6141     2.5782   428.4337     2.9742
