~VERSION INFORMATION
 VERS.                2.0:   CWLS LOG ASCII STANDARD - VERSION 2.0
 WRAP.                 NO:   ONE LINE PER DEPTH STEP
~WELL INFORMATION
#MNEM.UNIT      DATA TYPE    INFORMATION
#----------   ------------   ------------------------------
 STRT.F            0.0000:   START DEPTH
 STOP.F         1002.0000:   STOP DEPTH
 STEP.F            0.5000:   STEP LENGTH
 NULL.          -999.2500:   NO VALUE
 COMP. U S NAVY-INTEX OIL:   COMPANY
 WELL.     NPR ##3 28-S-2:   WELL
 FLD .             TEAPOT:   FIELD
 LOC .       S2 T38N R78W:   LOCATION
 CNTY.            NATRONA:   COUNTY
 STAT.            WYOMING:   STATE
 CTRY. UNITED STATES OF AMERICA:   COUNTRY
 SRVC.      NL McCullough:   SERVICE COMPANY
 DATE.        13-JUN-1963:   LOGDATE
 API .       490250639400:   API NUMBER
~CURVE INFORMATION
#MNEM.UNIT       API CODE    CURVE DESCRIPTION
#----------   ------------   ------------------------------
 DEPT.F                  :   
 ASN .OHMM   05 041 16 00:   AMPLIFIED SHORT NORMAL 16"
 ILD .OHMM   05 120 46 00:   INDUCTION LOG DEEP
 CILD.MMHO   05 110 46 00:   CONDUCTIVITY INDUCTION LOG DEEP
 SPR .MV     05 010 01 00:   SPONTANEOUS POTENTIAL FROM RES.
 GR  .GAPI   30 310 01 00:   GAMMA RAY
~PARAMETER INFORMATION
#MNEM.UNIT          VALUE    DESCRIPTION
#----------   ------------   ------------------------------
 PD  .                 GL:   PERMANENT DATUM
 EPD .F              5147:   ELEVATION PERMANENT DATUM
 LMF .                 KB:   LOG MEASURED FROM
 DAPD.F                 5:   FEET ABOVE PERMANENT DATUM
 DMF .                 KB:   DRILLING MEASURED FROM
 EKB .F              5152:   KELLING BUSHING
 EGL .F              5147:   GROUND LEVEL
 DATE.        13-SEP-1963:   RUN DATE
 RUN .                  1:   RUN NUMBER
 BLI .F               600:   BOTTOM LOG INTERVAL
 CS  .IN                7:   CASING SIZE
 DFT .                OIL:   DRILLING FLUID TYPE
 ENGI.            JACKSON:   RECORDING ENGINEER
 WITN.             HUDSON:   WITNESSED BY
 CLNT.            A2DTECH:   CLIENT CODE
 ORIG.           5" PRINT:   ORIGIN OF DATA
 UWI .       490250639400:   UNIQUE WELL ID
 DICO. A2D Technologies, Inc.:   DIGITIZING COMPANY
~OTHER INFORMATION
~A    DEPT     ASN        ILD       CILD        SPR          GR  
# ...
  854.0000     7.8948     5.8471   159.9689   -34.8094  -999.2500
  854.5000     7.7810     5.6222   166.7131   -34.9571  -999.2500
  855.0000     7.6443     5.3973   174.9611   -34.8064  -999.2500
  855.5000     7.4357     5.1724   181.7053   -34.6561  -999.2500
  856.0000     7.0626     5.0225   184.6901   -34.5058  -999.2500
  856.5000     6.8390     4.9475   186.9231   -34.5043  -999.2500
  857.0000     6.8095     5.0225   187.6580   -34.3540  -999.2500
  857.5000     6.8551     5.0225   187.6296   -34.3525  -999.2500
  858.0000     6.9454     5.0225   186.1031   -34.2022  -999.2500
  858.5000     7.0656     5.0975   183.8248   -34.2007  -999.2500
  859.0000     7.2306     5.1724   180.0427   -34.1992  -999.2500
  859.5000     7.3807     5.2474   174.7569   -34.3469  -999.2500
  860.0000     7.5067     5.4723   169.4710   -34.3450  -999.2500
  860.5000     7.6411     5.5472   164.9371   -34.1947  -999.2500
  861.0000     7.7606     5.6972   161.1550   -34.1932  -999.2500
  861.5000     7.8652     5.8471   158.8767   -34.3409  -999.2500
  862.0000     7.9382     5.9970   158.8540   -34.6367  -999.2500
  862.5000     7.9671     6.0720   158.0794   -34.6352  -999.2500
  863.0000     7.9369     6.0720   158.0567   -34.6337  -999.2500
  863.5000     7.9085     5.9970   158.0340   -34.7814  -999.2500
  864.0000     7.9093     5.9970   158.0113   -34.7795  -999.2500
  864.5000     7.9247     5.9970   157.9886   -34.9272  -999.2500
  865.0000     7.9552     6.0720   157.2141   -34.7766  -999.2500
  865.5000     8.0006     6.0720   156.4395   -34.7751  -999.2500
  866.0000     8.0610     6.1469   155.6649   -34.6248  -999.2500
  866.5000     8.1513     6.2219   154.1385   -34.4745  -999.2500
  867.0000     8.2266     6.2219   152.6120   -34.3242  -999.2500
  867.5000     8.2870     6.2219   151.8421   -34.3227  -999.2500
  868.0000     8.3624     6.2219   150.3158   -34.3212  -999.2500
  868.5000     8.4078     6.2219   149.5413   -34.1709  -999.2500
  869.0000     8.4532     6.2969   149.5188   -34.0206  -999.2500
  869.5000     8.4389     6.2219   150.2486   -33.8703  -999.2500
  870.0000     8.3797     6.1469   150.2760   -33.8688  -999.2500
  870.5000     8.3205     6.1469   151.7070   -33.8673  -999.2500
  871.0000     8.1567     6.0720   152.4518   -33.8658  -999.2500
  871.5000     7.9779     5.9970   153.9173   -34.0131  -999.2500
  872.0000     7.8739     5.9970   155.3985   -34.0116  -999.2500
  872.5000     7.8594     5.9970   156.1278   -33.8613  -999.2500
  873.0000     7.9199     5.9220   156.8571   -33.8598  -999.2500
  873.5000     7.9504     5.9220   157.5865   -33.7098  -999.2500
  874.0000     7.9809     5.9220   158.3151   -33.7083  -999.2500
  874.5000     8.0114     5.9220   158.2924   -33.7068  -999.2500
  875.0000     7.9672     5.9220   158.2697   -33.7053  -999.2500
  875.5000     7.9229     5.8471   158.2470   -33.7039  -999.2500
  876.0000     7.8787     5.8471   158.9819   -33.7024  -999.2500
  876.5000     7.8493     5.7721   159.7111   -33.5521  -999.2500
  877.0000     7.8050     5.7721   160.4403   -33.5506  -999.2500
  877.5000     7.7907     5.7721   161.1638   -33.4003  -999.2500
  878.0000     7.7466     5.6972   161.8930   -33.3988  -999.2500
  878.5000     7.7321     5.6222   162.6222   -33.3974  -999.2500
  879.0000     7.6880     5.6222   163.3571   -33.3959  -999.2500
  879.5000     7.6736     5.6222   164.0862   -33.2456  -999.2500
  880.0000     7.6743     5.6222   164.8154   -33.2441  -999.2500
  880.5000     7.6598     5.6222   165.5446   -33.2426  -999.2500
  881.0000     7.6605     5.6222   166.2738   -33.2342  -999.2500
  881.5000     7.6759     5.6222   165.4936   -33.0908  -999.2500
  882.0000     7.6791     5.6222   165.4709   -33.0893  -999.2500
  882.5000     7.6921     5.6222   165.4482   -33.0878  -999.2500
  883.0000     7.7095     5.6972   164.6736   -33.0863  -999.2500
  883.5000     7.7381     5.6972   164.6509   -33.0848  -999.2500
  884.0000     7.7399     5.6972   164.6283   -33.0833  -999.2500
  884.5000     7.7543     5.6972   164.6056   -33.2306  -999.2500
  885.0000     7.7250     5.6972   164.5829   -33.3780  -999.2500
  885.5000     7.6955     5.6972   164.5602   -33.5253  -999.2500
  886.0000     7.6813     5.6972   164.5375   -33.3750  -999.2500
  886.5000     7.6819     5.6972   165.2724   -33.2247  -999.2500
  887.0000     7.6825     5.6972   166.0016   -33.0744  -999.2500
  887.5000     7.6831     5.6972   165.2213   -32.9241  -999.2500
  888.0000     7.6837     5.6972   165.1986   -32.7738  -999.2500
  888.5000     7.6843     5.6972   165.1804   -32.6235  -999.2500
  889.0000     7.6849     5.6972   164.4060   -32.6220  -999.2500
  889.5000     7.6855     5.6972   163.6316   -32.6205  -999.2500
  890.0000     7.6861     5.6972   163.5086   -32.7678  -999.2500
  890.5000     7.7166     5.6972   162.8346   -32.9152  -999.2500
  891.0000     7.7621     5.6972   162.0601   -33.0624  -999.2500
  891.5000     7.8225     5.7721   161.2858   -33.0610  -999.2500
  892.0000     7.8829     5.8471   160.5113   -33.0595  -999.2500
  892.5000     7.9432     5.8471   159.7368   -33.0580  -999.2500
  893.0000     8.0036     5.9220   158.2105   -32.9077  -999.2500
  893.5000     8.0790     5.9970   156.6841   -32.9062  -999.2500
  894.0000     8.1543     5.9970   155.1576   -32.9047  -999.2500
  894.5000     8.1998     6.0720   154.3830   -32.7544  -999.2500
  895.0000     8.2303     6.0720   153.6085   -32.7529  -999.2500
  895.5000     8.2757     6.0720   153.5858   -32.6026  -999.2500
  896.0000     8.3062     6.1469   153.5631   -32.4523  -999.2500
  896.5000     8.3516     6.1469   152.7885   -32.4508  -999.2500
  897.0000     8.3821     6.1469   151.2621   -32.3005  -999.2500
  897.5000     8.4425     6.2219   150.4875   -32.2990  -999.2500
  898.0000     8.5328     6.2969   147.4573   -32.2975  -999.2500
  898.5000     8.6082     6.4468   143.6752   -32.1472  -999.2500
  899.0000     8.7283     6.6717   139.8931   -32.2949  -999.2500
  899.5000     9.2671     6.9715   134.6073   -32.2930  -999.2500
  900.0000     9.4579     7.3550   128.1463   -32.3302  -999.2500
  900.5000     9.5537     7.8552   121.1112   -32.5596  -999.2500
  901.0000     9.7907     8.4005   113.5025   -32.8809  -999.2500
  901.5000    10.4634     8.7776   105.2168   -33.0268  -999.2500
  902.0000    10.8371     9.3046   100.6905   -33.0238  -999.2500
  902.5000    11.1360     9.6816    99.1717   -33.1696  -999.2500
  903.0000    11.3602     9.8338    96.9011   -33.1666  -999.2500
  903.5000    11.4350     9.9860    95.3823   -33.1636  -999.2500
  904.0000    11.5097    10.0632    94.6154   -33.1606  -999.2500
  904.5000    11.5845    10.2154    93.8485   -33.0088  -999.2500
  905.0000    11.6592    10.2926    93.0816   -32.8570  -999.2500
  905.5000    11.7339    10.4448    92.3147   -32.7052  -999.2500
  906.0000    11.8087    10.5970    91.5478   -32.5535  -999.2500
  906.5000    11.8834    10.8241    89.2771   -32.5505  -999.2500
  907.0000    11.9581    11.1262    87.0064   -32.6964  -999.2500
  907.5000    12.1076    11.3534    84.7358   -32.6933  -999.2500
  908.0000    12.2571    11.6555    81.7132   -32.8391  -999.2500
  908.5000    12.3318    11.9576    78.6907   -32.8361  -999.2500
  909.0000    12.4813    12.2597    76.4200   -32.8332  -999.2500
  909.5000    12.5561    12.7117    74.9012   -32.9797  -999.2500
  910.0000    12.7055    13.0888    72.6306   -33.1255  -999.2500
  910.5000    12.6308    13.3909    71.1118   -33.2714  -999.2500
  911.0000    12.5561    13.6180    70.3449   -33.2676  -999.2500
  911.5000    12.5561    13.6203    70.3299   -33.2647  -999.2500
  912.0000    12.4813    13.6226    70.3148   -33.1129  -999.2500
  912.5000    12.4066    13.4743    71.8036   -33.1099  -999.2500
  913.0000    12.3318    13.2523    72.5442   -33.1069  -999.2500
  913.5000    12.3318    13.1040    73.2773   -32.9551  -999.2500
  914.0000    12.3318    13.0319    73.2623   -32.8033  -999.2500
  914.5000    12.4066    13.1091    73.2472   -32.6515  -999.2500
