~VERSION INFORMATION
 VERS.                2.0:   CWLS LOG ASCII STANDARD - VERSION 2.0
 WRAP.                 NO:   ONE LINE PER DEPTH STEP
~WELL INFORMATION
#MNEM.UNIT      DATA TYPE    INFORMATION
#----------   ------------   ------------------------------
 STRT.F            0.5000:   START DEPTH
 STOP.F         3087.0000:   STOP DEPTH
 STEP.F            0.5000:   STEP LENGTH
 NULL.          -999.2500:   NO VALUE
 COMP. DEPARTMENT OF ENERGY:   COMPANY
 WELL.    NPR-3 #201-A-29:   WELL
 FLD . TEAPOT NAVAL RESERVE:   FIELD
 LOC .      S29 T39N R78W:   LOCATION
 CNTY.            NATRONA:   COUNTY
 STAT.            WYOMING:   STATE
 CTRY. UNITED STATES OF AMERICA:   COUNTRY
 SRVC.      NL McCullough:   SERVICE COMPANY
 DATE.        24-JUN-1965:   LOGDATE
 API .       490251144400:   API NUMBER
~CURVE INFORMATION
#MNEM.UNIT       API CODE    CURVE DESCRIPTION
#----------   ------------   ------------------------------
 DEPT.F                  :   
 GRR .GAPI   30 310 01 00:   GAMMA RAY
 CALI.IN     30 280 01 00:   CALIPER
~PARAMETER INFORMATION
#MNEM.UNIT          VALUE    DESCRIPTION
#----------   ------------   ------------------------------
 PD  .                 GL:   PERMANENT DATUM
 LMF .                 GL:   LOG MEASURED FROM
 EDF .F              5012:   DRILLING FLOOR
 DATE.        24-JUN-1965:   RUN DATE
 RUN .                  1:   RUN NUMBER
 DD  .F              2782:   DEPTH DRILLER
 DL  .F              2772:   DEPTH LOGGER
 BLI .F              2770:   BOTTOM LOG INTERVAL
 TLI .F              2300:   TOP LOG INTERVAL
 CS  .IN            6.625:   CASING SIZE
 CBD .F              2756:   CASING BOTTOM DRILLER
 ENGI.         COWLTHORPE:   RECORDING ENGINEER
 WITN.             HUDSON:   WITNESSED BY
 CLNT.            A2DTECH:   CLIENT CODE
 ORIG.           5" PRINT:   ORIGIN OF DATA
 UWI .       490251144400:   UNIQUE WELL ID
 DICO. A2D Technologies, Inc.:   DIGITIZING COMPANY
~OTHER INFORMATION
~A    DEPT     GRR         CALI 
# ...
  972.5000  -999.2500     6.4338
  973.0000  -999.2500     6.4328
  973.5000  -999.2500     6.4318
  974.0000  -999.2500     6.4308
  974.5000  -999.2500     6.4299
  975.0000  -999.2500     6.4289
  975.5000  -999.2500     6.4279
  976.0000  -999.2500     6.4270
  976.5000  -999.2500     6.4260
  977.0000  -999.2500     6.4250
  977.5000  -999.2500     6.4254
  978.0000  -999.2500     6.4264
  978.5000  -999.2500     6.4274
  979.0000  -999.2500     6.4283
  979.5000  -999.2500     6.4293
  980.0000  -999.2500     6.4303
  980.5000  -999.2500     6.4312
  981.0000  -999.2500     6.4322
  981.5000  -999.2500     6.4332
  982.0000  -999.2500     6.4341
  982.5000  -999.2500     6.4351
  983.0000  -999.2500     6.4361
  983.5000  -999.2500     6.4370
  984.0000  -999.2500     6.4380
  984.5000  -999.2500     6.4390
  985.0000  -999.2500     6.4399
  985.5000  -999.2500     6.4409
  986.0000  -999.2500     6.4419
  986.5000  -999.2500     6.4429
  987.0000  -999.2500     6.4438
  987.5000  -999.2500     6.4448
  988.0000  -999.2500     6.4458
  988.5000  -999.2500     6.4467
  989.0000  -999.2500     6.4477
  989.5000  -999.2500     6.4486
  990.0000  -999.2500     6.4496
  990.5000  -999.2500     6.4506
  991.0000  -999.2500     6.4515
  991.5000  -999.2500     6.4525
  992.0000  -999.2500     6.4534
  992.5000  -999.2500     6.4544
  993.0000  -999.2500     6.4554
  993.5000  -999.2500     6.4563
  994.0000  -999.2500     6.4573
  994.5000  -999.2500     6.4582
  995.0000  -999.2500     6.4592
  995.5000  -999.2500     6.4602
  996.0000  -999.2500     6.4611
  996.5000  -999.2500     6.4621
  997.0000  -999.2500     6.4630
  997.5000  -999.2500     6.4640
  998.0000  -999.2500     6.4644
  998.5000  -999.2500     6.4634
  999.0000  -999.2500     6.4625
  999.5000  -999.2500     6.4615
 1000.0000  -999.2500     6.4605
 1000.5000  -999.2500     6.4596
 1001.0000  -999.2500     6.4586
 1001.5000  -999.2500     6.4577
 1002.0000  -999.2500     6.4567
 1002.5000  -999.2500     6.4557
 1003.0000  -999.2500     6.4548
 1003.5000  -999.2500     6.4538
 1004.0000  -999.2500     6.4528
 1004.5000  -999.2500     6.4519
 1005.0000  -999.2500     6.4509
 1005.5000  -999.2500     6.4500
 1006.0000  -999.2500     6.4490
 1006.5000  -999.2500     6.4480
 1007.0000  -999.2500     6.4471
 1007.5000  -999.2500     6.4461
 1008.0000  -999.2500     6.4451
 1008.5000  -999.2500     6.4454
 1009.0000  -999.2500     6.4467
 1009.5000  -999.2500     6.4480
 1010.0000  -999.2500     6.4493
 1010.5000  -999.2500     6.4506
 1011.0000  -999.2500     6.4519
 1011.5000  -999.2500     6.4532
 1012.0000  -999.2500     6.4545
 1012.5000  -999.2500     6.4558
 1013.0000  -999.2500     6.4571
 1013.5000  -999.2500     6.4584
 1014.0000  -999.2500     6.4597
 1014.5000  -999.2500     6.4610
 1015.0000  -999.2500     6.4623
 1015.5000  -999.2500     6.4636
 1016.0000  -999.2500     6.4653
 1016.5000  -999.2500     6.4691
 1017.0000  -999.2500     6.4730
 1017.5000  -999.2500     6.4769
 1018.0000  -999.2500     6.4807
 1018.5000  -999.2500     6.4845
 1019.0000  -999.2500     6.4847
 1019.5000  -999.2500     6.4846
 1020.0000  -999.2500     6.4846
 1020.5000  -999.2500     6.4846
 1021.0000  -999.2500     6.4846
 1021.5000  -999.2500     6.4846
 1022.0000  -999.2500     6.4846
 1022.5000  -999.2500     6.4846
 1023.0000  -999.2500     6.4846
 1023.5000  -999.2500     6.4846
 1024.0000  -999.2500     6.4846
 1024.5000  -999.2500     6.4846
 1025.0000  -999.2500     6.4846
 1025.5000  -999.2500     6.4846
 1026.0000  -999.2500     6.4846
 1026.5000  -999.2500     6.4846
 1027.0000  -999.2500     6.4846
 1027.5000  -999.2500     6.4847
 1028.0000  -999.2500     6.4840
 1028.5000  -999.2500     6.4831
 1029.0000  -999.2500     6.4821
 1029.5000  -999.2500     6.4811
 1030.0000  -999.2500     6.4801
 1030.5000  -999.2500     6.4791
 1031.0000  -999.2500     6.4781
 1031.5000  -999.2500     6.4772
 1032.0000  -999.2500     6.4762
 1032.5000  -999.2500     6.4752
 1033.0000  -999.2500     6.4742
 1033.5000  -999.2500     6.4732
 1034.0000  -999.2500     6.4723
 1034.5000  -999.2500     6.4713
 1035.0000  -999.2500     6.4703
 1035.5000  -999.2500     6.4693
 1036.0000  -999.2500     6.4683
 1036.5000  -999.2500     6.4674
 1037.0000  -999.2500     6.4664
 1037.5000  -999.2500     6.4654
 1038.0000  -999.2500     6.4647
 1038.5000  -999.2500     6.4647
 1039.0000  -999.2500     6.4647
 1039.5000  -999.2500     6.4647
 1040.0000  -999.2500     6.4647
 1040.5000  -999.2500     6.4647
 1041.0000  -999.2500     6.4647
 1041.5000  -999.2500     6.4647
 1042.0000  -999.2500     6.4647
 1042.5000  -999.2500     6.4628
 1043.0000  -999.2500     6.4600
 1043.5000  -999.2500     6.4573
 1044.0000  -999.2500     6.4545
 1044.5000  -999.2500     6.4517
 1045.0000  -999.2500     6.4489
 1045.5000  -999.2500     6.4462
 1046.0000  -999.2500     6.4483
 1046.5000  -999.2500     6.4557
 1047.0000  -999.2500     6.4631
 1047.5000  -999.2500     6.4705
 1048.0000  -999.2500     6.4780
 1048.5000  -999.2500     6.4845
 1049.0000  -999.2500     6.4834
 1049.5000  -999.2500     6.4822
 1050.0000  -999.2500     6.4810
 1050.5000  -999.2500     6.4799
 1051.0000  -999.2500     6.4787
 1051.5000  -999.2500     6.4776
 1052.0000  -999.2500     6.4764
 1052.5000  -999.2500     6.4752
 1053.0000  -999.2500     6.4741
 1053.5000  -999.2500     6.4729
 1054.0000  -999.2500     6.4717
 1054.5000  -999.2500     6.4706
 1055.0000  -999.2500     6.4694
 1055.5000  -999.2500     6.4682
 1056.0000  -999.2500     6.4671
 1056.5000  -999.2500     6.4659
 1057.0000  -999.2500     6.4647
 1057.5000  -999.2500     6.4667
 1058.0000  -999.2500     6.4689
 1058.5000  -999.2500     6.4710
 1059.0000  -999.2500     6.4732
 1059.5000  -999.2500     6.4754
 1060.0000  -999.2500     6.4776
 1060.5000  -999.2500     6.4797
 1061.0000  -999.2500     6.4819
 1061.5000  -999.2500     6.4841
 1062.0000  -999.2500     6.4890
 1062.5000  -999.2500     6.4949
 1063.0000  -999.2500     6.5008
 1063.5000  -999.2500     6.5067
 1064.0000  -999.2500     6.5126
 1064.5000  -999.2500     6.5185
 1065.0000  -999.2500     6.5244
 1065.5000  -999.2500     6.5246
 1066.0000  -999.2500     6.5246
 1066.5000  -999.2500     6.5246
 1067.0000  -999.2500     6.5246
 1067.5000  -999.2500     6.5246
 1068.0000  -999.2500     6.5246
 1068.5000  -999.2500     6.5246
 1069.0000  -999.2500     6.5246
 1069.5000  -999.2500     6.5246
 1070.0000  -999.2500     6.5246
 1070.5000  -999.2500     6.5246
 1071.0000  -999.2500     6.5246
 1071.5000  -999.2500     6.5246
 1072.0000  -999.2500     6.5252
 1072.5000  -999.2500     6.5288
 1073.0000  -999.2500     6.5324
 1073.5000  -999.2500     6.5360
 1074.0000  -999.2500     6.5395
 1074.5000  -999.2500     6.5431
 1075.0000  -999.2500     6.5445
 1075.5000  -999.2500     6.5445
 1076.0000  -999.2500     6.5445
 1076.5000  -999.2500     6.5445
 1077.0000  -999.2500     6.5445
 1077.5000  -999.2500     6.5432
 1078.0000  -999.2500     6.5399
 1078.5000  -999.2500     6.5367
 1079.0000  -999.2500     6.5334
 1079.5000  -999.2500     6.5301
 1080.0000  -999.2500     6.5268
 1080.5000  -999.2500     6.5235
 1081.0000  -999.2500     6.5202
 1081.5000  -999.2500     6.5170
 1082.0000  -999.2500     6.5137
 1082.5000  -999.2500     6.5104
 1083.0000  -999.2500     6.5071
 1083.5000  -999.2500     6.5028
 1084.0000  -999.2500     6.4943
 1084.5000  -999.2500     6.4859
 1085.0000  -999.2500     6.4846
 1085.5000  -999.2500     6.4846
 1086.0000  -999.2500     6.4846
 1086.5000  -999.2500     6.4846
 1087.0000  -999.2500     6.4846
 1087.5000  -999.2500     6.4846
 1088.0000  -999.2500     6.4846
 1088.5000  -999.2500     6.4846
 1089.0000  -999.2500     6.4846
 1089.5000  -999.2500     6.4846
 1090.0000  -999.2500     6.4846
 1090.5000  -999.2500     6.4846
 1091.0000  -999.2500     6.4846
 1091.5000  -999.2500     6.4846
 1092.0000  -999.2500     6.4846
 1092.5000  -999.2500     6.4846
 1093.0000  -999.2500     6.4846
 1093.5000  -999.2500     6.4846
