~VERSION INFORMATION
 VERS.                2.0:   CWLS LOG ASCII STANDARD - VERSION 2.0
 WRAP.                 NO:   ONE LINE PER DEPTH STEP
~WELL INFORMATION
#MNEM.UNIT      DATA TYPE    INFORMATION
#----------   ------------   ------------------------------
 STRT.F            0.0000:   START DEPTH
 STOP.F          469.0000:   STOP DEPTH
 STEP.F            0.5000:   STEP LENGTH
 NULL.          -999.2500:   NO VALUE
 COMP. BROWN JOHN E&C INC:   COMPANY
 WELL. NPR 3 SX-10 4 #54-10:   WELL
 FLD .             TEAPOT:   FIELD
 LOC .      S10 T38N R78W:   LOCATION
 CNTY.            NATRONA:   COUNTY
 STAT.            WYOMING:   STATE
 CTRY. UNITED STATES OF AMERICA:   COUNTRY
 SRVC.     Atlas Wireline:   SERVICE COMPANY
 DATE.        25-APR-1991:   LOGDATE
 API .       490251133500:   API NUMBER
~CURVE INFORMATION
#MNEM.UNIT       API CODE    CURVE DESCRIPTION
#----------   ------------   ------------------------------
 DEPT.F                  :   
 RILD.OHMM   07 120 46 00:   INDUCTION LOG DEEP RESISTIVITY
 RILM.OHMM   07 120 44 00:   INDUCTION LOG MEDIUM RESISTIVITY
 GRD .GAPI   45 310 01 00:   GAMMA RAY FROM DENSITY LOG
 CALD.IN     45 280 60 00:   CALIPER FROM DENSITY LOG
 CORR.G/C3   45 356 01 00:   DENSITY CORRECTION
 PORD.DEC    45 890 12 00:   POROSITY DENSITY SANDSTONE
 DEN .G/C3   45 350 01 00:   COMPENSATED BULK DENSTIY
~PARAMETER INFORMATION
#MNEM.UNIT          VALUE    DESCRIPTION
#----------   ------------   ------------------------------
 PD  .                 GL:   PERMANENT DATUM
 EPD .F              5182:   ELEVATION PERMANENT DATUM
 LMF .                 KB:   LOG MEASURED FROM
 DAPD.F                10:   FEET ABOVE PERMANENT DATUM
 DMF .                 KB:   DRILLING MEASURED FROM
 EKB .F              5172:   KELLING BUSHING
 EGL .F              5182:   GROUND LEVEL
 DATE.        25-APR-1991:   RUN DATE
 RUN .                  1:   RUN NUMBER
 DD  .F               471:   DEPTH DRILLER
 DL  .F               471:   DEPTH LOGGER
 BLI .F               469:   BOTTOM LOG INTERVAL
 CS  .IN            8.625:   CASING SIZE
 CBD .F                44:   CASING BOTTOM DRILLER
 CBL .F                44:   CASING BOTTOM LOGGER
 BS  .IN            7.875:   BIT SIZE
 BSD .F               471:   BIT SIZE AT DEPTH
 DFT .                AIR:   DRILLING FLUID TYPE
 LUN .           HL- 6307:   LOGGING UNIT NUMBER
 LUL .             CASPER:   LOGGING UNIT LOCATION
 ENGI.    KINNETT/ ZIEGER:   RECORDING ENGINEER
 WITN.             STRONG:   WITNESSED BY
 CLNT.            A2DTECH:   CLIENT CODE
 ORIG.        2" 5" PRINT:   ORIGIN OF DATA
 UWI .       490251133500:   UNIQUE WELL ID
 DICO. A2D Technologies, Inc.:   DIGITIZING COMPANY
~OTHER INFORMATION
~A    DEPT    RILD       RILM         GRD      CALD       CORR       PORD        DEN   
# ...
  364.0000    13.9816    13.6531   112.9518     8.3273     0.0079     0.1348     2.4240
  364.5000    13.7886    13.6495   112.0482     8.3273     0.0079     0.1330     2.4312
  365.0000    13.6931    13.6459   110.4669     8.3273     0.0079     0.1361     2.4282
  365.5000    13.5982    13.4547   109.5633     8.3273     0.0064     0.1373     2.4252
  366.0000    13.5982    13.2662   108.4337     8.3423     0.0034     0.1363     2.4229
  366.5000    13.3969    12.9891   107.9819     8.3273     0.0019     0.1303     2.4290
  367.0000    13.3176    12.8961   109.3373     8.3110     0.0034     0.1255     2.4380
  367.5000    13.1337    12.8927   113.0835     8.2973     0.0124     0.1240     2.4441
  368.0000    13.0428    12.8004   119.7289     8.2973     0.0139     0.1261     2.4411
  368.5000    12.9524    12.7086   120.1807     8.2973     0.0079     0.1279     2.4388
  369.0000    12.9524    12.6169   118.5994     8.3273     0.0019     0.1291     2.4351
  369.5000    12.9524    12.7020   119.5030     8.3423    -0.0026     0.1300     2.4351
  370.0000    12.9524    12.7870   121.3102     8.3574    -0.0041     0.1291     2.4358
  370.5000    12.9524    12.7828   118.3735     8.3874     0.0004     0.1279     2.4381
  371.0000    12.9524    12.7786   114.0147     8.4024     0.0064     0.1251     2.4435
  371.5000    12.9524    12.7752   112.0482     8.3423     0.0124     0.1216     2.4472
  372.0000    12.9524    12.7719   113.8554     8.3273     0.0094     0.1213     2.4502
  372.5000    12.8627    12.6804   112.7259     8.2823     0.0079     0.1228     2.4472
  373.0000    12.8627    12.5895   112.0482     8.2823     0.0079     0.1252     2.4420
  373.5000    12.8627    12.5854   112.9518     8.2823     0.0139     0.1276     2.4382
  374.0000    12.6851    12.5821   112.9759     8.3204     0.0199     0.1288     2.4382
  374.5000    12.5972    12.4920   110.4400     8.3273     0.0199     0.1297     2.4375
  375.0000    12.5972    12.4887   107.4173     8.3123     0.0245     0.1296     2.4360
  375.5000    12.5100    12.4846   105.2711     8.2973     0.0199     0.1276     2.4353
  376.0000    12.3373    12.3952   108.4337     8.2973     0.0163     0.1227     2.4436
  376.5000    12.3373    12.3920   110.6928     8.3123     0.0085     0.1206     2.4481
  377.0000    12.2518    12.2183   112.0482     8.3273     0.0019     0.1191     2.4511
  377.5000    12.1556    12.1307   112.9518     8.2973     0.0079     0.1182     2.4534
  378.0000    11.9989    11.8775   114.7590     8.2973     0.0094     0.1185     2.4534
  378.5000    11.9158    11.7924   117.4977     8.2973     0.0139     0.1188     2.4534
  379.0000    11.9158    11.7893   118.3735     8.2973     0.0139     0.1188     2.4534
  379.5000    11.8300    11.7049   118.5994     8.3123     0.0139     0.1179     2.4535
  380.0000    11.5891    11.6203   114.7590     8.3273     0.0124     0.1170     2.4557
  380.5000    11.5891    11.5371   114.0813     8.3423     0.0079     0.1167     2.4588
  381.0000    11.5088    11.5341   115.6627     8.3574     0.0004     0.1158     2.4603
  381.5000    11.2713    11.3724   116.7922     8.3423     0.0004     0.1164     2.4595
  382.0000    10.9622    11.1295   115.2108     8.3273     0.0019     0.1173     2.4565
  382.5000    10.7360    10.7532   115.4367     8.3273     0.0034     0.1158     2.4596
  383.0000    10.5877    10.3845   117.4699     8.3273     0.0079     0.1128     2.4709
  383.5000    10.3692    10.0981   121.0843     8.3273     0.0139     0.1118     2.4739
  384.0000    10.1496     9.8197   123.7952     8.3273     0.0124     0.1155     2.4634
  384.5000     9.7404     9.4169   123.3434     8.3423     0.0094     0.1164     2.4589
  385.0000     9.1497     8.7239   125.6024     8.3423     0.0139     0.1155     2.4604
  385.5000     8.4762     8.0262   128.5885     8.3273     0.0154     0.1142     2.4657
  386.0000     7.4793     7.4355   133.7349     8.3273     0.0139     0.1154     2.4597
  386.5000     6.5085     6.7329   136.7963     8.3273     0.0124     0.1203     2.4535
  387.0000     5.9462     5.8722   141.4685     8.3423     0.0124     0.1311     2.4285
  387.5000     5.7831     5.7106   146.1596     8.3273     0.0184     0.1456     2.4047
  388.0000     5.7788     6.0339   150.0000     8.3123     0.0199     0.1603     2.3844
  388.5000     5.7879     6.3760   142.9970     8.2823     0.0154     0.1543     2.3875
  389.0000     5.9462     6.9262   129.2169     8.2823     0.0094     0.1359     2.4206
  389.5000     6.3301     7.4725   124.8074     8.2823     0.0109     0.1249     2.4447
  390.0000     6.7387     7.8960   128.3132     8.2823     0.0124     0.1103     2.4748
  390.5000     7.3291     8.4016   128.5392     8.2823     0.0124     0.1094     2.4779
  391.0000     8.3591     9.1348   127.4096     8.2823     0.0199     0.1142     2.4651
  391.5000     9.5394     9.8464   124.2470     8.2823     0.0380     0.1202     2.4568
  392.0000    10.1552    10.2615   123.1175     8.2823     0.0561     0.1229     2.4440
  392.5000    10.3692    10.4742   124.9247     8.2823     0.0380     0.1193     2.4569
  393.0000    10.5877    10.5443   123.9426     8.2823     0.0229     0.1113     2.4780
  393.5000    10.6616    10.7627   121.0843     8.2973     0.0139     0.0994     2.4953
  394.0000    10.6616    10.9850   119.5030     8.3273     0.0124     0.0937     2.4961
  394.5000    10.7360    11.0592   127.4096     8.3273     0.0124     0.0973     2.4931
  395.0000    10.9622    11.1331   129.6687     8.3273     0.0124     0.0988     2.4893
  395.5000    11.2713    11.3631   127.1837     8.3273     0.0124     0.0997     2.4871
  396.0000    11.5891    11.5986   125.8072     8.2973     0.0124     0.1009     2.4841
  396.5000    11.9158    11.7565   125.8380     8.2823     0.0124     0.1024     2.4811
  397.0000    12.0826    12.0001   124.9247     8.2823     0.0079     0.1042     2.4788
  397.5000    12.3373    12.2488   123.3434     8.2673     0.0034     0.1048     2.4781
  398.0000    12.5100    12.5130   122.2139     8.2823     0.0019     0.1045     2.4781
  398.5000    12.5972    12.6737   123.1175     8.2823     0.0079     0.1042     2.4789
  399.0000    12.6851    12.8463   124.6988     8.3123     0.0064     0.1039     2.4804
  399.5000    12.8723    13.0229   125.8283     8.3423     0.0079     0.1033     2.4789
  400.0000    13.2253    13.1091   125.8283     8.3423     0.0075     0.1024     2.4782
  400.5000    13.2244    13.1967   123.5693     8.3422     0.0049     0.1004     2.4833
  401.0000    13.3157    13.2849   119.2771     8.3420     0.0018     0.0991     2.4857
  401.5000    13.3149    13.3737   117.2002     8.3419     0.0033     0.1003     2.4857
  402.0000    13.3137    13.3693   116.7922     8.3417     0.0033     0.1039     2.4796
  402.5000    13.3128    13.3657   121.0843     8.3416     0.0078     0.1093     2.4698
  403.0000    13.4050    13.4552   122.8916     8.3414     0.0093     0.1096     2.4676
  403.5000    13.6864    13.4507   122.8916     8.3263     0.0138     0.1099     2.4698
  404.0000    13.7809    13.4472   122.8916     8.3261     0.0123     0.1068     2.4766
  404.5000    13.7800    13.4219   119.2771     8.3260     0.0062     0.1060     2.4759
  405.0000    13.6836    13.3717   119.2771     8.3258     0.0092     0.1060     2.4728
  405.5000    13.6825    13.3216   123.5693     8.3407     0.0139     0.1063     2.4728
  406.0000    13.5868    13.2714   127.6355     8.3405     0.0152     0.1072     2.4728
  406.5000    13.3983    13.2213   124.6988     8.3253     0.0137     0.1081     2.4728
  407.0000    13.3046    13.1711   120.8584     8.3252     0.0091     0.1093     2.4706
  407.5000    13.3037    13.1210   118.3735     8.3100     0.0016     0.1108     2.4675
  408.0000    13.2095    13.0708   116.3404     8.3099     0.0001     0.1108     2.4675
  408.5000    13.0274    13.1376   113.8554     8.3098     0.0031     0.1096     2.4706
  409.0000    13.0263    13.2262   115.6627     8.3246     0.0151     0.1099     2.4713
