~VERSION INFORMATION
 VERS.                2.0:   CWLS LOG ASCII STANDARD - VERSION 2.0
 WRAP.                 NO:   ONE LINE PER DEPTH STEP
~WELL INFORMATION
#MNEM.UNIT      DATA TYPE    INFORMATION
#----------   ------------   ------------------------------
 STRT.F           38.0000:   START DEPTH
 STOP.F         1202.0000:   STOP DEPTH
 STEP.F            0.5000:   STEP LENGTH
 NULL.          -999.2500:   NO VALUE
 COMP.       INTEX OIL CO:   COMPANY
 WELL.     72 S 14 #72-14:   WELL
 FLD .            WILDCAT:   FIELD
 LOC .      S14 T38N R78W:   LOCATION
 CNTY.            NATRONA:   COUNTY
 STAT.            WYOMING:   STATE
 CTRY. UNITED STATES OF AMERICA:   COUNTRY
 SRVC.       Schlumberger:   SERVICE COMPANY
 DATE.        26-AUG-1966:   LOGDATE
 API .       490250970800:   API NUMBER
~CURVE INFORMATION
#MNEM.UNIT       API CODE    CURVE DESCRIPTION
#----------   ------------   ------------------------------
 DEPT.F                  :   
 SPR .MV     05 010 01 00:   SPONTANEOUS POTENTIAL FROM RES.
 ASN .OHMM   05 041 16 00:   AMPLIFIED SHORT NORMAL 16"
 ILD .OHMM   05 120 46 00:   INDUCTION LOG DEEP
 CILD.MMHO   05 110 46 00:   CONDUCTIVITY INDUCTION LOG DEEP
 CORR.G/C3   45 356 01 00:   DENSITY CORRECTION
 GRD .GAPI   45 310 01 00:   GAMMA RAY FROM DENSITY LOG
 CALD.IN     45 280 60 00:   CALIPER FROM DENSITY LOG
 DPHI.DEC    45 890 12 00:   DENSITY POROSITY SANDSTONE
 RHOB.G/C3   45 350 01 00:   BULK DENSITY
~PARAMETER INFORMATION
#MNEM.UNIT          VALUE    DESCRIPTION
#----------   ------------   ------------------------------
 PD  .                 GL:   PERMANENT DATUM
 EPD .F              5265:   ELEVATION PERMANENT DATUM
 LMF .                 KB:   LOG MEASURED FROM
 DAPD.F                 5:   FEET ABOVE PERMANENT DATUM
 DMF .                 KB:   DRILLING MEASURED FROM
 EKB .F              5270:   KELLING BUSHING
 DATE.        26-AUG-1966:   RUN DATE
 RUN .                  1:   RUN NUMBER
 DD  .F              1201:   DEPTH DRILLER
 DL  .F              1203:   DEPTH LOGGER
 BLI .F              1202:   BOTTOM LOG INTERVAL
 TLI .F                46:   TOP LOG INTERVAL
 CS  .IN            8.625:   CASING SIZE
 BS  .IN             6.75:   BIT SIZE
 BSD .F              1201:   BIT SIZE AT DEPTH
 DFT .     CHEM- GEL- OIL:   DRILLING FLUID TYPE
 DFD .                9.4:   DRILLING FLUID DENSITY
 MRT .F                94:   MAXIMUM RECORDED TEMPERATURE
 LUN .               3527:   LOGGING UNIT NUMBER
 LUL .             CASPER:   LOGGING UNIT LOCATION
 ENGI.             KNOBEL:   RECORDING ENGINEER
 WITN.                MAY:   WITNESSED BY
 CLNT.            A2DTECH:   CLIENT CODE
 ORIG.       2", 5" PRINT:   ORIGIN OF DATA
 UWI .       490250970800:   UNIQUE WELL ID
 DICO. A2D Technologies, Inc.:   DIGITIZING COMPANY
~OTHER INFORMATION
~A   DEPT      SPR        ASN        ILD       CILD       CORR        GRD       CALD       DPHI       RHOB   
# ...
  804.5000   -23.3571     8.8848     7.3437   137.2502     0.0694   115.9159     6.6760     0.0426     2.5836
  805.0000   -23.5091     8.9444     7.2672   137.9902     0.0672   115.2620     6.6319     0.0641     2.5565
  805.5000   -23.5107     8.9890     7.2657   137.9724     0.0320   120.6406     6.6027     0.0665     2.5470
  806.0000   -23.5123     8.9585     7.2643   139.4595     0.0267   121.5448     6.6033     0.0641     2.5478
  806.5000   -23.5138     8.8980     7.1874   140.9432     0.0275   120.2203     6.6039     0.0728     2.5358
  807.0000   -23.6658     8.8204     7.1860   141.6832     0.0306   118.4454     6.7833     0.0749     2.5328
  807.5000   -23.6673     8.7469     7.1846   143.1704     0.0350   113.3172     6.9627     0.0686     2.5413
  808.0000   -23.5181     8.7014     7.1080   143.9068     0.0448   114.2248     7.0230     0.0581     2.5654
  808.5000   -23.3689     8.6410     7.1063   145.3904     0.0549   113.5676     7.0385     0.0428     2.5810
  809.0000   -23.0695     8.5504     7.0297   146.8776     0.0612   111.3456     7.0242     0.0425     2.5807
  809.5000   -22.9200     8.4892     7.0283   148.3648     0.0539   109.5706     7.0247     0.0565     2.5715
  810.0000   -22.7708     8.3693     6.9518   151.3499     0.0230   117.1847     7.0104     0.0787     2.5283
  810.5000   -22.6220     8.2788     6.8753   154.3386     0.0266   118.7595     6.9961     0.0811     2.5224
  811.0000   -22.6235     8.1882     6.7988   157.3273     0.0298   116.9880     7.0116     0.0846     2.5180
  811.5000   -22.6253     8.0977     6.7222   159.5617     0.0245   115.2130     6.9824     0.0951     2.5096
  812.0000   -22.6267     8.0072     6.6454   161.0489     0.0183   111.6497     6.9532     0.1017     2.4962
  812.5000   -22.7788     7.9442     6.6439   161.0345     0.0201   114.3457     7.0134     0.1034     2.4942
  813.0000   -22.7802     7.8861     6.6425   161.0202     0.0208   119.2771     7.0289     0.0983     2.5025
  813.5000   -22.9322     7.8556     6.7165   161.0059     0.0193   120.4083     7.0295     0.0926     2.5068
  814.0000   -22.9337     7.9303     6.8648   159.4865     0.0193   120.1948     7.0301     0.0872     2.5124
  814.5000   -22.9355     8.0950     6.9385   156.4692     0.0196   120.2116     7.0307     0.0863     2.5100
  815.0000   -23.0875     8.2447     7.0121   152.7012     0.0223   117.0953     7.0462     0.0878     2.5177
  815.5000   -23.0890     8.3687     7.0858   149.6838     0.0294   111.7436     7.0468     0.0782     2.5270
  816.0000   -23.0904     8.4690     7.1594   146.6665     0.0426   113.7690     7.0474     0.0755     2.5362
  816.5000   -23.0919     8.5436     7.2330   144.2818     0.0495   114.4497     7.0480     0.0806     2.5273
  817.0000   -23.2443     8.5583     7.3063   142.1298     0.0313   112.4546     7.0486     0.0761     2.5296
  817.5000   -23.2457     8.5728     7.3045   140.6140     0.0242   111.7973     7.0492     0.0764     2.5243
  818.0000   -23.2471     8.6028     7.3031   139.8490     0.0248   111.8108     7.0498     0.0806     2.5246
  818.5000   -23.2486     8.6920     7.3016   139.0839     0.0284   116.2951     7.0504     0.0758     2.5327
  819.0000   -23.2500     8.7816     7.3002   139.0691     0.0347   121.0030     7.0361     0.0808     2.5296
  819.5000   -23.2515     8.8863     7.2988   139.0517     0.0299   123.2519     7.0367     0.0877     2.5114
  820.0000   -23.1023     8.9759     7.2973   138.2866     0.0280   120.8030     7.0373     0.0772     2.5277
  820.5000   -23.1041     9.0206     7.2955   139.0266     0.0263   116.5724     7.0379     0.0799     2.5250
  821.0000   -23.1055     9.0502     7.2941   139.0087     0.0127   111.2207     7.0236     0.0850     2.5098
  821.5000   -23.2576     9.0346     7.2926   139.8375     0.0061   109.8928     7.0242     0.0901     2.5081
  822.0000   -23.2590     8.9441     7.2912   141.2324     0.0067   108.5649     7.0248     0.0868     2.5156
  822.5000   -23.4114     8.8235     7.2898   142.7160     0.0137   114.1671     7.0403     0.0891     2.5134
  823.0000   -23.4129     8.7030     7.2788   143.4560     0.0278   116.4159     7.0409     0.0972     2.4999
  823.5000   -23.2633     8.5974     7.2115   144.9399     0.0382   115.3116     7.0415     0.0903     2.5161
  824.0000   -23.2651     8.5025     7.1349   146.5071     0.0337   111.9718     7.0421     0.0810     2.5216
  824.5000   -23.1160     8.4163     7.1335   147.9140     0.0210   108.4085     7.0426     0.0870     2.5146
  825.0000   -23.1178     8.4759     7.0570   149.4012     0.0159   109.3161     7.0432     0.0960     2.5091
  825.5000   -22.9682     8.5357     6.9805   150.1376     0.0150   110.2237     7.0438     0.0936     2.4918
  826.0000   -22.9700     8.5051     7.0538   150.1197     0.0158   111.1314     7.0444     0.1007     2.4911
  826.5000   -22.9715     8.4441     7.1278   149.3544     0.0194   111.8121     7.0450     0.1028     2.5016
  827.0000   -22.9729     8.3840     7.2014   147.8353     0.0293   109.8169     7.0456     0.0878     2.5248
  827.5000   -22.9744     8.3836     7.2750   146.3195     0.0244   108.9362     7.0462     0.0830     2.5151
  828.0000   -22.9762     8.5033     7.3483   144.8037     0.0210   109.1731     7.0468     0.0953     2.5076
  828.5000   -22.9776     8.6680     7.4272   142.5371     0.0225   110.0807     7.0474     0.0839     2.5301
  829.0000   -22.9790     8.8628     7.5707   139.5195     0.0316   113.6709     7.0480     0.0743     2.5346
  829.5000   -22.9805     9.0779     7.6443   136.4989     0.0525   113.6843     7.0486     0.0779     2.5264
  830.0000   -23.1325     9.2972     7.7926   134.2323     0.0645   113.0238     7.0492     0.0719     2.5391
  830.5000   -23.2849     9.4319     7.8666   131.2150     0.0646   111.2522     7.0498     0.0758     2.5332
  831.0000   -23.2864     9.5516     8.0150   128.1977     0.0608   107.9124     7.0504     0.0788     2.5250
  831.5000   -23.2878     9.6863     8.1637   125.8882     0.0456   105.0163     7.0359     0.0835     2.5190
  832.0000   -23.2893     9.8360     8.3121   122.1595     0.0303   105.4769     6.9473     0.0898     2.5130
  832.5000   -23.4413     9.9919     8.4608   119.1422     0.0204   104.8196     6.8734     0.0838     2.5205
  833.0000   -23.4579    10.1613     8.6095   116.8756     0.0206   109.9780     6.9336     0.0856     2.5168
  833.5000   -23.5951    10.3308     8.7583   114.6090     0.0256   113.1211     7.0087     0.0835     2.5131
  834.0000   -23.4460    10.6300     8.9830   112.3120     0.0304   113.8018     7.0391     0.0865     2.5221
  834.5000   -23.2965    10.8548     9.2058   109.3216     0.0286   111.5831     7.0397     0.0763     2.5318
  835.0000   -23.1473    11.0797     9.3545   107.0550     0.0244   104.3069     7.0403     0.0855     2.5191
  835.5000   -22.9985    11.3794     9.5779   105.5392     0.0204   101.5268     7.0409     0.0825     2.5154
  836.0000   -23.1509    11.5291     9.7270   104.0234     0.0309   100.1789     7.0564     0.0694     2.5431
  836.5000   -23.4535    11.6789     9.8003   103.2582     0.0391    99.7866     7.0419     0.0825     2.5274
  837.0000   -23.7562    11.8286     9.7988   102.4897     0.0324   102.3370     7.0576     0.0948     2.5118
  837.5000   -23.9082    11.9782     9.7970   103.2297     0.0201   104.5082     7.0431     0.0990     2.5021
  838.0000   -24.0603    11.9778     9.6454   103.9626     0.0137   104.0742     7.0439     0.0977     2.4983
  838.5000   -24.2123    11.9773     9.6440   104.7026     0.0264   103.8641     7.0145     0.0807     2.5260
  839.0000   -24.2141    11.8267     9.4924   105.4405     0.0452   105.2191     7.0002     0.0798     2.5223
  839.5000   -24.2155    11.6761     9.4159   107.6698     0.0475   104.7697     7.0009     0.1019     2.5014
  840.0000   -24.0660    11.5255     9.2543   108.4086     0.0412   104.3369     7.0164     0.0974     2.4977
  840.5000   -24.0678    11.3749     9.0373   109.8970     0.0261   103.6803     7.0170     0.0881     2.5134
