~VERSION INFORMATION
 VERS.                2.0:   CWLS LOG ASCII STANDARD - VERSION 2.0
 WRAP.                 NO:   ONE LINE PER DEPTH STEP
~WELL INFORMATION
#MNEM.UNIT      DATA TYPE    INFORMATION
#----------   ------------   ------------------------------
 STRT.F           20.0000:   START DEPTH
 STOP.F          677.0000:   STOP DEPTH
 STEP.F            0.5000:   STEP LENGTH
 NULL.          -999.2500:   NO VALUE
 COMP. FENIX & SCISSON INC:   COMPANY
 WELL. 11 WI NPR 3 #36-26 SX:   WELL
 FLD .             TEAPOT:   FIELD
 LOC .      S11 T38N R78W:   LOCATION
 CNTY.            NATRONA:   COUNTY
 STAT.            WYOMING:   STATE
 CTRY. UNITED STATES OF AMERICA:   COUNTRY
 SRVC.      Dresser Atlas:   SERVICE COMPANY
 DATE.        06-AUG-1980:   LOGDATE
 API .       490251084100:   API NUMBER
~CURVE INFORMATION
#MNEM.UNIT       API CODE    CURVE DESCRIPTION
#----------   ------------   ------------------------------
 DEPT.F                  :   
 SPR .MV     07 010 01 00:   SPONTANEOUS POTENTIAL
 SFL .OHMM   07 220 01 00:   SHALLOW FOCUSED LOG RESISTIVITY
 ILD .OHMM   07 120 46 00:   INDUCTION LOG DEEP
 ILM .OHMM   07 120 44 00:   INDUCTION LOG MEDIUM
 GRD .GAPI   45 310 01 00:   GAMMA RAY FROM DENSITY LOG
 RHOB.G/C3   45 350 01 00:   BULK DENSITY
 CALD.IN     45 280 60 00:   CALIPER
 CORR.G/C3   45 356 01 00:   DENSITY CORRECTION
 DPOR.DEC    45 890 12 00:   DENSITY POROSITY SANDSTONE
 NPOR.DEC    42 890 03 00:   NEUTRON POROSITY SANDSTONE
~PARAMETER INFORMATION
#MNEM.UNIT          VALUE    DESCRIPTION
#----------   ------------   ------------------------------
 PD  .                 GL:   PERMANENT DATUM
 EPD .F              5191:   ELEVATION PERMANENT DATUM
 LMF .                 KB:   LOG MEASURED FROM
 DAPD.F                 5:   FEET ABOVE PERMANENT DATUM
 DMF .                 KB:   DRILLING MEASURED FROM
 EKB .F              5196:   KELLING BUSHING
 EGL .F              5191:   GROUND LEVEL
 DATE.             8-6-80:   RUN DATE
 RUN .                  1:   RUN NUMBER
 DD  .F               680:   DEPTH DRILLER
 DL  .F               679:   DEPTH LOGGER
 BLI .F               676:   BOTTOM LOG INTERVAL
 TLI .F                20:   TOP LOG INTERVAL
 BS  .IN            7.875:   BIT SIZE
 BSD .F               680:   BIT SIZE AT DEPTH
 DFT .                KCL:   DRILLING FLUID TYPE
 DFD .                9.4:   DRILLING FLUID DENSITY
 DFV .                 45:   DRILLING FLUID VISCOSITY
 DFPH.                 12:   DRILLING FLUID PH
 MSS .           FLOWLINE:   MUD SAMPLE SOURCE
 RMS .OHMM            .11:   RESISTIVITY MUD SAMPLE
 MST .F                65:   MUD SAMPLE TEMPERATURE
 RMF .OHMM             .1:   RESISTIVITY MUD FILTRATE SAMPLE
 MFST.F                60:   MUD FILTRATE SAMPLE TEMPERATURE
 RMC .OHMM            .17:   RESISTIVITY MUD CAKE
 MCST.F                65:   MUD CAKE SAMPLE TEMPERATURE
 MFSS.               MEAS:   MUD FILTRATE SAMPLE SOURCE
 MCSS.              CHART:   MUD CAKE SAMPLE SOURCE
 TCS .HRS              .5:   TIME CURCULATED STOPPED
 MRT .F               100:   MAXIMUM RECORDED TEMPERATURE
 LUN .               6240:   LOGGING UNIT NUMBER
 LUL .               RVTN:   LOGGING UNIT LOCATION
 ENGI.            K. RALL:   RECORDING ENGINEER
 WITN.     AMAND/MCINTYRE:   WITNESSED BY
 CLNT.            A2DTECH:   CLIENT CODE
 ORIG.        2" 5" PRINT:   ORIGIN OF DATA
 UWI .       490251084100:   UNIQUE WELL ID
 DICO. A2D Technologies, Inc.:   DIGITIZING COMPANY
~OTHER INFORMATION
~A   DEPT       SPR       SFL         ILD         ILM      GRD       RHOB       CALD       CORR       DPOR       NPOR   
# ...
  455.5000   -74.8181     7.1285     6.6351     6.2404   129.4632     2.4515     8.1199     0.0122     0.1361     0.2942
  456.0000   -74.4704     7.0685     6.7676     6.3327   129.4899     2.4505     8.1178     0.0121     0.1357     0.2978
  456.5000   -74.2117     7.3148     6.9028     6.4263   129.7193     2.4587     8.1157     0.0151     0.1306     0.2877
  457.0000   -74.3369     7.5209     7.0408     6.5213   130.7432     2.4704     8.1136     0.0269     0.1228     0.2806
  457.5000   -74.4534     7.7330     7.1823     6.6178   133.2846     2.4779     8.1115     0.0331     0.1182     0.2777
  458.0000   -74.5765     7.8242     7.2685     6.7156   134.0775     2.4823     8.1094     0.0392     0.1211     0.2746
  458.5000   -74.4511     7.7988     7.2434     6.7531   130.5174     2.4748     8.1082     0.0335     0.1256     0.2758
  459.0000   -74.2578     7.7805     7.2245     6.7290   128.9231     2.4660     8.1091     0.0254     0.1277     0.2775
  459.5000   -74.0516     7.7623     7.2058     6.7097   128.3219     2.4710     8.1100     0.0175     0.1172     0.2849
  460.0000   -74.4537     7.7442     7.1873     6.6904   128.6819     2.4882     8.1109     0.0251     0.1018     0.3107
  460.5000   -74.4309     7.7260     7.1689     6.6711   128.1515     2.5087     8.1118     0.0373     0.1060     0.3150
  461.0000   -74.2021     7.7080     7.1504     6.6519   126.7046     2.5015     8.1127     0.0398     0.1123     0.3166
  461.5000   -73.9691     7.6900     7.1321     6.6328   126.2871     2.4894     8.1136     0.0303     0.1150     0.3137
  462.0000   -73.8390     7.6597     7.1137     6.6137   129.0062     2.4868     8.1144     0.0216     0.0978     0.3034
  462.5000   -74.0700     7.6189     7.0954     6.5946   130.1440     2.5077     8.1153     0.0313     0.0978     0.3014
  463.0000   -74.2894     7.5784     7.0772     6.5757   129.9426     2.5138     8.1162     0.0403     0.1346     0.2997
  463.5000   -74.5112     7.5414     7.0708     6.5686   129.9292     2.4687     8.1171     0.0182     0.1541     0.2931
  464.0000   -74.5417     7.6072     7.0598     6.5976   130.5670     2.4247     8.1180    -0.0010     0.1381     0.2761
  464.5000   -74.4519     7.6683     7.0496     6.6304   132.3470     2.4196     8.1189    -0.0063     0.1376     0.2831
  465.0000   -74.3594     7.7299     7.0393     6.6210   131.7303     2.4425     8.1198    -0.0005     0.1365     0.2959
  465.5000   -74.2671     7.7921     7.0291     6.6058   130.3934     2.4474     8.1207    -0.0085     0.1294     0.3080
  466.0000   -74.1746     7.8242     7.0189     6.5907   130.0958     2.4477     8.1215    -0.0171     0.1170     0.3158
  466.5000   -74.0805     7.4444     7.0095     6.5757   131.6371     2.4551     8.1224    -0.0156     0.1144     0.3252
  467.0000   -74.0064     7.3343     6.8792     6.5090   133.7151     2.4725     8.1233     0.0094     0.1120     0.3346
  467.5000   -74.2326     7.3937     6.7159     6.3293   131.7485     2.4837     8.1242     0.0264     0.1143     0.3350
  468.0000   -74.4604     7.4354     6.5565     6.1550   129.0375     2.4900     8.1251     0.0360     0.1220     0.2698
  468.5000   -74.6863     7.4724     6.4010     5.9848   128.5114     2.4901     8.1260     0.0377     0.1330     0.2617
  469.0000   -74.9121     7.1081     6.2491     5.8185   131.0430     2.4840     8.1269     0.0287     0.1456     0.2599
  469.5000   -75.1379     6.7366     6.1030     5.7228   133.8295     2.4716     8.1278     0.0133     0.1537     0.2786
  470.0000   -75.3657     6.3845     6.0845     5.7462   132.3599     2.4531     8.1279    -0.0022     0.1368     0.3050
  470.5000   -75.5924     6.2738     6.0662     5.7637   131.3031     2.4253     8.1268    -0.0063     0.1152     0.3094
  471.0000   -75.5430     6.5179     6.0471     5.7752   132.0921     2.4207     8.1257     0.0073     0.1115     0.3094
  471.5000   -75.4750     6.7976     5.7884     5.5176   133.9109     2.4637     8.1246     0.0423     0.1109     0.3086
  472.0000   -75.4015     7.0894     5.5280     5.2588   135.0027     2.4911     8.1236     0.0465     0.1154     0.3322
  472.5000   -75.6873     7.1364     5.2793     5.0122   136.2317     2.4922     8.1225     0.0400     0.1238     0.3413
  473.0000   -76.0208     7.0261     5.0418     4.6084   138.2435     2.4870     8.1214     0.0334     0.1441     0.3200
  473.5000   -76.3532     6.8545     4.8413     4.2174   137.2659     2.4738     8.1203     0.0171     0.1775     0.3099
  474.0000   -76.6905     5.7437     4.6956     3.9970   135.3893     2.4348     8.1193     0.0007     0.2140     0.3292
  474.5000   -76.6339     4.4227     4.5885     4.1292   133.8345     2.3784     8.1182    -0.0169     0.2216     0.3613
  475.0000   -76.3709     4.3822     4.6309     4.3487   137.6367     2.3201     8.1171    -0.0183     0.2084     0.3842
  475.5000   -76.1022     5.2193     4.8463     4.5798   138.6836     2.3066     8.1160    -0.0105     0.1656     0.3848
  476.0000   -75.8341     6.1829     5.0515     4.8234   136.9857     2.3553     8.1149     0.0189     0.1210     0.3246
  476.5000   -75.5664     7.3950     5.2654     5.0798   134.7642     2.4438     8.1139     0.0445     0.1271     0.2927
  477.0000   -75.2980     7.7525     5.4885     5.3498   132.8421     2.4739     8.1128     0.0349     0.1329     0.2723
  477.5000   -75.0298     7.4751     5.8185     5.6342   131.6606     2.4573     8.1117     0.0121     0.1321     0.2725
  478.0000   -74.7867     7.2689     6.1824     5.9338   130.7643     2.4717     8.1106     0.0101     0.1074     0.2936
  478.5000   -74.7494     7.2689     6.5691     6.2492   130.3826     2.4981     8.1096     0.0367     0.1142     0.3033
  479.0000   -74.7060     7.3054     6.8785     6.5814   129.9710     2.4881     8.1085     0.0414     0.1228     0.3012
  479.5000   -74.6628     7.3360     6.6001     6.6299   129.7503     2.4667     8.1080     0.0389     0.1339     0.2921
  480.0000   -74.6191     7.3667     6.1687     5.8099   120.7663     2.4457     8.1079     0.0315     0.1453     0.2806
  480.5000   -74.7405     7.4039     5.7655     5.3124   129.9045     2.4249     8.1079    -0.0016     0.1521     0.2979
  481.0000   -75.0119     7.3613     5.3886     4.8576   130.1624     2.4215     8.1079    -0.0018     0.1429     0.3182
  481.5000   -75.2851     6.5254     5.0364     4.4717   129.9947     2.4504     8.1079     0.0259     0.1281     0.3327
  482.0000   -75.5590     5.2380     4.7697     4.3799   129.1252     2.4813     8.1079     0.0538     0.1185     0.3491
  482.5000   -75.7848     4.5356     4.7169     4.3806   128.2745     2.4725     8.1079     0.0732     0.1283     0.3653
  483.0000   -75.6146     4.8332     4.7828     4.5129   127.8957     2.4583     8.1079     0.0721     0.1329     0.3685
  483.5000   -75.4431     5.7890     4.9058     4.6529   127.8498     2.4587     8.1079     0.0712     0.1189     0.3158
  484.0000   -75.0652     6.8155     5.1528     4.8447   129.3729     2.4966     8.1079     0.0676     0.1078     0.3164
  484.5000   -74.6380     6.9077     5.4123     5.1147   132.8553     2.4945     8.1079     0.0579     0.1120     0.3230
  485.0000   -74.2110     6.9385     5.6848     5.3997   132.1400     2.4898     8.1079     0.0481     0.1130     0.3237
  485.5000   -73.7829     7.3784     5.9710     5.7006   128.6207     2.4971     8.1079     0.0441     0.1044     0.3074
  486.0000   -73.4999     7.9733     6.2716     6.0183   127.6199     2.5161     8.1079     0.0420     0.0953     0.2953
  486.5000   -73.3228     8.0431     6.5874     6.3537   131.5370     2.5162     8.1093     0.0399     0.0980     0.2890
  487.0000   -73.1490     8.0992     6.9190     6.6545   133.5321     2.5122     8.1117     0.0417     0.0998     0.2802
  487.5000   -72.9742     8.1608     7.2674     6.9485   132.5336     2.5208     8.1140     0.0456     0.0884     0.2707
  488.0000   -72.7975     8.2231     7.4688     7.0390   130.2002     2.5396     8.1164     0.0509     0.0790     0.2698
  488.5000   -72.7383     8.2685     7.6362     7.0797   127.1277     2.5473     8.1188     0.0670     0.0802     0.2788
