~VERSION INFORMATION
 VERS.                2.0:   CWLS LOG ASCII STANDARD - VERSION 2.0
 WRAP.                 NO:   ONE LINE PER DEPTH STEP
~WELL INFORMATION
#MNEM.UNIT      DATA TYPE    INFORMATION
#----------   ------------   ------------------------------
 STRT.F            8.0000:   START DEPTH
 STOP.F         1010.0000:   STOP DEPTH
 STEP.F            0.5000:   STEP LENGTH
 NULL.          -999.2500:   NO VALUE
 COMP.          U.S. NAVY:   COMPANY
 WELL. RES 3 TEAPOT DOM #47S-35:   WELL
 FLD .             TEAPOT:   FIELD
 LOC .      S35 T39N R78W:   LOCATION
 CNTY.            NATRONA:   COUNTY
 STAT.            WYOMING:   STATE
 CTRY. UNITED STATES OF AMERICA:   COUNTRY
 SRVC.      NL McCullough:   SERVICE COMPANY
 DATE.        12-NOV-1958:   LOGDATE
 API .       490250650800:   API NUMBER
~CURVE INFORMATION
#MNEM.UNIT       API CODE    CURVE DESCRIPTION
#----------   ------------   ------------------------------
 DEPT.F                  :   
 GRN .GAPI   35 310 01 00:   GAMMA RAY
 NEUT.NAPI   35 330 01 00:   NEUTRON
~PARAMETER INFORMATION
#MNEM.UNIT          VALUE    DESCRIPTION
#----------   ------------   ------------------------------
 PD  .                 GL:   PERMANENT DATUM
 EPD .F             51891:   ELEVATION PERMANENT DATUM
 DATE.        11-NOV-1959:   RUN DATE
 RUN .                  1:   RUN NUMBER
 BLI .F              1004:   BOTTOM LOG INTERVAL
 CS  .IN            8.625:   CASING SIZE
 WITN.             MARTNE:   WITNESSED BY
 CLNT.            A2DTECH:   CLIENT CODE
 ORIG.         2.5" PRINT:   ORIGIN OF DATA
 UWI .       490250650800:   UNIQUE WELL ID
 DICO. A2D Technologies, Inc.:   DIGITIZING COMPANY
~OTHER INFORMATION
~A    DEPT     GRN       NEUT   
# ...
  494.0000     5.0049   168.9906
  494.5000     4.9744   162.3288
  495.0000     4.6177   160.4073
  495.5000     4.5805   156.8592
  496.0000     4.6886   153.6438
  496.5000     4.7229   156.6459
  497.0000     4.7029   164.8954
  497.5000     4.7032   180.0265
  498.0000     4.6833   218.8750
  498.5000     4.6431   201.7792
  499.0000     4.6029   188.6350
  499.5000     4.5627   149.3133
  500.0000     4.5630   129.6852
  500.5000     4.5025   144.6818
  501.0000     4.6138   179.9178
  501.5000     4.7105   182.2726
  502.0000     4.7465   167.0614
  502.5000     4.7468   159.4452
  503.0000     4.7673   154.9001
  503.5000     4.8851   149.6328
  504.0000     5.0312   141.5293
  504.5000     5.0518   129.3138
  505.0000     5.0926   112.0312
  505.5000     5.2549    92.9954
  506.0000     5.3767    87.0020
  506.5000     5.4377    78.7597
  507.0000     5.3546    71.2670
  507.5000     5.3168    56.2781
  508.0000     5.3171    47.0464
  508.5000     5.3174    40.9145
  509.0000     5.3380    36.4143
  509.5000     5.3893    34.2954
  510.0000     5.4399    33.0585
  510.5000     5.4807    33.4533
  511.0000     5.5417    42.8118
  511.5000     5.6028    66.0538
  512.0000     5.6638    68.3062
  512.5000     5.7856    57.8151
  513.0000     5.8888    54.8201
  513.5000     5.9749    55.6123
  514.0000     6.0344    58.0359
  514.5000     6.0703    60.2499
  515.0000     6.0544    60.8321
  515.5000     5.9705    61.5855
  516.0000     5.8865    62.3388
  516.5000     5.8690    68.2706
  517.0000     5.9099    81.0875
  517.5000     5.9304    86.3385
  518.0000     5.9307    60.8548
  518.5000     5.9512    54.8126
  519.0000     5.9515    56.3817
  519.5000     5.9518    54.9489
  520.0000     5.9440    46.3270
  520.5000     5.8804    45.1307
  521.0000     5.8240    57.9762
  521.5000     5.7530    63.7217
  522.0000     5.6593    70.7898
  522.5000     5.5892    74.3822
  523.0000     5.5895    77.3843
  523.5000     5.7113    82.6353
  524.0000     5.9344    99.1306
  524.5000     6.1169   106.6304
  525.0000     5.9349   106.5092
  525.5000     5.5764    96.8699
  526.0000     5.2843    87.2863
  526.5000     5.3858    68.0525
  527.0000     5.9337    57.6909
  527.5000     6.1997    53.7856
  528.0000     6.3507    52.6837
  528.5000     6.4255    52.6879
  529.0000     6.4639    54.1908
  529.5000     6.5655    60.1914
  530.0000     6.6265    84.1830
  530.5000     6.3635    97.6798
  531.0000     5.9993    90.5074
  531.5000     5.9178    84.2496
  532.0000     5.8736    77.7512
  532.5000     5.8180    69.7904
  533.0000     5.7924    68.4583
  533.5000     5.7780    83.4603
  534.0000     6.0166    87.2120
  534.5000     6.1311    83.4674
  535.0000     5.7386    68.4785
  535.5000     5.7389    66.1871
  536.0000     5.8607    75.4130
  536.5000     5.8812    87.4887
  537.0000     5.8207    90.2324
  537.5000     5.7603    89.0493
  538.0000     5.6156    83.1035
  538.5000     5.4709    77.1963
  539.0000     5.4372    71.7540
  539.5000     5.4577    66.2638
  540.0000     5.2718    65.5172
  540.5000     5.1951    64.7714
  541.0000     5.2926    64.0255
  541.5000     5.3780    64.7789
  542.0000     5.4391    66.4118
  542.5000     5.7026    69.6775
  543.0000     5.6016    72.4837
  543.5000     5.5209    76.0793
  544.0000     5.4791    76.5518
  544.5000     5.4584    68.0681
  545.0000     5.4408    64.8058
  545.5000     5.7149    66.3086
  546.0000     6.0101    72.3092
  546.5000     6.0606    76.8106
  547.0000     5.9767    78.3134
  547.5000     5.7259    78.2296
  548.0000     5.5642    75.2123
  548.5000     5.4632    73.8264
  549.0000     5.4230    73.0804
  549.5000     5.4031    72.3343
  550.0000     5.5249    72.3388
  550.5000     5.6499    72.3433
  551.0000     5.7782    72.3469
  551.5000     5.8846    72.3505
  552.0000     5.9578    71.6045
  552.5000     5.9718    70.8584
  553.0000     5.8515    70.1124
  553.5000     5.7789    69.3664
  554.0000     5.6691    68.4657
  554.5000     5.7099    66.1544
  555.0000     5.8317    63.8432
  555.5000     5.9332    60.7821
  556.0000     5.9538    57.6314
  556.5000     5.8496    51.3987
  557.0000     5.7446    45.4053
  557.5000     5.6671    40.9111
  558.0000     5.6196    34.1681
  558.5000     5.5227    33.4209
  559.0000     5.4607    32.6760
  559.5000     5.4294    32.6799
  560.0000     5.4500    32.6837
  560.5000     5.4503    31.4054
  561.0000     5.4708    29.7777
  561.5000     5.5116  -999.2500
  562.0000     5.5322  -999.2500
  562.5000     5.5730  -999.2500
  563.0000     5.6373  -999.2500
  563.5000     5.6748  -999.2500
  564.0000     5.6954  -999.2500
  564.5000  -999.2500  -999.2500
  565.0000  -999.2500  -999.2500
  565.5000  -999.2500  -999.2500
  566.0000  -999.2500  -999.2500
  566.5000  -999.2500  -999.2500
  567.0000  -999.2500  -999.2500
  567.5000  -999.2500  -999.2500
  568.0000  -999.2500  -999.2500
  568.5000  -999.2500  -999.2500
  569.0000  -999.2500  -999.2500
  569.5000  -999.2500  -999.2500
  570.0000  -999.2500  -999.2500
  570.5000  -999.2500  -999.2500
  571.0000  -999.2500  -999.2500
  571.5000  -999.2500  -999.2500
  572.0000  -999.2500  -999.2500
  572.5000  -999.2500  -999.2500
  573.0000  -999.2500  -999.2500
  573.5000  -999.2500  -999.2500
  574.0000  -999.2500    45.0578
  574.5000  -999.2500    52.0177
  575.0000     5.9046    61.8434
  575.5000     5.8846    69.5428
  576.0000     5.8547    72.8535
  576.5000     5.8215    74.4227
  577.0000     5.7641    75.5404
  577.5000     5.6429    74.7944
  578.0000     5.5217    71.0499
  578.5000     5.4005    65.8061
  579.0000     5.2995    61.3119
  579.5000     5.1751    51.5368
  580.0000     5.0517    53.0234
  580.5000     5.0169    61.2384
  581.0000     5.1743    67.2713
  581.5000     5.3237    68.8261
  582.0000     5.4209    67.3313
  582.5000     5.5163    67.3351
  583.0000     5.6260    68.0891
  583.5000     5.6870    70.3415
  584.0000     5.7076    74.8429
  584.5000     5.5459    77.8450
  585.0000     5.5245    80.1099
  585.5000     5.6283    80.9296
  586.0000     5.7106    82.6436
  586.5000     5.7566    84.6064
  587.0000     5.8565    85.3592
  587.5000     5.9324    70.4960
  588.0000     5.7909    56.8017
  588.5000     5.8212    45.6416
  589.0000     5.9509    45.4374
  589.5000     6.0147    54.6443
  590.0000     5.9947    63.6434
  590.5000     5.9545    66.6454
  591.0000     5.7523    66.8212
  591.5000     5.6311    73.6403
  592.0000     5.6101    86.9371
  592.5000     5.5912    96.6448
  593.0000     5.5915    92.3612
  593.5000     5.5977    87.6301
  594.0000     5.7312    83.9137
  594.5000     5.8943    80.9188
  595.0000     5.9046    77.9239
  595.5000     5.6741    81.6756
  596.0000     5.6338    99.7602
  596.5000     5.7557   119.9131
  597.0000     5.9584   115.1126
  597.5000     5.9992   123.1326
  598.0000     5.9377   130.1998
  598.5000     5.7954   120.6789
  599.0000     5.7334   111.6870
  599.5000     5.7118   103.4447
  600.0000     5.5553    81.7091
  600.5000     5.5564    82.1575
  601.0000     5.6026    89.5208
  601.5000     5.6465    93.7883
  602.0000     5.7106    84.4928
  602.5000     5.7863    85.3637
  603.0000     5.8861    94.6374
  603.5000     5.9682    96.9146
  604.0000     5.9895   106.6882
  604.5000     5.9699   110.4725
  605.0000     5.8796   112.8312
  605.5000     5.7045   114.4439
  606.0000     5.5006   116.5668
  606.5000     5.5079   122.4338
  607.0000     5.5913   128.0462
  607.5000     5.6531   145.1320
  608.0000     5.7352  -999.2500
  608.5000     5.8172  -999.2500
  609.0000     5.9009  -999.2500
  609.5000     5.9814  -999.2500
  610.0000     6.0082  -999.2500
  610.5000     6.0241  -999.2500
  611.0000     6.0050  -999.2500
  611.5000     6.0063   114.0879
  612.0000     6.0074   119.1650
  612.5000     6.0287   123.6911
  613.0000     6.0297   134.2143
  613.5000     6.0523   145.4985
  614.0000     6.0724   145.2326
  614.5000     6.0938   140.3346
  615.0000     6.0868   136.3193
