~VERSION INFORMATION
 VERS.                2.0:   CWLS LOG ASCII STANDARD - VERSION 2.0
 WRAP.                 NO:   ONE LINE PER DEPTH STEP
~WELL INFORMATION
#MNEM.UNIT      DATA TYPE    INFORMATION
#----------   ------------   ------------------------------
 STRT.F           34.5000:   START DEPTH
 STOP.F          880.5000:   STOP DEPTH
 STEP.F            0.5000:   STEP LENGTH
 NULL.          -999.2500:   NO VALUE
 COMP. FENIX & SCISSON INC:   COMPANY
 WELL. NAVAL PETROLEUM RESERVE 3 S-14 #35-14:   WELL
 FLD .             TEAPOT:   FIELD
 LOC .      S14 T38N R78W:   LOCATION
 CNTY.            NATRONA:   COUNTY
 STAT.            WYOMING:   STATE
 CTRY. UNITED STATES OF AMERICA:   COUNTRY
 SRVC.            Unknown:   SERVICE COMPANY
 DATE.        24-APR-1978:   LOGDATE
 API .       490251062000:   API NUMBER
~CURVE INFORMATION
#MNEM.UNIT       API CODE    CURVE DESCRIPTION
#----------   ------------   ------------------------------
 DEPT.F                  :   
 RHOB.G/C3   45 350 01 00:   BULK DENSITY
 DPHI.DEC    45 890 12 00:   DENSITY POROSITY SANDSTONE
 CORR.G/C3   45 356 01 00:   DENSITY CORRECTION
 GRD .GAPI   45 310 01 00:   GAMMA RAY FROM DENSITY LOG
 CALD.IN     45 280 60 00:   CALIPER FROM DENSITY LOG
 SPR .MV     05 010 01 00:   SPONTANEOUS POTENTIAL FROM RES.
 SN  .OHMM   05 040 16 00:   SHORT NORMAL 16"
 ILD .OHMM   05 120 46 00:   INDUCTION LOG DEEP
~PARAMETER INFORMATION
#MNEM.UNIT          VALUE    DESCRIPTION
#----------   ------------   ------------------------------
 PD  .                 GL:   PERMANENT DATUM
 EPD .F              5246:   ELEVATION PERMANENT DATUM
 LMF .                 KB:   LOG MEASURED FROM
 DMF .                 KB:   DRILLING MEASURED FROM
 EKB .F              5250:   KELLING BUSHING
 EGL .F              5246:   GROUND LEVEL
 DATE.          4-24-1978:   RUN DATE
 RUN .                  1:   RUN NUMBER
 DD  .F               880:   DEPTH DRILLER
 DL  .F               880:   DEPTH LOGGER
 BLI .F               884:   BOTTOM LOG INTERVAL
 TLI .F                50:   TOP LOG INTERVAL
 CS  .IN            8.625:   CASING SIZE
 CBD .F                40:   CASING BOTTOM DRILLER
 CBL .F                50:   CASING BOTTOM LOGGER
 BS  .IN            7.875:   BIT SIZE
 BSD .F               880:   BIT SIZE AT DEPTH
 DFT .                KCL:   DRILLING FLUID TYPE
 DFD .                8.6:   DRILLING FLUID DENSITY
 DFV .                 32:   DRILLING FLUID VISCOSITY
 DFPH.                 10:   DRILLING FLUID PH
 DFL .               12.8:   DRILLING FLUID LOSS
 MSS .            MUD PIT:   MUD SAMPLE SOURCE
 RMS .OHMM            .34:   RESISTIVITY MUD SAMPLE
 MST .F                62:   MUD SAMPLE TEMPERATURE
 RMF .OHMM             .3:   RESISTIVITY MUD FILTRATE SAMPLE
 MFST.F                70:   MUD FILTRATE SAMPLE TEMPERATURE
 RMC .OHMM            .58:   RESISTIVITY MUD CAKE
 MCST.F                70:   MUD CAKE SAMPLE TEMPERATURE
 MFSS.           MEASURED:   MUD FILTRATE SAMPLE SOURCE
 RMB .OHMM            .28:   RESISTIVITY MUD AT BHT
 BHT .F                74:   BOTTOM HOLE TEMPERATURE
 TCS .HRS               4:   TIME CURCULATED STOPPED
 MRT .F                74:   MAXIMUM RECORDED TEMPERATURE
 LUN .               2958:   LOGGING UNIT NUMBER
 LUL .              CASP.:   LOGGING UNIT LOCATION
 ENGI.             MILLER:   RECORDING ENGINEER
 WITN.           MCGINLEY:   WITNESSED BY
 CLNT.            A2DTECH:   CLIENT CODE
 ORIG.       2", 5" PRINT:   ORIGIN OF DATA
 UWI .       490251062000:   UNIQUE WELL ID
 DICO. A2D Technologies, Inc.:   DIGITIZING COMPANY
~OTHER INFORMATION
~A   DEPT     RHOB       DPHI       CORR         GRD      CALD        SPR         SN        ILD   
# ...
  318.0000     2.4625     0.1008     0.1005    89.8202     8.3681   -32.7652     6.3692     6.1219
  318.5000     2.4566     0.1115     0.0927    88.7922     8.4363   -33.2556     6.3609     6.1068
  319.0000     2.4504     0.1081     0.0753    88.3300     8.4503   -33.2927     6.3526     6.0917
  319.5000     2.4527     0.1071     0.0636    89.8431     8.4564   -33.1931     6.3444     6.0767
  320.0000     2.4576     0.1095     0.0567    93.4523     8.4585   -33.0895     6.3361     6.0616
  320.5000     2.4613     0.1075     0.0509    93.8602     8.4607   -32.9843     6.3243     6.0398
  321.0000     2.4619     0.1066     0.0518    93.4470     8.4628   -33.0254     6.3313     6.0465
  321.5000     2.4626     0.1060     0.0526    90.7276     8.4649   -33.0967     6.3449     6.0598
  322.0000     2.4659     0.1020     0.0562    89.1605     8.4670   -33.1685     6.3586     6.0728
  322.5000     2.4734     0.0926     0.0646    88.7075     8.4691   -33.2400     6.3723     6.0859
  323.0000     2.4809     0.0926     0.0728    88.6908     8.4712   -33.3115     6.3861     6.0990
  323.5000     2.4810     0.0946     0.0790    89.0016     8.4733   -33.3829     6.3998     6.1122
  324.0000     2.4798     0.0961     0.0783    92.6690     8.4754   -33.4543     6.4137     6.1254
  324.5000     2.4786     0.0958     0.0777    94.5032     8.4775   -33.5258     6.4275     6.1386
  325.0000     2.4792     0.0956     0.0771    92.8899     8.4796   -33.5973     6.4414     6.1519
  325.5000     2.4818     0.0954     0.0780    91.3659     8.4817   -33.6686     6.4553     6.1651
  326.0000     2.4850     0.0921     0.0801    90.6650     8.4838   -33.7411     6.4692     6.1785
  326.5000     2.4889     0.0890     0.0821    91.9147     8.4859   -33.7437     6.4832     6.1918
  327.0000     2.4880     0.0919     0.0802    93.1118     8.4881   -33.7126     6.4972     6.2052
  327.5000     2.4784     0.0995     0.0709    93.7390     8.4902   -33.6807     6.5112     6.2186
  328.0000     2.4671     0.1009     0.0603    93.2965     8.4923   -33.6488     6.5252     6.2320
  328.5000     2.4613     0.1044     0.0497    92.9223     8.4944   -33.6169     6.5393     6.2454
  329.0000     2.4566     0.1094     0.0391    93.6189     8.4957   -33.5854     6.5535     6.2590
  329.5000     2.4540     0.1112     0.0291    93.8559     8.4936   -33.5655     6.5610     6.2661
  330.0000     2.4556     0.1088     0.0266    93.8245     8.4916   -33.5658     6.4830     6.1968
  330.5000     2.4589     0.1065     0.0261    93.7859     8.4896   -33.5657     6.4225     6.1429
  331.0000     2.4644     0.1041     0.0315    93.7471     8.4876   -33.5657     6.3625     6.0895
  331.5000     2.4701     0.1017     0.0367    93.7143     8.4856   -33.5657     6.3031     6.0366
  332.0000     2.4697     0.1012     0.0357    93.8560     8.4837   -33.5657     6.2442     5.9842
  332.5000     2.4693     0.1030     0.0342    94.4332     8.4817   -33.5657     6.1859     5.9322
  333.0000     2.4690     0.1011     0.0334    93.8761     8.4797   -33.5657     6.1281     5.8806
  333.5000     2.4699     0.0981     0.0372    92.4302     8.4777   -33.5657     6.0709     5.8216
  334.0000     2.4755     0.0950     0.0476    90.9851     8.4761   -33.5657     6.0368     5.8258
  334.5000     2.4807     0.0990     0.0509    90.0834     8.4761   -33.5657     6.0302     5.8308
  335.0000     2.4767     0.0996     0.0510    90.3473     8.4761   -33.5657     6.0236     5.8359
  335.5000     2.4757     0.0981     0.0510    90.6591     8.4761   -33.5657     6.0170     5.8410
  336.0000     2.4774     0.0966     0.0510    90.3687     8.4761   -33.5657     6.0105     5.8461
  336.5000     2.4796     0.0941     0.0509    89.9730     8.4761   -33.5659     6.0039     5.8512
  337.0000     2.4834     0.0918     0.0544    89.5711     8.4761   -33.5665     5.9974     5.8563
  337.5000     2.4873     0.0894     0.0582    89.3149     8.4761   -33.5735     5.9908     5.8613
  338.0000     2.4900     0.0879     0.0598    91.3398     8.4761   -33.2166     5.9842     5.8663
  338.5000     2.4879     0.0956     0.0554    93.0467     8.4761   -32.7503     6.0583     5.8715
  339.0000     2.4801     0.1006     0.0512    91.4109     8.4761   -32.6757     6.1316     5.8918
  339.5000     2.4742     0.0977     0.0510    89.5118     8.4761   -32.8411     6.2058     5.9566
  340.0000     2.4760     0.0950     0.0510    88.8529     8.4761   -33.0122     6.2809     6.0222
  340.5000     2.4786     0.0996     0.0510    88.7466     8.4761   -33.1622     6.3569     6.0884
  341.0000     2.4767     0.1006     0.0515    89.0135     8.4761   -33.0843     6.4338     6.1554
  341.5000     2.4775     0.0946     0.0543    89.5206     8.4761   -33.0046     6.5116     6.2232
  342.0000     2.4834     0.0897     0.0572    90.0628     8.4761   -32.9261     6.5610     6.2661
  342.5000     2.4894     0.0850     0.0634    88.9524     8.4761   -32.8478     6.5282     6.2484
  343.0000     2.4953     0.0850     0.0689    86.6661     8.4761   -32.7694     6.5045     6.2355
  343.5000     2.4938     0.0902     0.0649    84.5354     8.4761   -32.6908     6.4807     6.2226
  344.0000     2.4845     0.0962     0.0563    84.8942     8.4761   -32.6131     6.4571     6.2098
  344.5000     2.4754     0.1022     0.0481    86.9546     8.4761   -32.5942     6.4336     6.1970
  345.0000     2.4664     0.1032     0.0408    88.7575     8.4761   -32.7113     6.4102     6.1843
  345.5000     2.4666     0.1025     0.0410    89.7019     8.4761   -32.8246     6.3868     6.1715
  346.0000     2.4674     0.1017     0.0451    90.0900     8.4764   -32.9431     6.3635     6.1588
  346.5000     2.4681     0.1009     0.0494    90.1649     8.4750   -32.9105     6.3404     6.1461
  347.0000     2.4688     0.1001     0.0537    90.2268     8.4358   -32.8324     6.3173     6.1334
  347.5000     2.4695     0.0994     0.0571    90.3042     8.3988   -32.7700     6.2942     6.1208
  348.0000     2.4691     0.1023     0.0571    89.7306     8.4389   -32.8741     6.2713     6.1082
  348.5000     2.4650     0.1051     0.0522    89.0362     8.4819   -32.9820     6.2485     6.0956
  349.0000     2.4643     0.1028     0.0499    88.3401     8.4954   -33.0893     6.2257     6.0830
  349.5000     2.4753     0.0945     0.0520    87.7279     8.4949   -33.1965     6.2030     6.0706
  350.0000     2.4863     0.0876     0.0540    88.3900     8.4941   -33.3037     6.1804     6.0582
  350.5000     2.4896     0.0875     0.0561    89.7631     8.4933   -33.4106     6.1519     6.0409
  351.0000     2.4901     0.0888     0.0560    90.6837     8.4926   -33.5182     6.2358     6.0875
  351.5000     2.4883     0.0925     0.0541    90.5823     8.4919   -33.5786     6.3526     6.1777
  352.0000     2.4863     0.0982     0.0492    90.5000     8.4911   -33.6040     6.4715     6.2693
  352.5000     2.4744     0.1050     0.0388    90.4162     8.4904   -33.6285     6.5927     6.3623
  353.0000     2.4662     0.1006     0.0362    90.3199     8.4896   -33.6529     6.7161     6.4566
  353.5000     2.4734     0.0953     0.0379    90.9248     8.4889   -33.6774     6.8419     6.5523
  354.0000     2.4808     0.0914     0.0397    91.9460     8.4882   -33.7020     6.9332     6.6220
  354.5000     2.4819     0.0960     0.0414    92.4995     8.4874   -33.7265     6.9332     6.6217
  355.0000     2.4803     0.0942     0.0430    92.0791     8.4867   -33.7510     6.8912     6.5911
  355.5000     2.4817     0.0938     0.0426    91.4912     8.4860   -33.7755     6.8123     6.5329
  356.0000     2.4839     0.0933     0.0423    90.4973     8.4852   -33.8001     6.7341     6.4755
  356.5000     2.4835     0.0929     0.0419    88.6693     8.4845   -33.8246     6.6568     6.4185
  357.0000     2.4829     0.0932     0.0415    87.4695     8.4838   -33.8491     6.5805     6.3621
  357.5000     2.4823     0.0962     0.0412    88.5560     8.4830   -33.8737     6.5051     6.3062
  358.0000     2.4821     0.0952     0.0421    89.8759     8.4823   -33.8981     6.4305     6.2508
