~VERSION INFORMATION
 VERS.                2.0:   CWLS LOG ASCII STANDARD - VERSION 2.0
 WRAP.                 NO:   ONE LINE PER DEPTH STEP
~WELL INFORMATION
#MNEM.UNIT      DATA TYPE    INFORMATION
#----------   ------------   ------------------------------
 STRT.F           34.0000:   START DEPTH
 STOP.F          510.0000:   STOP DEPTH
 STEP.F            0.5000:   STEP LENGTH
 NULL.          -999.2500:   NO VALUE
 COMP. LAWRENCE/ALLISON INC:   COMPANY
 WELL.      58-36 SX #3-3:   WELL
 FLD .             TEAPOT:   FIELD
 LOC .       S3 T38N R78W:   LOCATION
 CNTY.            NATRONA:   COUNTY
 STAT.            WYOMING:   STATE
 CTRY. UNITED STATES OF AMERICA:   COUNTRY
 SRVC.           Gearhart:   SERVICE COMPANY
 DATE.        17-SEP-1987:   LOGDATE
 API .       490251116300:   API NUMBER
~CURVE INFORMATION
#MNEM.UNIT       API CODE    CURVE DESCRIPTION
#----------   ------------   ------------------------------
 DEPT.F                  :   
 SPR .MV     07 010 01 00:   SPONTANEOUS POTENTIAL
 RLL .OHMM   07 220 00 00:   LATEROLOG RESISTIVITY
 RILD.OHMM   07 120 46 00:   INDUCTION LOG DEEP RESISTIVITY
 RILM.OHMM   07 120 44 00:   INDUCTION LOG MEDIUM RESISTIVITY
 GRR .GAPI   07 310 01 00:   GAMMA RAY FROM RES. LOG.
~PARAMETER INFORMATION
#MNEM.UNIT          VALUE    DESCRIPTION
#----------   ------------   ------------------------------
 PD  .                 GL:   PERMANENT DATUM
 EPD .F              5205:   ELEVATION PERMANENT DATUM
 LMF .                 KB:   LOG MEASURED FROM
 DAPD.F                 8:   FEET ABOVE PERMANENT DATUM
 DMF .                 KB:   DRILLING MEASURED FROM
 EKB .F              5213:   KELLING BUSHING
 EDF .F              5211:   DRILLING FLOOR
 EGL .F              5205:   GROUND LEVEL
 DATE.            9-17-87:   RUN DATE
 RUN .                  1:   RUN NUMBER
 DD  .F               521:   DEPTH DRILLER
 DL  .F               512:   DEPTH LOGGER
 BLI .F               510:   BOTTOM LOG INTERVAL
 TLI .F                30:   TOP LOG INTERVAL
 CS  .IN            8.625:   CASING SIZE
 CBD .F                52:   CASING BOTTOM DRILLER
 CBL .F                52:   CASING BOTTOM LOGGER
 BS  .IN            7.875:   BIT SIZE
 BSD .F               521:   BIT SIZE AT DEPTH
 DFT .          KCL WATER:   DRILLING FLUID TYPE
 DFD .                8.8:   DRILLING FLUID DENSITY
 MSS .            MUD PIT:   MUD SAMPLE SOURCE
 RMS .OHMM            .60:   RESISTIVITY MUD SAMPLE
 MST .F                41:   MUD SAMPLE TEMPERATURE
 TCS .HRS            0630:   TIME CURCULATED STOPPED
 TLAB.HRS            0918:   TIME LOGGER AT BOTTOM
 MRT .F                80:   MAXIMUM RECORDED TEMPERATURE
 LUN .               7650:   LOGGING UNIT NUMBER
 LUL .           GILLETTE:   LOGGING UNIT LOCATION
 ENGI.         WEATHERMON:   RECORDING ENGINEER
 WITN.             STRONG:   WITNESSED BY
 CLNT.            A2DTECH:   CLIENT CODE
 ORIG. 1", 2.5", 5" PRINT:   ORIGIN OF DATA
 UWI .       490251116300:   UNIQUE WELL ID
 DICO. A2D Technologies, Inc.:   DIGITIZING COMPANY
~OTHER INFORMATION
~A   DEPT      SPR        RLL       RILD       RILM        GRR   
# ...
   95.0000   -65.4063     9.2179     8.6550     7.8814   102.7128
   95.5000   -65.3447     9.2586     8.6973     7.8933   103.0998
   96.0000   -65.1522     9.3094     8.7399     7.9103   103.5071
   96.5000   -64.9634     9.2931     8.7826     7.9274   103.9148
   97.0000   -64.7758     9.2660     8.8255     7.9445   103.8205
   97.5000   -64.5883     9.2394     8.8687     7.9616   103.3710
   98.0000   -64.3986     9.2260     8.9058     7.9788   102.9221
   98.5000   -64.3440     9.4303     9.0619     7.9959   102.4738
   99.0000   -64.3431     9.5905     9.2207     8.0131   102.0321
   99.5000   -64.3433     9.7535     9.3823     8.0428   101.5301
  100.0000   -64.3434     9.9192     9.5467     8.1877    99.9172
  100.5000   -64.3432    10.0877     9.7140     8.3350    98.7730
  101.0000   -64.3415    10.2591     9.8842     8.4848    99.4837
  101.5000   -64.3568    10.4334    10.0575     8.6374   101.8167
  102.0000   -64.1489    10.6107    10.2337     8.7926   104.2613
  102.5000   -64.2326    10.7952    10.4131     8.9507   103.7582
  103.0000   -64.2963    10.9875    10.5894     9.1116   100.2356
  103.5000   -64.2545    11.1831    10.7626     9.2944    97.1108
  104.0000   -63.9650    11.3822    10.9385     9.5260    97.7523
  104.5000   -63.6799    11.5849    11.1173     9.7633    99.5639
  105.0000   -63.3946    11.7912    11.2991    10.0066   100.1040
  105.5000   -63.1093    12.0012    11.4839    10.2560    97.8432
  106.0000   -62.8230    12.2149    11.6715    10.5114    95.6646
  106.5000   -62.5322    12.4104    11.8623    10.7738    96.1875
  107.0000   -62.3092    12.4529    11.9589    11.1936    96.7458
  107.5000   -62.1327    12.5137    11.9826    11.4172    95.2058
  108.0000   -62.2509    12.5749    12.0622    11.4009    93.6313
  108.5000   -62.3642    12.6361    12.1423    11.3899    94.9810
  109.0000   -62.4786    12.5841    12.1771    11.3790    96.5225
  109.5000   -62.4340    12.5195    12.1009    11.3680    97.6030
  110.0000   -62.2791    12.4553    12.0468    11.3570    98.3721
  110.5000   -62.1248    12.3914    11.9929    11.3461    99.1110
  111.0000   -62.2941    12.3278    11.9392    11.3351    98.7479
  111.5000   -62.5877    12.2318    11.8858    11.3237    96.4380
  112.0000   -62.8823    12.1045    11.8157    11.3147    95.6551
  112.5000   -63.1771    11.9785    11.7067    11.1307    98.2323
  113.0000   -63.4715    11.8539    11.5987    10.8753   100.4490
  113.5000   -63.7649    11.7305    11.4917    10.6837    99.8515
  114.0000   -63.9820    11.6084    11.3858    10.5202    98.2633
  114.5000   -64.0818    11.5237    11.3149    10.3947    93.5611
  115.0000   -64.1652    11.5708    11.3481    10.3535    93.0975
  115.5000   -64.2866    11.6138    11.3757    10.3124    94.2717
  116.0000   -64.4064    11.6569    11.4035    10.2716    93.5053
  116.5000   -64.5283    11.7002    11.4314    10.2309    90.5328
  117.0000   -64.4552    11.7349    11.4594    10.1903    89.4715
  117.5000   -64.3158    11.6400    11.4875    10.1499    91.0385
  118.0000   -64.1747    12.3302    11.5214    10.0439    92.8891
  118.5000   -64.0337    13.1565    11.4174     9.7887    92.9521
  119.0000   -63.8925    13.3679    11.2673     9.5399    90.2599
  119.5000   -63.7518    13.0919    11.1192     9.2975    88.2424
  120.0000   -63.6134    12.5560    10.9729     9.1409    90.3090
  120.5000   -63.6514    12.2039    10.8287     9.3292    93.7959
  121.0000   -63.9069    11.3187    10.6862     9.5037    96.5088
  121.5000   -64.1594    10.8059    10.5457     9.6814    96.6772
  122.0000   -64.4117    10.8650    10.4071     9.8386    94.8595
  122.5000   -64.4769    10.9243    10.2702     9.7817    93.7351
  123.0000   -64.3306    10.9960    10.1349     9.7254    94.7223
  123.5000   -64.1851    10.8319     9.9540     9.6692    95.7126
  124.0000   -64.0431    10.6959     9.9357     9.6133    93.8684
  124.5000   -64.0504    10.5615     9.9358     9.5641    92.2571
  125.0000   -64.5225    10.4289     9.9360     9.4624    90.7916
  125.5000   -64.9737    10.3069     9.8977     9.3618    90.3751
  126.0000   -65.4247    10.2672     9.8215     9.2260    89.9183
  126.5000   -65.8789    10.2277     9.7459     9.2654    89.6117
  127.0000   -66.3363    10.1884     9.6710     9.3085    89.3041
  127.5000   -66.5976    10.1491     9.5966     9.2400    89.0940
  128.0000   -66.9140    10.1100     9.5228     9.1375    89.6705
  128.5000   -67.2362    10.0711     9.4846     9.0365    91.5376
  129.0000   -67.5590    10.0323     9.4693     8.9366    93.2233
  129.5000   -67.6714     9.9936     9.4543     8.8373    91.0024
  130.0000   -67.7957     9.9395     9.4392     8.8079    88.0955
  130.5000   -67.9222     9.9703     9.4242     8.8934    85.1557
  131.0000   -68.0490    10.0399     9.4092     8.9891    88.8089
  131.5000   -68.1758    10.1100     9.3894     9.0531    95.7307
  132.0000   -68.3024    10.1805     9.2967     9.0113   100.0275
  132.5000   -68.4287    10.2160     9.2047     8.9765    99.5629
  133.0000   -68.5523    10.0633     9.1137     8.7069    96.4674
  133.5000   -68.9012     9.9474     9.0237     8.4204    95.1342
  134.0000   -69.3124     9.8329     8.9346     8.1433    97.0816
  134.5000   -69.7249     9.6523     8.8463     7.9548    99.4735
  135.0000   -70.1372     9.3227     8.7589     7.8928    98.0393
  135.5000   -70.5492     8.9731     8.6724     7.8246    94.8490
  136.0000   -70.9591     9.1527     8.5867     7.7434    91.4143
  136.5000   -71.2735     9.4155     8.5019     7.7948    87.7755
  137.0000   -71.4236     9.6859     8.4110     7.8786    84.1047
  137.5000   -71.5730     9.9359     8.4230     7.9548    84.6755
  138.0000   -71.7205     9.9374     8.4381     7.8184    89.2471
  138.5000   -71.7032     9.5305     8.4531     7.6276    93.8318
  139.0000   -72.2615     9.0981     8.4682     7.3919    96.1098
  139.5000   -72.8056     8.8083     8.4833     7.4248    95.5609
  140.0000   -73.3441     8.8727     8.4984     7.4801    94.2515
  140.5000   -73.8830     8.9316     8.5136     7.5357    92.8626
  141.0000   -74.4228     8.9909     8.5288     7.5918    95.0952
  141.5000   -74.9635     9.0507     8.5440     7.6484    97.5976
  142.0000   -75.1809     9.1108     8.5592     7.6748   100.1159
  142.5000   -75.3372     9.1550     8.5940     7.6934   102.3635
  143.0000   -75.4926     9.1834     8.6484     7.7120   103.5606
  143.5000   -75.6487     9.2118     8.7032     7.7310   102.2726
  144.0000   -75.8047     9.2920     8.7584     7.8232   100.5742
  144.5000   -75.9496     9.4254     8.8069     7.9991    98.8611
  145.0000   -76.0871     9.5607     8.7909     8.1790    97.1433
  145.5000   -76.2241     9.6980     8.7748     8.3629    95.5838
  146.0000   -76.3646     9.8372     8.7589     8.5510    95.8915
  146.5000   -76.6003     9.9785     8.7430     8.6466    96.9110
  147.0000   -77.1926    10.1222     8.7271     8.5668    97.8064
  147.5000   -77.7664    10.2974     8.7112     8.5060    98.6973
  148.0000   -78.3399    10.1208     8.6954     8.4456    99.5852
  148.5000   -78.9234     9.8532     8.6796     8.3856   100.4451
  149.0000   -79.2660     9.5929     8.6638     8.3320   101.4780
  149.5000   -79.6318     9.3398     8.6483     8.3528   102.5999
  150.0000   -79.9918     8.9744     8.6726     8.3827   106.0665
  150.5000   -80.3533     9.0702     8.7014     8.4095   109.5419
  151.0000   -80.7157     9.2748     8.7303     8.4096   107.3852
  151.5000   -81.0960     9.4823     8.7593     8.4098   102.7716
  152.0000   -81.7136     9.6929     8.7885     8.4107   100.0410
  152.5000   -82.3766     9.8443     8.8178     8.4121    97.3931
  153.0000   -83.0413     9.6866     8.8473     8.3070    95.2295
  153.5000   -83.7058     9.5688     8.8902     8.2301    96.4861
  154.0000   -84.3683     9.4524     8.8448     8.1539    98.0113
  154.5000   -85.0344     9.3986     8.7595     8.1036    97.8288
  155.0000   -85.5615     9.5415     8.6750     8.1630    96.8475
  155.5000   -85.9782     9.6691     8.5913     8.2078    95.7840
