~VERSION INFORMATION
 VERS.                2.0:   CWLS LOG ASCII STANDARD - VERSION 2.0
 WRAP.                 NO:   ONE LINE PER DEPTH STEP
~WELL INFORMATION
#MNEM.UNIT      DATA TYPE    INFORMATION
#----------   ------------   ------------------------------
 STRT.F           28.0000:   START DEPTH
 STOP.F          791.0000:   STOP DEPTH
 STEP.F            0.5000:   STEP LENGTH
 NULL.          -999.2500:   NO VALUE
 COMP. LAWRENCE/ALLISON INC:   COMPANY
 WELL.    34-61 SX #11-11:   WELL
 FLD .             TEAPOT:   FIELD
 LOC .      S11 T38N R78W:   LOCATION
 CNTY.            NATRONA:   COUNTY
 STAT.            WYOMING:   STATE
 CTRY. UNITED STATES OF AMERICA:   COUNTRY
 SRVC.           Gearhart:   SERVICE COMPANY
 DATE.        29-JUL-1987:   LOGDATE
 API .       490251112500:   API NUMBER
~CURVE INFORMATION
#MNEM.UNIT       API CODE    CURVE DESCRIPTION
#----------   ------------   ------------------------------
 DEPT.F                  :   
 GRR .GAPI   07 310 01 00:   GAMMA RAY FROM RESISTIVITY
 RILD.OHMM   07 120 46 00:   RESISTIVITY INDUCTION LOG DEEP
 RILM.OHMM   07 120 44 00:   RESISTIVITY INDUCTION LOG MEDIUM
 RLL .OHMM   07 220 00 00:   RESISTIVITY LATEROLOG
~PARAMETER INFORMATION
#MNEM.UNIT          VALUE    DESCRIPTION
#----------   ------------   ------------------------------
 PD  .                 GL:   PERMANENT DATUM
 EPD .F              5172:   ELEVATION PERMANENT DATUM
 LMF .                 KB:   LOG MEASURED FROM
 DAPD.F                 7:   FEET ABOVE PERMANENT DATUM
 DMF .                 KB:   DRILLING MEASURED FROM
 EKB .F              5180:   KELLING BUSHING
 EDF .F              5178:   DRILLING FLOOR
 EGL .F              5172:   GROUND LEVEL
 DATE.        29-JUL-1987:   RUN DATE
 RUN .                  1:   RUN NUMBER
 DD  .F               793:   DEPTH DRILLER
 DL  .F               792:   DEPTH LOGGER
 BLI .F               791:   BOTTOM LOG INTERVAL
 TLI .F                30:   TOP LOG INTERVAL
 CS  .IN            8.625:   CASING SIZE
 CBL .F                50:   CASING BOTTOM LOGGER
 BS  .IN            7.875:   BIT SIZE
 BSD .F               793:   BIT SIZE AT DEPTH
 DFT .                MUD:   DRILLING FLUID TYPE
 DFD .                0.5:   DRILLING FLUID DENSITY
 MSS .           FLOWLINE:   MUD SAMPLE SOURCE
 RMS .OHMM           1.92:   RESISTIVITY MUD SAMPLE
 MST .F                71:   MUD SAMPLE TEMPERATURE
 RMF .OHMM            1.4:   RESISTIVITY MUD FILTRATE SAMPLE
 MFST.F                72:   MUD FILTRATE SAMPLE TEMPERATURE
 RMC .OHMM            2.2:   RESISTIVITY MUD CAKE
 MCST.F                72:   MUD CAKE SAMPLE TEMPERATURE
 MFSS.              CHART:   MUD FILTRATE SAMPLE SOURCE
 MCSS.              CHART:   MUD CAKE SAMPLE SOURCE
 TCS .HRS            2200:   TIME CURCULATED STOPPED
 MRT .F                60:   MAXIMUM RECORDED TEMPERATURE
 LUN .               7397:   LOGGING UNIT NUMBER
 LUL .           GILLETTE:   LOGGING UNIT LOCATION
 ENGI.         WEATHERMON:   RECORDING ENGINEER
 WITN.             STRONG:   WITNESSED BY
 CLNT.            A2DTECH:   CLIENT CODE
 ORIG.           5" PRINT:   ORIGIN OF DATA
 UWI .       490251112500:   UNIQUE WELL ID
 DICO. A2D Technologies, Inc.:   DIGITIZING COMPANY
~OTHER INFORMATION
~A   DEPT      GRR       RILD       RILM        RLL   
   28.0000  -999.2500  -999.2500  -999.2500  -999.2500
   28.5000    95.0826  -999.2500  -999.2500  -999.2500
   29.0000    90.5049  -999.2500  -999.2500  -999.2500
   29.5000    87.7601  -999.2500  -999.2500  -999.2500
   30.0000    87.7676  -999.2500  -999.2500  -999.2500
   30.5000    88.9983  -999.2500  -999.2500  -999.2500
   31.0000    87.7370  -999.2500  -999.2500  -999.2500
   31.5000    85.3455  -999.2500  -999.2500  -999.2500
   32.0000    83.2123  -999.2500  -999.2500  -999.2500
   32.5000    81.6908  -999.2500  -999.2500  -999.2500
   33.0000    79.8634  -999.2500  -999.2500  -999.2500
   33.5000    79.5632  -999.2500  -999.2500  -999.2500
   34.0000    80.4900  -999.2500  -999.2500  -999.2500
   34.5000    81.7208  -999.2500  -999.2500  -999.2500
   35.0000    82.6457  -999.2500  -999.2500  -999.2500
   35.5000    83.2649  -999.2500  -999.2500  -999.2500
   36.0000    83.8840  -999.2500  -999.2500  -999.2500
   36.5000    83.5856  -999.2500  -999.2500  -999.2500
   37.0000    82.9816  -999.2500  -999.2500  -999.2500
   37.5000    82.3394  -999.2500  -999.2500  -999.2500
   38.0000    81.4694  -999.2500  -999.2500  -999.2500
   38.5000    80.5595  -999.2500  -999.2500  -999.2500
   39.0000    79.9553  -999.2500  -999.2500  -999.2500
   39.5000    79.3494  -999.2500  -999.2500  -999.2500
   40.0000    78.1355  -999.2500  -999.2500  -999.2500
   40.5000    76.9198  -999.2500  -999.2500  -999.2500
   41.0000    76.0098  -999.2500  -999.2500  -999.2500
   41.5000    75.0980  -999.2500  -999.2500  -999.2500
   42.0000    74.7997  -999.2500  -999.2500  -999.2500
   42.5000    75.4207  -999.2500  -999.2500  -999.2500
   43.0000    76.3457  -999.2500  -999.2500  -999.2500
   43.5000    76.9725  -999.2500  -999.2500  -999.2500
   44.0000    77.5841  -999.2500  -999.2500  -999.2500
   44.5000    77.8976  -999.2500  -999.2500  -999.2500
   45.0000    77.9066  -999.2500  -999.2500  -999.2500
   45.5000    77.3025  -999.2500  -999.2500  -999.2500
   46.0000    77.0023  -999.2500  -999.2500  -999.2500
   46.5000    76.0943  -999.2500  -999.2500  -999.2500
   47.0000    75.1824  -999.2500  -999.2500  -999.2500
   47.5000    76.1093  -999.2500  -999.2500  -999.2500
   48.0000    79.7865  -999.2500  -999.2500  -999.2500
   48.5000    83.7677  -999.2500  -999.2500  -999.2500
   49.0000    78.2725  -999.2500  -999.2500  -999.2500
   49.5000    73.3870  -999.2500  -999.2500  -999.2500
   50.0000    67.5846  -999.2500  -999.2500  2000.0000
   50.5000    67.2131    72.1078   211.2845  2000.0000
   51.0000    69.8288    25.2717   142.0335  2000.0000
   51.5000    75.8603     6.5773    54.9208  2000.0000
   52.0000    81.9823     2.7518     6.4988  2000.0000
   52.5000    86.5753     2.0716     3.3370  2000.0000
   53.0000    89.3334     2.1478     2.1346  2000.0000
   53.5000    92.7046     2.4057     1.8005  2000.0000
   54.0000    95.4626     2.6757     1.7877  2000.0000
   54.5000    99.4440     2.9549     1.9601  2000.0000
   55.0000    97.9207     3.0400     2.1492  2000.0000
   55.5000    91.1376     2.9345     2.3902  2000.0000
   56.0000    84.4781     2.9347     2.5840  2000.0000
   56.5000    79.5910     3.0407     2.7404  2000.0000
   57.0000    81.1258     3.2641     2.9145  2000.0000
   57.5000    83.8839     3.5327     2.9982  2000.0000
   58.0000    87.0296     3.9250     3.1505  2000.0000
   58.5000    86.0376     4.3039     3.4071  2000.0000
   59.0000    82.6795     4.7530     3.8147  2000.0000
   59.5000    78.7098     5.1752     4.2125  2000.0000
   60.0000    74.1284     5.7206     4.5217  1989.2505
   60.5000    63.1265     6.2671     4.9579  1562.5134
   61.0000    54.2638     6.9211     5.5298  1168.1666
   61.5000    44.7895     7.6976     6.4901   764.9753
   62.0000    39.2907     8.3221     7.3210   464.4613
   62.5000    38.0733     9.0774     7.9143    20.0356
   63.0000    39.9154    10.0780     8.2577     8.6614
   63.5000    40.2270    10.5163     7.6918     8.0799
   64.0000    38.3979     9.5239     6.8179     8.1381
   64.5000    35.3456     8.7483     6.3059     8.2550
   65.0000    33.5180     8.3139     6.3504     8.1972
   65.5000    33.8296     7.8119     6.8774     7.8480
   66.0000    39.6458     7.1757     8.1957     7.7459
   66.5000    47.6027     6.7766     7.5803     8.6779
   67.0000    56.8338     6.5452     7.0111     9.1204
   67.5000    63.2121     6.4081     6.6240     9.1210
   68.0000    66.5818     6.2737     6.2969     9.1217
   68.5000    68.4225     6.0988     5.9972     9.1874
   69.0000    69.0399     5.8017     5.7470     9.3193
   69.5000    69.9990     5.5238     5.5073     9.1886
   70.0000    71.1936     5.3698     5.4294     8.6821
   70.5000    71.5052     5.3321     5.3525     8.0641
   71.0000    72.4285     5.3705     5.3521     7.4813
   71.5000    73.0459     5.3738     5.3899     7.0689
   72.0000    73.9706     5.4095     5.3514     6.8230
   72.5000    75.1996     5.4483     5.3510     6.7752
   73.0000    77.3461     5.4487     5.3506     7.4835
   73.5000    79.7984     5.4106     5.3125     8.9366
   74.0000    81.0274     5.3728     5.3120    10.2271
   74.5000    77.9766     5.3732     5.3117    11.2961
   75.0000    75.8417     5.3736     5.3112    11.6220
   75.5000    74.0126     5.3359     5.2734    11.9577
   76.0000    72.7952     5.2613     5.1988     9.1321
   76.5000    72.4952     5.1836     5.1252     8.1526
   77.0000    73.7257     5.0075     5.0158     8.0381
   77.5000    73.7315     4.7994     4.8077     8.2137
   78.0000    68.2327     4.5675     4.6071     8.4487
   78.5000    65.1702     4.4088     4.3837     7.9267
   79.0000    66.7167     4.3164     4.1712     7.3842
   79.5000    71.3097     4.3475     3.9376     7.0769
   80.0000    74.9852     4.3787     3.8576     6.8275
   80.5000    78.3549     4.4730     4.0825     6.7349
   81.0000    79.6147     4.6019     4.2900     6.9787
   81.5000    79.8970     4.7442     4.5079     7.2313
   82.0000    81.1261     5.0110     4.8046     7.4929
   82.5000    82.3551     5.1921     5.0487     7.5468
   83.0000    82.6667     5.3797     5.2306     7.3885
   83.5000    80.5333     5.5347     5.4190     7.2333
   84.0000    78.0926     5.7755     5.6568     7.1826
   84.5000    74.7345     5.9419     5.8576     7.1832
   85.0000    74.4330     6.0700     6.0257     7.0824
   85.5000    78.7370     6.2008     6.1549     7.0328
   86.0000    81.4812     6.2897     6.2424     6.8853
   86.5000    83.0160     6.3800     6.2863     5.8075
   87.0000    82.4102     6.4258     6.3307     5.6391
   87.5000    81.1928     6.4262     6.3753     6.3697
   88.0000    78.6299     6.4267     6.3747     5.7677
   88.5000    76.0071     6.3817     6.3736     6.0618
   89.0000    75.3998     6.3371     6.2840     7.0364
   89.5000    76.0187     6.2043     6.1514     7.3952
   90.0000    80.9174     6.1174     6.0215     7.4485
   90.5000    85.2060     5.9469     5.8527     7.4490
   91.0000    85.5176     5.7809     5.6445     7.4495
   91.5000    85.8293     5.5410     5.4513     7.1903
   92.0000    84.3060     5.3108     5.2611     6.6957
   92.5000    78.3996     5.1627     5.1136     6.5113
   93.0000    73.0041     4.9133     5.0056     6.3746
   93.5000    69.6460     4.6413     4.8309     6.1528
   94.0000    70.2634     4.2951     4.5967     5.7726
   94.5000    73.3273     4.0301     4.3122     6.0722
   95.0000    74.5578     3.7814     3.9602     5.6921
   95.5000    75.7868     3.6242     3.6863     5.2651
   96.0000    77.9333     3.5725     3.3877     4.8356
   96.5000    81.3030     3.5485     3.2007     4.9400
   97.0000    80.9929     3.5740     3.1779     5.1552
   97.5000    79.1754     3.6253     3.3394     5.0113
   98.0000    77.0405     3.7034     3.5374     5.5746
   98.5000    75.8231     3.8116     3.7399     6.1572
   99.0000    74.6055     3.9759     3.9022     6.1141
   99.5000    73.9998     4.1195     4.0715     5.8078
  100.0000    75.2303     4.2231     4.2182     5.6829
  100.5000    76.7982     4.3942     4.3399     5.5362
