~VERSION INFORMATION
 VERS.                2.0:   CWLS LOG ASCII STANDARD - VERSION 2.0
 WRAP.                 NO:   ONE LINE PER DEPTH STEP
~WELL INFORMATION
#MNEM.UNIT      DATA TYPE    INFORMATION
#----------   ------------   ------------------------------
 STRT.F           28.0000:   START DEPTH
 STOP.F          551.0000:   STOP DEPTH
 STEP.F            0.5000:   STEP LENGTH
 NULL.          -999.2500:   NO VALUE
 COMP. FENIX & SCISSON, INC.:   COMPANY
 WELL.        NPR #85-S-3:   WELL
 FLD .             TEAPOT:   FIELD
 LOC .       S3 T38N R78W:   LOCATION
 CNTY.            NATRONA:   COUNTY
 STAT.            WYOMING:   STATE
 CTRY. UNITED STATES OF AMERICA:   COUNTRY
 SRVC.            Unknown:   SERVICE COMPANY
 DATE.        22-JAN-1977:   LOGDATE
 API .       490251055800:   API NUMBER
~CURVE INFORMATION
#MNEM.UNIT       API CODE    CURVE DESCRIPTION
#----------   ------------   ------------------------------
 DEPT.F                  :   
 ILD .OHMM   05 120 46 00:   INDUCTION LOG DEEP
 SN  .OHMM   05 040 16 00:   SHORT NORMAL 16"
 SPR .MV     05 010 01 00:   SPONTANEOUS POTENTIAL FROM RES.
 CALD.IN     45 280 60 00:   CALIPER FROM DENSITY LOG
 CORR.G/C3   45 356 01 00:   DENSITY CORRECTION
 DPHI.DEC    45 890 12 00:   DENSITY POROSITY SANDSTONE
 GRD .GAPI   45 310 01 00:   GAMMA RAY FROM DENSITY LOG
 RHOB.G/C3   45 350 01 00:   BULK DENSITY
~PARAMETER INFORMATION
#MNEM.UNIT          VALUE    DESCRIPTION
#----------   ------------   ------------------------------
 PD  .                 GL:   PERMANENT DATUM
 EPD .F              5132:   ELEVATION PERMANENT DATUM
 LMF .                 KB:   LOG MEASURED FROM
 DAPD.F                 4:   FEET ABOVE PERMANENT DATUM
 DMF .                 KB:   DRILLING MEASURED FROM
 EKB .F              5136:   KELLING BUSHING
 EGL .F              5132:   GROUND LEVEL
 DATE.          1-22-1977:   RUN DATE
 RUN .                  1:   RUN NUMBER
 DD  .F               550:   DEPTH DRILLER
 DL  .F               550:   DEPTH LOGGER
 BLI .F               545:   BOTTOM LOG INTERVAL
 TLI .F                50:   TOP LOG INTERVAL
 CS  .IN            8.625:   CASING SIZE
 CBD .F                40:   CASING BOTTOM DRILLER
 CBL .F                40:   CASING BOTTOM LOGGER
 BS  .IN            7.875:   BIT SIZE
 BSD .F               550:   BIT SIZE AT DEPTH
 DFT .                KCL:   DRILLING FLUID TYPE
 DFD .                8.6:   DRILLING FLUID DENSITY
 DFV .                 36:   DRILLING FLUID VISCOSITY
 DFPH.                 10:   DRILLING FLUID PH
 DFL .                7.2:   DRILLING FLUID LOSS
 MSS .           FLOWLINE:   MUD SAMPLE SOURCE
 RMS .OHMM             .3:   RESISTIVITY MUD SAMPLE
 MST .F                56:   MUD SAMPLE TEMPERATURE
 RMF .OHMM             .3:   RESISTIVITY MUD FILTRATE SAMPLE
 MFST.F                58:   MUD FILTRATE SAMPLE TEMPERATURE
 RMC .OHMM             .3:   RESISTIVITY MUD CAKE
 MCST.F                58:   MUD CAKE SAMPLE TEMPERATURE
 MFSS.           MEASURED:   MUD FILTRATE SAMPLE SOURCE
 MCSS.           MEASURED:   MUD CAKE SAMPLE SOURCE
 RMB .OHMM            .25:   RESISTIVITY MUD AT BHT
 BHT .F                68:   BOTTOM HOLE TEMPERATURE
 TCS .HRS               3:   TIME CURCULATED STOPPED
 MRT .F                68:   MAXIMUM RECORDED TEMPERATURE
 LUN .               2958:   LOGGING UNIT NUMBER
 LUL .             CASPER:   LOGGING UNIT LOCATION
 ENGI.           REYNOLDS:   RECORDING ENGINEER
 WITN.             GINLEY:   WITNESSED BY
 CLNT.            A2DTECH:   CLIENT CODE
 ORIG.           5" PRINT:   ORIGIN OF DATA
 UWI .       490251055800:   UNIQUE WELL ID
 DICO. A2D Technologies, Inc.:   DIGITIZING COMPANY
~OTHER INFORMATION
~A   DEPT      ILD         SN        SPR       CALD       CORR       DPHI         GRD      RHOB   
# ...
  230.5000     8.4168     8.3820   -44.6598     7.8066     0.2073     0.1563   110.3999     2.4012
  231.0000     8.4185     8.3264   -44.6920     7.8060     0.2075     0.1596   108.1748     2.4005
  231.5000     8.3615     8.2702   -44.7243     7.8054     0.2078     0.1578   110.2717     2.4005
  232.0000     8.2491     8.2722   -44.7565     7.8048     0.2106     0.1518   112.3685     2.4080
  232.5000     8.2470     8.2166   -44.7888     7.8048     0.2107     0.1506   110.2924     2.4133
  233.0000     8.1391     8.0499   -44.9483     7.8037     0.2107     0.1542   109.5577     2.4148
  233.5000     8.0781     7.8857   -44.9390     7.8027     0.2108     0.1581   106.4384     2.4059
  234.0000     7.9753     7.6724   -45.2305     7.8016     0.2109     0.1593   108.5352     2.3946
  234.5000     7.8581     7.4645   -45.2231     7.8006     0.2109     0.1601   112.1223     2.3947
  235.0000     7.6020     7.2622   -45.3670     7.7995     0.2110     0.1622   109.8972     2.3947
  235.5000     7.4991     7.0654   -45.3577     7.7985     0.2110     0.1619   108.8644     2.3947
  236.0000     7.3467     6.9694   -45.3503     7.8132     0.2096     0.1619   109.3219     2.3947
  236.5000     7.1477     6.9712   -45.1934     7.8143     0.2082     0.1625   110.6735     2.3940
  237.0000     7.1988     7.0698   -45.1860     7.8302     0.2082     0.1634   111.7245     2.3933
  237.5000     7.4022     7.2697   -45.0291     7.8312     0.2083     0.1622   109.8001     2.3933
  238.0000     7.6114     7.5272   -44.7228     7.8322     0.2083     0.1553   108.3202     2.3934
  238.5000     7.7725     7.6867   -44.7153     7.8481     0.2069     0.1517   107.2873     2.4020
  239.0000     7.8824     7.8495   -44.7079     7.8492     0.2070     0.1505   106.2545     2.4108
  239.5000     7.9938     7.9057   -44.7024     7.8651     0.2070     0.1556   105.9642     2.4145
  240.0000     8.0509     7.9622   -44.7299     7.8661     0.1980     0.1579   106.1262     2.4137
  240.5000     8.0526     7.9638   -44.7533     7.8821     0.1951     0.1588   106.2856     2.4077
  241.0000     8.0543     7.9655   -44.7767     7.9129     0.1937     0.1567   108.2334     2.4040
  241.5000     8.0000     7.9671   -44.8001     7.9288     0.1922     0.1537   109.8831     2.4047
  242.0000     8.0021     7.8592   -44.8235     7.9298     0.1923     0.1510   106.4658     2.4107
  242.5000     8.0037     7.8609   -44.8469     7.9308     0.1923     0.1495   105.7284     2.4153
  243.0000     7.9502     7.9171   -44.8704     7.9319     0.1924     0.1528   108.8711     2.4138
  243.5000     7.8966     7.9187   -44.8938     7.9318     0.1925     0.1561   104.8576     2.4078
  244.0000     7.8438     7.8658   -44.9172     7.9317     0.1955     0.1588   103.6731     2.4018
  244.5000     7.7914     7.8632   -44.9253     7.9315     0.2016     0.1584   106.6641     2.3966
  245.0000     7.6860     7.7582   -44.9178     7.9314     0.2047     0.1515   104.8887     2.4071
  245.5000     7.5824     7.6557   -44.9392     7.9313     0.2047     0.1500   105.7933     2.4132
  246.0000     7.4794     7.5000   -44.9882     7.9312     0.2063     0.1522   107.5921     2.4139
  246.5000     7.3785     7.3389   -45.0438     7.9311     0.2064     0.1520   107.1554     2.4139
  247.0000     7.2285     7.1294   -45.1878     7.9310     0.2064     0.1491   108.3580     2.4155
  247.5000     7.0328     6.8594   -45.3675     7.9309     0.2065     0.1515   110.4548     2.4170
  248.0000     6.8423     6.6275   -45.4719     7.9308     0.2065     0.1533   109.1239     2.4073
  248.5000     6.6571     6.3592   -45.6139     7.9307     0.2066     0.1548   104.9523     2.4050
  249.0000     6.4768     6.1869   -45.7560     7.9306     0.2067     0.1566   101.3950     2.4028
  249.5000     6.3452     6.0611   -45.8962     7.9305     0.2082     0.1611   102.7467     2.3998
  250.0000     6.2593     5.9787   -45.8888     7.9304     0.2113     0.1644   105.2906     2.3946
  250.5000     6.1746     6.1059   -45.5824     7.9303     0.2144     0.1629   106.6423     2.3901
  251.0000     6.1759     6.2450   -45.4255     7.9301     0.2174     0.1580   105.3114     2.3916
  251.5000     6.3067     6.5616   -44.9697     7.9300     0.2175     0.1493   106.6900     2.4082
  252.0000     6.6306     6.9219   -44.8128     7.9299     0.2160     0.1409   108.3368     2.4284
  252.5000     7.0539     7.2173   -44.6559     7.9298     0.2101     0.1388   109.2474     2.4382
  253.0000     7.4580     7.4735   -44.6487     7.9297     0.2056     0.1424   109.8241     2.4345
  253.5000     7.7335     7.6853   -44.6413     7.9296     0.2042     0.1430   110.6423     2.4270
  254.0000     8.0421     7.8487   -44.6338     7.9295     0.2057     0.1427   112.2533     2.4270
  254.5000     8.2124     7.9602   -44.6263     7.9294     0.2058     0.1424   111.2921     2.4271
  255.0000     8.3863     8.1294   -44.6188     7.9293     0.2059     0.1427   111.8054     2.4271
  255.5000     8.5048     8.1316   -44.6107     7.9292     0.2059     0.1442   112.2602     2.4264
  256.0000     8.5656     8.1339   -44.6241     7.9293     0.2060     0.1427   109.2926     2.4264
  256.5000     8.6268     8.2495   -44.6387     7.9233     0.2060     0.1373   109.6010     2.4286
  257.0000     8.6884     8.3667   -44.6533     7.9163     0.2061     0.1367   112.1449     2.4362
  257.5000     8.7505     8.5446   -44.6679     7.9174     0.2062     0.1379   109.7025     2.4407
  258.0000     8.8742     8.5469   -44.6824     7.9185     0.2062     0.1415   108.8127     2.4384
  258.5000     8.9376     8.6086   -44.6970     7.9195     0.2063     0.1484   112.8440     2.4316
  259.0000     9.0015     8.6707   -44.7116     7.9205     0.2116     0.1499   114.3402     2.4211
  259.5000     9.0034     8.7940   -44.7285     7.9216     0.2206     0.1474   112.7068     2.4183
  260.0000     9.0677     8.7964   -44.7304     7.9226     0.2296     0.1435   109.4341     2.4243
  260.5000     9.0414     8.7989   -44.7326     7.9237     0.2357     0.1426   108.2478     2.4288
  261.0000     8.9992     8.8013   -44.7349     7.9247     0.2417     0.1450   109.2969     2.4266
  261.5000     8.9571     8.8042   -44.7371     7.9257     0.2447     0.1474   111.3893     2.4228
  262.0000     8.9149     8.7453   -44.7394     7.9268     0.2477     0.1480   111.6933     2.4191
  262.5000     8.9059     8.7483   -44.7416     7.9278     0.2493     0.1426   113.6366     2.4215
  263.0000     8.8470     8.6897   -44.7439     7.9289     0.2523     0.1390   117.0703     2.4284
  263.5000     8.8494     8.6321   -44.7461     7.9299     0.2523     0.1432   121.8452     2.4327
  264.0000     8.8446     8.5750   -44.7484     7.9310     0.2523     0.1459   118.7215     2.4302
  264.5000     8.7326     8.5181   -44.7506     7.9172     0.2523     0.1465   118.0924     2.4253
  265.0000     8.6151     8.4039   -44.7529     7.9344     0.2523     0.1441   117.5411     2.4253
  265.5000     8.4996     8.3477   -44.7551     7.9053     0.2523     0.1447   112.7780     2.4253
  266.0000     8.3852     8.2924   -44.7574     7.8612     0.2524     0.1459   110.5485     2.4268
  266.5000     8.3291     8.2952   -44.7596     7.8024     0.2524     0.1438   111.1505     2.4284
  267.0000     8.2176     8.1833   -44.7619     7.7733     0.2524     0.1411   113.2429     2.4299
  267.5000     8.1069     8.1857   -44.7641     7.7292     0.2539     0.1392   110.4172     2.4329
  268.0000     7.9978     8.1314   -44.7664     7.7001     0.2524     0.1398   111.4904     2.4337
  268.5000     7.9443     8.0219   -44.7686     7.6856     0.2434     0.1410   112.9627     2.4337
  269.0000     7.8373     7.9123   -45.0639     7.6864     0.2179     0.1422   110.6498     2.4307
  269.5000     7.7318     7.7533   -45.5064     7.6870     0.2043     0.1431   107.7248     2.4285
  270.0000     7.5757     7.6419   -45.8009     7.6876     0.1953     0.1506   107.4663     2.4255
  270.5000     7.4222     7.4842   -46.0924     7.6882     0.1938     0.1626   109.6274     2.4060
