~VERSION INFORMATION
 VERS.                2.0:   CWLS LOG ASCII STANDARD - VERSION 2.0
 WRAP.                 NO:   ONE LINE PER DEPTH STEP
~WELL INFORMATION
#MNEM.UNIT      DATA TYPE    INFORMATION
#----------   ------------   ------------------------------
 STRT.F           30.0000:   START DEPTH
 STOP.F          637.0000:   STOP DEPTH
 STEP.F            0.5000:   STEP LENGTH
 NULL.          -999.2500:   NO VALUE
 COMP.    FENIX & SCISSON:   COMPANY
 WELL.        NPR #82-S-3:   WELL
 FLD .             TEAPOT:   FIELD
 LOC .       S3 T38N R78W:   LOCATION
 CNTY.            NATRONA:   COUNTY
 STAT.            WYOMING:   STATE
 CTRY. UNITED STATES OF AMERICA:   COUNTRY
 SRVC.              Welex:   SERVICE COMPANY
 DATE.        08-MAY-1977:   LOGDATE
 API .       490251035100:   API NUMBER
~CURVE INFORMATION
#MNEM.UNIT       API CODE    CURVE DESCRIPTION
#----------   ------------   ------------------------------
 DEPT.F                  :   
 SPR .MV     07 010 01 00:   SPONTANEOUS POTENTIAL FROM RES.
 ILD .OHMM   07 120 46 00:   INDUCTION LOG DEEP
 ILM .OHMM   07 120 44 00:   INDUCTION LOG MEDIUM
 SGRD.OHMM   07 220 05 00:   SHALLOW GUARD RESISTIVITY
 GRD .GAPI   45 310 01 00:   GAMMA RAY FROM DENSITY LOG
 CALD.IN     45 280 60 00:   CALIPER FROM DENSITY LOG
 CORR.G/C3   45 356 01 00:   DENSITY CORRECTION
 RHOB.G/C3   45 350 01 00:   BULK DENSITY
 DPHI.DEC    45 890 12 00:   DENSITY POROSITY SANDSTONE
~PARAMETER INFORMATION
#MNEM.UNIT          VALUE    DESCRIPTION
#----------   ------------   ------------------------------
 PD  .                 GL:   PERMANENT DATUM
 EPD .F              5100:   ELEVATION PERMANENT DATUM
 LMF .                 GL:   LOG MEASURED FROM
 DMF .                 GL:   DRILLING MEASURED FROM
 EGL .F              5100:   GROUND LEVEL
 DATE.        08-MAY-1977:   RUN DATE
 RUN .                  1:   RUN NUMBER
 DD  .F               635:   DEPTH DRILLER
 DL  .F               640:   DEPTH LOGGER
 BLI .F               638:   BOTTOM LOG INTERVAL
 TLI .F                30:   TOP LOG INTERVAL
 CS  .IN            8.625:   CASING SIZE
 CBD .F                40:   CASING BOTTOM DRILLER
 CBL .F                38:   CASING BOTTOM LOGGER
 BS  .IN            7.875:   BIT SIZE
 BSD .F               635:   BIT SIZE AT DEPTH
 DFT .            KCL MUD:   DRILLING FLUID TYPE
 DFD .                8.8:   DRILLING FLUID DENSITY
 DFV .                 32:   DRILLING FLUID VISCOSITY
 DFPH.                7.5:   DRILLING FLUID PH
 MSS .           FLOWLINE:   MUD SAMPLE SOURCE
 RMS .OHMM            .25:   RESISTIVITY MUD SAMPLE
 MST .F                80:   MUD SAMPLE TEMPERATURE
 RMF .OHMM            .22:   RESISTIVITY MUD FILTRATE SAMPLE
 MFST.F                80:   MUD FILTRATE SAMPLE TEMPERATURE
 RMC .OHMM            .31:   RESISTIVITY MUD CAKE
 MCST.F                80:   MUD CAKE SAMPLE TEMPERATURE
 MFSS.               MEAS:   MUD FILTRATE SAMPLE SOURCE
 MCSS.               MEAS:   MUD CAKE SAMPLE SOURCE
 RMB .OHMM            .23:   RESISTIVITY MUD AT BHT
 BHT .F                87:   BOTTOM HOLE TEMPERATURE
 TCS .HRS            0130:   TIME CURCULATED STOPPED
 MRT .F                87:   MAXIMUM RECORDED TEMPERATURE
 LUN .               8611:   LOGGING UNIT NUMBER
 LUL .             CASPER:   LOGGING UNIT LOCATION
 ENGI.            C. DOAK:   RECORDING ENGINEER
 WITN.            R. LYON:   WITNESSED BY
 CLNT.            A2DTECH:   CLIENT CODE
 ORIG.           5" PRINT:   ORIGIN OF DATA
 UWI .       490251035100:   UNIQUE WELL ID
 DICO. A2D Technologies, Inc.:   DIGITIZING COMPANY
~OTHER INFORMATION
~A   DEPT      SPR        ILD        ILM       SGRD         GRD      CALD        CORR        RHOB     DPHI   
# ...
  431.5000   -36.1589    24.1186    29.4519    35.4517    64.5436     7.9379     0.0367     2.3265     0.2076
  432.0000   -36.1412    25.3257    30.2887    31.3360    61.8904     7.9548     0.0368     2.3265     0.2058
  432.5000   -36.1236    26.2294    29.0847    29.2645    65.0407     7.9414     0.0383     2.3248     0.2099
  433.0000   -36.1059    27.7326    29.9158    32.6952    68.7862     7.9439     0.0414     2.3159     0.2150
  433.5000   -36.0883    28.5250    30.5593    35.5296    69.5493     7.9305     0.0429     2.3195     0.2090
  434.0000   -36.2190    28.9385    30.5781    31.1891    69.1282     7.9176     0.0445     2.3306     0.2036
  434.5000   -36.3491    29.3581    28.1694    33.2037    69.7551     7.9047     0.0475     2.3413     0.1947
  435.0000   -36.4793    28.5778    22.9241    42.2878    67.9947     7.8621     0.0506     2.3675     0.1827
  435.5000   -36.4615    28.1998    21.4112    61.8194    60.2819     7.8344     0.0537     2.3859     0.1710
  436.0000   -36.2938    27.6443    26.3428    38.7053    61.3489     7.8067     0.0567     2.3895     0.1769
  436.5000   -35.9822    27.4714    29.8389    37.1522    64.6480     7.8389     0.0583     2.3610     0.1950
  437.0000   -35.8077    27.4883    30.4807    38.4816    68.6912     7.8408     0.0523     2.3290     0.2098
  437.5000   -35.5029    27.5053    30.2855    36.9426    71.9903     7.8577     0.0494     2.3202     0.2104
  438.0000   -35.3372    27.3291    29.8895    40.9898    75.1406     7.8894     0.0510     2.3292     0.2062
  438.5000   -35.3195    27.1582    29.4987    39.8968    74.1243     7.9657     0.0540     2.3225     0.2092
  439.0000   -35.1538    27.5562    30.5560    35.7496    71.7686     7.9974     0.0556     2.3263     0.2050
  439.5000   -34.8402    27.9557    32.3071    40.4951    74.1749     7.9840     0.0571     2.3383     0.1999
  440.0000   -34.8190    28.5571    32.7755    45.2423    72.4145     7.9567     0.0617     2.3399     0.2004
  440.5000   -34.6534    28.9711    32.5699    46.5328    70.8029     7.8547     0.0587     2.3324     0.2028
  441.0000   -34.6357    29.7989    33.5012    41.6959    69.7866     7.7824     0.0573     2.3242     0.2088
  441.5000   -34.7704    30.4399    34.9364    42.8852    68.9190     7.7542     0.0574     2.3108     0.2165
  442.0000   -34.6004    31.0946    33.7743    56.5336    68.7892     7.7860     0.0604     2.3205     0.2103
  442.5000   -34.4349    31.3289    32.8765    61.8681    68.8209     7.8326     0.0637     2.3296     0.2061
  443.0000   -34.2693    31.5649    34.5252    53.1909    68.3998     7.8791     0.0695     2.3251     0.2078
  443.5000   -34.2516    31.1522    35.7542    46.3655    69.4667     7.8811     0.0816     2.3207     0.2120
  444.0000   -34.2340    30.7340    34.7661    45.1230    76.7837     7.8237     0.0906     2.3080     0.2171
  444.5000   -34.2163    30.1191    30.8799    41.8564    79.3388     7.7811     0.0907     2.2990     0.2209
  445.0000   -34.1987    29.2936    26.4362    36.7328    79.9594     7.7088     0.0817     2.3118     0.2129
  445.5000   -34.1810    28.5304    28.5788    46.1482    80.1272     7.5473     0.0758     2.3230     0.2116
  446.0000   -34.0155    27.7677    27.9317    40.1987    77.0338     7.5196     0.0684     2.3007     0.2230
  446.5000   -33.9978    27.0255    25.3130    44.6335    75.7198     7.5958     0.0580     2.3059     0.2194
  447.0000   -33.9802    26.0880    24.9249    46.2617    73.8106     7.7167     0.0460     2.3202     0.2116
  447.5000   -33.9625    24.7729    27.0938    37.0936    68.6276     7.8375     0.0416     2.3090     0.2203
  448.0000   -34.0972    23.7845    28.6465    36.3013    71.0339     7.8841     0.0342     2.2896     0.2253
  448.5000   -34.2275    22.9934    27.3105    30.6157    76.8628     7.8861     0.0223     2.2926     0.2292
  449.0000   -34.5013    21.9244    26.9576    28.3265    79.2691     7.8881     0.0208     2.3293     0.2187
  449.5000   -34.9274    21.0497    25.5279    35.4286    80.1872     7.8455     0.0299     2.3719     0.1789
  450.0000   -34.9142    20.2937    23.6097    32.1823    81.0988     7.7434     0.0329     2.3910     0.1702
  450.5000   -34.9804    19.6576    21.9659    28.6431    82.9046     7.6414     0.0346     2.4235     0.1544
  451.0000   -35.1780    19.0140    22.1347    26.7411    85.8972     7.7028     0.0347     2.4146     0.1499
  451.5000   -35.3158    17.8808    21.8481    27.1439    89.3362     7.7940     0.0363     2.3960     0.1657
  452.0000   -35.3018    16.6998    21.1248    27.3507    87.1204     7.8554     0.0364     2.3916     0.1666
  452.5000   -35.2885    16.1433    20.1456    26.0803    85.3511     7.8722     0.0395     2.3984     0.1651
  453.0000   -35.2751    15.8219    19.6130    25.7401    83.5817     7.8742     0.0411     2.4067     0.1600
  453.5000   -35.2618    15.7220    19.6280    26.2972    82.9988     7.8613     0.0427     2.4165     0.1549
  454.0000   -35.2486    15.5155    19.9155    26.8654    84.6561     7.8633     0.0458     2.4128     0.1561
  454.5000   -35.2352    15.5241    20.6291    26.5160    85.4165     7.8504     0.0459     2.4076     0.1605
  455.0000   -35.3698    15.5327    20.7875    25.8082    84.3912     7.8375     0.0415     2.4010     0.1626
  455.5000   -35.5044    15.5413    20.5148    26.0094    83.6595     7.8247     0.0401     2.4040     0.1605
  456.0000   -35.4908    15.6574    19.7029    26.2075    84.2752     7.8118     0.0447     2.4160     0.1545
  456.5000   -35.4773    15.7744    18.7897    26.5898    84.8868     7.7989     0.0463     2.4094     0.1575
  457.0000   -35.3160    15.8922    18.1674    26.0637    85.7960     7.8158     0.0434     2.4095     0.1583
  457.5000   -35.3025    16.0109    19.2113    25.8981    87.7469     7.8177     0.0420     2.4103     0.1586
  458.0000   -35.2891    16.2421    18.1951    26.0999    90.4418     7.8643     0.0391     2.4088     0.1607
  458.5000   -35.4269    16.4765    18.7177    25.9341    90.1606     7.9257     0.0347     2.4007     0.1628
  459.0000   -35.5581    16.5996    19.5224    25.5968    91.5162     7.9277     0.0303     2.4000     0.1640
  459.5000   -35.6959    16.9556    19.9453    25.4386    93.9136     7.9000     0.0245     2.3941     0.1663
  460.0000   -36.1229    17.3193    19.9605    25.6369    91.1026     7.8871     0.0230     2.3807     0.1735
  460.5000   -36.4053    17.8130    20.1138    29.2451    90.0773     7.8891     0.0202     2.3778     0.1768
  461.0000   -36.3919    18.4475    21.2696    34.5312    89.6472     7.8910     0.0278     2.4048     0.1639
  461.5000   -36.5298    19.3696    22.8038    39.3912    89.3660     7.8763     0.0369     2.4302     0.1522
  462.0000   -36.6642    19.6492    23.2933    34.6915    87.8942     7.8776     0.0444     2.4490     0.1354
  462.5000   -36.6474    18.9945    19.0934    27.6542    87.1625     7.8641     0.0490     2.4610     0.1291
  463.0000   -36.4861    17.4971    17.9593    26.0736    88.9686     7.8357     0.0521     2.4483     0.1327
  463.5000   -36.3247    16.5681    17.2452    25.3703    90.7707     7.8218     0.0477     2.4118     0.1509
  464.0000   -36.3113    16.1245    16.5596    24.3923    92.2752     7.8383     0.0374     2.3813     0.1754
  464.5000   -36.2978    16.0249    16.2302    24.5839    93.7796     7.8693     0.0255     2.3537     0.1902
  465.0000   -36.1365    15.9237    16.1310    25.6339    94.6848     7.8854     0.0316     2.3709     0.1808
  465.5000   -36.1257    15.6067    16.3704    25.6517    93.5148     7.8867     0.0392     2.3815     0.1751
  466.0000   -36.1125    15.3995    16.2683    24.9714    90.8526     7.8728     0.0438     2.3860     0.1727
  466.5000   -36.0995    15.1972    15.8267    24.3091    89.0832     7.8745     0.0424     2.3794     0.1756
  467.0000   -36.2340    15.1013    16.0702    23.8280    87.9091     7.8758     0.0350     2.3764     0.1768
  467.5000   -36.2204    14.9029    15.6454    24.0095    87.0285     7.8622     0.0291     2.3750     0.1783
