~VERSION INFORMATION
 VERS.                2.0:   CWLS LOG ASCII STANDARD - VERSION 2.0
 WRAP.                 NO:   ONE LINE PER DEPTH STEP
~WELL INFORMATION
#MNEM.UNIT      DATA TYPE    INFORMATION
#----------   ------------   ------------------------------
 STRT.F            8.0000:   START DEPTH
 STOP.F          419.0000:   STOP DEPTH
 STEP.F            0.5000:   STEP LENGTH
 NULL.          -999.2500:   NO VALUE
 COMP. LAWRENCE/ALLISON INC:   COMPANY
 WELL.   62-46 -SX #10-10:   WELL
 FLD .             TEAPOT:   FIELD
 LOC .      S10 T38N R78W:   LOCATION
 CNTY.            NATRONA:   COUNTY
 STAT.            WYOMING:   STATE
 CTRY. UNITED STATES OF AMERICA:   COUNTRY
 SRVC.           Gearhart:   SERVICE COMPANY
 DATE.        27-MAY-1988:   LOGDATE
 API .       490251120800:   API NUMBER
~CURVE INFORMATION
#MNEM.UNIT       API CODE    CURVE DESCRIPTION
#----------   ------------   ------------------------------
 DEPT.F                  :   
 GRR .GAPI   07 310 01 00:   GAMMA RAY
 ILD .OHMM   07 120 46 00:   INDUCTION LOG DEEP
 ILM .OHMM   07 120 44 00:   INDUCTION LOG MEDIUM
~PARAMETER INFORMATION
#MNEM.UNIT          VALUE    DESCRIPTION
#----------   ------------   ------------------------------
 PD  .                 GL:   PERMANENT DATUM
 EPD .F              5157:   ELEVATION PERMANENT DATUM
 LMF .                 KB:   LOG MEASURED FROM
 DAPD.F                 5:   FEET ABOVE PERMANENT DATUM
 DMF .                 KB:   DRILLING MEASURED FROM
 EKB .F              5162:   KELLING BUSHING
 EGL .F              5157:   GROUND LEVEL
 DATE.        27-MAY-1988:   RUN DATE
 RUN .                  1:   RUN NUMBER
 DD  .F               449:   DEPTH DRILLER
 DL  .F               437:   DEPTH LOGGER
 BLI .F               419:   BOTTOM LOG INTERVAL
 CS  .IN            8.625:   CASING SIZE
 CBD .F                45:   CASING BOTTOM DRILLER
 CBL .F                45:   CASING BOTTOM LOGGER
 BS  .IN            7.875:   BIT SIZE
 BSD .F               449:   BIT SIZE AT DEPTH
 DFT .                AIR:   DRILLING FLUID TYPE
 TLAB.HRS            0910:   TIME LOGGER AT BOTTOM
 MRT .F                70:   MAXIMUM RECORDED TEMPERATURE
 LUN .               7597:   LOGGING UNIT NUMBER
 LUL .           GILLETTE:   LOGGING UNIT LOCATION
 ENGI.          HUCKFELDT:   RECORDING ENGINEER
 WITN.             STRONG:   WITNESSED BY
 CLNT.            A2DTECH:   CLIENT CODE
 ORIG.           5" PRINT:   ORIGIN OF DATA
 UWI .       490251120800:   UNIQUE WELL ID
 DICO. A2D Technologies, Inc.:   DIGITIZING COMPANY
~OTHER INFORMATION
~A    DEPT      GRR       ILD        ILM   
# ...
  190.0000   133.6969     8.3985     8.3761
  190.5000   132.4621     8.4933     8.3750
  191.0000   130.8899     8.6134     8.3738
  191.5000   129.0792     8.6134     8.3725
  192.0000   133.3195     8.6134     8.3714
  192.5000   135.4332     8.6134     8.3703
  193.0000   135.4155     8.4933     8.3104
  193.5000   134.7857     8.4339     8.2507
  194.0000   134.1597     8.2582     8.1343
  194.5000   134.1426     8.0861     8.0761
  195.0000   133.4754     7.9733     7.8490
  195.5000   135.3216     7.7526     7.6315
  196.0000   139.2618     7.5379     7.4710
  196.5000   143.5064     7.3808     7.3139
  197.0000   145.9686     7.2270     7.2571
  197.5000   148.6428     7.1262     7.0588
  198.0000   144.0594     7.0269     6.8619
  198.5000   137.3451     6.9289     6.6702
  199.0000   133.0618     6.8323     6.3934
  199.5000   133.6535     6.7334     6.0424
  200.0000   135.1586     5.9792     5.5914
  200.5000   137.2752     5.8550     5.1387
  201.0000   138.1741     5.8555     5.0315
  201.5000   137.5474     5.8558     5.2153
  202.0000   136.9242     5.8975     5.5929
  202.5000   135.9967     5.9813     6.0438
  203.0000   134.4567     6.0725     6.4851
  203.5000   132.9203     6.3723     6.9669
  204.0000   131.3839     6.5542     7.4670
  204.5000   130.4563     6.9333     7.7897
  205.0000   128.9163     7.2457     7.9566
  205.5000   128.2932     7.6504     8.0133
  206.0000   128.2789     7.8137     7.7914
  206.5000   128.2645     7.5448     7.4696
  207.0000   127.6378     7.1154     7.0609
  207.5000   127.6235     6.5575     6.6668
  208.0000   127.9136     6.1564     6.0485
  208.5000   129.7257     5.8616     5.3288
  209.0000   132.1431     5.8620     5.0019
  209.5000   134.2597     5.8214     4.8977
  210.0000   135.7710     5.8218     5.1819
  210.5000   134.5355     5.9046     5.5603
  211.0000   135.1264     6.0731     6.0510
  211.5000   137.5474     6.3348     6.5044
  212.0000   138.4499     6.6078     7.0163
  212.5000   131.1260     7.0889     7.4234
  213.0000   125.0199     7.4989     7.6900
  213.5000   124.7011     7.7673     8.0271
  214.0000   126.2088     8.0453     8.3105
  214.5000   127.7166     8.3334     8.4885
  215.0000   128.0067     8.5113     8.6095
  215.5000   125.2491     8.6322     8.7373
  216.0000   123.4082     8.6936     8.8567
  216.5000   124.0027     8.6942     8.8573
  217.0000   126.7246     8.6949     8.8579
  217.5000   127.9279     8.6955     8.8585
  218.0000   127.6092     8.6961     8.8592
  218.5000   126.0728     8.6967     8.8598
  219.0000   124.8372     8.6974     8.8604
  219.5000   122.9964     8.6979     8.9236
  220.0000   122.3732     8.7598     8.9874
  220.5000   123.5769     8.8221     9.0515
  221.0000   124.7799     8.8850     9.1161
  221.5000   121.1090     8.9482     9.1167
  222.0000   118.6594     8.9488     8.9269
  222.5000   123.2113     9.1398     8.8647
  223.0000   126.2375     9.2698     9.0547
  223.5000   125.6143     9.4677     9.3798
  224.0000   122.2515     9.5351     9.9241
  224.5000   118.8886     9.3858    10.1367
  225.0000   119.7839     8.7047    10.1373
  225.5000   120.3784     8.2878     9.9146
  226.0000   119.7553     7.8357     8.8692
  226.5000   116.3924     7.4529     7.8691
  227.0000   123.0716     6.9553     6.7403
  227.5000   132.1897     6.9070     5.9803
  228.0000   138.2637     6.9562     5.4961
  228.5000   139.0612     6.9567     5.6535
  229.0000   129.0990     7.1554     6.3282
  229.5000   123.6052     7.5692     7.4412
  230.0000   118.1114     8.4696     8.7500
  230.5000   115.0530     9.4896     9.7256
  231.0000   114.7307    10.6044    10.5095
  231.5000   114.7163    11.1393    11.3567
  232.0000   115.3108    11.2976    11.5999
  232.5000   116.5142    11.4581    11.6829
  233.0000   118.3765    11.6208    11.4394
  233.5000   120.1349    12.0370    11.1224
  234.0000   121.6426    12.5556    11.1232
  234.5000   121.9330    13.0967    11.2819
  235.0000   119.1751    13.9517    11.6869
  235.5000   112.7681    16.0561    12.3650
  236.0000   102.4037    17.7154    13.5512
  236.5000    89.9084    19.6839    18.7364
  237.0000    77.1051    21.7182    22.9827
  237.5000    74.0466    24.6455    25.7252
  238.0000    70.3793    27.0023    27.9953
  238.5000    68.8429    28.9679    29.8294
  239.0000    71.2603    30.4289    31.5600
  239.5000    73.6813    31.7406    32.4638
  240.0000    75.4935    33.1083    33.3933
  240.5000    76.6971    33.8152    34.5929
  241.0000    77.9001    34.2956    35.3337
  241.5000    78.1902    34.5395    36.0905
  242.0000    74.2149    34.3001    36.8634
  242.5000    70.8521    33.8247    37.3894
  243.0000    68.7033    33.5902    35.8450
  243.5000    68.0801    33.5926    33.1755
  244.0000    70.1967    33.3597    31.8052
  244.5000    72.9221    32.6672    31.3630
  245.0000    75.6439    32.4408    30.9259
  245.5000    78.0649    32.4173    30.7110
  246.0000    78.9674    32.2181    30.7135
  246.5000    76.5142    32.2208    30.7161
  247.0000    77.4095    32.2229    31.5956
  247.5000    77.7032    32.6808    32.5004
  248.0000    77.9933    32.9137    33.4310
  248.5000    77.6709    33.3812    33.6700
  249.0000    76.1310    33.6186    33.6722
  249.5000    74.5946    34.1171    33.6745
  250.0000    75.1891    37.3570    33.6767
  250.5000    76.0851    38.1489    33.4352
  251.0000    75.1467    38.6864    34.3858
  251.5000    73.9087    39.5065    35.6351
  252.0000    72.9706    39.7822    37.4064
  252.5000    72.6461    41.1999    38.4712
  253.0000    72.6260    42.0747    39.5636
  253.5000    73.2187    43.2701    40.6884
  254.0000    75.3204    44.1874    41.8437
  254.5000    76.2186    44.4957    42.4316
  255.0000    74.3670    44.4920    42.7271
  255.5000    71.6072    44.4891    43.0220
  256.0000    72.1909    43.8659    42.4132
  256.5000    76.1282    42.3494    41.8145
  257.0000    78.8478    40.8860    40.6478
  257.5000    79.7412    39.4732    39.2364
  258.0000    76.9761    37.8426    37.8102
  258.5000    75.7383    35.5227    36.3011
  259.0000    75.4138    34.2952    34.3081
  259.5000    75.3937    33.3434    32.6537
  260.0000    76.3674    32.1912    31.0500
  260.5000    80.5235    30.8609    29.5794
  261.0000    83.5475    29.7945    28.7541
  261.5000    85.9627    28.5637    27.9518
  262.0000    86.8559    27.5767    27.1667
  262.5000    86.2219    26.6233    25.8607
  263.0000    86.5113    25.8844    25.3167
  263.5000    87.3994    25.5218    24.7843
  264.0000    89.2217    25.5201    24.4344
  264.5000    90.0989    25.5180    23.7518
  265.0000    89.4649    25.6965    23.7487
  265.5000    87.9228    25.7531    23.9702
  266.0000    86.9853    25.9280    24.4206
  266.5000    85.4422    26.0542    24.6147
  267.0000    85.1177    26.4205    25.1115
  267.5000    84.4888    26.7922    25.4635
  268.0000    84.4687    26.7905    25.8212
  268.5000    85.3618    26.9774    25.8341
  269.0000    86.8587    27.3566    26.1804
  269.5000    88.3607    27.5480    26.5473
  270.0000    89.8627    27.5457    26.5438
  270.5000    91.0552    27.5438    26.7347
  271.0000    91.3445    27.5416    26.9131
  271.5000    91.3194    27.5398    26.5323
  272.0000    91.2993    27.3453    25.2529
  272.5000    91.2785    26.9434    24.8964
  273.0000    90.3408    26.5842    25.0690
  273.5000    88.7987    26.3964    25.2420
  274.0000    87.5609    26.0267    25.2386
  274.5000    89.4237    25.8429    25.0582
  275.0000    92.0819    25.4805    24.8782
  275.5000    93.2794    25.3006    24.7004
  276.0000    93.5688    25.2989    24.5238
  276.5000    93.5271    24.7573    24.1776
  277.0000    91.9965    24.2518    23.6690
  277.5000    89.8455    23.9121    23.0079
  278.0000    87.6944    23.9106    22.5240
  278.5000    85.8398    23.9089    22.3629
  279.0000    84.6051    24.0754    22.2030
  279.5000    84.8894    24.2438    22.5142
  280.0000    87.9134    24.4130    22.9926
  280.5000    88.5023    24.4110    23.6463
