~VERSION INFORMATION
 VERS.                2.0:   CWLS LOG ASCII STANDARD - VERSION 2.0
 WRAP.                 NO:   ONE LINE PER DEPTH STEP
~WELL INFORMATION
#MNEM.UNIT      DATA TYPE    INFORMATION
#----------   ------------   ------------------------------
 STRT.F           80.0000:   START DEPTH
 STOP.F          820.0000:   STOP DEPTH
 STEP.F            0.5000:   STEP LENGTH
 NULL.          -999.2500:   NO VALUE
 COMP. U S NAVY/INTEX OIL CO:   COMPANY
 WELL.      GOVT #15-S-35:   WELL
 FLD .        EAST TEAPOT:   FIELD
 LOC .      S35 T39N R78W:   LOCATION
 CNTY.            NATRONA:   COUNTY
 STAT.            WYOMING:   STATE
 CTRY. UNITED STATES OF AMERICA:   COUNTRY
 SRVC.       Schlumberger:   SERVICE COMPANY
 DATE.        12-FEB-1961:   LOGDATE
 API .       490250654500:   API NUMBER
~CURVE INFORMATION
#MNEM.UNIT       API CODE    CURVE DESCRIPTION
#----------   ------------   ------------------------------
 DEPT.F                  :   
 SPR .MV     05 010 01 00:   SPONTANEOUS POTENTIAL FROM RES.
 ASN .OHMM   05 041 16 00:   AMPLIFIED SHORT NORMAL 16"
 ILD .OHMM   05 120 46 00:   INDUCTION LOG DEEP
 CILD.MMHO   05 110 46 00:   CONDUCTIVITY INDUCTION LOG DEEP
 GR  .GAPI   30 310 01 00:   GAMMA RAY
~PARAMETER INFORMATION
#MNEM.UNIT          VALUE    DESCRIPTION
#----------   ------------   ------------------------------
 PD  .                 GL:   PERMANENT DATUM
 EPD .F              5069:   ELEVATION PERMANENT DATUM
 LMF .                 KB:   LOG MEASURED FROM
 DAPD.F                 4:   FEET ABOVE PERMANENT DATUM
 DMF .                 KB:   DRILLING MEASURED FROM
 EKB .F              5073:   KELLING BUSHING
 EGL .F              5069:   GROUND LEVEL
 DATE.            2-12-61:   RUN DATE
 RUN .                  1:   RUN NUMBER
 DD  .F               820:   DEPTH DRILLER
 DL  .F               820:   DEPTH LOGGER
 BLI .F               819:   BOTTOM LOG INTERVAL
 TLI .F                90:   TOP LOG INTERVAL
 CBD .F                12:   CASING BOTTOM DRILLER
 BS  .IN            7.875:   BIT SIZE
 BSD .F               820:   BIT SIZE AT DEPTH
 DFT .   GEL OIL EMULSION:   DRILLING FLUID TYPE
 DFD .                9.5:   DRILLING FLUID DENSITY
 DFV .                 50:   DRILLING FLUID VISCOSITY
 DFPH.                  8:   DRILLING FLUID PH
 DFL .                  9:   DRILLING FLUID LOSS
 MSS .          FLOW LINE:   MUD SAMPLE SOURCE
 RMS .OHMM           1.04:   RESISTIVITY MUD SAMPLE
 MST .F                56:   MUD SAMPLE TEMPERATURE
 MFSS.                  C:   MUD FILTRATE SAMPLE SOURCE
 MCSS.                  C:   MUD CAKE SAMPLE SOURCE
 RMB .OHMM           2.78:   RESISTIVITY MUD AT BHT
 BHT .F                77:   BOTTOM HOLE TEMPERATURE
 TCS .HRS               1:   TIME CURCULATED STOPPED
 MRT .F                77:   MAXIMUM RECORDED TEMPERATURE
 LUN .               2523:   LOGGING UNIT NUMBER
 LUL .               CSPR:   LOGGING UNIT LOCATION
 ENGI.             KNOBEL:   RECORDING ENGINEER
 WITN.          JORGENSEN:   WITNESSED BY
 CLNT.            A2DTECH:   CLIENT CODE
 ORIG.       2", 5" PRINT:   ORIGIN OF DATA
 UWI .       490250654500:   UNIQUE WELL ID
 DICO. A2D Technologies, Inc.:   DIGITIZING COMPANY
~OTHER INFORMATION
~A   DEPT      SPR          ASN        ILD      CILD        GR   
# ...
  263.0000   -26.4657     8.3068     6.6633   149.6524  -999.2500
  263.5000   -26.5316     8.3221     6.5840   150.4469  -999.2500
  264.0000   -26.5975     8.3612     6.5044   151.2413  -999.2500
  264.5000   -26.6634     8.4032     6.4229   152.0358  -999.2500
  265.0000   -26.7292     8.3681     6.4170   152.8302  -999.2500
  265.5000   -26.7953     8.3117     6.4316   153.3157  -999.2500
  266.0000   -26.8617     8.2561     6.4471   152.8807  -999.2500
  266.5000   -26.9261     8.2335     6.4622   152.4429  -999.2500
  267.0000   -26.9402     8.3097     6.4770   152.0153  -999.2500
  267.5000   -26.7706     8.4579     6.4938   151.5870  -999.2500
  268.0000   -26.6056     8.6500     6.5630   146.6834  -999.2500
  268.5000   -26.4409     8.8442     6.8235   140.2832  -999.2500
  269.0000   -26.2758     9.0396     7.0791   133.8881  -999.2500
  269.5000   -26.1123     9.1755     7.3343   127.4987  -999.2500
  270.0000   -25.9918     9.2951     7.5901   121.1165  -999.2500
  270.5000   -26.0275     9.4142     7.8457   114.7326  -999.2500
  271.0000   -26.0594     9.5344     8.0997   108.3487  -999.2500
  271.5000   -26.0908     9.6170     8.3023   107.1783  -999.2500
  272.0000   -26.1225     9.6885     8.1300   108.8807  -999.2500
  272.5000   -26.1542     9.7337     7.9159   110.5831  -999.2500
  273.0000   -26.1858     9.6470     7.7007   112.2854  -999.2500
  273.5000   -26.2174     9.4059     7.4850   117.4777  -999.2500
  274.0000   -26.2490     9.1093     7.2701   123.8332  -999.2500
  274.5000   -26.2807     8.7971     7.0613   133.6892  -999.2500
  275.0000   -26.3122     8.4846     6.6158   154.0467  -999.2500
  275.5000   -26.3440     8.1675     6.1055   180.3286  -999.2500
  276.0000   -26.3783     7.7222     5.5927   224.3839  -999.2500
  276.5000   -26.3124     6.8091     5.0802   268.4391  -999.2500
  277.0000   -26.2191     5.9087     4.5680   312.4944  -999.2500
  277.5000   -26.1247     5.0080     4.0558   356.5496  -999.2500
  278.0000   -26.0305     4.1031     3.5435   400.6049  -999.2500
  278.5000   -25.9364     3.7910     3.0317   428.0040  -999.2500
  279.0000   -25.8423     3.6951     2.5177   449.8510  -999.2500
  279.5000   -25.7482     3.6452     1.9734   466.2364  -999.2500
  280.0000   -25.6539     3.9046     1.8834   452.7156  -999.2500
  280.5000   -25.5595     4.2464     2.1815   398.6327  -999.2500
  281.0000   -25.4663     4.5992     2.8341   344.5497  -999.2500
  281.5000   -25.4040     5.1693     4.1461   290.4711  -999.2500
  282.0000   -25.4545     6.4466     5.4381   236.3328  -999.2500
  282.5000   -25.5020     7.7177     6.7297   182.1535  -999.2500
  283.0000   -25.5494     8.9816     8.0164   127.9725  -999.2500
  283.5000   -25.5968    10.8896     9.1514   101.6634  -999.2500
  284.0000   -25.6443    11.7781     9.7394    84.2850  -999.2500
  284.5000   -25.6917    12.3651    10.1208    75.4717  -999.2500
  285.0000   -25.7391    12.2812    10.4346    76.9613  -999.2500
  285.5000   -25.7866    12.2129    10.5257    83.1869  -999.2500
  286.0000   -25.8340    11.9535     9.8165    96.1729  -999.2500
  286.5000   -25.8814    11.1142     9.1280   109.1590  -999.2500
  287.0000   -25.9289    10.4719     8.4412   122.1450  -999.2500
  287.5000   -25.9794    10.1371     7.7535   135.1310  -999.2500
  288.0000   -25.9165     9.6023     7.0656   148.1170  -999.2500
  288.5000   -25.8225     7.8169     6.3756   161.1030  -999.2500
  289.0000   -25.7274     7.3963     5.7965   165.8391  -999.2500
  289.5000   -25.6324     7.3323     5.2391   167.8252  -999.2500
  290.0000   -25.5375     8.1285     5.1153   160.2532  -999.2500
  290.5000   -25.4427     9.1735     5.0740   149.4952  -999.2500
  291.0000   -25.3478    10.0590     6.4237   138.7372  -999.2500
  291.5000   -25.2530    10.3275     8.1779   127.9780  -999.2500
  292.0000   -25.1581    10.6034     8.9460   117.2124  -999.2500
  292.5000   -25.0631    10.8809     9.4386   106.4368  -999.2500
  293.0000   -24.9679    11.1578     9.9164    96.3257  -999.2500
  293.5000   -24.8741    11.4349    10.3226    88.4877  -999.2500
  294.0000   -24.8142    11.7120    10.4644    86.9272  -999.2500
  294.5000   -24.8783    11.9890    10.6131    85.3667  -999.2500
  295.0000   -24.9393    12.2661    10.7623    83.8041  -999.2500
  295.5000   -25.0000    12.5432    10.9111    82.2439  -999.2500
  296.0000   -25.0607    12.8203    11.0602    80.6783  -999.2500
  296.5000   -25.1217    13.0974    11.2094    79.1102  -999.2500
  297.0000   -25.1859    13.3745    11.3575    78.2352  -999.2500
  297.5000   -25.1251    13.6516    11.4765    79.4331  -999.2500
  298.0000   -25.0301    13.9287    11.4889    80.6329  -999.2500
  298.5000   -24.9338    14.2058    11.5041    81.8315  -999.2500
  299.0000   -24.8377    14.4832    11.5194    83.0189  -999.2500
  299.5000   -24.7417    14.7609    11.5348    83.9126  -999.2500
  300.0000   -24.6457    15.0359    11.5499    82.8745  -999.2500
  300.5000   -24.5498    15.2370    11.5624    81.4904  -999.2500
  301.0000   -24.4538    15.1774    11.6758    80.1063  -999.2500
  301.5000   -24.3578    15.1244    11.8151    78.7222  -999.2500
  302.0000   -24.2618    15.0720    11.9553    77.3381  -999.2500
  302.5000   -24.1658    15.0192    12.0956    75.9540  -999.2500
  303.0000   -24.0696    14.9665    12.2378    75.0095  -999.2500
  303.5000   -23.9732    14.9139    12.2793    75.1550  -999.2500
  304.0000   -23.8794    14.8610    12.3389    75.3010  -999.2500
  304.5000   -23.8606    14.8079    12.3958    75.4454  -999.2500
  305.0000   -24.0280    14.7567    12.4528    75.5887  -999.2500
  305.5000   -24.1875    14.7963    12.5098    75.7317  -999.2500
  306.0000   -24.3469    14.9714    12.5670    75.8746  -999.2500
  306.5000   -24.5067    15.1403    12.6251    75.9682  -999.2500
  307.0000   -24.6667    15.3089    12.7485    75.3222  -999.2500
  307.5000   -24.8285    15.4778    13.0042    73.4738  -999.2500
  308.0000   -24.9920    15.6467    13.2576    71.6249  -999.2500
  308.5000   -24.8641    15.8155    13.5110    69.7762  -999.2500
  309.0000   -24.7113    15.9843    13.7644    67.9291  -999.2500
  309.5000   -24.5593    16.1532    14.0181    66.0820  -999.2500
  310.0000   -24.4078    16.3220    14.2737    64.2350  -999.2500
  310.5000   -24.2564    16.4908    14.5382    62.3879  -999.2500
  311.0000   -24.1049    16.6597    14.6493    60.5408  -999.2500
  311.5000   -23.9535    16.8286    14.7568    58.6938  -999.2500
  312.0000   -23.8021    16.9977    14.8658    56.8467  -999.2500
  312.5000   -23.6507    17.1657    14.9744    54.9996  -999.2500
  313.0000   -23.4993    17.3330    15.0825    53.1525  -999.2500
  313.5000   -23.3477    17.3730    15.1037    52.7993  -999.2500
  314.0000   -23.1961    17.2517    15.0148    54.2783  -999.2500
  314.5000   -23.0455    17.1313    14.9264    55.7573  -999.2500
  315.0000   -22.8939    17.0098    14.8365    57.2363  -999.2500
  315.5000   -22.9018    16.8885    14.7487    58.7153  -999.2500
  316.0000   -23.0333    16.7672    14.6788    60.1943  -999.2500
  316.5000   -23.1657    16.6459    14.5420    61.6733  -999.2500
  317.0000   -23.2990    16.5246    14.4049    63.1523  -999.2500
  317.5000   -23.4321    16.4034    14.2672    64.6313  -999.2500
  318.0000   -23.5652    16.2821    14.1295    66.1103  -999.2500
  318.5000   -23.6983    16.1608    13.9919    67.5893  -999.2500
  319.0000   -23.8314    16.0395    13.8547    69.0169  -999.2500
  319.5000   -23.9644    15.9183    13.7172    69.0169  -999.2500
  320.0000   -24.0975    15.7970    13.6532    68.3615  -999.2500
  320.5000   -24.2306    15.6755    13.6025    67.1609  -999.2500
  321.0000   -24.3636    15.5540    13.5518    65.9603  -999.2500
  321.5000   -24.4967    15.4436    13.5018    64.7597  -999.2500
  322.0000   -24.6298    15.4423    13.4530    63.5591  -999.2500
  322.5000   -24.7628    15.4416    13.4076    63.0586  -999.2500
  323.0000   -24.8959    15.4292    13.3299    66.0377  -999.2500
  323.5000   -25.0290    14.9372    12.6764    68.7748  -999.2500
