~VERSION INFORMATION
 VERS.                2.0:   CWLS LOG ASCII STANDARD - VERSION 2.0
 WRAP.                 NO:   ONE LINE PER DEPTH STEP
~WELL INFORMATION
#MNEM.UNIT      DATA TYPE    INFORMATION
#----------   ------------   ------------------------------
 STRT.F          588.0000:   START DEPTH
 STOP.F         1583.5000:   STOP DEPTH
 STEP.F            0.5000:   STEP LENGTH
 NULL.          -999.2500:   NO VALUE
 COMP.   FENIX & SCISSONS:   COMPANY
 WELL.   NPR 3 #23STX1-11:   WELL
 FLD .             TEAPOT:   FIELD
 LOC .      S11 T38N R78W:   LOCATION
 CNTY.            NATRONA:   COUNTY
 STAT.            WYOMING:   STATE
 CTRY. UNITED STATES OF AMERICA:   COUNTRY
 SRVC.            Unknown:   SERVICE COMPANY
 DATE.        15-JUN-1979:   LOGDATE
 API .       490251078300:   API NUMBER
~CURVE INFORMATION
#MNEM.UNIT       API CODE    CURVE DESCRIPTION
#----------   ------------   ------------------------------
 DEPT.F                  :   
 RHOB.G/C3   45 350 01 00:   BULK DENSITY
 DPHI.DEC    45 890 10 00:   DENSITY POROSITY LIMESTONE
 CORR.G/C3   45 356 01 00:   DENSITY CORRECTION
 GRD .GAPI   45 310 01 00:   GAMMA RAY FROM DENSITY LOG
 CALD.IN     45 280 60 00:   CALIPER FROM DENSITY LOG
~PARAMETER INFORMATION
#MNEM.UNIT          VALUE    DESCRIPTION
#----------   ------------   ------------------------------
 PD  .                 GL:   PERMANENT DATUM
 EPD .F              5168:   ELEVATION PERMANENT DATUM
 LMF .                 KB:   LOG MEASURED FROM
 DAPD.F                10:   FEET ABOVE PERMANENT DATUM
 DMF .                 KB:   DRILLING MEASURED FROM
 EKB .F              5178:   KELLING BUSHING
 EGL .F              5168:   GROUND LEVEL
 DATE.            6-15-79:   RUN DATE
 RUN .                  1:   RUN NUMBER
 DD  .F              1580:   DEPTH DRILLER
 DL  .F              1580:   DEPTH LOGGER
 BLI .F              1578:   BOTTOM LOG INTERVAL
 TLI .F               680:   TOP LOG INTERVAL
 CS  .IN            9.625:   CASING SIZE
 CBD .F               660:   CASING BOTTOM DRILLER
 CBL .F               670:   CASING BOTTOM LOGGER
 BS  .IN             8.75:   BIT SIZE
 BSD .F              1580:   BIT SIZE AT DEPTH
 DFT .                OIL:   DRILLING FLUID TYPE
 TCS .HRS               4:   TIME CURCULATED STOPPED
 MRT .F                80:   MAXIMUM RECORDED TEMPERATURE
 LUN .               3029:   LOGGING UNIT NUMBER
 LUL .             CASPER:   LOGGING UNIT LOCATION
 ENGI.            MULLINS:   RECORDING ENGINEER
 CLNT.            A2DTECH:   CLIENT CODE
 ORIG.     1", 2.5" PRINT:   ORIGIN OF DATA
 UWI .       490251078300:   UNIQUE WELL ID
 DICO. A2D Technologies, Inc.:   DIGITIZING COMPANY
~OTHER INFORMATION
~A   DEPT     RHOB       DPHI       CORR         GRD      CALD   
# ...
 1198.0000     2.5416     0.0078    -0.0029    96.6175     9.6491
 1198.5000     2.5749    -0.0102    -0.0058    92.2005     9.6388
 1199.0000     2.5945    -0.0251    -0.0090    84.7353     9.6284
 1199.5000     2.5990    -0.0219    -0.0123    74.9123     9.6180
 1200.0000     2.5935    -0.0088    -0.0088    76.2177     9.6076
 1200.5000     2.5547     0.0046    -0.0029    87.7420     9.5972
 1201.0000     2.5305     0.0160     0.0034    92.8173     9.5868
 1201.5000     2.5230     0.0218     0.0005    95.5789     9.5763
 1202.0000     2.5147     0.0259    -0.0035    97.1183     9.5660
 1202.5000     2.5170     0.0218     0.0007    96.3070     9.5572
 1203.0000     2.5255     0.0174     0.0060    93.1842     9.5570
 1203.5000     2.5334     0.0138     0.0111    88.8521     9.5568
 1204.0000     2.5418     0.0089     0.0155    88.5510     9.5569
 1204.5000     2.5393     0.0127     0.0090    90.6240     9.5569
 1205.0000     2.5311     0.0162     0.0023    91.8649     9.5569
 1205.5000     2.5320     0.0136    -0.0003    92.2646     9.5569
 1206.0000     2.5427     0.0073     0.0000    89.2085     9.5569
 1206.5000     2.5428     0.0101    -0.0077    86.8809     9.5569
 1207.0000     2.5263     0.0180    -0.0123    87.8650     9.5569
 1207.5000     2.5192     0.0227    -0.0080    89.5093     9.5569
 1208.0000     2.5193     0.0222    -0.0035    91.1556     9.5569
 1208.5000     2.5193     0.0213    -0.0009    91.3234     9.5569
 1209.0000     2.5178     0.0231    -0.0042    89.0570     9.5569
 1209.5000     2.5132     0.0261    -0.0071    87.0997     9.5569
 1210.0000     2.5086     0.0291    -0.0098    91.4832     9.5568
 1210.5000     2.5038     0.0316    -0.0119    95.8065     9.5569
 1211.0000     2.5051     0.0299    -0.0087    96.0564     9.5569
 1211.5000     2.5093     0.0283    -0.0060    94.2975     9.5565
 1212.0000     2.5149     0.0237    -0.0031    92.4531     9.5616
 1212.5000     2.5220     0.0178    -0.0001    90.8393     9.5755
 1213.0000     2.5276     0.0171     0.0031    86.7581     9.5890
 1213.5000     2.5283     0.0162     0.0036    85.6304     9.6026
 1214.0000     2.5243     0.0192     0.0017    83.3945     9.6162
 1214.5000     2.5205     0.0213    -0.0001    81.3797     9.6299
 1215.0000     2.5201     0.0219    -0.0032    82.7044     9.6433
 1215.5000     2.5216     0.0208    -0.0063    82.7731     9.6569
 1216.0000     2.5231     0.0194    -0.0094    82.3496     9.6715
 1216.5000     2.5201     0.0213    -0.0121    83.6044     9.6788
 1217.0000     2.5168     0.0234    -0.0121    85.2593     9.6754
 1217.5000     2.5130     0.0255    -0.0123    86.1092     9.6730
 1218.0000     2.5132     0.0239    -0.0109    86.0493     9.6707
 1218.5000     2.5208     0.0211    -0.0072    83.5117     9.6681
 1219.0000     2.5175     0.0228    -0.0041    81.2222     9.6657
 1219.5000     2.5131     0.0249    -0.0003    82.5883     9.6632
 1220.0000     2.5091     0.0270    -0.0016    86.1575     9.6607
 1220.5000     2.5097     0.0283    -0.0032    86.8549     9.6582
 1221.0000     2.5032     0.0336    -0.0051    83.8288     9.6558
 1221.5000     2.4913     0.0392    -0.0068    81.5247     9.6533
 1222.0000     2.4849     0.0400    -0.0074    79.8207     9.6509
 1222.5000     2.4899     0.0379    -0.0044    78.2600     9.6484
 1223.0000     2.4961     0.0358    -0.0015    76.5885     9.6460
 1223.5000     2.4998     0.0348     0.0015    77.2886     9.6435
 1224.0000     2.5008     0.0351     0.0044    79.2290     9.6411
 1224.5000     2.4972     0.0359     0.0074    79.8969     9.6386
 1225.0000     2.4933     0.0364     0.0078    78.5470     9.6361
 1225.5000     2.4892     0.0388     0.0069    77.3880     9.6337
 1226.0000     2.4853     0.0412     0.0061    76.9474     9.6312
 1226.5000     2.4808     0.0444     0.0051    78.4948     9.6288
 1227.0000     2.4728     0.0499     0.0043    80.1776     9.6263
 1227.5000     2.4667     0.0535     0.0004    82.0099     9.6238
 1228.0000     2.4667     0.0535    -0.0054    84.2440     9.6214
 1228.5000     2.4771     0.0457    -0.0061    84.8872     9.6189
 1229.0000     2.4915     0.0378     0.0009    83.4279     9.6165
 1229.5000     2.5029     0.0309     0.0052    85.2514     9.6140
 1230.0000     2.5059     0.0283     0.0071    82.8718     9.6116
 1230.5000     2.5084     0.0259     0.0077    78.1424     9.6091
 1231.0000     2.5155     0.0225     0.0065    78.1835     9.6066
 1231.5000     2.5229     0.0194     0.0053    80.2186     9.6042
 1232.0000     2.5181     0.0218     0.0043    82.1360     9.6017
 1232.5000     2.5208     0.0199     0.0032    82.0130     9.5993
 1233.0000     2.5277     0.0154     0.0020    83.2556     9.5968
 1233.5000     2.5342     0.0110     0.0010    85.4014     9.5943
 1234.0000     2.5411     0.0073     0.0002    84.4393     9.5919
 1234.5000     2.5481     0.0004     0.0023    83.6629     9.5894
 1235.0000     2.5582    -0.0050     0.0044    85.0970     9.5870
 1235.5000     2.5736    -0.0104     0.0064    83.7739     9.5845
 1236.0000     2.5678    -0.0072     0.0080    89.0305     9.5821
 1236.5000     2.5463     0.0088     0.0019    89.5172     9.5796
 1237.0000     2.5274     0.0226    -0.0053    90.3527     9.5771
 1237.5000     2.5144     0.0240    -0.0117    90.9436     9.5747
 1238.0000     2.5186     0.0238    -0.0059    89.1192     9.5722
 1238.5000     2.5250     0.0202    -0.0058    82.6006     9.5697
 1239.0000     2.5185     0.0226    -0.0095    81.9385     9.5673
 1239.5000     2.5163     0.0232    -0.0113    81.8488     9.5648
 1240.0000     2.5192     0.0220    -0.0080    84.0561     9.5623
 1240.5000     2.5222     0.0207    -0.0044    86.4974     9.5600
 1241.0000     2.5220     0.0195    -0.0041    89.0481     9.5575
 1241.5000     2.5195     0.0227    -0.0039    91.7040     9.5600
 1242.0000     2.5177     0.0227    -0.0041    95.3505     9.5642
 1242.5000     2.5249     0.0165    -0.0018    94.5105     9.5685
 1243.0000     2.5296     0.0153     0.0012    92.7887     9.5726
 1243.5000     2.5342     0.0138     0.0039    91.2157     9.5768
 1244.0000     2.5440     0.0008     0.0029    90.2050     9.5809
 1244.5000     2.5698    -0.0108     0.0021    89.4533     9.5851
 1245.0000     2.5713    -0.0063     0.0008    86.7886     9.5893
 1245.5000     2.5598     0.0008    -0.0004    86.6500     9.5934
 1246.0000     2.5478     0.0119    -0.0069    88.3954     9.5974
 1246.5000     2.5176     0.0234    -0.0131    92.2210     9.5975
 1247.0000     2.5183     0.0239    -0.0165    93.2913     9.5976
 1247.5000     2.5187     0.0246    -0.0160    93.1014     9.5976
 1248.0000     2.5133     0.0268    -0.0168    92.1230     9.5976
 1248.5000     2.5058     0.0307    -0.0098    91.1035     9.5976
 1249.0000     2.5047     0.0316    -0.0003    91.2482     9.5976
 1249.5000     2.5091     0.0292    -0.0008    92.4182     9.5976
 1250.0000     2.5193     0.0260    -0.0015    92.8477     9.5976
 1250.5000     2.5139     0.0228    -0.0021    92.7134     9.5976
 1251.0000     2.5043     0.0286    -0.0028    93.9599     9.5976
 1251.5000     2.5067     0.0306    -0.0036    95.8575     9.5976
 1252.0000     2.5097     0.0282    -0.0035    94.5132     9.5976
 1252.5000     2.5135     0.0259    -0.0013    93.4425     9.5976
 1253.0000     2.5094     0.0281    -0.0006    95.5313     9.5976
 1253.5000     2.5034     0.0313    -0.0022    97.5251     9.5976
 1254.0000     2.4976     0.0347    -0.0037    98.4025     9.5976
 1254.5000     2.5053     0.0301     0.0018    98.4838     9.5976
 1255.0000     2.5138     0.0251     0.0077    97.5410     9.5976
 1255.5000     2.5213     0.0216     0.0067    96.1661     9.5976
 1256.0000     2.5189     0.0237     0.0050    94.7607     9.5976
 1256.5000     2.5130     0.0291    -0.0042    92.0795     9.5976
 1257.0000     2.5074     0.0299    -0.0121    89.6556     9.5976
 1257.5000     2.5064     0.0303    -0.0097    86.8025     9.5976
 1258.0000     2.5052     0.0308    -0.0085    87.3891     9.5976
 1258.5000     2.5072     0.0284    -0.0147    88.9907     9.5976
