~VERSION INFORMATION
 VERS.                2.0:   CWLS LOG ASCII STANDARD - VERSION 2.0
 WRAP.                 NO:   ONE LINE PER DEPTH STEP
~WELL INFORMATION
#MNEM.UNIT      DATA TYPE    INFORMATION
#----------   ------------   ------------------------------
 STRT.F         1000.5000:   START DEPTH
 STOP.F         2590.0000:   STOP DEPTH
 STEP.F            0.5000:   STEP LENGTH
 NULL.          -999.2500:   NO VALUE
 COMP. LAWRENCE/ALLISON INC:   COMPANY
 WELL.    LAWENCE #14x-10:   WELL
 FLD .               NONE:   FIELD
 LOC .      S10 T38N R78W:   LOCATION
 CNTY.            NATRONA:   COUNTY
 STAT.            WYOMING:   STATE
 CTRY. UNITED STATES OF AMERICA:   COUNTRY
 SRVC.            Unknown:   SERVICE COMPANY
 DATE.        13-SEP-1988:   LOGDATE
 API .       490251137000:   API NUMBER
~CURVE INFORMATION
#MNEM.UNIT       API CODE    CURVE DESCRIPTION
#----------   ------------   ------------------------------
 DEPT.F                  :   
 ROP .MIN/FT 91 810 01 00:   RATE OF DRILLING PENETRATION
 TGAS.UNITS  91 830 01 00:   TOTAL GAS FROM HOTWIRE
~PARAMETER INFORMATION
#MNEM.UNIT          VALUE    DESCRIPTION
#----------   ------------   ------------------------------
 EKB .F              5278:   KELLING BUSHING
 EGL .F              5268:   GROUND LEVEL
 DATE.         09-13-1988:   RUN DATE
 RUN .                  1:   RUN NUMBER
 DD  .F              2590:   DEPTH DRILLER
 BLI .F              2590:   BOTTOM LOG INTERVAL
 TLI .F              1000:   TOP LOG INTERVAL
 CS  .IN                7:   CASING SIZE
 CBD .F               991:   CASING BOTTOM DRILLER
 BSD .F              2590:   BIT SIZE AT DEPTH
 ENGI. R. HUSK D. PETERSON:   RECORDING ENGINEER
 CLNT.            A2DTECH:   CLIENT CODE
 ORIG.           5" PRINT:   ORIGIN OF DATA
 UWI .       490251137000:   UNIQUE WELL ID
 DICO. A2D Technologies, Inc.:   DIGITIZING COMPANY
~OTHER INFORMATION
~A  DEPT       ROP         TGAS 
# ...
 1729.5000     0.3876     1.0075
 1730.0000     0.4017     1.0605
 1730.5000     0.4075     1.1136
 1731.0000     0.4144     1.1666
 1731.5000     0.4209     1.2196
 1732.0000     0.4270     1.2726
 1732.5000     0.4158     1.3257
 1733.0000     0.3885     1.3787
 1733.5000     0.3499     1.4317
 1734.0000     0.3289     1.4848
 1734.5000     0.3266     1.5378
 1735.0000     0.3356     1.5908
 1735.5000     0.3559     1.6438
 1736.0000     0.3406     1.6969
 1736.5000     0.3310     1.7499
 1737.0000     0.2898     1.8029
 1737.5000     0.2485     1.8559
 1738.0000     0.2495     1.9090
 1738.5000     0.2913     1.9620
 1739.0000     0.3352     2.0150
 1739.5000     0.3791     2.0680
 1740.0000     0.4231     2.5412
 1740.5000     0.4302     2.5941
 1741.0000     0.4256     2.6471
 1741.5000     0.4220     2.7000
 1742.0000     0.4249     2.7529
 1742.5000     0.4321     2.8059
 1743.0000     0.4355     2.8588
 1743.5000     0.4380     2.9118
 1744.0000     0.4093     2.9647
 1744.5000     0.3592     3.0176
 1745.0000     0.3356     3.0706
 1745.5000     0.3353     3.1235
 1746.0000     0.3351     3.1765
 1746.5000     0.3348     3.2294
 1747.0000     0.3346     3.2824
 1747.5000     0.3276     3.3353
 1748.0000     0.3093     3.3882
 1748.5000     0.2725     3.4412
 1749.0000     0.2518     3.4941
 1749.5000     0.2165     3.5471
 1750.0000     0.2396     3.6000
 1750.5000     0.3010     3.6529
 1751.0000     0.3536     3.7059
 1751.5000     0.4062     3.7588
 1752.0000     0.4376     3.8118
 1752.5000     0.4585     3.8647
 1753.0000     0.4794     3.9176
 1753.5000     0.5003     3.9706
 1754.0000     0.4987     4.0235
 1754.5000     0.4664     4.0765
 1755.0000     0.4433     4.1294
 1755.5000     0.4118     4.1824
 1756.0000     0.3915     4.2353
 1756.5000     0.3803     4.2882
 1757.0000     0.3716     4.3412
 1757.5000     0.3713     4.3941
 1758.0000     0.3710     4.4471
 1758.5000     0.3742     4.5000
 1759.0000     0.3848     4.5529
 1759.5000     0.3955     4.6059
 1760.0000     0.4066     4.6545
 1760.5000     0.4184     4.6432
 1761.0000     0.4302     4.6328
 1761.5000     0.4421     4.6223
 1762.0000     0.4539     4.6119
 1762.5000     0.4657     4.6014
 1763.0000     0.4776     4.5909
 1763.5000     0.4894     4.5805
 1764.0000     0.4989     4.5700
 1764.5000     0.4508     4.5596
 1765.0000     0.3805     4.5491
 1765.5000     0.3383     4.5386
 1766.0000     0.3372     4.5282
 1766.5000     0.3592     4.5177
 1767.0000     0.3848     4.5073
 1767.5000     0.4097     4.4968
 1768.0000     0.4165     4.4863
 1768.5000     0.4033     4.4759
 1769.0000     0.3663     4.4654
 1769.5000     0.3333     4.4550
 1770.0000     0.3277     4.4445
 1770.5000     0.3333     4.4340
 1771.0000     0.3335     4.4236
 1771.5000     0.3399     4.4131
 1772.0000     0.3446     4.4027
 1772.5000     0.3449     4.3922
 1773.0000     0.3383     4.3817
 1773.5000     0.3134     4.3713
 1774.0000     0.2738     4.3608
 1774.5000     0.2384     4.3503
 1775.0000     0.2220     4.3399
 1775.5000     0.2442     4.3294
 1776.0000     0.2728     4.3190
 1776.5000     0.3153     4.3085
 1777.0000     0.3473     4.2980
 1777.5000     0.3793     4.2876
 1778.0000     0.3901     4.2771
 1778.5000     0.3903     4.2667
 1779.0000     0.3906     4.2562
 1779.5000     0.4014     4.2457
 1780.0000     0.4123     4.2344
 1780.5000     0.3980     4.2539
 1781.0000     0.3838     4.2750
 1781.5000     0.3695     4.2962
 1782.0000     0.3553     4.3173
 1782.5000     0.3410     4.3385
 1783.0000     0.3250     4.3596
 1783.5000     0.3166     4.3808
 1784.0000     0.3353     4.4019
 1784.5000     0.3465     4.4231
 1785.0000     0.3541     4.4443
 1785.5000     0.3586     4.4654
 1786.0000     0.3698     4.4866
 1786.5000     0.3681     4.5077
 1787.0000     0.3472     4.5289
 1787.5000     0.3262     4.5500
 1788.0000     0.3150     4.5712
 1788.5000     0.3155     4.5923
 1789.0000     0.3161     4.6135
 1789.5000     0.3166     4.6346
 1790.0000     0.3286     4.6558
 1790.5000     0.3447     4.6769
 1791.0000     0.3622     4.6981
 1791.5000     0.3842     4.7192
 1792.0000     0.3997     4.7404
 1792.5000     0.4043     4.7616
 1793.0000     0.4187     4.7827
 1793.5000     0.4194     4.8039
 1794.0000     0.4019     4.8250
 1794.5000     0.3733     4.8462
 1795.0000     0.3493     4.8673
 1795.5000     0.3283     4.8885
 1796.0000     0.3235     4.9096
 1796.5000     0.3157     4.9308
 1797.0000     0.3140     4.9519
 1797.5000     0.3146     4.9731
 1798.0000     0.3151     4.9942
 1798.5000     0.3156     5.0154
 1799.0000     0.3161     5.0366
 1799.5000     0.3166     5.0577
 1800.0000     0.3172     5.0824
 1800.5000     0.3050     5.0561
 1801.0000     0.2917     5.0247
 1801.5000     0.2783     4.9933
 1802.0000     0.2650     4.9618
 1802.5000     0.2455     4.9304
 1803.0000     0.2252     4.8990
 1803.5000     0.2297     4.8675
 1804.0000     0.2452     4.8361
 1804.5000     0.2585     4.8047
 1805.0000     0.2636     4.7732
 1805.5000     0.2797     4.7418
 1806.0000     0.2968     4.7104
 1806.5000     0.3185     4.6790
 1807.0000     0.3459     4.6475
 1807.5000     0.3736     4.6161
 1808.0000     0.3715     4.5847
 1808.5000     0.3518     4.5532
 1809.0000     0.3292     4.5218
 1809.5000     0.3102     4.4904
 1810.0000     0.2867     4.4589
 1810.5000     0.2617     4.4423
 1811.0000     0.2408     4.4315
 1811.5000     0.2486     4.4207
 1812.0000     0.2632     4.4099
 1812.5000     0.2897     4.3991
 1813.0000     0.3147     4.3883
 1813.5000     0.3448     4.3775
 1814.0000     0.3531     4.3667
 1814.5000     0.3284     4.3559
 1815.0000     0.3014     4.3451
 1815.5000     0.2807     4.3343
 1816.0000     0.2707     4.3235
 1816.5000     0.2606     4.3127
 1817.0000     0.2506     4.3018
 1817.5000     0.2511     4.2910
 1818.0000     0.2411     4.2802
 1818.5000     0.2416     4.2694
 1819.0000     0.2421     4.2586
 1819.5000     0.2426     4.2478
 1820.0000     0.2537     4.2361
 1820.5000     0.2665     4.2459
 1821.0000     0.2793     4.2565
 1821.5000     0.2921     4.2671
 1822.0000     0.3049     4.2776
 1822.5000     0.3199     4.2882
 1823.0000     0.3309     4.2988
 1823.5000     0.3632     4.3094
 1824.0000     0.3742     4.3200
 1824.5000     0.4065     4.3306
 1825.0000     0.4281     4.3412
 1825.5000     0.4498     4.3518
 1826.0000     0.4384     4.3624
 1826.5000     0.4062     4.3729
 1827.0000     0.3741     4.3835
 1827.5000     0.3433     4.3941
 1828.0000     0.3185     4.4047
 1828.5000     0.2775     4.4153
 1829.0000     0.2526     4.4259
 1829.5000     0.2532     4.4365
 1830.0000     0.2568     4.4471
 1830.5000     0.2716     4.4576
 1831.0000     0.2902     4.4682
 1831.5000     0.2935     4.4788
 1832.0000     0.2611     4.4894
 1832.5000     0.2010     4.5000
 1833.0000     0.1673     4.5106
 1833.5000     0.1731     4.5212
 1834.0000     0.1954     4.5318
 1834.5000     0.2237     4.5424
 1835.0000     0.2442     4.5529
 1835.5000     0.2557     4.5635
 1836.0000     0.2530     4.5741
 1836.5000     0.2500     4.5847
 1837.0000     0.2506     4.5953
 1837.5000     0.2752     4.6059
 1838.0000     0.3000     4.6165
 1838.5000     0.3368     4.6271
 1839.0000     0.3690     4.6376
 1839.5000     0.3907     4.6482
 1840.0000     0.4123     4.6588
 1840.5000     0.4130     4.6800
 1841.0000     0.4138     4.7012
 1841.5000     0.4147     4.7224
 1842.0000     0.4155     4.7435
 1842.5000     0.4163     4.7647
 1843.0000     0.4171     4.7859
 1843.5000     0.3967     4.8071
 1844.0000     0.3869     4.8282
 1844.5000     0.3448     4.8494
 1845.0000     0.3140     4.8706
 1845.5000     0.3047     4.8918
 1846.0000     0.3081     4.9129
 1846.5000     0.3424     4.9341
 1847.0000     0.3837     4.9553
 1847.5000     0.4030     4.9765
 1848.0000     0.4021     4.9976
 1848.5000     0.3881     5.0188
 1849.0000     0.3631     5.0400
 1849.5000     0.3712     5.0612
 1850.0000     0.4059     5.0824
 1850.5000     0.4526     5.1035
