~VERSION INFORMATION
 VERS.                2.0:   CWLS LOG ASCII STANDARD - VERSION 2.0
 WRAP.                 NO:   ONE LINE PER DEPTH STEP
~WELL INFORMATION
#MNEM.UNIT      DATA TYPE    INFORMATION
#----------   ------------   ------------------------------
 STRT.F           36.5000:   START DEPTH
 STOP.F          476.0000:   STOP DEPTH
 STEP.F            0.5000:   STEP LENGTH
 NULL.          -999.2500:   NO VALUE
 COMP. LAWRENCE/ALLISON INC:   COMPANY
 WELL.    54-36 SXFO #3-3:   WELL
 FLD .            WILDCAT:   FIELD
 LOC .       S3 T38N R78W:   LOCATION
 CNTY.            NATRONA:   COUNTY
 STAT.            WYOMING:   STATE
 CTRY. UNITED STATES OF AMERICA:   COUNTRY
 SRVC.      Dresser Atlas:   SERVICE COMPANY
 DATE.        09-DEC-1983:   LOGDATE
 API .       490251095500:   API NUMBER
~CURVE INFORMATION
#MNEM.UNIT       API CODE    CURVE DESCRIPTION
#----------   ------------   ------------------------------
 DEPT.F                  :   
 GRD .GAPI   45 310 01 00:   GAMMA RAY FROM DENSITY LOG
 PORD.DEC    45 890 12 00:   POROSITY DENSITY SANDSTONE
 DEN .G/C3   45 350 01 00:   COMPENSATED BULK DENSTIY
 CORR.G/C3   45 356 01 00:   DENSITY CORRECTION
 CALD.IN     45 280 60 00:   CALIPER
 RFOC.OHMM   07 220 04 00:   RESISTIVITY FOCUSED LOG
 RILD.OHMM   07 120 46 00:   INDUCTION LOG DEEP RESISTIVITY
 RILM.OHMM   07 120 44 00:   INDUCTION LOG MEDIUM RESISTIVITY
~PARAMETER INFORMATION
#MNEM.UNIT          VALUE    DESCRIPTION
#----------   ------------   ------------------------------
 PD  .                 GL:   PERMANENT DATUM
 EPD .F              5166:   ELEVATION PERMANENT DATUM
 LMF .                 KB:   LOG MEASURED FROM
 DAPD.F                10:   FEET ABOVE PERMANENT DATUM
 DMF .                 KB:   DRILLING MEASURED FROM
 EKB .F              5176:   KELLING BUSHING
 EGL .F              5166:   GROUND LEVEL
 DATE.            12-9-83:   RUN DATE
 RUN .                  1:   RUN NUMBER
 DD  .F               478:   DEPTH DRILLER
 DL  .F               475:   DEPTH LOGGER
 BLI .F               473:   BOTTOM LOG INTERVAL
 TLI .F                44:   TOP LOG INTERVAL
 CBD .F                40:   CASING BOTTOM DRILLER
 CBL .F                44:   CASING BOTTOM LOGGER
 BS  .IN             8.75:   BIT SIZE
 BSD .F               478:   BIT SIZE AT DEPTH
 DFT .           AIR FOAM:   DRILLING FLUID TYPE
 MRT .F               100:   MAXIMUM RECORDED TEMPERATURE
 LUN .               6307:   LOGGING UNIT NUMBER
 LUL .               GLTE:   LOGGING UNIT LOCATION
 ENGI.            DEYOUNG:   RECORDING ENGINEER
 WITN.             GROOMS:   WITNESSED BY
 CLNT.            A2DTECH:   CLIENT CODE
 ORIG.       2", 5" PRINT:   ORIGIN OF DATA
 UWI .       490251095500:   UNIQUE WELL ID
 DICO. A2D Technologies, Inc.:   DIGITIZING COMPANY
~OTHER INFORMATION
~A   DEPT       GRD      PORD        DEN       CORR       CALD       RFOC       RILD       RILM   
# ...
  279.5000   120.1465     0.1323     2.4612    -0.0065    10.1488  -999.2500     6.8830     7.0135
  280.0000   116.7187     0.1302     2.4615     0.0153    10.1701  -999.2500     6.9293     7.0547
  280.5000   113.4603     0.1206     2.4771     0.0429    10.1915  -999.2500     6.9758     7.0963
  281.0000   113.8903     0.1164     2.4876     0.0546    10.2121  -999.2500     7.0227     7.1594
  281.5000   115.4793     0.1314     2.4684     0.0626    10.2877  -999.2500     7.0699     7.2231
  282.0000   117.8003     0.1498     2.4355     0.0705    10.3808  -999.2500     7.0989     7.2875
  282.5000   118.5172     0.1663     2.4078     0.0793    10.4742  -999.2500     7.1047     7.3524
  283.0000   115.6049     0.1666     2.4160     0.0861    10.5688  -999.2500     7.1105     7.4179
  283.5000   112.5284     0.1526     2.4245     0.0811    10.7146  -999.2500     7.1164     7.4840
  284.0000   112.3924     0.1597     2.4160     0.0763    10.9487  -999.2500     7.1223     7.5689
  284.5000   115.3959     0.1657     2.4054     0.0715    11.1817  -999.2500     7.1281     7.5410
  285.0000   118.3809     0.1678     2.4038     0.0668    11.4159  -999.2500     7.1340     7.5035
  285.5000   117.8164     0.1508     2.4349     0.0757    11.6492  -999.2500     7.1399     7.4658
  286.0000   115.6378     0.1392     2.4567     0.0988    11.7234  -999.2500     7.1457     7.4284
  286.5000   113.5123     0.1348     2.4483     0.1054    11.7704  -999.2500     7.1514     7.3912
  287.0000   112.9584     0.1417     2.4409     0.0954    11.7946  -999.2500     7.1577     7.3626
  287.5000   110.7693     0.1432     2.4399     0.0602    11.7723  -999.2500     7.1809     7.4882
  288.0000   109.4796     0.1490     2.4282     0.0555    11.7510  -999.2500     7.2624     7.6121
  288.5000   111.0056     0.1703     2.3819     0.1154    11.7292  -999.2500     7.3437     7.7381
  289.0000   115.4004     0.2049     2.3366     0.1783    11.7069  -999.2500     7.4261     7.8755
  289.5000   117.1758     0.2265     2.3025     0.2025    11.5851  -999.2500     7.4995     8.0729
  290.0000   114.3044     0.2274     2.3705     0.1665    11.3649  -999.2500     6.9680     7.6187
  290.5000   111.9451     0.1803     2.4296     0.0780    11.1451  -999.2500     6.4746     7.0806
  291.0000   109.5760     0.1413     2.4726     0.0700    11.0043  -999.2500     5.7657     6.3365
  291.5000   107.2552     0.1144     2.4697     0.0659    10.9705  -999.2500     5.1343     5.6706
  292.0000   105.7177     0.1646     2.4400     0.0759    10.9362  -999.2500     4.5722     5.0750
  292.5000   106.7042     0.2028     2.3675     0.1144    10.8536  -999.2500     4.2759     4.8256
  293.0000   113.5339     0.2410     2.2948     0.1801    10.5007  -999.2500     4.4632     4.7760
  293.5000   121.9752     0.2552     2.2527     0.1812    10.0852  -999.2500     4.5998     4.9954
  294.0000   128.1165     0.2420     2.2670     0.1046     9.6708  -999.2500     4.7726     5.2148
  294.5000   125.9619     0.2123     2.3216     0.0432     9.3707  -999.2500     4.9683     5.6544
  295.0000   121.4597     0.1827     2.3790     0.0179     9.3744  -999.2500     5.1884     6.2367
  295.5000   117.1316     0.1531     2.4363     0.0142     9.3727  -999.2500     5.7735     6.8790
  296.0000   112.8081     0.1235     2.4914     0.0153     9.3712  -999.2500     6.4834     7.5875
  296.5000   108.4451     0.1138     2.4949     0.0153     9.3695  -999.2500     7.2791     8.1319
  297.0000   106.6187     0.1154     2.4908     0.0110     9.3679  -999.2500     8.0210     8.4860
  297.5000   105.9895     0.1169     2.4862     0.0111     9.3662  -999.2500     8.0961     8.8518
  298.0000   105.3820     0.1184     2.4822     0.0126     9.3645  -999.2500     8.1793     8.9454
  298.5000   105.1898     0.1199     2.4817     0.0139     9.3628  -999.2500     8.2631     9.0544
  299.0000   106.5992     0.1231     2.4794     0.0209     9.3611  -999.2500     8.3477     9.2183
  299.5000   111.7755     0.1285     2.4691     0.0294     9.3594  -999.2500     8.5806     9.3933
  300.0000   117.0209     0.1334     2.4588     0.0270     9.3577  -999.2500     9.0297    10.0196
  300.5000   115.6577     0.1329     2.4605     0.0164     9.3561  -999.2500     9.6337    10.9245
  301.0000   111.3224     0.1313     2.4634     0.0096     9.3544  -999.2500    10.6019    11.9111
  301.5000   106.6880     0.1316     2.4627     0.0029     9.3527  -999.2500    11.6673    12.9869
  302.0000    95.2195     0.1384     2.4479    -0.0042     9.3510  -999.2500    12.9131    14.1597
  302.5000    83.7214     0.1451     2.4372     0.0050     9.3493  -999.2500    13.9575    15.2416
  303.0000    72.2706     0.1477     2.4401     0.0133     9.3476  -999.2500    15.1607    16.3435
  303.5000    60.8154     0.1365     2.4529     0.0161     9.3460  -999.2500    16.4676    17.5890
  304.0000    52.6608     0.1313     2.4614     0.0156     9.3443  -999.2500    17.6256    18.9293
  304.5000    54.4313     0.1556     2.4113     0.0037     9.3426  -999.2500    18.3612    20.1804
  305.0000    60.4236     0.1981     2.3426     0.0013     9.3409  -999.2500    19.1257    20.6552
  305.5000    65.3708     0.2412     2.2740     0.0610     9.3392  -999.2500    19.9081    21.1412
  306.0000    63.2643     0.2802     2.2053     0.0802     9.3376  -999.2500    20.4292    21.5938
  306.5000    59.6951     0.3027     2.1527     0.0710     9.3383  -999.2500    21.0898    22.3604
  307.0000    56.0649     0.3179     2.1469     0.0607     9.3454  -999.2500    21.7717    23.1542
  307.5000    54.7593     0.3081     2.1551     0.0390     9.3521  -999.2500    22.4404    23.9762
  308.0000    57.7854     0.2994     2.1855     0.0168     9.3589  -999.2500    22.7937    24.6194
  308.5000    59.4861     0.2794     2.2145     0.0198     9.3657  -999.2500    23.1359    24.6740
  309.0000    58.5479     0.2773     2.2147     0.0228     9.3723  -999.2500    23.4832    24.7287
  309.5000    57.6117     0.2949     2.1854     0.0353     9.3725  -999.2500    23.8379    24.7835
  310.0000    56.6330     0.3100     2.1589     0.0471     9.3600  -999.2500    24.1542    24.8330
  310.5000    57.5623     0.3215     2.1372     0.0548     9.3477  -999.2500    23.6674    23.7306
  311.0000    58.8464     0.3162     2.1412     0.0466     9.3354  -999.2500    23.1782    22.5374
  311.5000    58.0351     0.3087     2.1589     0.0443     9.3230  -999.2500    22.3186    21.3151
  312.0000    57.0330     0.3022     2.1780     0.0443     9.3106  -999.2500    21.4867    20.1518
  312.5000    56.0315     0.2943     2.1972     0.0411     9.2982  -999.2500    20.6481    19.0175
  313.0000    59.3671     0.2840     2.2092     0.0230     9.2990  -999.2500    20.8134    19.3598
  313.5000    63.2080     0.2737     2.2197     0.0121     9.3018  -999.2500    21.0392    19.7417
  314.0000    67.0652     0.2635     2.2336     0.0220     9.3047  -999.2500    20.9315    19.9258
  314.5000    70.6927     0.2515     2.2555     0.0267     9.3075  -999.2500    20.7929    19.9568
  315.0000    70.1051     0.2382     2.2771     0.0225     9.3103  -999.2500    20.6559    19.9877
  315.5000    68.3997     0.2322     2.2923     0.0213     9.3134  -999.2500    20.7829    20.0186
  316.0000    64.5616     0.2378     2.2885     0.0267     9.3176  -999.2500    20.9143    20.0499
  316.5000    60.7060     0.2472     2.2616     0.0290     9.2955  -999.2500    21.0392    20.0923
  317.0000    60.8273     0.2553     2.2499     0.0196     9.2917  -999.2500    20.8115    19.9037
  317.5000    61.7010     0.2491     2.2586     0.0102     9.2884  -999.2500    20.5926    19.6097
  318.0000    62.5946     0.2390     2.2767     0.0007     9.2854  -999.2500    20.3761    19.3200
  318.5000    64.0770     0.2289     2.2945     0.0123     9.2822  -999.2500    20.0923    19.0345
  319.0000    66.5935     0.2224     2.3051     0.0265     9.2791  -999.2500    20.1745    18.7533
  319.5000    69.1130     0.2319     2.2906     0.0215     9.2760  -999.2500    20.2973    18.6651
