~VERSION INFORMATION
 VERS.                2.0:   CWLS LOG ASCII STANDARD - VERSION 2.0
 WRAP.                 NO:   ONE LINE PER DEPTH STEP
~WELL INFORMATION
#MNEM.UNIT      DATA TYPE    INFORMATION
#----------   ------------   ------------------------------
 STRT.F           16.5000:   START DEPTH
 STOP.F          475.0000:   STOP DEPTH
 STEP.F            0.5000:   STEP LENGTH
 NULL.          -999.2500:   NO VALUE
 COMP. BROWN JOHN E&C INC:   COMPANY
 WELL. NAVAL PETROLEUM RESERVE 3 SX-1 #71-1-10:   WELL
 FLD .             TEAPOT:   FIELD
 LOC .      S10 T38N R78W:   LOCATION
 CNTY.            NATRONA:   COUNTY
 STAT.            WYOMING:   STATE
 CTRY. UNITED STATES OF AMERICA:   COUNTRY
 SRVC.     Atlas Wireline:   SERVICE COMPANY
 DATE.        01-OCT-1991:   LOGDATE
 API .       490252244700:   API NUMBER
~CURVE INFORMATION
#MNEM.UNIT       API CODE    CURVE DESCRIPTION
#----------   ------------   ------------------------------
 DEPT.F                  :   
 GRR .GAPI   07 310 01 00:   GAMMA RAY
 RILD.OHMM   07 120 46 00:   INDUCTION LOG DEEP RESISTIVITY
 RILM.OHMM   07 120 44 00:   RESITIVITY LONG MEDIUM
~PARAMETER INFORMATION
#MNEM.UNIT          VALUE    DESCRIPTION
#----------   ------------   ------------------------------
 PD  .                 GL:   PERMANENT DATUM
 EPD .F              5142:   ELEVATION PERMANENT DATUM
 LMF .                 KB:   LOG MEASURED FROM
 DAPD.F                10:   FEET ABOVE PERMANENT DATUM
 DMF .                 KB:   DRILLING MEASURED FROM
 EKB .F              5152:   KELLING BUSHING
 EDF .F              5151:   DRILLING FLOOR
 EGL .F              5142:   GROUND LEVEL
 DATE.        01-OCT-1991:   RUN DATE
 RUN .                  1:   RUN NUMBER
 DD  .F               485:   DEPTH DRILLER
 DL  .F               483:   DEPTH LOGGER
 BLI .F               475:   BOTTOM LOG INTERVAL
 TLI .F                97:   TOP LOG INTERVAL
 CS  .IN            8.625:   CASING SIZE
 CBD .F                89:   CASING BOTTOM DRILLER
 CBL .F                91:   CASING BOTTOM LOGGER
 BS  .IN            7.875:   BIT SIZE
 BSD .F               485:   BIT SIZE AT DEPTH
 DFT . WEIGHTED DISPERSED:   DRILLING FLUID TYPE
 DFD .               16.5:   DRILLING FLUID DENSITY
 DFV .                 37:   DRILLING FLUID VISCOSITY
 DFPH.                9.8:   DRILLING FLUID PH
 DFL .               10.0:   DRILLING FLUID LOSS
 MSS .           FLOWLINE:   MUD SAMPLE SOURCE
 RMS .OHMM           1.67:   RESISTIVITY MUD SAMPLE
 MST .F                70:   MUD SAMPLE TEMPERATURE
 RMF .OHMM           1.44:   RESISTIVITY MUD FILTRATE SAMPLE
 MFST.F                70:   MUD FILTRATE SAMPLE TEMPERATURE
 RMC .OHMM           1.93:   RESISTIVITY MUD CAKE
 MCST.F                70:   MUD CAKE SAMPLE TEMPERATURE
 MFSS.               MEAS:   MUD FILTRATE SAMPLE SOURCE
 MCSS.               MEAS:   MUD CAKE SAMPLE SOURCE
 RMB .OHMM           1.30:   RESISTIVITY MUD AT BHT
 BHT .F                90:   BOTTOM HOLE TEMPERATURE
 TCS .HRS               2:   TIME CURCULATED STOPPED
 MRT .F                99:   MAXIMUM RECORDED TEMPERATURE
 LUN .            HL/6272:   LOGGING UNIT NUMBER
 LUL .             CASPER:   LOGGING UNIT LOCATION
 ENGI.             RAUTIO:   RECORDING ENGINEER
 WITN.             STRONG:   WITNESSED BY
 CLNT.            A2DTECH:   CLIENT CODE
 ORIG.           5" PRINT:   ORIGIN OF DATA
 UWI .       490252244700:   UNIQUE WELL ID
 DICO. A2D Technologies, Inc.:   DIGITIZING COMPANY
~OTHER INFORMATION
~A   DEPT       GRR      RILD       RILM   
# ...
  107.5000    65.2763     8.6957     7.9514
  108.0000    63.6913     8.7583     7.9536
  108.5000    62.3346     8.6997     7.9557
  109.0000    62.5774     8.5215     7.9579
  109.5000    63.0475     8.4049     7.9601
  110.0000    65.5723     8.2332     7.7435
  110.5000    69.6954     8.1209     7.4804
  111.0000    72.4485     7.8993     7.2768
  111.5000    70.4072     7.7371     7.0296
  112.0000    68.1375     7.5264     6.8370
  112.5000    67.6941     7.3211     6.6484
  113.0000    68.1644     7.1711     6.5550
  113.5000    69.3516     7.0733     6.4729
  114.0000    71.1933     7.0257     6.4751
  114.5000    70.9445     6.9783     6.5222
  115.0000    69.3631     7.0286     6.5696
  115.5000    66.1802     7.1372     6.6636
  116.0000    63.9105     7.3320     6.7589
  116.5000    64.8372     7.3848     6.9036
  117.0000    66.2205     7.4379     7.0024
  117.5000    67.1472     7.4915     7.0532
  118.0000    68.0739     7.5982     7.1045
  118.5000    68.3156     7.7063     7.1561
  119.0000    66.5026     7.7618     7.2081
  119.5000    64.0046     7.8723     7.2638
  120.0000    61.7047     7.9844     7.3645
  120.5000    60.8351     8.0419     7.4703
  121.0000    64.0483     8.1564     7.5772
  121.5000    66.8015     8.2157     7.6856
  122.0000    68.8697     8.2743     7.7415
  122.5000    69.7964     8.3339     7.6359
  123.0000    69.5815     8.3360     7.5850
  123.5000    68.9100     8.2794     7.5344
  124.0000    67.3253     8.1669     7.5370
  124.5000    65.2839     8.1115     7.4862
  125.0000    64.1172     8.0013     7.4367
  125.5000    65.9957     8.0029     7.3871
  126.0000    67.8357     7.9490     7.3892
  126.5000    69.9475     7.9506     7.3912
  127.0000    72.7215     7.9523     7.4450
  127.5000    73.8154     8.0095     7.4470
  128.0000    70.8608     8.0111     7.4495
  128.5000    67.6779     8.0128     7.3993
  129.0000    66.3215     8.0145     7.4018
  129.5000    66.1033     8.0234     7.4038
  130.0000    68.6315     8.0742     7.4577
  130.5000    70.4714     8.0194     7.5118
  131.0000    69.5716     8.0214     7.5664
  131.5000    66.8447     7.9121     7.5687
  132.0000    67.5437     7.9137     7.5708
  132.5000    68.6987     7.9153     7.4675
  133.0000    68.2283     7.9723     7.3667
  133.5000    67.5840     7.9739     7.3171
  134.0000    68.5141     7.9756     7.2683
  134.5000    68.2992     7.9218     7.2202
  135.0000    66.7145     7.8684     7.1721
  135.5000    64.2165     7.7611     7.1741
  136.0000    66.7413     7.7067     7.1761
  136.5000    69.9511     7.5510     7.1282
  137.0000    71.3344     7.3871     7.0806
  137.5000    70.4346     7.1949     6.9850
  138.0000    67.2517     7.0968     6.6544
  138.5000    66.7641     6.9031     6.2517
  139.0000    68.4202     6.6219     5.6722
  139.5000    68.6621     6.3521     5.4415
  140.0000    67.7017     6.2652     5.4048
  140.5000    65.2675     6.1797     5.5595
  141.0000    65.0493     6.1813     5.7182
  141.5000    66.4359     6.2258     5.9225
  142.0000    68.2759     6.4031     6.1341
  142.5000    70.1158     6.6314     6.3977
  143.0000    70.3542     6.8698     6.7212
  143.5000    67.4029     7.2723     7.1154
  144.0000    66.4998     7.5305     7.4720
  144.5000    68.3431     7.6296     7.6238
  145.0000    71.3245     7.7382     7.6792
  145.5000    71.7946     7.7398     7.6275
  146.0000    70.8828     7.6343     7.6301
  146.5000    70.2233     7.5674     7.6322
  147.0000    72.5232     7.4131     7.6343
  147.5000    73.6782     7.2044     7.5744
  148.0000    73.2350     7.0149     7.5763
  148.5000    70.5087     6.8714     7.4657
  149.0000    67.3258     6.7775     7.3198
  149.5000    66.1944     6.6394     7.2198
  150.0000    67.5810     6.5036     7.1212
  150.5000    68.5077     6.2827     6.9751
  151.0000    68.5212     6.0689     6.7354
  151.5000    70.1328     5.8216     6.2848
  152.0000    71.0594     5.5456     5.9034
  152.5000    70.5936     5.3569     5.2809
  153.0000    68.5175     5.2826     4.5620
  153.5000    68.0784     5.2122     4.5629
  154.0000    70.2009     5.2505     4.6983
  154.5000    72.9149     5.2887     4.9637
  155.0000    71.0971     5.4020     5.2132
  155.5000    69.7360     5.5953     5.5136
  156.0000    68.6032     5.9247     5.7907
  156.5000    67.4704     6.4821     6.1244
  157.0000    66.5659     6.9524     6.3938
  157.5000    71.5997     7.2516     6.5699
  158.0000    73.2066     7.3555     6.7572
  158.5000    70.9322     7.4090     6.8536
  159.0000    66.8314     7.4692     6.9513
  159.5000    68.6826     7.5176     7.0504
  160.0000    75.2986     7.5723     7.1015
  160.5000    79.1886     7.6274     7.1527
  161.0000    78.7407     7.6828     7.2546
  161.5000    70.0736     7.7387     7.3069
  162.0000    67.0928     7.7950     7.3595
  162.5000    69.2351     7.8522     7.4126
  163.0000    68.5039     7.9646     7.4663
  163.5000    66.9145     8.0225     7.5201
  164.0000    66.6927     8.0247     7.6273
  164.5000    66.9320     8.0831     7.7361
  165.0000    69.2238     8.0857     7.7918
  165.5000    71.8425     8.2016     7.9029
  166.0000    73.1248     8.2038     8.0159
  166.5000    71.5353     8.3213     8.0175
  167.0000    69.9459     8.3235     7.9630
  167.5000    69.7260     8.3841     7.9650
  168.0000    71.8083     8.3280     7.9112
  168.5000    73.8556     8.2153     7.8578
  169.0000    74.3210     8.1603     7.7508
  169.5000    74.7864     8.1052     7.5918
  170.0000    74.7951     8.1079     7.5401
  170.5000    76.4020     8.1102     7.4375
  171.0000    80.3714     8.1128     7.3315
  171.5000    82.1295     8.1150     7.1857
  172.0000    79.1702     8.0602     7.0876
  172.5000    76.2109     8.0063     6.9904
  173.0000    76.6762     7.8980     6.7997
  173.5000    78.0549     7.8372     6.6139
  174.0000    78.2922     7.5787     6.4266
  174.5000    78.9878     7.2699     6.2141
  175.0000    79.4531     6.9252     6.0022
  175.5000    79.4619     6.2387     5.6380
  176.0000    78.3291     5.7370     5.2959
  176.5000    77.1963     4.9933     4.8337
  177.0000    76.7506     4.2839     4.1214
  177.5000    73.7913     3.6497     3.5356
  178.0000    71.2886     3.1531     3.1190
  178.5000    72.6672     2.7051     2.6570
  179.0000    73.3609     2.4531     2.3276
  179.5000    69.8219     2.4207     2.2640
  180.0000    65.1614     2.4215     2.2804
  180.5000    63.8003     2.4561     2.2969
  181.0000    62.6675     2.5618     2.4633
  181.5000    62.4457     2.7863     2.8927
  182.0000    64.9681     3.1727     3.3499
  182.5000    70.4338     3.8972     3.8687
  183.0000    76.4033     4.4820     4.5241
  183.5000    77.7797     5.0478     5.0949
  184.0000    77.1035     5.5286     5.6581
  184.5000    77.5711     6.0130     5.8602
  185.0000    79.8859     6.4105     5.9437
  185.5000    81.2415     6.6340     5.9036
  186.0000    79.1977     6.8236     5.9464
  186.5000    77.6083     6.8732     5.9893
  187.0000    77.8453     6.6858     6.0324
  187.5000    80.8221     6.4583     6.0336
  188.0000    80.5814     5.9416     5.8204
  188.5000    77.6454     5.5426     5.3612
  189.0000    74.6861     5.3168     4.8632
  189.5000    74.6949     5.1718     4.6323
  190.0000    77.6717     4.9959     4.4433
  190.5000    82.4749     4.7897     4.3218
  191.0000    83.3969     4.6292     4.2926
  191.5000    79.7549     4.5033     4.2937
  192.0000    74.9691     4.4729     4.3854
  192.5000    72.0098     4.6010     4.5420
  193.0000    71.3333     4.7657     4.7042
  193.5000    73.4140     4.9736     4.9432
  194.0000    77.2894     5.2579     5.3362
  194.5000    81.8643     5.5612     5.6436
  195.0000    82.3275     5.8820     5.8861
  195.5000    80.7403     6.2214     6.1820
  196.0000    80.7123     6.5345     6.4927
  196.5000    83.1735     6.8751     6.7291
  197.0000    85.5632     7.3619     6.8685
  197.5000    83.5172     7.5723     6.9665
  198.0000    81.4711     7.6808     6.9678
