~VERSION INFORMATION
 VERS.                2.0:   CWLS LOG ASCII STANDARD - VERSION 2.0
 WRAP.                 NO:   ONE LINE PER DEPTH STEP
~WELL INFORMATION
#MNEM.UNIT      DATA TYPE    INFORMATION
#----------   ------------   ------------------------------
 STRT.F            0.0000:   START DEPTH
 STOP.F          860.0000:   STOP DEPTH
 STEP.F            0.5000:   STEP LENGTH
 NULL.          -999.2500:   NO VALUE
 COMP.          U.S. NAVY:   COMPANY
 WELL. NPR #3 TEAPOT DOME #28S-35:   WELL
 FLD .             TEAPOT:   FIELD
 LOC .      S35 T39N R78W:   LOCATION
 CNTY.            NATRONA:   COUNTY
 STAT.            WYOMING:   STATE
 CTRY. UNITED STATES OF AMERICA:   COUNTRY
 SRVC.       Schlumberger:   SERVICE COMPANY
 DATE.        10-NOV-1958:   LOGDATE
 API .       490250649800:   API NUMBER
~CURVE INFORMATION
#MNEM.UNIT       API CODE    CURVE DESCRIPTION
#----------   ------------   ------------------------------
 DEPT.F                  :   
 SPR .MV     01 010 01 00:   SPONTANEOUS POTENTIAL FROM RES.
 ASN .OHMM   01 041 16 00:   AMPLIFIED SHORT NORMAL 16"
 LT18.OHMM   01 070 18 00:   LATERAL 18'
 LN  .OHMM   01 060 64 00:   LONG NORMAL 64"
 GRN .CPS    35 310 30 00:   GAMMA RAY
 NEUT.CPS    35 330 30 00:   NEUTRON
 MCAL.IN     15 280 01 00:   CALIPER FROM MICRO LOG
~PARAMETER INFORMATION
#MNEM.UNIT          VALUE    DESCRIPTION
#----------   ------------   ------------------------------
 LMF .                 KB:   LOG MEASURED FROM
 DMF .                 KB:   DRILLING MEASURED FROM
 EKB .F              5113:   KELLING BUSHING
 EGL .F              5103:   GROUND LEVEL
 DATE.         11-10-1958:   RUN DATE
 RUN .                  1:   RUN NUMBER
 DD  .F               860:   DEPTH DRILLER
 DL  .F               861:   DEPTH LOGGER
 BLI .F               860:   BOTTOM LOG INTERVAL
 TLI .F                90:   TOP LOG INTERVAL
 CBD .F                34:   CASING BOTTOM DRILLER
 BS  .IN             6.75:   BIT SIZE
 BSD .F               860:   BIT SIZE AT DEPTH
 DFT .          OIL ADDED:   DRILLING FLUID TYPE
 DFD .                 10:   DRILLING FLUID DENSITY
 DFV .                 20:   DRILLING FLUID VISCOSITY
 DFPH.                7.5:   DRILLING FLUID PH
 DFL .                4.2:   DRILLING FLUID LOSS
 RMS .OHMM              2:   RESISTIVITY MUD SAMPLE
 MST .F                62:   MUD SAMPLE TEMPERATURE
 RMF .OHMM            1.4:   RESISTIVITY MUD FILTRATE SAMPLE
 MFST.F                72:   MUD FILTRATE SAMPLE TEMPERATURE
 RMC .OHMM            1.9:   RESISTIVITY MUD CAKE
 MCST.F                72:   MUD CAKE SAMPLE TEMPERATURE
 MFSS.                  M:   MUD FILTRATE SAMPLE SOURCE
 MCSS.                  M:   MUD CAKE SAMPLE SOURCE
 RMB .OHMM            1.7:   RESISTIVITY MUD AT BHT
 BHT .F                72:   BOTTOM HOLE TEMPERATURE
 TCS .HRS               1:   TIME CURCULATED STOPPED
 MRT .F                72:   MAXIMUM RECORDED TEMPERATURE
 LUN .               2754:   LOGGING UNIT NUMBER
 LUL .                 NC:   LOGGING UNIT LOCATION
 ENGI.             QUINBY:   RECORDING ENGINEER
 WITN.             MARTIN:   WITNESSED BY
 CLNT.            A2DTECH:   CLIENT CODE
 ORIG.     1", 2.5" PRINT:   ORIGIN OF DATA
 UWI .       490250649800:   UNIQUE WELL ID
 DICO. A2D Technologies, Inc.:   DIGITIZING COMPANY
~OTHER INFORMATION
~A    DEPT     SPR        ASN       LT18         LN          GRN     NEUT       MCAL   
# ...
  318.5000    -9.3098     9.0148     8.0128     6.7940     7.5785   414.7461     6.9693
  319.0000    -9.3040     9.1287     8.1535     6.7351     7.5377   416.3442     6.8045
  319.5000    -9.2988     8.8049     8.1580     6.6015     7.4968   429.9745     6.9131
  320.0000    -9.5834     8.0433     8.0270     6.6034     7.4147   420.8260     6.9672
  320.5000    -9.8320     7.3353     7.6264     6.7412     7.3121   409.7209     6.9664
  321.0000    -9.0109     7.0497     7.2255     6.8895     7.1888   393.8532     6.9658
  321.5000    -9.0055     7.1094     7.0949     7.1529     6.9626   399.2387     6.9651
  322.0000    -9.1377     7.2674     6.9642     7.1549     7.0876   414.0111     6.9371
  322.5000    -8.9936     7.3758     6.9167     7.1570     7.1280   406.2246     6.9637
  323.0000    -8.9884     7.4574     6.8392     7.1590     7.1595   412.2828     6.9631
  323.5000    -8.9833     7.4309     6.8448     7.1614     7.3963   426.7498     6.9624
  324.0000    -9.2499     7.3773     6.9844     7.1633     7.0465   402.5968     6.9617
  324.5000    -9.2446     7.2682     6.9889     7.1653     7.4734   396.2234     6.9610
  325.0000    -9.5113     7.2432     6.9934     7.1672     7.5001   414.8350     6.9604
  325.5000    -9.7779     7.2783     7.1331     7.1691     7.3769   422.4810     6.9324
  326.0000    -9.8768     7.3733     7.1379     7.1712     7.7493   424.0192     6.9317
  326.5000   -10.0380     7.4798     7.1425     7.1732     7.8099   419.4497     6.9310
  327.0000   -10.0316     7.5845     7.1473     7.1752     7.6501   413.3532     6.9303
  327.5000    -9.7547     7.7365     7.1520     7.1773     7.5370   402.6759     6.9297
  328.0000    -9.7496     7.8811     7.2919     7.1050     7.3977   401.0269     6.9290
  328.5000    -9.4727     8.0039     7.2974     7.0456     7.2964   404.2255     6.9308
  329.0000    -9.1957     7.8152     7.3019     6.9119     7.3378   404.2368     6.9550
  329.5000    -9.1476     7.6265     7.4415     6.7779     7.2350   402.7211     6.9893
  330.0000    -8.9130     7.3027     7.5812     6.7799     6.9473   402.7324     7.0902
  330.5000    -8.9076     7.0553     7.5858     6.7917     6.9025   408.0880     6.9528
  331.0000    -9.1739     6.9172     7.7257     6.9197     7.1516   414.2071     6.9522
  331.5000    -9.4402     6.8107     7.7304     6.7857     7.2958   421.8838     6.9044
  332.0000    -9.7058     6.7542     7.5991     6.7880     7.4424   416.3061     6.7450
  332.5000    -9.4289     6.7509     7.6047     6.7901     7.4423   410.4236     6.7317
  333.0000    -9.1520     6.8196     7.4743     6.6566     7.0739   420.0244     6.8301
  333.5000    -9.1467     6.9012     7.3446     6.6586     6.8644   429.8696     6.9308
  334.0000    -9.1413     6.9557     7.3491     6.6605     6.9569   439.4695     6.9581
  334.5000    -9.1359     6.9562     7.3536     6.6624     7.0531   422.6844     6.9854
  335.0000    -9.4031     6.9288     7.3581     6.6644     7.3417   448.0433     7.0014
  335.5000    -9.1250     6.8454     7.3629     6.6664     7.3972   437.5301     7.0007
  336.0000    -9.1185     6.7550     7.3676     6.6685     7.4237   426.5269     7.0000
  336.5000    -9.1133     6.6340     7.3723     6.6705     7.1161   422.7296     6.9993
  337.0000    -9.1082     6.6474     7.3180     6.6725     7.2605   428.8487     6.9986
  337.5000    -9.3750     6.7163     7.2466     6.6746     7.1785   423.7726     6.9706
  338.0000    -9.0978     6.7709     7.1162     6.8128     7.2199   415.8923     6.9426
  338.5000    -9.1295     6.9606     6.9864     6.9506     7.2369   430.3610     6.9258
  339.0000    -9.4257     7.2584     6.9909     7.0885     7.3029   436.2665     6.9138
  339.5000    -9.8977     7.3953     7.1305     7.0904     7.1797   446.1929     6.9131
  340.0000   -10.1630     7.5135     7.4054     7.2283     6.9329   452.4339     6.9125
  340.5000   -10.1576     7.7122     7.4333     7.2303     7.0979   459.4696     6.9118
  341.0000    -9.6079     7.9028     7.5500     7.0589     7.1394   451.4492     6.9385
  341.5000    -9.3310     8.0970     7.6899     6.7749     6.8514   453.3847     6.9378
  342.0000    -9.5976     8.1070     7.8297     6.6929     6.3575   441.5901     6.9371
  342.5000    -9.5924     7.8839     7.9705     6.6954     6.2343   425.1613     6.9364
  343.0000    -9.5870     8.0195     8.1101     6.8332     6.0287   432.0439     6.9631
  343.5000    -9.8539     8.1281     7.9791     6.8351     6.0389   429.7648     6.9624
  344.0000    -9.8478     7.9914     7.8489     6.8370     6.4867   427.4856     6.9617
  344.5000    -9.5707     7.6767     7.7166     6.8406     6.6727   425.2065     6.9610
  345.0000    -9.5652     7.4207     7.4524     7.1287     6.8206   419.8735     6.9604
  345.5000    -9.5589     7.3009     7.2924     7.2507     6.8951   425.2291     6.9597
  346.0000    -9.5538     7.1874     7.0126     7.2527     6.7306   416.8422     6.9590
  346.5000    -9.5486     7.0316     6.8680     7.1961     6.9163   400.8206     6.9310
  347.0000    -9.8152     7.0779     6.7959     7.0480     6.8881   415.3379     6.9303
  347.5000    -9.8731     7.0784     6.8015     6.8512     7.0082   434.4360     6.9297
  348.0000   -10.9529     6.9979     6.8060     6.8535     7.0869   410.7796     6.9290
  348.5000   -10.6113     7.0257     6.8105     6.9913     7.1657   400.8658     6.9258
  349.0000    -9.6720     7.1973     6.9501     7.1291     7.3767   390.1885     6.9003
  349.5000    -9.5163     7.3750     7.0898     7.1395     7.4109   400.1249     6.8996
  350.0000    -9.5100     7.5766     7.2298     7.2691     7.5705   416.9326     6.8989
  350.5000    -9.7772     7.7782     7.2711     7.2711     7.4953   422.3496     6.9035
  351.0000    -9.4997     8.0068     7.3743     7.2731     7.6398   427.8894     6.9249
  351.5000    -9.7663     8.2179     7.4491     7.2751     7.4588   441.8862     6.9242
  352.0000    -9.7608     8.3265     7.2486     7.4134     7.4756   450.5707     6.9235
  352.5000    -9.7554     8.4081     7.1182     7.4154     7.5058   429.1545     6.9228
  353.0000    -9.7500     8.4357     6.9878     7.5532     7.5077   423.1082     6.9221
  353.5000    -9.7446     8.3197     6.9928     7.6910     7.2301   423.8830     6.9215
  354.0000    -9.7391     8.0836     6.8621     7.6929     7.1598   419.1012     6.9208
  354.5000   -10.0054     7.8165     6.7315     7.6950     7.2936   413.2170     6.9201
  355.0000   -10.5429     7.6342     6.7365     7.6970     7.2366   411.4482     6.9194
  355.5000   -10.5715     7.4213     6.7412     7.6116     7.1811   406.1459     6.9187
  356.0000   -10.2608     7.1958     6.7459     7.2935     7.5606   411.3886     6.9181
  356.5000    -9.9574     7.0611     6.7507     7.2955     7.5196   418.6065     6.9174
  357.0000    -9.7066     7.0076     6.7562     7.2979     7.7671   415.5639     6.9166
  357.5000    -9.4294     7.0081     6.7607     7.1637     8.0969   437.1079     6.9160
  358.0000    -9.4239     7.0652     6.7652     7.1659     7.8501   449.7217     6.8998
  358.5000    -9.6902     7.1012     6.7697     7.1678     7.6033   451.4836     6.8873
  359.0000    -9.6839     7.2158     6.7743     7.1699     7.4388   448.1359     6.8865
  359.5000    -9.9511     7.3689     6.9142     7.0358     7.5215   438.4867     6.8585
  360.0000    -9.9453     7.5117     6.9550     7.1739     7.5218   433.9581     6.8851
  360.5000    -9.9402     7.5520     7.1090     7.1760     7.6457   433.1145     6.8845
  361.0000    -9.9348     7.6065     7.1986     7.1780     7.2753   427.9244     6.8838
  361.5000    -9.9828     7.6341     7.3395     7.1804     7.3168   423.3038     6.8831
  362.0000   -10.1964     7.6616     7.4791     7.3182     7.5024   427.8981     6.8824
  362.5000   -10.1902     7.7455     7.6187     7.4560     7.3586   421.0382     6.8818
  363.0000   -10.1848     7.8301     7.7583     7.3220     7.1736   405.7800     6.8538
  363.5000   -10.1784     7.9499     7.7628     7.3240     6.7826   404.5987     6.8531
