~VERSION INFORMATION
 VERS.                2.0:   CWLS LOG ASCII STANDARD - VERSION 2.0
 WRAP.                 NO:   ONE LINE PER DEPTH STEP
~WELL INFORMATION
#MNEM.UNIT      DATA TYPE    INFORMATION
#----------   ------------   ------------------------------
 STRT.F           90.0000:   START DEPTH
 STOP.F         1032.5000:   STOP DEPTH
 STEP.F            0.5000:   STEP LENGTH
 NULL.          -999.2500:   NO VALUE
 COMP. U S NAVY/INTEX OIL CO:   COMPANY
 WELL. NAVAL PETROLEUM RESERVE 3  #62-S-14:   WELL
 FLD .        TEAPOT DOME:   FIELD
 LOC .      S14 T38N R78W:   LOCATION
 CNTY.            NATRONA:   COUNTY
 STAT.            WYOMING:   STATE
 CTRY. UNITED STATES OF AMERICA:   COUNTRY
 SRVC.       Schlumberger:   SERVICE COMPANY
 DATE.        04-JUL-1962:   LOGDATE
 API .       490250631700:   API NUMBER
~CURVE INFORMATION
#MNEM.UNIT       API CODE    CURVE DESCRIPTION
#----------   ------------   ------------------------------
 DEPT.F                  :   
 GR  .GAPI   30 310 01 00:   GAMMA RAY
 CALM.IN     15 280 01 00:   CALIPER FROM MICRO LOG
 SPR .MV     06 010 01 00:   SPONTANEOUS POTENTIAL FROM RES.
 ASN .OHMM   06 041 16 00:   AMPLIFIED SHORT NORMAL 16"
 ILD .OHMM   06 120 46 00:   INDUCTION LOG DEEP
 CILD.MMHO   06 110 46 00:   CONDUCTIVITY INDUCTION LOG DEEP
~PARAMETER INFORMATION
#MNEM.UNIT          VALUE    DESCRIPTION
#----------   ------------   ------------------------------
 PD  .                 GL:   PERMANENT DATUM
 EPD .F              5246:   ELEVATION PERMANENT DATUM
 LMF .                 KB:   LOG MEASURED FROM
 DAPD.F                 5:   FEET ABOVE PERMANENT DATUM
 DMF .                 KB:   DRILLING MEASURED FROM
 EKB .F              5251:   KELLING BUSHING
 EGL .F              5246:   GROUND LEVEL
 DATE.             7-4-62:   RUN DATE
 RUN .                  1:   RUN NUMBER
 DD  .F              1036:   DEPTH DRILLER
 DL  .F              1033:   DEPTH LOGGER
 BLI .F              1032:   BOTTOM LOG INTERVAL
 TLI .F                90:   TOP LOG INTERVAL
 CBD .F                10:   CASING BOTTOM DRILLER
 BS  .IN             6.75:   BIT SIZE
 BSD .F              1036:   BIT SIZE AT DEPTH
 DFT .                GEL:   DRILLING FLUID TYPE
 DFD .               10.2:   DRILLING FLUID DENSITY
 DFV .                 48:   DRILLING FLUID VISCOSITY
 DFL .                4.8:   DRILLING FLUID LOSS
 MSS .          FLOW LINE:   MUD SAMPLE SOURCE
 RMS .OHMM            5.6:   RESISTIVITY MUD SAMPLE
 MST .F                70:   MUD SAMPLE TEMPERATURE
 RMF .OHMM           5.57:   RESISTIVITY MUD FILTRATE SAMPLE
 MFST.F                70:   MUD FILTRATE SAMPLE TEMPERATURE
 RMC .OHMM           5.32:   RESISTIVITY MUD CAKE
 MCST.F                70:   MUD CAKE SAMPLE TEMPERATURE
 MFSS.                  M:   MUD FILTRATE SAMPLE SOURCE
 MCSS.                  M:   MUD CAKE SAMPLE SOURCE
 RMB .OHMM            4.3:   RESISTIVITY MUD AT BHT
 BHT .F                90:   BOTTOM HOLE TEMPERATURE
 TCS .HRS               1:   TIME CURCULATED STOPPED
 MRT .F                90:   MAXIMUM RECORDED TEMPERATURE
 LUN .               2503:   LOGGING UNIT NUMBER
 LUL .               CSPR:   LOGGING UNIT LOCATION
 ENGI.             KNOBEL:   RECORDING ENGINEER
 WITN.          JORGENSEN:   WITNESSED BY
 CLNT.            A2DTECH:   CLIENT CODE
 ORIG.   1", 2", 5" PRINT:   ORIGIN OF DATA
 UWI .       490250631700:   UNIQUE WELL ID
 DICO. A2D Technologies, Inc.:   DIGITIZING COMPANY
~OTHER INFORMATION
~A   DEPT       GR       CALM        SPR          ASN        ILD      CILD  
# ...
  350.0000  -999.2500  -999.2500   -42.8694     5.0388     4.5365   220.9668
  350.5000  -999.2500  -999.2500   -42.9129     5.0137     4.2864   237.1226
  351.0000  -999.2500  -999.2500   -42.9543     4.9390     4.0368   252.9743
  351.5000  -999.2500  -999.2500   -42.9082     4.7157     3.7870   279.3786
  352.0000  -999.2500  -999.2500   -42.5817     4.3375     3.5372   306.3765
  352.5000  -999.2500  -999.2500   -42.2688     3.8530     3.2875   333.5674
  353.0000  -999.2500  -999.2500   -41.9564     3.7145     3.0375   360.7740
  353.5000  -999.2500  -999.2500   -41.6436     3.5061     2.7883   387.9025
  354.0000  -999.2500  -999.2500   -41.3306     3.1349     2.5327   410.5110
  354.5000  -999.2500  -999.2500   -41.0159     2.9557     2.6119   423.3467
  355.0000  -999.2500  -999.2500   -41.1497     3.3886     2.8375   404.6023
  355.5000  -999.2500  -999.2500   -41.3900     3.6441     3.0626   379.6533
  356.0000  -999.2500  -999.2500   -41.6339     3.7079     3.3075   353.4946
  356.5000  -999.2500  -999.2500   -41.8774     3.7481     3.5466   327.2071
  357.0000  -999.2500  -999.2500   -42.1209     3.9322     3.7855   302.1042
  357.5000  -999.2500  -999.2500   -42.3653     4.3758     4.0272   269.7996
  358.0000  -999.2500  -999.2500   -42.6057     4.7414     4.3755   238.8617
  358.5000  -999.2500  -999.2500   -42.7121     5.0191     4.8308   208.8391
  359.0000  -999.2500  -999.2500   -42.3653     5.2130     5.1274   190.8615
  359.5000  -999.2500  -999.2500   -42.2440     5.3686     5.3735   184.5403
  360.0000  -999.2500  -999.2500   -42.5215     5.5238     5.5644   178.4615
  360.5000  -999.2500  -999.2500   -42.7880     5.7157     5.7647   172.3374
  361.0000  -999.2500  -999.2500   -42.9852     5.9083     5.9649   166.2133
  361.5000  -999.2500  -999.2500   -42.8629     6.0091     6.1600   161.0736
  362.0000  -999.2500  -999.2500   -42.7447     6.1181     6.2635   156.7964
  362.5000  -999.2500  -999.2500   -42.6227     6.2530     6.3632   152.5193
  363.0000  -999.2500  -999.2500   -42.7655     6.4318     6.4616   150.2587
  363.5000  -999.2500  -999.2500   -43.0326     6.5625     6.5187   149.3514
  364.0000  -999.2500  -999.2500   -43.1211     6.6598     6.5636   148.7976
  364.5000  -999.2500  -999.2500   -42.9694     6.6490     6.5289   151.6975
  365.0000  -999.2500  -999.2500   -42.8199     6.5751     6.4902   154.6328
  365.5000  -999.2500  -999.2500   -42.6670     6.4852     6.3827   157.5681
  366.0000  -999.2500  -999.2500   -42.4111     6.3832     6.1877   159.6794
  366.5000  -999.2500  -999.2500   -42.0116     6.2430     6.0115   164.6693
  367.0000  -999.2500  -999.2500   -41.8109     6.0935     5.8524   169.6593
  367.5000  -999.2500  -999.2500   -41.9597     5.9365     5.6155   175.4509
  368.0000  -999.2500  -999.2500   -42.1023     5.7819     5.3589   185.4309
  368.5000  -999.2500  -999.2500   -42.2456     5.6245     5.1023   195.4108
  369.0000  -999.2500  -999.2500   -42.3893     5.4456     4.8460   206.3088
  369.5000  -999.2500  -999.2500   -42.5320     5.2196     4.5895   222.4668
  370.0000  -999.2500  -999.2500   -42.4905     4.9637     4.3332   238.6249
  370.5000  -999.2500  -999.2500   -41.9987     4.7031     4.0829   254.7829
  371.0000  -999.2500  -999.2500   -41.5162     4.4438     3.8540   272.0441
  371.5000  -999.2500  -999.2500   -41.0344     4.2319     3.9189   269.0047
  372.0000  -999.2500  -999.2500   -40.5509     4.3896     3.9833   267.5752
  372.5000  -999.2500  -999.2500   -40.0567     4.4594     4.0481   269.2385
  373.0000  -999.2500  -999.2500   -40.2261     4.3219     4.1121   269.0381
  373.5000  -999.2500  -999.2500   -40.5289     4.2940     4.1891   261.0736
  374.0000  -999.2500  -999.2500   -40.8354     4.5925     4.4494   245.9906
  374.5000  -999.2500  -999.2500   -41.1388     4.9047     4.7139   218.2076
  375.0000  -999.2500  -999.2500   -41.3919     5.0634     4.9767   202.3902
  375.5000  -999.2500  -999.2500   -41.4829     5.1478     5.1383   189.7462
  376.0000  -999.2500  -999.2500   -41.5830     5.2030     5.0837   183.8677
  376.5000  -999.2500  -999.2500   -41.6844     5.2085     5.1027   184.8297
  377.0000  -999.2500  -999.2500   -41.7758     5.2148     5.1256   188.1563
  377.5000  -999.2500  -999.2500   -41.6199     5.2205     5.1477   191.4830
  378.0000  -999.2500  -999.2500   -41.4519     5.2210     5.1160   193.8878
  378.5000  -999.2500  -999.2500   -41.2844     5.1756     5.0226   192.8858
  379.0000  -999.2500  -999.2500   -41.1179     5.0738     4.9280   195.9628
  379.5000  -999.2500  -999.2500   -40.9793     4.9778     4.7758   203.6746
  380.0000  -999.2500  -999.2500   -41.0163     4.7948     4.4042   210.5273
  380.5000  -999.2500  -999.2500   -41.0527     4.6025     4.0433   249.5278
  381.0000  -999.2500  -999.2500   -41.0886     4.3866     3.6830   292.9796
  381.5000  -999.2500  -999.2500   -41.1244     4.0693     3.3226   336.5357
  382.0000  -999.2500  -999.2500   -41.1584     3.6681     2.9616   382.6520
  382.5000  -999.2500  -999.2500   -41.1010     3.2639     2.5994   427.3547
  383.0000  -999.2500  -999.2500   -40.8727     3.1510     2.2654   439.3788
  383.5000  -999.2500  -999.2500   -40.6471     3.2264     2.3430   436.9561
  384.0000  -999.2500  -999.2500   -40.4210     3.2625     2.4338   430.8573
  384.5000  -999.2500  -999.2500   -40.1937     3.2282     2.5189   418.2508
  385.0000  -999.2500  -999.2500   -39.9687     3.1943     2.8280   397.2946
  385.5000  -999.2500  -999.2500   -39.8490     3.2497     3.2588   362.5451
  386.0000  -999.2500  -999.2500   -40.3573     3.7790     3.6934   320.1302
  386.5000  -999.2500  -999.2500   -40.8541     4.3227     4.1295   277.4263
  387.0000  -999.2500  -999.2500   -41.1587     4.5173     4.5457   241.1248
  387.5000  -999.2500  -999.2500   -40.9517     4.5668     4.6019   214.3036
  388.0000  -999.2500  -999.2500   -40.7509     4.5995     4.6495   201.7395
  388.5000  -999.2500  -999.2500   -40.5510     4.6328     4.6991   203.0776
  389.0000  -999.2500  -999.2500   -40.4195     4.6506     4.7503   208.4240
  389.5000  -999.2500  -999.2500   -40.7406     4.6650     4.7411   213.7704
  390.0000  -999.2500  -999.2500   -41.0586     4.6787     4.7103   215.3769
  390.5000  -999.2500  -999.2500   -41.3709     4.7162     4.6782   216.1446
  391.0000  -999.2500  -999.2500   -41.5537     4.6536     4.5920   216.9339
  391.5000  -999.2500  -999.2500   -41.2995     4.5851     4.4068   222.2685
  392.0000  -999.2500  -999.2500   -41.0492     4.5169     4.2230   227.9559
  392.5000  -999.2500  -999.2500   -40.7989     4.4515     4.0391   239.7265
  393.0000  -999.2500  -999.2500   -40.5516     4.3560     3.8553   252.0130
  393.5000  -999.2500  -999.2500   -40.3536     4.1986     3.6714   270.7413
  394.0000  -999.2500  -999.2500   -40.2791     4.0295     3.4892   291.6324
  394.5000  -999.2500  -999.2500   -40.2017     3.8575     3.3040   314.3888
  395.0000  -999.2500  -999.2500   -40.1248     3.6966     3.1597   340.1804
  395.5000  -999.2500  -999.2500   -40.0482     3.5420     3.1563   349.5591
  396.0000  -999.2500  -999.2500   -39.9841     3.4835     3.1558   349.7662
  396.5000  -999.2500  -999.2500   -39.6546     3.5550     3.1787   341.4496
  397.0000  -999.2500  -999.2500   -39.1998     3.6819     3.3475   330.2751
  397.5000  -999.2500  -999.2500   -39.2378     3.6871     3.4225   318.0269
  398.0000  -999.2500  -999.2500   -39.7339     3.6985     3.5542   300.1634
  398.5000  -999.2500  -999.2500   -40.2371     3.8969     3.8920   277.0760
  399.0000  -999.2500  -999.2500   -40.7551     4.3542     4.2609   253.9888
  399.5000  -999.2500  -999.2500   -40.8503     4.7364     4.6376   230.9015
  400.0000  -999.2500  -999.2500   -40.9186     4.8548     4.7953   207.8142
  400.5000  -999.2500  -999.2500   -40.9823     4.9328     4.9653   194.5711
  401.0000  -999.2500  -999.2500   -40.8952     5.0071     4.9606   189.3644
  401.5000  -999.2500  -999.2500   -40.7201     5.0686     4.9599   187.6138
