~VERSION INFORMATION
 VERS.                2.0:   CWLS LOG ASCII STANDARD - VERSION 2.0
 WRAP.                 NO:   ONE LINE PER DEPTH STEP
~WELL INFORMATION
#MNEM.UNIT      DATA TYPE    INFORMATION
#----------   ------------   ------------------------------
 STRT.F           80.0000:   START DEPTH
 STOP.F         1056.0000:   STOP DEPTH
 STEP.F            0.5000:   STEP LENGTH
 NULL.          -999.2500:   NO VALUE
 COMP. U S NAVY-INTEX OIL:   COMPANY
 WELL.      NPR 3 #68-S-2:   WELL
 FLD .        TEAPOT DOME:   FIELD
 LOC .       S2 T38N R78W:   LOCATION
 CNTY.            NATRONA:   COUNTY
 STAT.            WYOMING:   STATE
 CTRY. UNITED STATES OF AMERICA:   COUNTRY
 SRVC.       Schlumberger:   SERVICE COMPANY
 DATE.        21-JUL-1964:   LOGDATE
 API .       490250638800:   API NUMBER
~CURVE INFORMATION
#MNEM.UNIT       API CODE    CURVE DESCRIPTION
#----------   ------------   ------------------------------
 DEPT.F                  :   
 SPR .MV     05 010 01 00:   SPONTANEOUS POTENTIAL FROM RES.
 ASN .OHMM   05 041 16 00:   AMPLIFIED SHORT NORMAL 16"
 ILD .OHMM   05 120 46 00:   INDUCTION LOG DEEP
 CILD.MMHO   05 110 46 00:   CONDUCTIVITY INDUCTION LOG DEEP
 GR  .GAPI   30 310 01 00:   GAMMA RAY
 CALS.IN     60 280 50 00:   CALIPER FROM SONIC LOG
 DT  .US/F   60 520 00 00:   INTERVAL TRANSIT TIME
~PARAMETER INFORMATION
#MNEM.UNIT          VALUE    DESCRIPTION
#----------   ------------   ------------------------------
 PD  .                 GL:   PERMANENT DATUM
 EPD .F              5201:   ELEVATION PERMANENT DATUM
 LMF .                 KB:   LOG MEASURED FROM
 DAPD.F                 5:   FEET ABOVE PERMANENT DATUM
 DMF .                 KB:   DRILLING MEASURED FROM
 EKB .F              5206:   KELLING BUSHING
 EGL .F              5201:   GROUND LEVEL
 DATE.          8-12-1964:   RUN DATE
 RUN .                  1:   RUN NUMBER
 DD  .F              1055:   DEPTH DRILLER
 DL  .F              1057:   DEPTH LOGGER
 BLI .F              1055:   BOTTOM LOG INTERVAL
 TLI .F               450:   TOP LOG INTERVAL
 CS  .IN              4.5:   CASING SIZE
 BS  .IN             6.75:   BIT SIZE
 DFT .            GEL OIL:   DRILLING FLUID TYPE
 DFD .                9.3:   DRILLING FLUID DENSITY
 DFV .                 48:   DRILLING FLUID VISCOSITY
 DFPH.                 10:   DRILLING FLUID PH
 DFL .                 10:   DRILLING FLUID LOSS
 MSS .           FLOWLINE:   MUD SAMPLE SOURCE
 RMS .OHMM           1.07:   RESISTIVITY MUD SAMPLE
 MST .F                95:   MUD SAMPLE TEMPERATURE
 RMF .OHMM            .67:   RESISTIVITY MUD FILTRATE SAMPLE
 MFST.F                95:   MUD FILTRATE SAMPLE TEMPERATURE
 RMC .OHMM           1.44:   RESISTIVITY MUD CAKE
 MCST.F                95:   MUD CAKE SAMPLE TEMPERATURE
 MFSS.                 FP:   MUD FILTRATE SAMPLE SOURCE
 MCSS.                 FP:   MUD CAKE SAMPLE SOURCE
 TCS .HRS               1:   TIME CURCULATED STOPPED
 LUN .               4507:   LOGGING UNIT NUMBER
 LUL .               CSPR:   LOGGING UNIT LOCATION
 ENGI.             DANNER:   RECORDING ENGINEER
 WITN.         JORGENESEN:   WITNESSED BY
 CLNT.            A2DTECH:   CLIENT CODE
 ORIG.           2" PRINT:   ORIGIN OF DATA
 UWI .       490250638800:   UNIQUE WELL ID
 DICO. A2D Technologies, Inc.:   DIGITIZING COMPANY
~OTHER INFORMATION
~A   DEPT      SPR          ASN        ILD      CILD        GR       CALS         DT   
# ...
  489.5000   -35.3360     9.9085     7.1332   144.4231    45.9328     6.6213    94.7840
  490.0000   -35.1167     9.6686     6.2674   158.1845    48.1667     6.6364    95.3081
  490.5000   -34.8760     8.9780     6.0770   164.5859    54.2755     6.6961    96.6592
  491.0000   -34.5885     7.9297     6.0764   166.7330    61.4276     6.7559   100.7171
  491.5000   -34.3947     7.4587     6.0008   168.9435    60.8300     6.7709   104.9254
  492.0000   -34.1400     7.2696     6.0000   171.1903    43.8389     6.7711   105.7508
  492.5000   -34.1393     7.2872     5.9244   172.3339    43.3907     6.7414   104.3945
  493.0000   -34.3254     7.4051     5.8487   170.2909    45.7734     6.7267   103.8660
  493.5000   -34.8829     8.2299     5.9883   151.0895    43.0893     6.7119   103.2622
  494.0000   -35.2320     8.8353     7.0415   131.6415    36.0834     6.7270    99.3502
  494.5000   -35.4776     9.7893     8.5009   118.3444    40.2547     6.7420    96.7163
  495.0000   -35.8594    10.2091     9.7056   111.8300    38.3159     6.7571    97.4660
  495.5000   -36.1250    10.3711     9.8869   108.2366    41.4440     6.7721    98.0658
  496.0000   -36.3696    10.6811     9.9232   104.9400    43.8271     6.7872    97.3111
  496.5000   -36.6362    10.9590     9.9677   102.8409    43.5032     6.7724    97.4592
  497.0000   -36.9642    11.1360    10.1091    99.7122    44.7183     6.7577    97.9081
  497.5000   -37.0554    11.3340    10.3275    97.5819    45.6110     6.7429    97.9816
  498.0000   -37.1456    11.4520    10.6317    95.0794    43.9702     6.7133    97.7532
  498.5000   -37.2601    11.7629    10.8195    93.7608    43.5112     6.6836    97.2998
  499.0000   -37.4084    12.2337    11.0137    93.0134    43.9672     6.6689    97.5231
  499.5000   -37.4076    12.3383    11.0786    93.7539    46.2012     6.6541    98.5735
  500.0000   -37.4189    12.4588    11.0595    93.6577    45.5886     6.6510    98.9058
  500.5000   -37.4471    12.6024    10.9706    93.4312    43.2175     6.6393    99.1723
  501.0000   -37.4754    12.7461    10.8818    93.2048    41.2790     6.6841    99.3217
  501.5000   -37.5036    12.8940    10.9389    92.9948    46.1951     6.7139    99.5467
  502.0000   -37.5318    12.9691    11.0810    92.9904    42.4679     6.7139    99.0195
  502.5000   -37.5484    13.0442    11.1040    92.2433    42.9139     6.6841    98.1917
  503.0000   -37.5469    13.0871    11.2321    92.2394    42.7630     6.6542    97.4390
  503.5000   -37.5453    13.2694    11.3440    91.4918    41.1221     6.6244    96.3105
  504.0000   -37.5439    13.3446    11.3892    90.7441    41.4187     6.6244    95.2571
  504.5000   -37.5425    13.3713    11.5092    90.7396    43.3546     6.6244    93.9782
  505.0000   -37.6279    13.4948    11.6293    89.9925    43.6662     6.6244    93.0752
  505.5000   -37.8377    13.6107    11.6849    89.2445    41.8614     6.6244    93.9128
  506.0000   -37.9849    13.7304    11.7944    88.4970    34.8554     6.6393    94.5775
  506.5000   -38.1326    13.8700    11.9858    87.7492    31.7243     6.6416    93.8248
  507.0000   -38.2801    13.9451    12.0823    87.2520    36.3428     6.6692    94.8014
  507.5000   -38.2787    14.0202    12.2293    86.2537    35.7376     6.6542    95.9284
  508.0000   -38.4264    14.1343    12.2875    85.5056    40.9778     6.6542    96.7548
  508.5000   -38.5735    14.2454    12.4693    84.7582    40.3622     6.6990    97.4307
  509.0000   -38.6195    14.3206    12.5893    84.0104    42.4989     6.7586    97.8811
  509.5000   -38.8688    14.4185    12.7547    83.0569    43.1908     6.7735    97.2789
  510.0000   -39.0910    14.5457    12.9042    81.7708    39.4635     6.6542    97.8796
  510.5000   -39.3266    14.6579    13.1146    81.0227    41.5485     6.3711    98.6308
  511.0000   -39.7583    14.8526    13.2769    79.9604    32.8910     6.3413    99.1565
  511.5000   -39.9064    15.0709    13.4903    78.7835    31.8585     6.3413    98.4037
  512.0000   -40.2026    15.1880    13.7265    77.8671    34.8376     6.1326    98.8541
  512.5000   -40.4185    15.4460    13.9658    76.3889    33.7926     5.9985    99.2293
  513.0000   -40.6542    15.7768    14.2411    74.3076    38.1130     6.1177    99.3789
  513.5000   -40.9855    16.2105    14.4973    72.9677    39.7512     6.3277    98.9924
  514.0000   -41.1256    16.6189    14.9162    70.5803    35.1294     6.4158    98.1504
  514.5000   -41.3873    17.0224    15.4184    68.2131    36.3202     6.3860    97.4842
  515.0000   -41.5971    17.6207    16.0354    65.6993    38.5545     6.5052    96.9698
  515.5000   -41.6826    18.1958    17.0144    62.3842    41.0862     6.6244    96.2172
  516.0000   -41.6811    18.8413    17.7814    60.3369    31.5467     6.7139    94.6375
  516.5000   -41.6511    19.5833    18.7373    57.9129    26.7766     6.7586    92.4563
  517.0000   -41.2308    20.0891    19.1502    56.3270    32.5870     6.6692    90.8766
  517.5000   -40.7638    20.5450    19.1878    54.9293    32.4365     6.5946    88.0187
  518.0000   -40.1848    20.8015    19.1888    54.9250    32.8821     6.6393    82.3789
  518.5000   -40.0343    20.9951    18.8894    55.4402    41.0773     6.7139    79.8217
  519.0000   -40.0998    20.7081    18.1423    57.8942    38.8404     6.7437    80.3473
  519.5000   -40.9252    20.2439    16.8156    59.8365    45.6943     6.7288    82.8278
  520.0000   -41.6691    19.5712    15.7087    61.9041    49.4186     6.6393    86.4361
  520.5000   -42.4127    18.7505    15.0516    64.5790    48.9701     6.5797    89.6684
  521.0000   -42.9354    17.7724    15.0014    67.0487    42.8583     6.5797    95.2316
  521.5000   -43.4532    16.8786    15.0023    69.7803    44.7942     6.5797    99.0202
  522.0000   -43.3023    16.5463    15.0030    71.2847    44.3460     6.5797    99.9008
  522.5000   -43.0651    16.3486    15.0037    72.7495    47.1758     6.5797    99.8020
  523.0000   -42.8523    16.3487    15.0045    72.0008    46.1311     6.5797    99.3638
  523.5000   -42.6312    16.3489    15.0052    71.0318    41.6586     6.5797    99.2880
  524.0000   -42.4023    16.3491    15.0061    69.7617    37.0375     6.5797    99.7382
  524.5000   -42.4009    16.2626    15.0067    69.7582    47.9150     6.5797   100.1886
  525.0000   -42.4367    16.1245    15.0075    69.7545    54.0238     6.5946   100.8646
  525.5000   -42.5469    15.9720    14.9639    70.2554    53.4262     6.5946   100.0368
  526.0000   -42.4809    15.6000    14.9201    71.6419    53.4247     6.5946   100.6375
  526.5000   -42.3912    15.1346    14.7853    75.6954    53.8703     6.5946   101.3887
  527.0000   -41.9687    14.5119    14.1793    80.3924    58.1907     6.5499   101.7641
  527.5000   -41.5537    13.9513    12.7657    90.2162    60.7228     6.3860   101.3872
  528.0000   -40.4529    13.5556    11.5480   103.8084    63.1058     6.4903   102.2135
  528.5000   -39.6220    12.9771     9.6819   121.2423    67.8733     6.5946   103.1150
  529.0000   -38.2146    12.0701     7.5286   134.4565    68.4680     6.5947   102.7364
  529.5000   -36.3351    10.8149     7.1279   144.0845    68.6155     6.6862   102.1361
  530.0000   -34.5354     9.8686     6.4821   153.9917    65.9118     6.7288   103.8396
  530.5000   -33.8880     9.2382     5.9509   163.4837    68.6799     6.7288   104.6156
  531.0000   -33.5365     8.4881     5.6512   169.6650    66.3894     6.7288   104.7653
  531.5000   -33.4381     7.9855     5.5114   176.8485    65.2492     6.7139   105.5164
  532.0000   -33.2876     7.6290     5.5120   179.6925    64.7333     6.7139   105.8166
  532.5000   -33.2862     7.3410     5.5128   179.8177    65.9241     6.7139   104.9886
  533.0000   -33.2844     7.3534     5.6252   177.4281    65.4755     6.6990   104.7623
  533.5000   -33.4325     7.4252     5.6639   175.0508    66.9640     6.6990   103.8593
  534.0000   -33.5796     7.5215     5.6647   171.6215    64.2799     6.6841   103.2571
  534.5000   -33.8005     7.5540     5.7402   170.2965    67.8552     6.6542   102.6548
