~VERSION INFORMATION
 VERS.                2.0:   CWLS LOG ASCII STANDARD - VERSION 2.0
 WRAP.                 NO:   ONE LINE PER DEPTH STEP
~WELL INFORMATION
#MNEM.UNIT      DATA TYPE    INFORMATION
#----------   ------------   ------------------------------
 STRT.F           46.0000:   START DEPTH
 STOP.F         2100.0000:   STOP DEPTH
 STEP.F            0.5000:   STEP LENGTH
 NULL.          -999.2500:   NO VALUE
 COMP. LAWRENCE/ALLISON INC:   COMPANY
 WELL.    58-21 SX #10-10:   WELL
 FLD .             TEAPOT:   FIELD
 LOC .      S10 T38N R78W:   LOCATION
 CNTY.            NATRONA:   COUNTY
 STAT.            WYOMING:   STATE
 CTRY. UNITED STATES OF AMERICA:   COUNTRY
 SRVC.           Gearhart:   SERVICE COMPANY
 DATE.        06-JUL-1987:   LOGDATE
 API .       490251114400:   API NUMBER
~CURVE INFORMATION
#MNEM.UNIT       API CODE    CURVE DESCRIPTION
#----------   ------------   ------------------------------
 DEPT.F                  :   
 GR  .GAPI   81 310 01 00:   GAMMA RAY
 TGAS.UNITS  91 830 01 00:   TOTAL GAS FROM HOTWIRE
 ROP .MIN/FT 91 810 01 00:   RAT OF DRILLING PENETRATION
~PARAMETER INFORMATION
#MNEM.UNIT          VALUE    DESCRIPTION
#----------   ------------   ------------------------------
 PD  .                 GL:   PERMANENT DATUM
 EPD .F              5219:   ELEVATION PERMANENT DATUM
 LMF .                 KB:   LOG MEASURED FROM
 DAPD.F                 8:   FEET ABOVE PERMANENT DATUM
 DMF .                 KB:   DRILLING MEASURED FROM
 EKB .F              5227:   KELLING BUSHING
 EDF .F              5225:   DRILLING FLOOR
 EGL .F              5219:   GROUND LEVEL
 DATE.             7-6-87:   RUN DATE
 RUN .                  1:   RUN NUMBER
 DD  .F               610:   DEPTH DRILLER
 DL  .F             531.5:   DEPTH LOGGER
 BLI .F               526:   BOTTOM LOG INTERVAL
 TLI .F                50:   TOP LOG INTERVAL
 BS  .IN            7.875:   BIT SIZE
 BSD .F               610:   BIT SIZE AT DEPTH
 DFT .              WATER:   DRILLING FLUID TYPE
 LUN .               6084:   LOGGING UNIT NUMBER
 LUL .           GILLETTE:   LOGGING UNIT LOCATION
 ENGI.                COX:   RECORDING ENGINEER
 WITN.               LOWE:   WITNESSED BY
 CLNT.            A2DTECH:   CLIENT CODE
 ORIG.           5" PRINT:   ORIGIN OF DATA
 UWI .       490251114400:   UNIQUE WELL ID
 DICO. A2D Technologies, Inc.:   DIGITIZING COMPANY
~OTHER INFORMATION
~A   DEPT        GR      TGAS        ROP   
# ...
 1320.0000  -999.2500    90.7921     0.6282
 1320.5000  -999.2500    90.8275     0.6306
 1321.0000  -999.2500    90.8629     0.6719
 1321.5000  -999.2500    90.8984     0.7349
 1322.0000  -999.2500    90.9339     0.7975
 1322.5000  -999.2500    90.9703     0.8553
 1323.0000  -999.2500    91.0000     0.8568
 1323.5000  -999.2500    91.1915     0.8568
 1324.0000  -999.2500    87.8067     0.8571
 1324.5000  -999.2500    93.5451     0.8573
 1325.0000  -999.2500    20.2247     0.8576
 1325.5000  -999.2500    20.7550     0.8579
 1326.0000  -999.2500    20.8324     0.8582
 1326.5000  -999.2500    20.7558     0.8585
 1327.0000  -999.2500    20.7276     0.8588
 1327.5000  -999.2500    20.6995     0.8591
 1328.0000  -999.2500    20.6714     0.8594
 1328.5000  -999.2500    20.6432     0.8597
 1329.0000  -999.2500    20.6151     0.8599
 1329.5000  -999.2500    20.5869     0.8602
 1330.0000  -999.2500    20.5588     0.8605
 1330.5000  -999.2500    20.5306     0.8608
 1331.0000  -999.2500    20.5025     0.8611
 1331.5000  -999.2500    20.4744     0.8614
 1332.0000  -999.2500    20.4462     0.8616
 1332.5000  -999.2500    20.4181     0.8619
 1333.0000  -999.2500    20.3899     0.8622
 1333.5000  -999.2500    20.3618     0.8625
 1334.0000  -999.2500    20.3335     0.8628
 1334.5000  -999.2500    20.3070     0.8631
 1335.0000  -999.2500    20.3084     0.8634
 1335.5000  -999.2500    20.3450     0.8637
 1336.0000  -999.2500    20.5734     0.8639
 1336.5000  -999.2500     8.5191     0.8642
 1337.0000  -999.2500     6.2659     0.8645
 1337.5000  -999.2500     6.1823     0.8648
 1338.0000  -999.2500     6.1737     0.8651
 1338.5000  -999.2500     6.1461     0.8654
 1339.0000  -999.2500     6.1144     0.8657
 1339.5000  -999.2500     6.0827     0.8659
 1340.0000  -999.2500     6.0510     0.8662
 1340.5000  -999.2500     6.0193     0.8665
 1341.0000  -999.2500     5.9876     0.8668
 1341.5000  -999.2500     5.9559     0.8671
 1342.0000  -999.2500     5.9242     0.8674
 1342.5000  -999.2500     5.8925     0.8677
 1343.0000  -999.2500     5.8608     0.8679
 1343.5000  -999.2500     5.8290     0.8681
 1344.0000  -999.2500     5.7972     0.8685
 1344.5000  -999.2500     5.7669     0.8774
 1345.0000  -999.2500  -999.2500     0.9242
 1345.5000  -999.2500  -999.2500     0.9700
 1346.0000  -999.2500  -999.2500     1.0071
 1346.5000  -999.2500  -999.2500     1.0051
 1347.0000  -999.2500  -999.2500     1.0038
 1347.5000  -999.2500  -999.2500     1.0026
 1348.0000  -999.2500  -999.2500     1.0013
 1348.5000  -999.2500  -999.2500     1.0001
 1349.0000  -999.2500  -999.2500     0.9989
 1349.5000  -999.2500  -999.2500     0.9977
 1350.0000  -999.2500  -999.2500     0.9964
 1350.5000  -999.2500  -999.2500     0.9953
 1351.0000  -999.2500  -999.2500     0.9941
 1351.5000  -999.2500  -999.2500     1.0059
 1352.0000  -999.2500  -999.2500     1.0200
 1352.5000  -999.2500  -999.2500     1.0670
 1353.0000  -999.2500  -999.2500     1.1163
 1353.5000  -999.2500  -999.2500     1.1653
 1354.0000  -999.2500  -999.2500     1.2141
 1354.5000  -999.2500  -999.2500     1.2574
 1355.0000  -999.2500    50.6661     1.2563
 1355.5000  -999.2500    48.5105     1.2551
 1356.0000  -999.2500    48.6834     1.2541
 1356.5000  -999.2500    49.0865     1.2531
 1357.0000  -999.2500    49.4890     1.2522
 1357.5000  -999.2500    49.8915     1.2512
 1358.0000  -999.2500    50.2940     1.2502
 1358.5000  -999.2500    50.6965     1.2492
 1359.0000  -999.2500    51.0990     1.2483
 1359.5000  -999.2500    51.5015     1.2473
 1360.0000  -999.2500    51.9049     1.2464
 1360.5000  -999.2500    52.3187     1.2454
 1361.0000  -999.2500    52.4019     1.2439
 1361.5000  -999.2500    52.2865     1.2144
 1362.0000  -999.2500    52.2886     1.1343
 1362.5000  -999.2500    52.1329     1.0547
 1363.0000  -999.2500    51.6669     0.9746
 1363.5000  -999.2500    51.2012     0.8998
 1364.0000  -999.2500    50.7360     0.9053
 1364.5000  -999.2500    50.2731     0.9064
 1365.0000  -999.2500    49.8784     0.9077
 1365.5000  -999.2500    49.8864     0.9089
 1366.0000  -999.2500    49.8394     0.9101
 1366.5000  -999.2500    49.7016     0.9113
 1367.0000  -999.2500    49.5651     0.9125
 1367.5000  -999.2500    49.4284     0.9137
 1368.0000  -999.2500    49.2918     0.9149
 1368.5000  -999.2500    49.1552     0.9160
 1369.0000  -999.2500    49.0186     0.9171
 1369.5000  -999.2500    48.8820     0.9165
 1370.0000  -999.2500    48.7454     1.0013
 1370.5000  -999.2500    48.6088     1.1234
 1371.0000  -999.2500    48.4722     1.2456
 1371.5000  -999.2500    48.3356     1.3674
 1372.0000  -999.2500    48.1990     1.4915
 1372.5000  -999.2500    48.0624     1.5282
 1373.0000  -999.2500    47.9258     1.5301
 1373.5000  -999.2500    47.7892     1.5278
 1374.0000  -999.2500    47.6525     1.5257
 1374.5000  -999.2500    47.5159     1.5238
 1375.0000  -999.2500    47.3793     1.5217
 1375.5000  -999.2500    47.2426     1.5204
 1376.0000  -999.2500    47.1060     1.4260
 1376.5000  -999.2500    46.9708     1.2299
 1377.0000  -999.2500    46.8788     1.0338
 1377.5000  -999.2500    46.8805     0.8365
 1378.0000  -999.2500    46.8799     0.6398
 1378.5000  -999.2500    46.8586     0.6299
 1379.0000  -999.2500    46.7928     0.6335
 1379.5000  -999.2500    46.7278     0.6365
 1380.0000  -999.2500    46.6627     0.6392
 1380.5000  -999.2500    46.5977     0.6420
 1381.0000  -999.2500    46.5326     0.6447
 1381.5000  -999.2500    46.4676     0.6474
 1382.0000  -999.2500    46.4025     0.6501
 1382.5000  -999.2500    46.3375     0.6528
 1383.0000  -999.2500    46.2724     0.6556
 1383.5000  -999.2500    46.2074     0.6584
 1384.0000  -999.2500    46.1423     0.6754
 1384.5000  -999.2500    46.0773     0.7606
 1385.0000  -999.2500    46.0122     0.8687
 1385.5000  -999.2500    45.9469     0.9810
 1386.0000  -999.2500    45.8798     1.0060
 1386.5000  -999.2500    45.8205     1.0063
 1387.0000  -999.2500    45.7597     1.0040
 1387.5000  -999.2500    45.6986     1.0020
 1388.0000  -999.2500    45.6375     0.9999
 1388.5000  -999.2500    45.5764     0.9979
 1389.0000  -999.2500    45.5153     0.9955
 1389.5000  -999.2500    45.4539     0.9927
 1390.0000  -999.2500    45.3913     1.0192
 1390.5000  -999.2500    45.4274     1.1306
 1391.0000  -999.2500    45.5961     1.2418
 1391.5000  -999.2500    45.7632     1.3509
 1392.0000  -999.2500    45.9302     1.4541
 1392.5000  -999.2500    46.0972     1.3769
 1393.0000  -999.2500    46.2642     1.1135
 1393.5000  -999.2500    46.4304     0.8503
 1394.0000  -999.2500    46.6027     0.5822
 1394.5000  -999.2500    46.7785     0.5664
 1395.0000  -999.2500    47.4169     0.5669
 1395.5000  -999.2500    47.3904     0.5662
 1396.0000  -999.2500    47.3811     0.5651
 1396.5000  -999.2500    47.3816     0.5640
 1397.0000  -999.2500    47.3816     0.5629
 1397.5000  -999.2500    47.3817     0.5618
 1398.0000  -999.2500    47.3819     0.5607
 1398.5000  -999.2500    47.3811     0.5597
 1399.0000  -999.2500    47.3364     0.5585
 1399.5000  -999.2500    47.1764     0.5576
 1400.0000  -999.2500    47.0169     0.5553
 1400.5000  -999.2500    46.9021     0.6067
 1401.0000  -999.2500    47.4003     0.6766
 1401.5000  -999.2500    47.8830     0.7506
 1402.0000  -999.2500    48.3655     0.7689
 1402.5000  -999.2500    48.8625     0.7702
 1403.0000  -999.2500    48.7960     0.7708
 1403.5000  -999.2500    48.6885     0.7716
 1404.0000  -999.2500    48.5826     0.7724
 1404.5000  -999.2500    48.4781     0.7733
 1405.0000  -999.2500    48.3808     0.7741
 1405.5000  -999.2500    48.3791     0.7749
 1406.0000  -999.2500    48.5450     0.7757
 1406.5000  -999.2500    48.7240     0.7766
 1407.0000  -999.2500    48.9037     0.7774
 1407.5000  -999.2500    49.0828     0.7782
 1408.0000  -999.2500    49.2618     0.7790
 1408.5000  -999.2500    49.4402     0.7797
 1409.0000  -999.2500    49.6198     0.7808
 1409.5000  -999.2500    49.8119     0.7885
 1410.0000  -999.2500    50.3455     0.8471
 1410.5000  -999.2500    50.6489     0.9551
