~VERSION INFORMATION
 VERS.                2.0:   CWLS LOG ASCII STANDARD - VERSION 2.0
 WRAP.                 NO:   ONE LINE PER DEPTH STEP
~WELL INFORMATION
#MNEM.UNIT      DATA TYPE    INFORMATION
#----------   ------------   ------------------------------
 STRT.F            5.0000:   START DEPTH
 STOP.F          668.0000:   STOP DEPTH
 STEP.F            0.5000:   STEP LENGTH
 NULL.          -999.2500:   NO VALUE
 COMP. LAWRENCE/ALLISON INC:   COMPANY
 WELL.    38-61 SX #38-34:   WELL
 FLD .             TEAPOT:   FIELD
 LOC .      S34 T39N R78W:   LOCATION
 CNTY.            NATRONA:   COUNTY
 STAT.            WYOMING:   STATE
 CTRY. UNITED STATES OF AMERICA:   COUNTRY
 SRVC.           Gearhart:   SERVICE COMPANY
 DATE.        18-AUG-1987:   LOGDATE
 API .       490251116700:   API NUMBER
~CURVE INFORMATION
#MNEM.UNIT       API CODE    CURVE DESCRIPTION
#----------   ------------   ------------------------------
 DEPT.F                  :   
 GRR .GAPI   07 310 01 00:   GAMMA RAY
 ILD .OHMM   07 120 46 00:   INDUCTION LOG DEEP
 ILM .OHMM   07 120 44 00:   INDUCTION LOG MEDIUM
~PARAMETER INFORMATION
#MNEM.UNIT          VALUE    DESCRIPTION
#----------   ------------   ------------------------------
 PD  .                 GL:   PERMANENT DATUM
 EPD .F              5175:   ELEVATION PERMANENT DATUM
 LMF .                 KB:   LOG MEASURED FROM
 DAPD.F                 8:   FEET ABOVE PERMANENT DATUM
 DMF .                 KB:   DRILLING MEASURED FROM
 EKB .F              5183:   KELLING BUSHING
 EGL .F              5175:   GROUND LEVEL
 DATE.        18-AUG-1987:   RUN DATE
 RUN .                  1:   RUN NUMBER
 DD  .F               665:   DEPTH DRILLER
 DL  .F               669:   DEPTH LOGGER
 BLI .F               667:   BOTTOM LOG INTERVAL
 CBD .F                47:   CASING BOTTOM DRILLER
 CBL .F                47:   CASING BOTTOM LOGGER
 BS  .IN            7.875:   BIT SIZE
 BSD .F               665:   BIT SIZE AT DEPTH
 DFT .           NONE AIR:   DRILLING FLUID TYPE
 TLAB.HRS            0830:   TIME LOGGER AT BOTTOM
 MRT .F                80:   MAXIMUM RECORDED TEMPERATURE
 LUN .               7597:   LOGGING UNIT NUMBER
 LUL .           GILLETTE:   LOGGING UNIT LOCATION
 ENGI.        K.HUCKFELDT:   RECORDING ENGINEER
 WITN.          G. STRONG:   WITNESSED BY
 CLNT.            A2DTECH:   CLIENT CODE
 ORIG.           5" PRINT:   ORIGIN OF DATA
 UWI .       490251116700:   UNIQUE WELL ID
 DICO. A2D Technologies, Inc.:   DIGITIZING COMPANY
~OTHER INFORMATION
~A    DEPT      GRR       ILD        ILM   
# ...
  369.0000   124.8198     5.6159     5.7831
  369.5000   126.6684     5.3486     5.4299
  370.0000   130.0317     5.1333     5.1386
  370.5000   132.7933     5.0632     4.8945
  371.0000   134.0279     5.0294     4.7603
  371.5000   131.9201     5.0306     4.6621
  372.0000   126.7728     5.1020     4.6621
  372.5000   121.8592     5.2104     4.7273
  373.0000   118.3070     5.3583     4.8314
  373.5000   117.1061     5.5490     5.0676
  374.0000   118.9547     5.8266     5.3011
  374.5000   122.3230     6.1181     5.7059
  375.0000   122.6469     6.4692     6.1138
  375.5000   122.0589     6.8402     6.5085
  376.0000   121.4549     7.2325     6.7857
  376.5000   121.1868     7.5426     7.1241
  377.0000   123.3393     7.8101     7.3249
  377.5000   126.7027     7.8661     7.5315
  378.0000   129.4582     7.8676     7.6902
  378.5000   127.0514     7.8696     7.7438
  379.0000   126.1595     7.8162     7.6902
  379.5000   126.4833     7.7099     7.6369
  380.0000   128.6359     7.6054     7.5315
  380.5000   130.4795     7.4503     7.4275
  381.0000   132.0191     7.3490     7.2238
  381.5000   133.8926     7.1988     6.9770
  382.0000   132.9758     6.9965     6.7387
  382.5000   130.2601     6.6722     6.5085
  383.0000   127.8484     6.3568     6.3213
  383.5000   126.0446     6.1410     6.0294
  384.0000   125.4549     5.8918     5.8235
  384.5000   128.2979     5.7714     5.6207
  385.0000   131.8876     5.7323     5.2105
  385.5000   134.9471     5.7337     5.0676
  386.0000   138.0065     5.7750     5.0325
  386.5000   136.8156     5.8570     5.1030
  387.0000   134.0999     5.9815     5.3574
  387.5000   131.0803     6.1944     5.6638
  388.0000   128.6606     6.4145     6.0464
  388.5000   126.2618     6.6888     6.5085
  389.0000   125.0659     6.9363     6.8331
  389.5000   124.4779     7.3241     7.1257
  390.0000   124.5390     7.5319     7.4275
  390.5000   128.4741     7.7456     7.5315
  391.0000   131.2295     7.8559     7.6369
  391.5000   132.1613     7.9122     7.6902
  392.0000   132.7941     7.9689     7.6902
  392.5000   133.4219     7.9704     7.7438
  393.0000   131.6180     7.9724     7.7286
  393.5000   128.2522     7.9739     7.6902
  394.0000   125.2798     7.9755     7.7438
  394.5000   124.6869     7.9774     7.7438
  395.0000   126.5355     7.9788     7.7438
  395.5000   128.0801     7.9249     7.7438
  396.0000   127.4871     7.8719     7.7438
  396.5000   126.5952     7.8800     7.7438
  397.0000   128.7560     7.9303     7.7978
  397.5000   133.3318     7.9318     7.7978
  398.0000   135.4744     7.9334     7.8522
  398.5000   132.4598     7.8800     7.7438
  399.0000   130.8916     7.7953     7.6902
  399.5000   129.7640     7.7209     7.5822
  400.0000   134.8518     7.5514     7.3761
  400.5000   135.0576     7.3587     7.1753
  401.0000   130.1380     7.0115     6.8839
  401.5000   127.4225     6.7273     6.6500
  402.0000   129.8741     6.4099     6.4686
  402.5000   132.3258     6.2361     6.2059
  403.0000   135.1206     6.1098     5.9847
  403.5000   137.8421     6.0273     5.6329
  404.0000   140.2937     6.0290     5.6733
  404.5000   139.4019     6.0309     5.9161
  405.0000   137.2037     6.0331     5.9586
  405.5000   133.9759     6.0348     5.9187
  406.0000   131.8683     6.0366     5.8382
  406.5000   130.0647     5.9926     5.6792
  407.0000   129.1510     5.8751     5.4428
  407.5000   129.5019     5.8357     5.1191
  408.0000   131.3457     5.8379     4.9797
  408.5000   133.7973     5.9213     4.9460
  409.0000   135.6697     6.0063     5.0164
  409.5000   135.0583     6.1346     5.2314
  410.0000   130.5191     6.3533     5.6090
  410.5000   126.8917     6.5800     6.0140
  411.0000   125.3920     6.8148     6.4500
  411.5000   124.5052     7.0089     6.8662
  412.0000   123.9124     7.1585     7.0122
  412.5000   125.7611     7.1607     7.0136
  413.0000   127.3009     7.1132     6.8702
  413.5000   128.2329     6.9691     6.6372
  414.0000   127.6500     6.7332     6.4117
  414.5000   127.6701     6.3270     6.1510
  415.0000   127.6901     5.9745     5.8600
  415.5000   128.0191     5.7841     5.5444
  416.0000   128.3432     5.7458     5.2092
  416.5000   129.2751     5.7479     4.9628
  417.0000   134.3451     5.7538     4.8276
  417.5000   137.1057     5.8389     4.8964
  418.0000   138.7043     5.9515     5.2135
  418.5000   134.3451     6.2121     5.6682
  419.0000   128.4915     6.5287     6.1198
  419.5000   123.9036     7.0441     6.8414
  420.0000   124.5623     7.4488     7.2845
  420.5000   127.0139     7.7143     7.7026
  421.0000   128.2498     7.8802     7.9213
  421.5000   128.5745     8.1040     8.0411
  422.0000   127.9910     8.2195     8.0918
  422.5000   127.3981     8.2796     8.0934
  423.0000   126.5106     8.2820     8.0950
  423.5000   125.2847     8.2851     8.0348
  424.0000   124.7277     8.2872     7.9865
  424.5000   122.3212     8.2320     7.9885
  425.0000   119.9097     8.2350     7.9899
  425.5000   118.7139     8.1804     8.0215
  426.0000   121.1706     8.1943     8.0492
  426.5000   124.2302     8.2429     8.1068
  427.0000   125.1571     8.2453     8.1650
  427.5000   123.0395     8.3053     8.2237
  428.0000   121.5598     8.3083     8.1683
  428.5000   120.6630     8.3108     8.1701
  429.0000   120.3841     8.3370     8.1719
  429.5000   120.1002     8.4151     8.1736
  430.0000   119.2084     8.5531     8.1756
  430.5000   117.7137     8.7358     8.2342
  431.0000   117.1208     8.8606     8.2933
  431.5000   117.7538     8.8000     8.4110
  432.0000   117.1710     8.1009     8.7106
  432.5000   115.6713     7.4553     8.4147
  433.0000   115.3824     6.8611     7.6892
  433.5000   115.4074     6.8156     6.6462
  434.0000   124.5511     6.8181     5.3591
  434.5000   131.8660     6.8201     5.2493
  435.0000   135.2295     6.8697     5.3986
  435.5000   134.3377     7.0164     5.7884
  436.0000   123.1165     7.4201     6.5615
  436.5000   115.2339     8.0674     7.2840
  437.0000   111.3025     9.1445     8.3721
  437.5000   109.4989     9.6699     9.3588
  438.0000   107.7003    10.0226     9.8964
  438.5000   109.8480    10.3724    10.0369
  439.0000   112.2996    10.5939    10.1084
  439.5000   111.7118    10.8956    10.0408
  440.0000   110.8200    11.2892    10.0429
  440.5000   111.1490    11.7685     9.9753
  441.0000   112.6888    12.2729    10.0473
  441.5000   113.9247    12.9780    10.3326
  442.0000   112.9361    13.9215    10.8581
  442.5000   104.8513    15.4494    11.8790
  443.0000    95.1449    16.7973    13.0957
  443.5000    81.7911    18.3901    14.7413
  444.0000    73.4589    19.9945    16.6311
  444.5000    66.9393    21.7405    19.6111
  445.0000    66.6554    23.1498    21.1736
  445.5000    69.1121    24.3103    21.9267
  446.0000    72.4756    25.1769    22.4016
  446.5000    74.0154    25.8958    23.8447
  447.0000    74.6484    26.0840    24.6929
  447.5000    72.2368    25.9110    25.0435
  448.0000    68.0015    25.7393    25.2232
  448.5000    64.0702    25.5480    25.2293
  449.0000    60.4429    25.2234    25.0583
  449.5000    61.9877    25.0562    24.8896
  450.0000    65.7343    24.7178    24.5520
  450.5000    70.1390    24.2170    24.2167
  451.0000    73.6012    23.8899    23.7201
  451.5000    73.3173    24.0653    23.0673
  452.0000    73.0334    24.4092    22.2882
  452.5000    74.5781    24.9305    21.6798
  453.0000    76.4219    25.4648    21.8339
  453.5000    78.2656    25.4723    22.4525
  454.0000    77.3578    25.4798    23.4126
  454.5000    75.5750    25.6650    23.9091
  455.0000    74.3792    26.3978    23.7458
  455.5000    73.1834    27.3388    23.2595
  456.0000    74.1398    27.9227    23.4468
  456.5000    75.0472    28.5190    24.5969
  457.0000    73.2485    28.7284    26.7402
  457.5000    71.4448    28.7369    28.0772
  458.0000    70.5529    28.5443    28.2768
  458.5000    71.1858    28.1606    28.0855
  459.0000    72.4217    27.9505    27.5095
  459.5000    73.9614    27.2177    26.7586
