~VERSION INFORMATION
 VERS.                2.0:   CWLS LOG ASCII STANDARD - VERSION 2.0
 WRAP.                 NO:   ONE LINE PER DEPTH STEP
~WELL INFORMATION
#MNEM.UNIT      DATA TYPE    INFORMATION
#----------   ------------   ------------------------------
 STRT.F           32.5000:   START DEPTH
 STOP.F          654.0000:   STOP DEPTH
 STEP.F            0.5000:   STEP LENGTH
 NULL.          -999.2500:   NO VALUE
 COMP. FENIX & SCISSON INC:   COMPANY
 WELL.          NPR #13-2:   WELL
 FLD .             TEAPOT:   FIELD
 LOC .       S2 T38N R78W:   LOCATION
 CNTY.            NATRONA:   COUNTY
 STAT.            WYOMING:   STATE
 CTRY. UNITED STATES OF AMERICA:   COUNTRY
 SRVC.           BIRDWELL:   SERVICE COMPANY
 DATE.        16-JAN-1978:   LOGDATE
 API .       490251055100:   API NUMBER
~CURVE INFORMATION
#MNEM.UNIT       API CODE    CURVE DESCRIPTION
#----------   ------------   ------------------------------
 DEPT.F                  :   
 ILD .OHMM   05 120 46 00:   INDUCTION LOG DEEP
 SN  .OHMM   05 040 16 00:   SHORT NORMAL 16"
 SPR .MV     05 010 01 00:   SPONTANEOUS POTENTIAL FROM RES.
 CALD.IN     45 280 60 00:   CALIPER FROM DENSITY LOG
 CORR.G/C3   45 356 01 00:   DENSITY CORRECTION
 DPHI.DEC    45 890 12 00:   DENSITY POROSITY SANDSTONE
 GRD .GAPI   45 310 01 00:   GAMMA RAY FROM DENSITY LOG
 RHOB.G/C3   45 350 01 00:   BULK DENSITY
~PARAMETER INFORMATION
#MNEM.UNIT          VALUE    DESCRIPTION
#----------   ------------   ------------------------------
 PD  .                 GL:   PERMANENT DATUM
 EPD .F              5091:   ELEVATION PERMANENT DATUM
 LMF .                 KB:   LOG MEASURED FROM
 DAPD.F                 4:   FEET ABOVE PERMANENT DATUM
 DMF .                 KB:   DRILLING MEASURED FROM
 EKB .F              5095:   KELLING BUSHING
 EGL .F              5091:   GROUND LEVEL
 DATE.        16-JAN-1978:   RUN DATE
 RUN .                  1:   RUN NUMBER
 DD  .F               652:   DEPTH DRILLER
 DL  .F               654:   DEPTH LOGGER
 BLI .F               649:   BOTTOM LOG INTERVAL
 TLI .F                30:   TOP LOG INTERVAL
 CS  .IN            8.625:   CASING SIZE
 CBD .F                20:   CASING BOTTOM DRILLER
 CBL .F                34:   CASING BOTTOM LOGGER
 BS  .IN            7.875:   BIT SIZE
 BSD .F               652:   BIT SIZE AT DEPTH
 DFT .                KCL:   DRILLING FLUID TYPE
 DFD .                8.7:   DRILLING FLUID DENSITY
 DFV .                 34:   DRILLING FLUID VISCOSITY
 DFPH.                 10:   DRILLING FLUID PH
 MSS .           FLOWLINE:   MUD SAMPLE SOURCE
 RMS .OHMM            0.3:   RESISTIVITY MUD SAMPLE
 MST .F                62:   MUD SAMPLE TEMPERATURE
 RMF .OHMM           0.26:   RESISTIVITY MUD FILTRATE SAMPLE
 MFST.F                66:   MUD FILTRATE SAMPLE TEMPERATURE
 RMC .OHMM           0.48:   RESISTIVITY MUD CAKE
 MCST.F                66:   MUD CAKE SAMPLE TEMPERATURE
 MFSS.               MEAS:   MUD FILTRATE SAMPLE SOURCE
 MCSS.               MEAS:   MUD CAKE SAMPLE SOURCE
 RMB .OHMM           0.26:   RESISTIVITY MUD AT BHT
 BHT .F                72:   BOTTOM HOLE TEMPERATURE
 TCS .HRS               3:   TIME CURCULATED STOPPED
 MRT .F                72:   MAXIMUM RECORDED TEMPERATURE
 LUN .               3027:   LOGGING UNIT NUMBER
 LUL .                GJT:   LOGGING UNIT LOCATION
 ENGI.           MARTINEZ:   RECORDING ENGINEER
 WITN.         HARRINGTON:   WITNESSED BY
 CLNT.            A2DTECH:   CLIENT CODE
 ORIG.           5" PRINT:   ORIGIN OF DATA
 UWI .       490251055100:   UNIQUE WELL ID
 DICO. A2D Technologies, Inc.:   DIGITIZING COMPANY
~OTHER INFORMATION
~A   DEPT      ILD         SN        SPR       CALD       CORR       DPHI         GRD      RHOB   
# ...
  478.0000    20.0775    17.9144   -23.9219     8.6497     0.1378     0.1721    71.5139     2.4054
  478.5000    19.9409    17.9155   -23.9174     8.6506     0.1130     0.1778    66.0442     2.3737
  479.0000    19.8045    17.9168   -23.9121     8.6513     0.0886     0.1716    61.4864     2.3692
  479.5000    19.5341    17.9181   -23.9077     8.6520     0.0871     0.1602    62.0958     2.3782
  480.0000    19.2668    17.7959   -24.0546     8.6528     0.0916     0.1509    64.3769     2.3947
  480.5000    19.0035    17.7971   -24.2003     8.6535     0.0946     0.1527    65.5942     2.4067
  481.0000    18.7440    17.7983   -24.3461     8.6542     0.0961     0.1530    66.3799     2.4082
  481.5000    18.6161    17.6704   -24.6409     8.6400     0.0826     0.1464    68.8273     2.4097
  482.0000    18.2302    17.5371   -24.9369     8.6389     0.0721     0.1440    69.2465     2.4135
  482.5000    17.9674    17.4367   -24.9324     8.6358     0.0661     0.1428    69.5519     2.4187
  483.0000    17.6182    17.3178   -24.7779     8.6327     0.0616     0.1422    70.6172     2.4217
  483.5000    17.4976    17.3192   -25.0728     8.6296     0.0586     0.1428    70.9223     2.4201
  484.0000    17.2585    17.3204   -25.0684     8.6287     0.0585     0.1443    68.0366     2.4156
  484.5000    17.1407    17.3215   -25.0640     8.6296     0.0571     0.1471    66.0624     2.4156
  485.0000    16.9067    17.2031   -25.0596     8.6303     0.0556     0.1521    65.1521     2.4141
  485.5000    16.7911    17.0861   -24.9051     8.6311     0.0586     0.1545    65.1536     2.4096
  486.0000    16.6767    16.9696   -24.9007     8.6318     0.0586     0.1518    65.1551     2.4028
  486.5000    16.5630    16.8539   -24.7462     8.6325     0.0586     0.1434    65.1565     2.3915
  487.0000    16.4499    16.5095   -24.5916     8.6333     0.0601     0.1404    63.7417     2.4163
  487.5000    16.3377    16.3967   -24.7374     8.6340     0.0616     0.1398    61.6388     2.4230
  488.0000    16.2265    16.2852   -25.0333     8.6347     0.0601     0.1410    63.1857     2.4230
  488.5000    16.1157    16.1738   -25.0279     8.6356     0.0571     0.1428    67.5945     2.4215
  489.0000    16.1168    16.1752   -25.0235     8.6364     0.0571     0.1443    67.5960     2.4199
  489.5000    16.0068    16.1763   -25.0191     8.6070     0.0556     0.1464    67.2935     2.4170
  490.0000    16.0079    16.1774   -25.0147     8.5778     0.0464     0.1483    66.8391     2.4170
  490.5000    16.0090    16.1785   -25.0103     8.5485     0.0389     0.1482    66.6882     2.4169
  491.0000    16.1212    16.0681   -24.8558     8.5195     0.0360     0.1479    66.6900     2.4184
  491.5000    16.1223    15.9586   -24.5511     8.5203     0.0375     0.1476    65.9317     2.4184
  492.0000    16.3481    15.9599   -24.6969     8.5210     0.0405     0.1464    64.2614     2.4184
  492.5000    16.4627    15.9610   -24.6914     8.4918     0.0465     0.1392    62.7330     2.4191
  493.0000    16.5780    15.9621   -24.8383     8.4925     0.0495     0.1302    62.1367     2.4289
  493.5000    16.6942    16.0738   -24.8328     8.4933     0.0541     0.1254    65.4821     2.4379
  494.0000    16.6953    15.9639   -24.8284     8.4942     0.0526     0.1279    66.2430     2.4341
  494.5000    16.5811    15.7461   -24.8241     8.4949     0.0495     0.1243    63.0534     2.4484
  495.0000    16.5825    15.5311   -24.9700     8.4956     0.0495     0.1187    62.4470     2.4589
  495.5000    16.2431    15.4252   -25.4159     8.5113     0.0541     0.1122    62.1445     2.4679
  496.0000    16.0211    15.4107   -25.8620     8.5270     0.0571     0.1249    61.0822     2.4543
  496.5000    15.8021    15.2158   -26.1568     8.5876     0.0403     0.1333    57.4363     2.4483
  497.0000    15.6943    15.1121   -26.3026     8.6482     0.0330     0.1372    60.7812     2.4393
  497.5000    15.5875    15.1131   -26.5996     8.6487     0.0375     0.1351    65.0380     2.4348
  498.0000    15.4808    15.1141   -26.7453     8.6491     0.0435     0.1345    66.8632     2.4370
  498.5000    15.2693    15.1151   -26.7399     8.6496     0.0465     0.1339    67.6358     2.4377
  499.0000    15.1651    15.1161   -26.7355     8.6500     0.0465     0.1321    68.0821     2.4370
  499.5000    15.0618    15.2220   -26.7311     8.6505     0.0465     0.1279    68.0839     2.4445
  500.0000    15.1674    15.3286   -26.7257     8.6509     0.0480     0.1213    68.2373     2.4504
  500.5000    15.0628    14.9118   -26.8715     8.6514     0.0495     0.1171    68.5562     2.4542
  501.0000    15.2726    15.0162   -26.7140     8.6518     0.0465     0.1213    69.4469     2.4557
  501.5000    15.2726    15.0172   -26.5579     8.6523     0.0480     0.1243    68.7812     2.4527
  502.0000    15.2726    15.1224   -26.2518     8.6527     0.0525     0.1267    67.3125     2.4496
  502.5000    15.2726    15.1234   -26.0957     8.6532     0.0585     0.1279    69.1332     2.4496
  503.0000    15.2726    15.2295   -26.0898     8.6536     0.0600     0.1267    71.6717     2.4489
  503.5000    15.3786    15.3361   -25.9338     8.6541     0.0585     0.1242    72.1675     2.4511
  504.0000    15.3786    15.2316   -25.7778     8.6545     0.0659     0.1201    72.4677     2.4558
  504.5000    15.3786    15.2326   -25.9220     8.6550     0.0719     0.1180    73.0733     2.4601
  505.0000    15.4853    15.1285   -25.9409     8.6554     0.0764     0.1205    71.8538     2.4633
  505.5000    15.4853    15.0253   -26.3607     8.6559     0.0779     0.1238    71.2429     2.4565
  506.0000    15.3786    15.0266   -26.5050     8.6563     0.0794     0.1256    71.5439     2.4513
  506.5000    15.3786    15.1318   -26.3475     8.6566     0.0791     0.1256    73.0606     2.4483
  507.0000    15.4853    15.1328   -26.3416     8.6419     0.0764     0.1280    74.8813     2.4468
  507.5000    15.4853    15.0296   -26.3357     8.6422     0.0718     0.1298    76.0942     2.4498
  508.0000    15.5927    14.9107   -26.3298     8.6425     0.0673     0.1253    74.7234     2.4551
  508.5000    15.5927    14.7235   -26.3240     8.6428     0.0658     0.1193    70.6048     2.4588
  509.0000    15.5927    14.6229   -26.4685     8.6431     0.0643     0.1211    67.0334     2.4588
  509.5000    15.5927    14.5232   -26.3122     8.6284     0.0598     0.1220    63.1429     2.4580
  510.0000    15.4853    14.4242   -26.3063     8.6288     0.0583     0.1183    65.1362     2.4619
  510.5000    15.4853    14.4254   -26.6007     8.6291     0.0582     0.1135    69.2373     2.4679
  511.0000    15.4853    14.4264   -26.7450     8.6294     0.0657     0.1118    68.7776     2.4731
  511.5000    15.4853    14.4273   -26.5875     8.6297     0.0717     0.1190    67.5588     2.4706
  512.0000    15.4938    14.3289   -26.5816     8.6149     0.0627     0.1241    66.1880     2.4607
  512.5000    15.5927    14.3299   -26.4256     8.6003     0.0582     0.1244    66.3378     2.4529
  513.0000    15.7009    14.2322   -26.4197     8.6006     0.0552     0.1238    68.7656     2.4499
  513.5000    15.7009    14.1354   -26.4138     8.6159     0.0582     0.1274    72.1061     2.4514
  514.0000    15.7009    14.1364   -26.4079     8.6162     0.0596     0.1281    73.6229     2.4484
  514.5000    15.8099    14.0400   -25.9516     8.6165     0.0581     0.1347    74.5325     2.4424
  515.0000    15.8099    14.1383   -25.0448     8.6168     0.0551     0.1446    72.7050     2.4432
  515.5000    16.1412    14.3360   -24.1380     8.6171     0.0536     0.1503    70.5744     2.4289
  516.0000    16.4796    14.7387   -23.5315     8.6174     0.0491     0.1671    69.2036     2.4117
  516.5000    17.0593    15.7941   -23.3754     8.6327     0.0476     0.1814    69.0486     2.3929
  517.0000    17.5377    17.1607   -23.3444     8.6330     0.0460     0.1977    70.2736     2.3591
  517.5000    18.1589    18.0123   -22.1611     8.6333     0.0460     0.2169    71.8085     2.3298
  518.0000    19.2354    19.0478   -21.1041     8.6185     0.0490     0.2247    72.6870     2.2953
