~VERSION INFORMATION
 VERS.                2.0:   CWLS LOG ASCII STANDARD - VERSION 2.0
 WRAP.                 NO:   ONE LINE PER DEPTH STEP
~WELL INFORMATION
#MNEM.UNIT      DATA TYPE    INFORMATION
#----------   ------------   ------------------------------
 STRT.F         1000.5000:   START DEPTH
 STOP.F         2590.0000:   STOP DEPTH
 STEP.F            0.5000:   STEP LENGTH
 NULL.          -999.2500:   NO VALUE
 COMP. LAWRENCE/ALLISON INC:   COMPANY
 WELL.    LAWENCE #14x-10:   WELL
 FLD .               NONE:   FIELD
 LOC .      S10 T38N R78W:   LOCATION
 CNTY.            NATRONA:   COUNTY
 STAT.            WYOMING:   STATE
 CTRY. UNITED STATES OF AMERICA:   COUNTRY
 SRVC.            Unknown:   SERVICE COMPANY
 DATE.        13-SEP-1988:   LOGDATE
 API .       490251137000:   API NUMBER
~CURVE INFORMATION
#MNEM.UNIT       API CODE    CURVE DESCRIPTION
#----------   ------------   ------------------------------
 DEPT.F                  :   
 ROP .MIN/FT 91 810 01 00:   RATE OF DRILLING PENETRATION
 TGAS.UNITS  91 830 01 00:   TOTAL GAS FROM HOTWIRE
~PARAMETER INFORMATION
#MNEM.UNIT          VALUE    DESCRIPTION
#----------   ------------   ------------------------------
 EKB .F              5278:   KELLING BUSHING
 EGL .F              5268:   GROUND LEVEL
 DATE.         09-13-1988:   RUN DATE
 RUN .                  1:   RUN NUMBER
 DD  .F              2590:   DEPTH DRILLER
 BLI .F              2590:   BOTTOM LOG INTERVAL
 TLI .F              1000:   TOP LOG INTERVAL
 CS  .IN                7:   CASING SIZE
 CBD .F               991:   CASING BOTTOM DRILLER
 BSD .F              2590:   BIT SIZE AT DEPTH
 ENGI. R. HUSK D. PETERSON:   RECORDING ENGINEER
 CLNT.            A2DTECH:   CLIENT CODE
 ORIG.           5" PRINT:   ORIGIN OF DATA
 UWI .       490251137000:   UNIQUE WELL ID
 DICO. A2D Technologies, Inc.:   DIGITIZING COMPANY
~OTHER INFORMATION
~A  DEPT       ROP         TGAS 
# ...
 1365.0000     0.2114     0.9529
 1365.5000     0.2149     1.0482
 1366.0000     0.2297     1.1435
 1366.5000     0.2431     1.2388
 1367.0000     0.2431     1.3341
 1367.5000     0.2330     1.4294
 1368.0000     0.2165     1.5247
 1368.5000     0.1938     1.6200
 1369.0000     0.1734     1.7153
 1369.5000     0.1691     1.8106
 1370.0000     0.1621     1.9059
 1370.5000     0.1586     2.0012
 1371.0000     0.1586     2.0965
 1371.5000     0.1503     2.1918
 1372.0000     0.1374     2.2871
 1372.5000     0.1374     2.3824
 1373.0000     0.1374     2.4776
 1373.5000     0.1374     2.5729
 1374.0000     0.1691     2.6682
 1374.5000     0.2010     2.7635
 1375.0000     0.2555     2.8588
 1375.5000     0.2994     2.9541
 1376.0000     0.3383     3.0494
 1376.5000     0.3367     3.1447
 1377.0000     0.3237     3.2400
 1377.5000     0.3042     3.3353
 1378.0000     0.2960     3.4306
 1378.5000     0.2960     3.5259
 1379.0000     0.2960     3.6212
 1379.5000     0.2960     3.7165
 1380.0000     0.2994     3.8118
 1380.5000     0.3078     3.8012
 1381.0000     0.3163     3.7906
 1381.5000     0.3247     3.7801
 1382.0000     0.3332     3.7695
 1382.5000     0.3416     3.7589
 1383.0000     0.3501     3.7484
 1383.5000     0.3585     3.7378
 1384.0000     0.3678     3.7272
 1384.5000     0.3782     3.7167
 1385.0000     0.4202     3.7061
 1385.5000     0.4622     3.6955
 1386.0000     0.4619     3.6850
 1386.5000     0.4194     3.6744
 1387.0000     0.3658     3.6638
 1387.5000     0.3227     3.6533
 1388.0000     0.2918     3.6427
 1388.5000     0.2915     3.6321
 1389.0000     0.2912     3.6216
 1389.5000     0.2910     3.6110
 1390.0000     0.2907     3.6004
 1390.5000     0.2905     3.5899
 1391.0000     0.2902     3.5793
 1391.5000     0.2899     3.5687
 1392.0000     0.2896     3.5582
 1392.5000     0.2917     3.5476
 1393.0000     0.2997     3.5370
 1393.5000     0.2967     3.5265
 1394.0000     0.2799     3.5159
 1394.5000     0.2535     3.5053
 1395.0000     0.2392     3.4948
 1395.5000     0.2209     3.4842
 1396.0000     0.2135     3.4736
 1396.5000     0.2133     3.4631
 1397.0000     0.2212     3.4525
 1397.5000     0.2382     3.4419
 1398.0000     0.2487     3.4314
 1398.5000     0.2498     3.4208
 1399.0000     0.2290     3.4102
 1399.5000     0.2066     3.3997
 1400.0000     0.2009     3.3882
 1400.5000     0.2006     3.3729
 1401.0000     0.2003     3.3562
 1401.5000     0.2000     3.3395
 1402.0000     0.1937     3.3228
 1402.5000     0.1827     3.3062
 1403.0000     0.1716     3.2895
 1403.5000     0.1673     3.2728
 1404.0000     0.1602     3.2561
 1404.5000     0.1562     3.2394
 1405.0000     0.1632     3.2227
 1405.5000     0.1662     3.2060
 1406.0000     0.1736     3.1894
 1406.5000     0.1920     3.1727
 1407.0000     0.2294     3.1560
 1407.5000     0.2805     3.1393
 1408.0000     0.3234     3.1415
 1408.5000     0.3020     3.1695
 1409.0000     0.2912     3.1976
 1409.5000     0.2804     3.2256
 1410.0000     0.2801     3.2537
 1410.5000     0.2798     3.2817
 1411.0000     0.2690     3.3098
 1411.5000     0.2476     3.3378
 1412.0000     0.2473     3.3659
 1412.5000     0.2365     3.3939
 1413.0000     0.2045     3.4219
 1413.5000     0.1936     3.4500
 1414.0000     0.1720     3.4780
 1414.5000     0.1615     3.5061
 1415.0000     0.1949     3.5341
 1415.5000     0.2278     3.5622
 1416.0000     0.2717     3.5902
 1416.5000     0.3240     3.6183
 1417.0000     0.3668     3.6463
 1417.5000     0.4047     3.6744
 1418.0000     0.4134     3.7024
 1418.5000     0.3520     3.7305
 1419.0000     0.3077     3.7585
 1419.5000     0.2595     3.7866
 1420.0000     0.2114     3.8100
 1420.5000     0.2111     3.7421
 1421.0000     0.2109     3.6837
 1421.5000     0.2106     3.6253
 1422.0000     0.2104     3.5669
 1422.5000     0.2101     3.5085
 1423.0000     0.2099     3.4501
 1423.5000     0.2096     3.3882
 1424.0000     0.2093     5.5059
 1424.5000     0.2091     7.2000
 1425.0000     0.1943     8.9206
 1425.5000     0.1800    10.1647
 1426.0000     0.1766     8.3753
 1426.5000     0.1991     7.1136
 1427.0000     0.2385     6.1889
 1427.5000     0.2810     4.8839
 1428.0000     0.2759     3.7341
 1428.5000     0.2542     3.3882
 1429.0000     0.2326     3.3882
 1429.5000     0.2193     3.3882
 1430.0000     0.2083     3.3882
 1430.5000     0.1952     3.3882
 1431.0000     0.1738     3.3882
 1431.5000     0.1736     3.3882
 1432.0000     0.1733     3.3882
 1432.5000     0.1942     3.3882
 1433.0000     0.2045     3.3882
 1433.5000     0.2360     3.3882
 1434.0000     0.2463     3.3882
 1434.5000     0.2143     3.3882
 1435.0000     0.2035     3.3882
 1435.5000     0.1715     3.3882
 1436.0000     0.1607     3.3882
 1436.5000     0.1604     3.3882
 1437.0000     0.1601     3.3882
 1437.5000     0.1704     3.3882
 1438.0000     0.1913     3.3882
 1438.5000     0.2228     3.3882
 1439.0000     0.2754     3.3882
 1439.5000     0.3174     3.3882
 1440.0000     0.3171     3.3882
 1440.5000     0.2955     3.3785
 1441.0000     0.2768     3.3679
 1441.5000     0.2580     3.3572
 1442.0000     0.2400     3.3466
 1442.5000     0.2392     3.3360
 1443.0000     0.2490     3.3254
 1443.5000     0.2482     3.3148
 1444.0000     0.2456     3.3041
 1444.5000     0.2297     3.2935
 1445.0000     0.1938     3.2829
 1445.5000     0.1604     3.2723
 1446.0000     0.1688     3.2617
 1446.5000     0.1940     3.2511
 1447.0000     0.2115     3.2404
 1447.5000     0.2353     3.2298
 1448.0000     0.2454     3.2192
 1448.5000     0.2555     3.2086
 1449.0000     0.2606     3.1980
 1449.5000     0.2490     3.1873
 1450.0000     0.2321     3.1767
 1450.5000     0.2083     3.1661
 1451.0000     0.1876     3.1555
 1451.5000     0.1826     3.1449
 1452.0000     0.1818     3.1342
 1452.5000     0.1810     3.1236
 1453.0000     0.1879     3.1130
 1453.5000     0.2061     3.1024
 1454.0000     0.2188     3.0910
 1454.5000     0.2094     3.0158
 1455.0000     0.1981     2.9347
 1455.5000     0.1868     2.8535
 1456.0000     0.2177     2.7724
 1456.5000     0.2275     2.6913
 1457.0000     0.2690     2.6101
 1457.5000     0.3004     2.5290
 1458.0000     0.3419     2.4479
 1458.5000     0.3513     2.3668
 1459.0000     0.3354     2.2856
 1459.5000     0.2954     2.2045
 1460.0000     0.2837     2.1168
 1460.5000     0.2729     2.1459
 1461.0000     0.2621     2.1777
 1461.5000     0.2606     2.2094
 1462.0000     0.2675     2.2411
 1462.5000     0.2682     2.2728
 1463.0000     0.2690     2.3045
 1463.5000     0.2698     2.3363
 1464.0000     0.2768     2.3680
 1464.5000     0.2950     2.3997
 1465.0000     0.3244     2.4314
 1465.5000     0.3579     2.4632
 1466.0000     0.3989     2.4949
 1466.5000     0.4042     2.5266
 1467.0000     0.3778     2.5583
 1467.5000     0.2975     2.5900
 1468.0000     0.2454     2.6218
 1468.5000     0.2779     2.6535
 1469.0000     0.3209     2.6852
 1469.5000     0.3640     2.7169
 1470.0000     0.3647     2.7486
 1470.5000     0.3655     2.7804
 1471.0000     0.3663     2.8121
 1471.5000     0.3676     2.8438
 1472.0000     0.3811     2.8755
 1472.5000     0.4146     2.9073
 1473.0000     0.4480     2.9390
 1473.5000     0.4834     2.9707
 1474.0000     0.5279     3.0024
 1474.5000     0.5722     3.0341
 1475.0000     0.6224     3.0659
 1475.5000     0.6790     3.0976
 1476.0000     0.6807     3.1293
 1476.5000     0.6085     3.1610
 1477.0000     0.5220     3.1927
 1477.5000     0.4491     3.2245
 1478.0000     0.3954     3.2562
 1478.5000     0.3417     3.2879
 1479.0000     0.2990     3.3196
 1479.5000     0.2671     3.3514
 1480.0000     0.2290     3.3882
 1480.5000     0.1927     3.3882
 1481.0000     0.1716     3.3881
 1481.5000     0.1570     3.3880
 1482.0000     0.1423     3.3879
 1482.5000     0.1518     3.3878
 1483.0000     0.1733     3.3877
 1483.5000     0.2099     3.3876
 1484.0000     0.2607     3.3876
 1484.5000     0.3226     3.3875
 1485.0000     0.3708     3.3874
 1485.5000     0.4139     3.3873
 1486.0000     0.3805     3.3872
