~VERSION INFORMATION
 VERS.                2.0:   CWLS LOG ASCII STANDARD - VERSION 2.0
 WRAP.                 NO:   ONE LINE PER DEPTH STEP
~WELL INFORMATION
#MNEM.UNIT      DATA TYPE    INFORMATION
#----------   ------------   ------------------------------
 STRT.F           34.5000:   START DEPTH
 STOP.F          880.5000:   STOP DEPTH
 STEP.F            0.5000:   STEP LENGTH
 NULL.          -999.2500:   NO VALUE
 COMP. FENIX & SCISSON INC:   COMPANY
 WELL. NAVAL PETROLEUM RESERVE 3 S-14 #35-14:   WELL
 FLD .             TEAPOT:   FIELD
 LOC .      S14 T38N R78W:   LOCATION
 CNTY.            NATRONA:   COUNTY
 STAT.            WYOMING:   STATE
 CTRY. UNITED STATES OF AMERICA:   COUNTRY
 SRVC.            Unknown:   SERVICE COMPANY
 DATE.        24-APR-1978:   LOGDATE
 API .       490251062000:   API NUMBER
~CURVE INFORMATION
#MNEM.UNIT       API CODE    CURVE DESCRIPTION
#----------   ------------   ------------------------------
 DEPT.F                  :   
 RHOB.G/C3   45 350 01 00:   BULK DENSITY
 DPHI.DEC    45 890 12 00:   DENSITY POROSITY SANDSTONE
 CORR.G/C3   45 356 01 00:   DENSITY CORRECTION
 GRD .GAPI   45 310 01 00:   GAMMA RAY FROM DENSITY LOG
 CALD.IN     45 280 60 00:   CALIPER FROM DENSITY LOG
 SPR .MV     05 010 01 00:   SPONTANEOUS POTENTIAL FROM RES.
 SN  .OHMM   05 040 16 00:   SHORT NORMAL 16"
 ILD .OHMM   05 120 46 00:   INDUCTION LOG DEEP
~PARAMETER INFORMATION
#MNEM.UNIT          VALUE    DESCRIPTION
#----------   ------------   ------------------------------
 PD  .                 GL:   PERMANENT DATUM
 EPD .F              5246:   ELEVATION PERMANENT DATUM
 LMF .                 KB:   LOG MEASURED FROM
 DMF .                 KB:   DRILLING MEASURED FROM
 EKB .F              5250:   KELLING BUSHING
 EGL .F              5246:   GROUND LEVEL
 DATE.          4-24-1978:   RUN DATE
 RUN .                  1:   RUN NUMBER
 DD  .F               880:   DEPTH DRILLER
 DL  .F               880:   DEPTH LOGGER
 BLI .F               884:   BOTTOM LOG INTERVAL
 TLI .F                50:   TOP LOG INTERVAL
 CS  .IN            8.625:   CASING SIZE
 CBD .F                40:   CASING BOTTOM DRILLER
 CBL .F                50:   CASING BOTTOM LOGGER
 BS  .IN            7.875:   BIT SIZE
 BSD .F               880:   BIT SIZE AT DEPTH
 DFT .                KCL:   DRILLING FLUID TYPE
 DFD .                8.6:   DRILLING FLUID DENSITY
 DFV .                 32:   DRILLING FLUID VISCOSITY
 DFPH.                 10:   DRILLING FLUID PH
 DFL .               12.8:   DRILLING FLUID LOSS
 MSS .            MUD PIT:   MUD SAMPLE SOURCE
 RMS .OHMM            .34:   RESISTIVITY MUD SAMPLE
 MST .F                62:   MUD SAMPLE TEMPERATURE
 RMF .OHMM             .3:   RESISTIVITY MUD FILTRATE SAMPLE
 MFST.F                70:   MUD FILTRATE SAMPLE TEMPERATURE
 RMC .OHMM            .58:   RESISTIVITY MUD CAKE
 MCST.F                70:   MUD CAKE SAMPLE TEMPERATURE
 MFSS.           MEASURED:   MUD FILTRATE SAMPLE SOURCE
 RMB .OHMM            .28:   RESISTIVITY MUD AT BHT
 BHT .F                74:   BOTTOM HOLE TEMPERATURE
 TCS .HRS               4:   TIME CURCULATED STOPPED
 MRT .F                74:   MAXIMUM RECORDED TEMPERATURE
 LUN .               2958:   LOGGING UNIT NUMBER
 LUL .              CASP.:   LOGGING UNIT LOCATION
 ENGI.             MILLER:   RECORDING ENGINEER
 WITN.           MCGINLEY:   WITNESSED BY
 CLNT.            A2DTECH:   CLIENT CODE
 ORIG.       2", 5" PRINT:   ORIGIN OF DATA
 UWI .       490251062000:   UNIQUE WELL ID
 DICO. A2D Technologies, Inc.:   DIGITIZING COMPANY
~OTHER INFORMATION
~A   DEPT     RHOB       DPHI       CORR         GRD      CALD        SPR         SN        ILD   
# ...
  844.5000     2.4964     0.1121     0.1546    85.4894     8.3536   -32.3728     9.9915     9.3413
  845.0000     2.4597     0.1063     0.0920    85.5489  -999.2500   -32.3769     9.9636     9.3038
  845.5000     2.4625     0.0989     0.0541    86.4742  -999.2500   -32.3821     9.9358     9.2665
  846.0000     2.4787     0.0895     0.0532    88.1353  -999.2500   -32.3874     9.9080     9.2293
  846.5000     2.4919     0.0824     0.0536    89.5297  -999.2500   -32.3928     9.8803     9.1923
  847.0000     2.5034     0.0792     0.0540    90.1995  -999.2500   -32.3982     9.8527     9.1555
  847.5000     2.5042     0.0818     0.0543    90.0976  -999.2500   -32.4036     9.8252     9.1188
  848.0000     2.5055     0.0749     0.0547    87.5266  -999.2500   -32.4090     9.7978     9.0821
  848.5000     2.5108     0.0690     0.0550    85.3602  -999.2500   -32.4144     9.7709     9.0338
  849.0000     2.5181     0.0720     0.0554    84.8237  -999.2500   -32.4197     9.7435     8.9329
  849.5000     2.5180     0.0726     0.0557    84.4907  -999.2500   -32.4251     9.6268     8.8331
  850.0000     2.5180     0.0722     0.0560    84.4301  -999.2500   -32.4305     9.5135     8.7257
  850.5000     2.5193     0.0670     0.0564    84.3581  -999.2500   -32.4359     9.4021     8.6087
  851.0000     2.5241     0.0646     0.0567    83.9673  -999.2500   -32.4413     9.2920     8.4809
  851.5000     2.5201     0.0746     0.0570    82.9789  -999.2500   -32.4467     9.1831     8.3549
  852.0000     2.5181     0.0723     0.0570    83.9250  -999.2500   -32.4521     9.0756     8.2308
  852.5000     2.5201     0.0699     0.0571    85.9975  -999.2500   -32.4574     8.9693     8.1816
  853.0000     2.5229     0.0676     0.0599    88.0332  -999.2500   -32.4628     8.8642     8.1816
  853.5000     2.5256     0.0650     0.0661    88.8541  -999.2500   -32.4682     8.7600     8.1816
  854.0000     2.5258     0.0684     0.0681    88.8632  -999.2500   -32.4736     8.6590     8.1816
  854.5000     2.5236     0.0722     0.0665    87.3512  -999.2500   -32.4790     8.5229     8.0971
  855.0000     2.5213     0.0701     0.0649    88.1036  -999.2500   -32.4844     8.3859     7.9756
  855.5000     2.5217     0.0678     0.0633    89.1732  -999.2500   -32.4897     8.2510     7.8559
  856.0000     2.5238     0.0670     0.0618    90.2427  -999.2500   -32.4951     8.1183     7.7380
  856.5000     2.5260     0.0682     0.0628    91.3128  -999.2500   -32.5005     7.9877     7.6220
  857.0000     2.5282     0.0637     0.0665    92.3679  -999.2500   -32.5059     7.8861     7.5316
  857.5000     2.5302     0.0631     0.0690    92.5991  -999.2500   -32.5113     7.8861     7.5316
  858.0000     2.5323     0.0638     0.0690    91.6932  -999.2500   -32.5167     7.8861     7.5315
  858.5000     2.5344     0.0582     0.0689    90.7828  -999.2500   -32.5221     7.8861     7.5316
  859.0000     2.5349     0.0697     0.0653    89.8596  -999.2500   -32.5274     7.8861     7.5316
  859.5000     2.5257     0.0713     0.0569    89.8114  -999.2500   -32.5328     7.8862     7.5317
  860.0000     2.5227     0.0697     0.0534    89.9477  -999.2500   -32.5382     7.8857     7.5320
  860.5000     2.5223     0.0688     0.0513    90.0909  -999.2500   -32.5436     7.8877     7.5329
  861.0000     2.5220     0.0683     0.0527    90.2276  -999.2500   -32.5490     7.8016     7.4650
  861.5000     2.5235     0.0671     0.0539    91.7664  -999.2500   -32.5544     7.7158     7.3972
  862.0000     2.5250     0.0658     0.0551    94.5830  -999.2500   -32.5598     7.6309     7.3300
  862.5000     2.5245     0.0722     0.0564    96.9940  -999.2500   -32.5652     7.5469     7.2635
  863.0000     2.5212     0.0693     0.0577    96.2025  -999.2500   -32.5672     7.4639     7.1975
  863.5000     2.5255     0.0646     0.0589    92.6437  -999.2500   -32.5481     7.3817     7.1321
  864.0000     2.5273     0.0646     0.0582    91.1269  -999.2500   -32.5292     7.3005     7.0673
  864.5000     2.5264     0.0675     0.0573    93.8370  -999.2500   -32.5102     7.2202     7.0032
  865.0000     2.5254     0.0714     0.0598    94.8930  -999.2500   -32.4913     7.1407     6.9395
  865.5000     2.5243     0.0666     0.0646    93.1767  -999.2500   -32.4724     7.0621     6.8765
  866.0000     2.5276     0.0619     0.0695    90.8297  -999.2500   -32.4535     6.9844     6.8141
  866.5000     2.5333     0.0604     0.0707    89.9820  -999.2500   -32.4346     6.9076     6.7522
  867.0000     2.5343     0.0617     0.0704    91.2417  -999.2500   -32.4158     6.8316     6.6916
  867.5000     2.5368     0.0576     0.0701    97.3453  -999.2500   -32.3967     6.7564     6.5972
  868.0000     2.5417     0.0542     0.0697    96.1641  -999.2500   -32.3788     6.6821     6.5009
  868.5000     2.5404     0.0615     0.0693    94.4030  -999.2500   -32.2839     6.6085     6.4055
  869.0000     2.5346     0.0639     0.0692    93.0422  -999.2500   -32.1440     6.5358     6.3115
  869.5000     2.5322     0.0614     0.0740    94.5148  -999.2500   -32.0031     6.4639     6.2189
  870.0000     2.5353     0.0589     0.0788    95.7290  -999.2500   -31.8621     6.3928     6.1277
  870.5000     2.5361     0.0602     0.0831    95.8363  -999.2500   -31.7203     6.3240     6.0389
  871.0000     2.5310     0.0642     0.0831    95.8867  -999.2500   -31.5793     6.3240     6.0369
  871.5000     2.5192     0.0717     0.0797    95.8182  -999.2500   -31.5726     6.3787     6.0362
  872.0000     2.5021     0.0862     0.0754    94.5700  -999.2500   -31.5735     6.6990     6.3978
  872.5000     2.4860     0.1010     0.0690    93.3358  -999.2500   -31.5737     7.0994     6.7804
  873.0000     2.4693     0.0909     0.0604    93.2891  -999.2500   -31.5737     7.5242     7.1860
  873.5000     2.4886     0.0755     0.0667    93.8582  -999.2500   -31.5737     7.8613     7.5225
  874.0000     2.5177     0.0662     0.0863    94.4645  -999.2500   -31.5737     7.9987     7.7047
  874.5000     2.5263     0.0623     0.0988    94.7096  -999.2500   -31.5737     8.1385     7.8864
  875.0000     2.5337     0.0552     0.1062    94.7597  -999.2500   -31.5737     8.2807  -999.2500
  875.5000     2.5413     0.0587     0.1127    94.8100  -999.2500   -31.5737  -999.2500  -999.2500
  876.0000     2.5404     0.0581     0.1082    94.8501  -999.2500   -31.5737  -999.2500  -999.2500
  876.5000     2.5365     0.0518     0.1034    96.2972  -999.2500   -31.5737  -999.2500  -999.2500
  877.0000     2.5472     0.0422     0.1060    98.8982  -999.2500   -31.5737  -999.2500  -999.2500
  877.5000     2.5573     0.0485     0.1165   101.4387  -999.2500   -31.5737  -999.2500  -999.2500
  878.0000     2.5652     0.0650     0.1258   102.4426  -999.2500   -31.5737  -999.2500  -999.2500
  878.5000     2.5311     0.0606     0.1299   100.4560  -999.2500   -31.5737  -999.2500  -999.2500
  879.0000     2.5371     0.0533     0.1441    97.7655  -999.2500   -31.5737  -999.2500  -999.2500
  879.5000     2.5582     0.0450     0.1602    94.9597  -999.2500   -31.5737  -999.2500  -999.2500
  880.0000     2.5689     0.0478     0.1770  -999.2500  -999.2500  -999.2500  -999.2500  -999.2500
  880.5000  -999.2500     0.0487  -999.2500  -999.2500  -999.2500  -999.2500  -999.2500  -999.2500
