~VERSION INFORMATION
 VERS.                2.0:   CWLS LOG ASCII STANDARD - VERSION 2.0
 WRAP.                 NO:   ONE LINE PER DEPTH STEP
~WELL INFORMATION
#MNEM.UNIT      DATA TYPE    INFORMATION
#----------   ------------   ------------------------------
 STRT.F          250.0000:   START DEPTH
 STOP.F         1798.0000:   STOP DEPTH
 STEP.F            0.5000:   STEP LENGTH
 NULL.          -999.2500:   NO VALUE
 COMP. BROWN JOHN E&C INC:   COMPANY
 WELL. NPR 3 STX-10 #57-10:   WELL
 FLD .  TEAPOT DOME NPR 3:   FIELD
 LOC .      S10 T38N R78W:   LOCATION
 CNTY.            NATRONA:   COUNTY
 STAT.            WYOMING:   STATE
 CTRY. UNITED STATES OF AMERICA:   COUNTRY
 SRVC.           BIRDWELL:   SERVICE COMPANY
 DATE.        24-FEB-1979:   LOGDATE
 API .       490251096900:   API NUMBER
~CURVE INFORMATION
#MNEM.UNIT       API CODE    CURVE DESCRIPTION
#----------   ------------   ------------------------------
 DEPT.F                  :   
 GRD .GAPI   45 310 01 00:   GAMMA RAY FROM DENSITY LOG
 CALD.IN     45 280 60 00:   CALIPER
 RHOB.G/C3   45 350 01 00:   BULK DENSITY
 DPHI.DEC    45 890 12 00:   DENSITY POROSITY SANDSTONE
 CORR.G/C3   45 356 01 00:   DENSITY CORRECTION
~PARAMETER INFORMATION
#MNEM.UNIT          VALUE    DESCRIPTION
#----------   ------------   ------------------------------
 PD  .                 GL:   PERMANENT DATUM
 EPD .F              5201:   ELEVATION PERMANENT DATUM
 LMF .                 KB:   LOG MEASURED FROM
 DAPD.F                10:   FEET ABOVE PERMANENT DATUM
 DMF .                 KB:   DRILLING MEASURED FROM
 EKB .F              5211:   KELLING BUSHING
 EGL .F              5201:   GROUND LEVEL
 RUN .                  1:   RUN NUMBER
 DD  .F              1802:   DEPTH DRILLER
 DL  .F              1793:   DEPTH LOGGER
 BLI .F              1793:   BOTTOM LOG INTERVAL
 TLI .F               250:   TOP LOG INTERVAL
 CS  .IN            9.625:   CASING SIZE
 CBD .F               500:   CASING BOTTOM DRILLER
 CBL .F               490:   CASING BOTTOM LOGGER
 BS  .IN             8.75:   BIT SIZE
 BSD .F              1802:   BIT SIZE AT DEPTH
 DFT .                OIL:   DRILLING FLUID TYPE
 BHT .F                90:   BOTTOM HOLE TEMPERATURE
 TCS .HRS               4:   TIME CURCULATED STOPPED
 MRT .F                90:   MAXIMUM RECORDED TEMPERATURE
 LUN .               3029:   LOGGING UNIT NUMBER
 LUL .             CASPER:   LOGGING UNIT LOCATION
 ENGI.            ROLLINS:   RECORDING ENGINEER
 WITN.              AMEND:   WITNESSED BY
 CLNT.            A2DTECH:   CLIENT CODE
 ORIG.       2", 5" PRINT:   ORIGIN OF DATA
 UWI .       490251096900:   UNIQUE WELL ID
 DICO. A2D Technologies, Inc.:   DIGITIZING COMPANY
~OTHER INFORMATION
~A   DEPT       GRD        CALD       RHOB       DPHI      CORR  
# ...
  555.0000   123.1446     9.8203     2.3732     0.1074     0.1751
  555.5000   115.5665     9.7999     2.3720     0.1041     0.1824
  556.0000   108.9657     9.8085     2.3858     0.0880     0.1897
  556.5000   108.0761     9.8165     2.4094     0.0719     0.1971
  557.0000   112.2872     9.8243     2.4330     0.0597     0.2019
  557.5000   118.2658     9.8322     2.4550     0.0613     0.1828
  558.0000   124.2726     9.8401     2.4559     0.0642     0.1636
  558.5000   130.2712     9.8481     2.4359     0.0798     0.1447
  559.0000   136.2333     9.8561     2.4068     0.0950     0.1263
  559.5000   139.4993     9.8763     2.3931     0.0954     0.1243
  560.0000   135.4544     9.9044     2.4111     0.0740     0.1690
  560.5000   132.2386     9.9330     2.4833     0.0566     0.2206
  561.0000   129.0106     9.9633     2.4855     0.0429     0.2453
  561.5000   125.7727    10.0904     2.4438     0.0794     0.2543
  562.0000   122.5700    10.4010     2.4165     0.0544     0.3112
  562.5000   119.4687    10.5451     2.4942     0.0162     0.4419
  563.0000   117.9000    10.3579     2.5712    -0.0060     0.4922
  563.5000   116.2360    10.1771     2.5555     0.0222     0.2521
  564.0000   114.6318    10.0212     2.4697     0.0500     0.1445
  564.5000   114.0733    10.0268     2.4760     0.0439     0.1224
  565.0000   113.8204    10.0340     2.4879     0.0379     0.1121
  565.5000   116.6777    10.0405     2.4972     0.0317     0.0956
  566.0000   125.1559    10.0471     2.4881     0.0320     0.0677
  566.5000   126.9371    10.0536     2.4762     0.0472     0.0483
  567.0000   125.8152    10.0601     2.4645     0.0566     0.0519
  567.5000   124.6507    10.0666     2.4481     0.0601     0.0630
  568.0000   123.4932    10.0732     2.4562     0.0609     0.0738
  568.5000   122.4358    10.0797     2.4714     0.0505     0.0848
  569.0000   122.1152    10.0824     2.4850     0.0413     0.0961
  569.5000   121.8224    10.0864     2.4859     0.0405     0.0835
  570.0000   121.5509    10.0904     2.4565     0.0476     0.0745
  570.5000   119.6189    10.0943     2.4203     0.1058     0.1095
  571.0000   116.8993    10.0981     2.3762     0.0742     0.1525
  571.5000   114.1184    10.0753     2.4018     0.1002     0.2145
  572.0000   111.2244    10.0180     2.4389     0.0565     0.2888
  572.5000   110.0542     9.9609     2.4631     0.0553     0.1999
  573.0000   120.2556     9.9038     2.4269     0.0802     0.0683
  573.5000   116.5722     9.8465     2.4128     0.0730     0.0337
  574.0000   114.2694     9.7885     2.4459     0.0628     0.0393
  574.5000   112.5333     9.7907     2.4664     0.0538     0.0463
  575.0000   115.6991     9.8051     2.4613     0.0549     0.0532
  575.5000   119.7966     9.8200     2.4566     0.0561     0.0600
  576.0000   123.8830     9.8347     2.4548     0.0572     0.0661
  576.5000   127.4060     9.8495     2.4656     0.0515     0.0670
  577.0000   127.9188     9.8645     2.4766     0.0450     0.0678
  577.5000   125.6372     9.8779     2.4772     0.0433     0.0705
  578.0000   122.7862     9.8360     2.4836     0.0439     0.0802
  578.5000   119.8893     9.7907     2.5008     0.0395     0.0896
  579.0000   118.6039     9.7452     2.4949     0.0325     0.0989
  579.5000   120.0037     9.6998     2.4859     0.0375     0.0922
  580.0000   123.4425     9.6969     2.4962     0.0397     0.0828
  580.5000   126.7845     9.6963     2.5040     0.0359     0.0747
  581.0000   130.1260     9.6955     2.4912     0.0324     0.0861
  581.5000   133.3979     9.6946     2.4879     0.0288     0.0975
  582.0000   135.4934     9.6937     2.5035     0.0277     0.1045
  582.5000   129.6338     9.6927     2.5125     0.0309     0.0943
  583.0000   125.0284     9.6918     2.4922     0.0422     0.0848
  583.5000   118.9447     9.6909     2.4761     0.0567     0.0755
  584.0000   120.1415     9.6900     2.4514     0.0507     0.0740
  584.5000   122.2992     9.6891     2.4635     0.0415     0.1036
  585.0000   124.5388     9.6882     2.4943     0.0372     0.1016
  585.5000   125.8803     9.6872     2.4991     0.0430     0.0937
  586.0000   115.6172     9.6863     2.4844     0.0533     0.0856
  586.5000   116.8663     9.6854     2.4721     0.0496     0.0894
  587.0000   118.9777     9.6845     2.4656     0.0425     0.0978
  587.5000   121.1639     9.6836     2.4791     0.0425     0.1062
  588.0000   123.3498     9.6826     2.4894     0.0425     0.1146
  588.5000   125.3664     9.6817     2.4998     0.0338     0.1230
  589.0000   110.2855     9.6808     2.5102     0.0208     0.1289
  589.5000   111.3165     9.6798     2.5136     0.0232     0.1235
  590.0000   113.6131     9.6788     2.5039     0.0289     0.1154
  590.5000   115.9572     9.6788     2.4962     0.0264     0.1059
  591.0000   118.3106     9.7025     2.5017     0.0223     0.1131
  591.5000   120.1297     9.7269     2.5216     0.0198     0.1120
  592.0000   119.0795     9.7511     2.5245     0.0279     0.0999
  592.5000   117.1777     9.7753     2.4830     0.0481     0.0875
  593.0000   115.2966     9.7984     2.4429     0.0684     0.0781
  593.5000   112.7128     9.8184     2.4015     0.0938     0.1626
  594.0000   114.2228     9.8726     2.3888     0.0664     0.2680
  594.5000   116.9731    10.9056     2.5269     0.0298     0.3628
  595.0000   117.8470    10.4633     2.5067     0.0196     0.2779
  595.5000   114.6867     9.9004     2.4802     0.0509     0.1639
  596.0000   116.1516     9.8234     2.4631     0.0259     0.1373
  596.5000   118.9392     9.7706     2.5241     0.0185     0.1481
  597.0000   120.2220     9.7577     2.5035     0.0281     0.1621
  597.5000   119.6085     9.7558     2.4955     0.0289     0.1758
  598.0000   118.7933     9.7544     2.5185     0.0265     0.1652
  598.5000   117.9679     9.7530     2.4982     0.0609     0.1402
  599.0000   117.3950     9.7515     2.4594     0.0497     0.1256
  599.5000   119.0902     9.7501     2.4516     0.0593     0.1203
  600.0000   122.9606     9.7486     2.4521     0.0540     0.1149
  600.5000   126.7574     9.7471     2.4670     0.0434     0.1092
  601.0000   130.5549     9.7457     2.4833     0.0328     0.1096
  601.5000   134.1434     9.7442     2.5002     0.0281     0.1118
  602.0000   131.2816     9.7427     2.5043     0.0277     0.1047
  602.5000   121.3542     9.7412     2.4891     0.0358     0.0940
  603.0000   116.7056     9.7397     2.4718     0.0457     0.0831
  603.5000   121.2998     9.7377     2.4518     0.0586     0.0840
  604.0000   124.6837     9.7318     2.4601     0.0554     0.0986
  604.5000   128.8843     9.7259     2.4753     0.0490     0.1128
  605.0000   125.7578     9.7200     2.4791     0.0426     0.1270
  605.5000   122.7909     9.7140     2.4787     0.0363     0.1411
  606.0000   125.4090     9.7081     2.4794     0.0300     0.1501
  606.5000   130.5817     9.7022     2.4937     0.0285     0.1484
  607.0000   135.2064     9.6962     2.5096     0.0301     0.1585
  607.5000   136.7964     9.6903     2.5255     0.0100     0.1729
  608.0000   135.7473     9.6844     2.5389     0.0151     0.1768
  608.5000   129.0049     9.6785     2.5249     0.0253     0.1553
  609.0000   122.3082     9.6725     2.5111     0.0354     0.1387
  609.5000   121.3890     9.6666     2.4972     0.0406     0.1304
  610.0000   121.4339     9.6607     2.4919     0.0408     0.1340
  610.5000   124.0242     9.6547     2.4895     0.0410     0.1382
  611.0000   129.4465     9.6488     2.4872     0.0413     0.1401
  611.5000   134.6775     9.6428     2.4810     0.0455     0.1298
  612.0000   139.9071     9.6379     2.4732     0.0515     0.1185
  612.5000   145.1886     9.6419     2.4622     0.0545     0.1167
  613.0000   150.4362     9.6462     2.4713     0.0450     0.1421
  613.5000   151.4254     9.6506     2.4914     0.0377     0.1648
  614.0000   144.9206     9.6549     2.4931     0.0338     0.1794
  614.5000   128.3507     9.6592     2.4889     0.0344     0.1939
  615.0000   122.9220     9.6635     2.4891     0.0348     0.2082
  615.5000   120.6174     9.6678     2.5033     0.0252     0.2238
