~VERSION INFORMATION
 VERS.                2.0:   CWLS LOG ASCII STANDARD - VERSION 2.0
 WRAP.                 NO:   ONE LINE PER DEPTH STEP
~WELL INFORMATION
#MNEM.UNIT      DATA TYPE    INFORMATION
#----------   ------------   ------------------------------
 STRT.F            7.0000:   START DEPTH
 STOP.F          587.0000:   STOP DEPTH
 STEP.F            0.5000:   STEP LENGTH
 NULL.          -999.2500:   NO VALUE
 COMP. FENIX & SCISSON INC:   COMPANY
 WELL.        NPR-3 #63-3:   WELL
 FLD .             TEAPOT:   FIELD
 LOC .       S3 T38N R78W:   LOCATION
 CNTY.            NATRONA:   COUNTY
 STAT.            WYOMING:   STATE
 CTRY. UNITED STATES OF AMERICA:   COUNTRY
 SRVC.     Wedge Wireline:   SERVICE COMPANY
 DATE.        06-JAN-1978:   LOGDATE
 API .       490251044700:   API NUMBER
~CURVE INFORMATION
#MNEM.UNIT       API CODE    CURVE DESCRIPTION
#----------   ------------   ------------------------------
 DEPT.F                  :   
 ILD .OHMM   05 120 46 00:   INDUCTION LOG DEEP
 SN  .OHMM   05 040 16 00:   SHORT NORMAL
 SPR .MV     05 010 01 00:   SPONTANEOUS POTENTIAL FROM RES.
 CALD.IN     45 280 60 00:   CALIPER FROM DENSITY LOG
 CORR.G/C3   45 356 01 00:   DENSITY CORRECTION
 DPHI.DEC    45 890 12 00:   DENSITY POROSITY SANDSTONE
 GRD .GAPI   45 310 01 00:   GAMMA RAY FROM DENSITY LOG
 RHOB.G/C3   45 350 01 00:   BULK DENSITY
~PARAMETER INFORMATION
#MNEM.UNIT          VALUE    DESCRIPTION
#----------   ------------   ------------------------------
 PD  .                 GL:   PERMANENT DATUM
 EPD .F              5177:   ELEVATION PERMANENT DATUM
 LMF .                 KB:   LOG MEASURED FROM
 DMF .                 KB:   DRILLING MEASURED FROM
 EKB .F              5181:   KELLING BUSHING
 EGL .F              5177:   GROUND LEVEL
 DATE.        06-JAN-1978:   RUN DATE
 RUN .                  1:   RUN NUMBER
 DD  .F               590:   DEPTH DRILLER
 DL  .F               581:   DEPTH LOGGER
 BLI .F               576:   BOTTOM LOG INTERVAL
 TLI .F                20:   TOP LOG INTERVAL
 CS  .IN            9.625:   CASING SIZE
 CBD .F                19:   CASING BOTTOM DRILLER
 CBL .F                19:   CASING BOTTOM LOGGER
 BS  .IN            7.875:   BIT SIZE
 BSD .F               590:   BIT SIZE AT DEPTH
 DFT .                KCL:   DRILLING FLUID TYPE
 DFD .                8.5:   DRILLING FLUID DENSITY
 DFV .                 34:   DRILLING FLUID VISCOSITY
 DFPH.                9.0:   DRILLING FLUID PH
 DFL .                7.8:   DRILLING FLUID LOSS
 MSS .           FLOWLINE:   MUD SAMPLE SOURCE
 RMS .OHMM           0.22:   RESISTIVITY MUD SAMPLE
 MST .F                63:   MUD SAMPLE TEMPERATURE
 RMF .OHMM           0.24:   RESISTIVITY MUD FILTRATE SAMPLE
 MFST.F                63:   MUD FILTRATE SAMPLE TEMPERATURE
 RMC .OHMM           0.48:   RESISTIVITY MUD CAKE
 MCST.F                64:   MUD CAKE SAMPLE TEMPERATURE
 MFSS.               MEAS:   MUD FILTRATE SAMPLE SOURCE
 MCSS.               MEAS:   MUD CAKE SAMPLE SOURCE
 RMB .OHMM           0.19:   RESISTIVITY MUD AT BHT
 BHT .F                71:   BOTTOM HOLE TEMPERATURE
 TCS .HRS               3:   TIME CURCULATED STOPPED
 MRT .F                71:   MAXIMUM RECORDED TEMPERATURE
 LUN .               2958:   LOGGING UNIT NUMBER
 LUL .             CASPER:   LOGGING UNIT LOCATION
 ENGI.             MILLER:   RECORDING ENGINEER
 WITN.         HARRINGTON:   WITNESSED BY
 CLNT.            A2DTECH:   CLIENT CODE
 ORIG.           5" PRINT:   ORIGIN OF DATA
 UWI .       490251044700:   UNIQUE WELL ID
 DICO. A2D Technologies, Inc.:   DIGITIZING COMPANY
~OTHER INFORMATION
~A    DEPT     ILD         SN        SPR       CALD       CORR       DPHI         GRD      RHOB   
# ...
  209.5000    16.9450    10.3970   -42.6770     8.4186    -0.3131     0.1067   100.9018     2.4982
  210.0000    16.9506    10.3297   -42.6742     8.4194    -0.3115     0.1069   101.7915     2.4982
  210.5000    16.9562    10.3365   -42.6715     8.4202    -0.3145     0.1042   102.9764     2.4959
  211.0000    16.9618    10.3419   -42.3779     8.4209    -0.3205     0.1014   104.1595     2.4914
  211.5000    16.9688    10.2763   -42.2292     8.4216    -0.3282     0.1023   106.2237     2.4861
  212.0000    16.9744    10.1424   -42.0811     8.4223    -0.3356     0.1069   107.9942     2.4817
  212.5000    16.9800    10.1477   -42.0783     8.4230    -0.3386     0.1086   108.8857     2.4824
  213.0000    16.9856    10.0820   -41.9302     8.4239    -0.3341     0.1076   107.1320     2.4842
  213.5000    16.9912    10.0193   -42.0728     8.4246    -0.3249     0.1071   101.5603     2.4857
  214.0000    16.9970    10.0248   -42.0693     8.4253    -0.3188     0.1068    94.8140     2.4863
  214.5000    17.0038    10.1006   -42.0666     8.4260    -0.3370     0.1095    91.0044     2.4697
  215.0000    17.0094    10.0352   -42.0638     8.4267    -0.3233     0.1113    90.7191     2.4742
  215.5000    16.8967     9.9729   -42.0610     8.4274    -0.3087     0.1085    91.9043     2.4803
  216.0000    16.9037     9.7740   -42.2036     8.4283    -0.2946     0.1076    91.9127     2.4788
  216.5000    16.6777     9.5761   -42.0548     8.4290    -0.2804     0.1106    90.1590     2.4726
  217.0000    16.4561     9.4543   -41.1799     8.4148    -0.2626     0.1130    88.4052     2.4690
  217.5000    16.1246     9.3298   -40.5958     8.4010    -0.2459     0.1148    91.0589     2.4638
  218.0000    15.7997     9.2070   -40.3023     8.4018    -0.2322     0.1323   100.7589     2.4457
  218.5000    15.3750     9.0234   -40.2989     8.4026    -0.2322     0.1538   111.0463     2.4261
  219.0000    14.9618     8.8427   -40.2961     8.4032    -0.2443     0.1535   113.1104     2.4110
  219.5000    14.5299     8.6088   -40.4387     8.4040    -0.2428     0.1491   112.1675     2.4057
  220.0000    13.9754     8.4371   -40.4359     8.4047    -0.2230     0.1456    97.8576     2.4118
  220.5000    13.4136     8.3825   -40.5785     8.4054    -0.2094     0.1513    89.0554     2.4178
  221.0000    13.0530     8.3294   -41.1564     8.4062    -0.2534     0.1558    86.7143     2.4095
  221.5000    12.7022     8.3348   -42.6072     8.4070    -0.3002     0.1571    87.0164     2.4045
  222.0000    12.5324     8.2251   -44.0579     8.4077    -0.3335     0.1485    91.0621     2.4119
  222.5000    12.4504     8.1729   -44.9272     8.4084    -0.3380     0.1394   103.1880     2.4232
  223.0000    12.5417     8.1783   -45.2151     8.4091    -0.3244     0.1406   106.7206     2.4293
  223.5000    12.5458     8.1826   -45.5031     8.4098    -0.3107     0.1451   107.3142     2.4240
  224.0000    12.7242     8.2435   -45.4996     8.4107    -0.3425     0.1500   104.6815     2.4165
  224.5000    12.9051     8.3624   -45.4968     8.4114    -0.3697     0.1512   100.7978     2.4112
  225.0000    12.9997     8.3677   -45.4941     8.4121    -0.3848     0.1463    98.5330     2.4097
  225.5000    13.0040     8.4300   -45.4913     8.4128    -0.3894     0.1393    98.2456     2.4181
  226.0000    13.0983     8.4345   -45.4878     8.4135    -0.3786     0.1348    99.1371     2.4296
  226.5000    13.1026     8.4972   -45.4851     8.4144    -0.3681     0.1332   100.3202     2.4408
  227.0000    13.1069     8.5018   -45.4823     8.4151    -0.3635     0.1342    99.1559     2.4468
  227.5000    13.1113     8.4489   -45.4795     8.4158    -0.3589     0.1362    90.9411     2.4431
  228.0000    13.0255     8.4533   -45.4767     8.4165    -0.3665     0.1374    80.9642     2.4386
  228.5000    13.0308     8.4578   -45.4733     8.4172    -0.3804     0.1380    78.6231     2.4363
  229.0000    13.0351     8.4040   -45.3252     8.4179    -0.3891     0.1340    76.5757     2.4356
  229.5000    12.9488     8.2935   -45.4685     8.4334    -0.3785     0.1253    79.8167     2.4439
  230.0000    12.9541     8.2989   -45.4650     8.4341    -0.3664     0.1186    85.1114     2.4515
  230.5000    12.9594     8.3033   -45.4622     8.4348    -0.3588     0.1149    89.2314     2.4572
  231.0000    12.8747     8.3077   -45.4588     8.4355    -0.3524     0.1125    92.1766     2.4616
  231.5000    12.7894     8.4273   -45.4560     8.4362    -0.3466     0.1113    94.8458     2.4659
  232.0000    12.7946     8.4318   -45.4533     8.4371    -0.3465     0.1103    98.3629     2.4682
  232.5000    12.7585     8.4373   -45.5959     8.4524    -0.3450     0.1113   100.7207     2.4690
  233.0000    12.7151     8.5001   -45.7384     8.4531    -0.3450     0.1127   101.9038     2.4683
  233.5000    12.6319     8.4451   -45.8803     8.4538    -0.3449     0.1142   101.6185     2.4668
  234.0000    12.6366     8.4506   -46.3143     8.4399    -0.3449     0.1154    98.1027     2.4645
  234.5000    12.6413     8.4551   -46.8922     8.4406    -0.3464     0.1170   102.2248     2.4623
  235.0000    12.6454     8.4026   -47.1802     8.4413    -0.3479     0.1186   103.1142     2.4600
  235.5000    12.4764     8.4070   -47.4681     8.4275    -0.3509     0.1205   102.2415     2.4578
  236.0000    12.4815     8.4114   -47.7560     8.4282    -0.3539     0.1224   109.8857     2.4548
  236.5000    12.4857     8.4158   -47.7526     8.4289    -0.3584     0.1244   112.2438     2.4533
  237.0000    12.4898     8.4202   -47.7498     8.4296    -0.3623     0.1265   112.2541     2.4518
  237.5000    12.4939     8.4840   -47.7470     8.4305    -0.3674     0.1286   110.2066     2.4511
  238.0000    12.4980     8.4885   -47.7442     8.4312    -0.3719     0.1301   101.6981     2.4504
  238.5000    12.5022     8.4929   -47.5955     8.4319    -0.3749     0.1304    99.3570     2.4504
  239.0000    12.5073     8.4974   -47.4473     8.4326    -0.3764     0.1285    99.4009     2.4519
  239.5000    12.5980     8.5019   -47.4446     8.4333    -0.3731     0.1255   102.9001     2.4542
  240.0000    12.5145     8.5065   -47.4418     8.4341    -0.3688     0.1224   105.8453     2.4568
  240.5000    12.5197     8.4524   -47.5844     8.4348    -0.3656     0.1209   107.6158     2.4596
  241.0000    12.3523     8.4580   -47.7270     8.4355    -0.3627     0.1188   107.6242     2.4620
  241.5000    12.1872     8.4624   -47.7235     8.4362    -0.3611     0.1176   103.4312     2.4641
  242.0000    12.0242     8.4086   -48.0115     8.4369    -0.3611     0.1169   104.1188     2.4657
  242.5000    11.8635     8.4133   -48.2994     8.4378    -0.3626     0.1175   110.0009     2.4657
  243.0000    11.7859     8.4187   -48.4420     8.4384    -0.3641     0.1190   114.7083     2.4634
  243.5000    11.7097     8.4231   -48.4385     8.4391    -0.3671     0.1202   117.6535     2.4604
  244.0000    11.5532     8.4275   -48.4357     8.4399    -0.3716     0.1217   118.2492     2.4574
  244.5000    11.5580     8.3739   -48.4330     8.4406    -0.3761     0.1229   115.0292     2.4567
  245.0000    11.5618     8.3210   -48.5756     8.4413    -0.3806     0.1235   111.8070     2.4567
  245.5000    11.4852     8.2125   -49.0081     8.4422    -0.3836     0.1238   106.2354     2.4575
  246.0000    11.4108     8.1593   -49.2961     8.4429    -0.3821     0.1234    98.5805     2.4583
  246.5000    11.2584     7.9977   -49.5847     8.4436    -0.3760     0.1240    91.8636     2.4583
  247.0000    11.0325     7.9468   -50.0173     8.4443    -0.3699     0.1253    91.2825     2.4568
  247.5000    10.6622     7.7885   -50.3052     8.4450    -0.3653     0.1276    91.2930     2.4553
  248.0000    10.3043     7.6860   -50.7378     8.4459    -0.3622     0.1297    91.5951     2.4523
  248.5000     9.9585     7.5337   -50.8811     8.4466    -0.3637     0.1312    94.0079     2.4493
  249.0000     9.4925     7.4849   -50.8776     8.4473    -0.3698     0.1318   101.0118     2.4471
  249.5000     9.2279     7.3864   -50.7295     8.4480    -0.3743     0.1295   107.7750     2.4441
