~VERSION INFORMATION
 VERS.                2.0:   CWLS LOG ASCII STANDARD - VERSION 2.0
 WRAP.                 NO:   ONE LINE PER DEPTH STEP
~WELL INFORMATION
#MNEM.UNIT      DATA TYPE    INFORMATION
#----------   ------------   ------------------------------
 STRT.F            2.5000:   START DEPTH
 STOP.F         1003.0000:   STOP DEPTH
 STEP.F            0.5000:   STEP LENGTH
 NULL.          -999.2500:   NO VALUE
 COMP. U S NAVY-INTEX OIL:   COMPANY
 WELL.   NPR #3 #87-SX-27:   WELL
 FLD .             TEAPOT:   FIELD
 LOC .      S27 T39N R78W:   LOCATION
 CNTY.            NATRONA:   COUNTY
 STAT.            WYOMING:   STATE
 CTRY. UNITED STATES OF AMERICA:   COUNTRY
 SRVC. Schlumberger Well Surveying Corp:   SERVICE COMPANY
 DATE.        13-AUG-1961:   LOGDATE
 API .       490250659000:   API NUMBER
~CURVE INFORMATION
#MNEM.UNIT       API CODE    CURVE DESCRIPTION
#----------   ------------   ------------------------------
 DEPT.F                  :   
 ASN .OHMM   05 041 16 00:   AMPLIFIER SHORT NORMAL
 SPR .MV     05 010 01 00:   SPONTANEOUS POTENSIAL
 CILD.MMHO   05 110 46 00:   CONDUCTIVITY INDUCTION LOG DEEP
 ILD .OHMM   05 120 46 00:   INDUCTION LOG DEEP
 GRN .MG/TON 35 310 30 00:   GAMMA RAY
 NEUT.NAPI   35 330 01 00:   NEUTRON
~PARAMETER INFORMATION
#MNEM.UNIT          VALUE    DESCRIPTION
#----------   ------------   ------------------------------
 PD  .                 GL:   PERMANENT DATUM
 EPD .F              5082:   ELEVATION PERMANENT DATUM
 LMF .                 KB:   LOG MEASURED FROM
 DAPD.F                 5:   FEET ABOVE PERMANENT DATUM
 DMF .                 KB:   DRILLING MEASURED FROM
 EKB .F              5087:   KELLING BUSHING
 EGL .F              5082:   GROUND LEVEL
 DATE.        13-AUG-1961:   RUN DATE
 RUN .                  1:   RUN NUMBER
 DD  .F              1000:   DEPTH DRILLER
 DL  .F              1003:   DEPTH LOGGER
 BLI .F              1002:   BOTTOM LOG INTERVAL
 TLI .F                90:   TOP LOG INTERVAL
 BS  .IN             6.75:   BIT SIZE
 BSD .F              1000:   BIT SIZE AT DEPTH
 DFT . OIL EMUL (12% OIL):   DRILLING FLUID TYPE
 DFD .                9.3:   DRILLING FLUID DENSITY
 DFV .                 60:   DRILLING FLUID VISCOSITY
 DFL .                  4:   DRILLING FLUID LOSS
 MSS .           FLOWLINE:   MUD SAMPLE SOURCE
 RMS .OHMM           1.29:   RESISTIVITY MUD SAMPLE
 MST .F                80:   MUD SAMPLE TEMPERATURE
 TCS .HRS               1:   TIME CURCULATED STOPPED
 LUN .               2523:   LOGGING UNIT NUMBER
 LUL .               CSPR:   LOGGING UNIT LOCATION
 ENGI.              SCOTT:   RECORDING ENGINEER
 WITN.          JORGENSEN:   WITNESSED BY
 CLNT.            A2DTECH:   CLIENT CODE
 ORIG.       2", 5" PRINT:   ORIGIN OF DATA
 UWI .       490250659000:   UNIQUE WELL ID
 DICO. A2D Technologies, Inc.:   DIGITIZING COMPANY
~OTHER INFORMATION
~A    DEPT     ASN        SPR       CILD        ILD          GRN     NEUT   
# ...
  574.5000     7.8640   -14.7147   146.3842     6.4197     6.8923   221.8974
  575.0000     7.8278   -14.7147   146.8968     6.4947     6.9749   231.9174
  575.5000     7.8191   -14.7147   147.9132     6.4943     7.0181   245.8554
  576.0000     7.8192   -14.7147   147.9279     6.5391     6.8679   257.7143
  576.5000     7.8193   -14.7147   147.9429     6.5690     6.7262   249.5785
  577.0000     7.8194   -14.7147   147.9589     6.5685     6.6107   231.9689
  577.5000     7.8345   -14.7147   147.1722     6.6434     6.6958   228.0842
  578.0000     7.8739   -14.7044   146.4849     6.7184     6.8065   231.0533
  578.5000     7.9397   -14.6227   146.5032     6.7932     6.7157   233.4433
  579.0000     7.9769   -14.5293   146.5165     6.7929     6.5708   234.8930
  579.5000     8.0015   -14.4144   145.7106     6.8679     6.3765   257.7757
  580.0000     8.0300   -14.4144   145.0450     6.8675     6.2653   266.0038
  580.5000     8.0506   -14.3596   143.5586     6.9425     6.1934   266.7557
  581.0000     8.0752   -14.2643   143.5736     6.9420     6.1575   268.2672
  581.5000     8.0903   -14.0198   142.6077     6.9843     6.1498   269.0169
  582.0000     8.1093   -13.9249   142.0994     7.0166     6.2327   269.3192
  582.5000     8.1355   -13.6637   141.6500     7.0162     6.2271   270.5592
  583.0000     8.1663   -13.7422   140.8442     7.0158     6.1979   272.0318
  583.5000     8.2004   -13.8371   139.7347     7.0230     6.1570   265.2121
  584.0000     8.2559   -14.1141   139.1592     7.0904     6.1352   239.3728
  584.5000     8.2985   -14.1769   137.4257     7.1176     6.1186   224.5708
  585.0000     8.3483   -14.4219   136.6199     7.1649     6.1265   216.8998
  585.5000     8.4213   -14.5646   135.6207     7.1645     6.3097   210.5019
  586.0000     8.4711   -14.7147   134.0943     7.2395     6.5936   211.0778
  586.5000     8.5265   -14.8649   131.7262     7.3144     6.9310   222.6341
  587.0000     8.5826   -14.8649   131.7446     7.3943     7.0734   243.9065
  587.5000     8.6624   -15.0150   131.2563     7.5521     7.0455   261.3993
  588.0000     8.7970   -15.0150   130.2703     7.7650     7.0015   272.7141
  588.5000     8.9376   -15.0150   129.3642     7.8400     6.9694   273.0453
  589.0000     9.0617   -14.9995   128.7965     7.9149     6.9448   276.4104
  589.5000     9.2627   -14.8649   127.3133     7.9145     7.0619   294.7059
  590.0000     9.3038   -14.7147   127.3273     7.9142     7.0917   296.4459
  590.5000     9.3229   -14.7147   127.3423     7.9138     6.8899   297.7284
  591.0000     9.3230   -14.4700   127.3591     7.9134     6.6613   304.0733
  591.5000     9.3230   -14.2643   126.2813     7.9306     6.4868   325.9318
  592.0000     9.3231   -14.2643   125.8850     7.9880     6.4775   347.0493
  592.5000     9.3232   -14.2643   125.9033     8.0252     6.5863   359.4551
  593.0000     9.3256   -14.6352   124.8849     8.0625     6.8687   359.9407
  593.5000     9.4134   -15.3153   122.9078     8.1374     7.0782   352.1260
  594.0000     9.5540   -15.4655   120.4606     8.2726     7.2250   326.3457
  594.5000     9.8190   -15.6156   119.5146     8.4429     7.3227   320.4417
  595.0000     9.9342   -15.7658   116.9676     8.6885     7.3454   341.2987
  595.5000    10.0735   -15.9159   116.1211     8.9341     7.1342   343.2020
  596.0000    10.1321   -15.9159   113.6736     9.1897     7.0138   343.1926
  596.5000    10.2510   -15.6789   111.0073     9.3927     6.8174   343.9570
  597.0000    10.3739   -15.5526   108.7788     9.6709     6.7251   356.0840
  597.5000    10.5087   -15.1652   107.8328     9.9416     6.6781   382.5154
  598.0000    10.6551   -14.9439   106.5465    10.0517     6.6437   395.2258
  598.5000    10.8176   -14.6990   104.4394    10.1743     6.6214   398.5726
  599.0000    11.0353   -14.4144   102.0716    10.3170     6.5866   399.9780
  599.5000    11.1937   -14.4697   100.5884    10.4195     6.3946   402.4275
  600.0000    11.5616   -14.7147    98.5986    10.5422     6.0704   404.3709
  600.5000    11.8820   -14.8649    96.1114    10.5895     5.9863   372.9555
  601.0000    11.8191   -14.8649    96.1261    10.6168     6.1342   363.6144
  601.5000    11.1873   -14.7147    96.1411    10.5410     6.1996   362.0891
  602.0000    10.8834   -14.4855    96.1571    10.3850     6.1830   361.9751
  602.5000    10.7257   -14.4144    96.1712    10.1512     6.1394   360.5544
  603.0000    10.5879   -14.4144    99.4495    10.0522     6.1588   359.5028
  603.5000    10.5131   -14.4777   102.2089     9.8476     6.4992   358.2629
  604.0000    10.4384   -14.5726   100.6006     9.5571     6.6046   360.7050
  604.5000    10.4389   -14.7147   102.1021     9.5311     6.4085   362.9785
  605.0000    10.4392   -14.7147   103.6285     9.4804     6.2735   363.5541
  605.5000    10.4396   -14.7598   105.1051     9.4797     6.5976   363.5466
  606.0000    10.5586   -14.8649   106.6066     9.4789     6.7018   363.6049
  606.5000    10.6814   -15.0150   108.1081     9.4781     6.7030   365.8075
  607.0000    10.8912   -15.3453   108.9440     9.5894     6.5379   369.0607
  607.5000    11.0022   -15.6156   111.1111     9.7114     6.4680   374.1440
  608.0000    11.1171   -15.8358   111.1111     9.7771     6.4240   374.0455
  608.5000    11.1176   -15.9159   108.9164     9.7764     6.3927   371.5807
  609.0000    11.0428   -15.9159   106.6066     9.6993     6.3555   366.5291
  609.5000    10.9680   -15.8058   106.6066     9.5010     6.3033   354.3908
  610.0000    10.8458   -15.4655   107.1572     9.3022     6.3146   341.2350
  610.5000    10.7237   -15.1251   108.1105     9.1709     6.5142   324.2267
  611.0000    10.5939   -14.7848   110.0876     9.1305     6.6876   314.0857
  611.5000    10.4795   -14.4144   111.1111     9.0941     6.8089   313.3505
  612.0000    10.4324   -14.1842   111.1111     9.0933     7.0644   312.3423
  612.5000    10.2947   -13.8138   111.1111     9.0173     6.8533   309.5409
  613.0000    10.2950   -13.8138   111.1111     9.0166     6.7749   300.9025
  613.5000    10.2995   -13.8138   111.1111     9.0157     6.7739   294.7454
  614.0000    10.3709   -13.9740   111.1111     9.0151     6.8311   297.3714
  614.5000    10.3473   -14.2643   111.1111     9.0143     6.9568   323.2457
  615.0000    10.2965   -14.4645   111.1111     9.0136     7.1396   328.4824
  615.5000    10.2969   -14.7147   111.1111     9.0128     7.2854   320.1226
  616.0000    10.2222   -14.9550   111.1111     9.0120     7.3581   305.8246
  616.5000    10.2226   -15.0150   111.1111     9.0113     7.4259   291.2305
  617.0000    10.1758   -15.0150   111.1111     8.9287     7.4594   270.7550
  617.5000    10.1240   -15.1652   111.1111     8.7838     7.5012   271.2863
  618.0000    10.0722   -15.3153   111.9019     8.6064     7.4710   280.6100
  618.5000    10.0204   -15.3153   114.1141     8.3306     7.4514   292.8875
  619.0000     9.9692   -15.3153   115.6156     8.0879     7.4875   302.4353
  619.5000     9.7839   -15.3153   117.7652     7.7663     7.5387   282.1051
  620.0000     9.4805   -15.3153   120.2202     7.4999     7.4809   265.3463
  620.5000     9.1898   -15.3153   124.6246     7.1986     6.9959   271.8353
  621.0000     8.9276   -15.3153   129.1444     7.0276     7.1962   306.3746
  621.5000     8.7553   -15.3153   135.1351     6.8199     7.3317   317.1792
  622.0000     8.4879   -15.3153   139.9603     6.6857     7.3275   324.2150
  622.5000     8.2665   -15.3153   144.5070     6.5926     7.1943   330.6440
  623.0000     8.2096   -15.1652   145.6456     6.6406     7.0319   331.3968
  623.5000     8.2062   -15.1652   147.1471     6.8378     6.8223   331.3892
  624.0000     8.3694   -15.1652   145.4254     7.0421     6.7665   332.6266
  624.5000     8.5790   -15.1101   141.1411     7.2324     6.7269   336.0150
  625.0000     8.8063   -15.0150   136.8868     7.3670     6.6187   341.2350
  625.5000     8.9374   -14.9199   132.0545     7.5669     6.5872   344.3478
  626.0000     9.0393   -14.8649   129.1291     7.6737     6.3071   346.6809
