~VERSION INFORMATION
 VERS.                2.0:   CWLS LOG ASCII STANDARD - VERSION 2.0
 WRAP.                 NO:   ONE LINE PER DEPTH STEP
~WELL INFORMATION
#MNEM.UNIT      DATA TYPE    INFORMATION
#----------   ------------   ------------------------------
 STRT.F         1400.0000:   START DEPTH
 STOP.F         3422.0000:   STOP DEPTH
 STEP.F            0.5000:   STEP LENGTH
 NULL.          -999.2500:   NO VALUE
 COMP. LAWRENCE/ALLISON INC:   COMPANY
 WELL.   NPR 3 #36-STX-23:   WELL
 FLD .             TEAPOT:   FIELD
 LOC .      S23 T38N R78W:   LOCATION
 CNTY.            NATRONA:   COUNTY
 STAT.            WYOMING:   STATE
 CTRY. UNITED STATES OF AMERICA:   COUNTRY
 SRVC.            Unknown:   SERVICE COMPANY
 DATE.        04-JAN-1985:   LOGDATE
 API .       490251137700:   API NUMBER
~CURVE INFORMATION
#MNEM.UNIT       API CODE    CURVE DESCRIPTION
#----------   ------------   ------------------------------
 DEPT.F                  :   
 ROP .MIN/FT 91 810 01 00:   RAT OF DRILLING PENETRATION
 TGAS.UNITS  91 830 01 00:   TOTAL GAS UNIT
~PARAMETER INFORMATION
#MNEM.UNIT          VALUE    DESCRIPTION
#----------   ------------   ------------------------------
 DATE.           1-4-1985:   RUN DATE
 RUN .                  1:   RUN NUMBER
 DD  .F              3427:   DEPTH DRILLER
 TLI .F              1400:   TOP LOG INTERVAL
 BSD .F              3427:   BIT SIZE AT DEPTH
 WITN. RAY ANDERSON/JACK HARBISON:   WITNESSED BY
 CLNT.            A2DTECH:   CLIENT CODE
 ORIG.           5" PRINT:   ORIGIN OF DATA
 UWI .       490251137700:   UNIQUE WELL ID
 DICO. A2D Technologies, Inc.:   DIGITIZING COMPANY
~OTHER INFORMATION
~A  DEPT       ROP       TGAS   
# ...
 2858.0000     0.6403   145.4837
 2858.5000     0.6428   141.4636
 2859.0000     0.6131   137.4436
 2859.5000     0.5811   131.4628
 2860.0000     0.5491   127.4428
 2860.5000     0.5197   121.4620
 2861.0000     0.5202   113.5204
 2861.5000     0.5207   107.5396
 2862.0000     0.5212    97.6372
 2862.5000     0.5216    87.7348
 2863.0000     0.5221    77.8325
 2863.5000     0.5226    71.8516
 2864.0000     0.5231    63.9101
 2864.5000     0.5236    57.9293
 2865.0000     0.5240    53.9093
 2865.5000     0.5245    49.8892
 2866.0000     0.5250    47.8300
 2866.5000     0.5255    45.7708
 2867.0000     0.5260    43.7115
 2867.5000     0.5264    43.6131
 2868.0000     0.5269    41.5539
 2868.5000     0.5274    41.4554
 2869.0000     0.5279    41.3569
 2869.5000     0.5284    39.2977
 2870.0000     0.5288    39.1993
 2870.5000     0.5293    39.1008
 2871.0000     0.5298    35.0808
 2871.5000     0.5303    34.9824
 2872.0000     0.5308    34.8839
 2872.5000     0.5312    34.7855
 2873.0000     0.5317    34.6870
 2873.5000     0.5322    34.5886
 2874.0000     0.5327    34.5098
 2874.5000     0.5332    34.4118
 2875.0000     0.5337    36.2786
 2875.5000     0.5341    36.1765
 2876.0000     0.5346    36.0784
 2876.5000     0.5351    35.9804
 2877.0000     0.5356    35.8824
 2877.5000     0.5361    35.7843
 2878.0000     0.5365    35.6863
 2878.5000     0.5370    35.5883
 2879.0000     0.5375    35.4902
 2879.5000     0.5380    35.3922
 2880.0000     0.5385    33.3333
 2880.5000     0.5382    33.1481
 2881.0000     0.5372    32.8749
 2881.5000     0.5362    32.5664
 2882.0000     0.5352    28.3962
 2882.5000     0.5342    24.2258
 2883.0000     0.5332    22.0163
 2883.5000     0.5323    23.7905
 2884.0000     0.5313    25.5027
 2884.5000     0.5303    27.2147
 2885.0000     0.5293    26.9608
 2885.5000     0.5283    26.7156
 2886.0000     0.5273    26.4685
 2886.5000     0.5263    26.2198
 2887.0000     0.5258    27.9411
 2887.5000     0.5259    27.6831
 2888.0000     0.5260    27.4344
 2888.5000     0.5262    27.1857
 2889.0000     0.5263    24.9761
 2889.5000     0.5264    24.7275
 2890.0000     0.5265    24.4787
 2890.5000     0.5267    37.9555
 2891.0000     0.5268    25.9420
 2891.5000     0.5269    23.7326
 2892.0000     0.5270    21.5231
 2892.5000     0.5271    20.9155
 2893.0000     0.5273    19.1176
 2893.5000     0.5274    16.9118
 2894.0000     0.5275    14.7058
 2894.5000     0.5276    12.4984
 2895.0000     0.5277    10.2889
 2895.5000     0.5279    10.0403
 2896.0000     0.5280     9.7915
 2896.5000     0.5281     9.5428
 2897.0000     0.5282     9.2940
 2897.5000     0.5284     7.0846
 2898.0000     0.5285     6.8358
 2898.5000     0.5286     6.5871
 2899.0000     0.5287     4.3775
 2899.5000     0.5288     6.1519
 2900.0000     0.5290     5.8409
 2900.5000     0.5294     5.9205
 2901.0000     0.5301     6.0164
 2901.5000     0.5307     6.1122
 2902.0000     0.5314     6.2080
 2902.5000     0.5320     6.3039
 2903.0000     0.5327     6.3997
 2903.5000     0.5333     6.4955
 2904.0000     0.5340     6.5914
 2904.5000     0.5347     6.6872
 2905.0000     0.5353     6.7830
 2905.5000     0.5360     6.8789
 2906.0000     0.5366     6.9747
 2906.5000     0.5373     7.0706
 2907.0000     0.5379     7.1664
 2907.5000     0.5386     7.2622
 2908.0000     0.5392     7.3581
 2908.5000     0.5399     7.4539
 2909.0000     0.5405     7.5497
 2909.5000     0.5412     7.6456
 2910.0000     0.5418     7.7414
 2910.5000     0.5425     7.8372
 2911.0000     0.5431     7.9331
 2911.5000     0.5438     8.0289
 2912.0000     0.5444     8.1247
 2912.5000     0.5451     8.2206
 2913.0000     0.5457     8.3164
 2913.5000     0.5464     8.4122
 2914.0000     0.5470     8.5081
 2914.5000     0.5477     8.6449
 2915.0000     0.5483     8.7993
 2915.5000     0.5490     8.9536
 2916.0000     0.5496     9.1079
 2916.5000     0.5503     9.2623
 2917.0000     0.5493     9.4166
 2917.5000     0.5477     9.5709
 2918.0000     0.5462     9.7253
 2918.5000     0.5447     9.8796
 2919.0000     0.5431    10.0339
 2919.5000     0.5416    10.1883
 2920.0000     0.5400    10.3426
 2920.5000     0.5385    10.4969
 2921.0000     0.5370    10.6513
 2921.5000     0.5354    10.8056
 2922.0000     0.6599    69.7095
 2922.5000     0.8544    63.8516
 2923.0000     1.0489    54.0721
 2923.5000     1.2766    52.1296
 2924.0000     1.2783    52.1601
 2924.5000     1.2803    54.1453
 2925.0000     1.2823    58.0913
 2925.5000     1.2843    62.0373
 2926.0000     1.2863    65.9832
 2926.5000     1.2883    69.9292
 2927.0000     1.2903    75.8360
 2927.5000     1.2923    77.8212
 2928.0000     1.2943    83.7279
 2928.5000     1.2963    87.6739
 2929.0000     1.2983    89.6591
 2929.5000     1.2789    89.6835
 2930.0000     1.1276    91.6687
 2930.5000     0.9763    91.6931
 2931.0000     0.8109    93.6783
 2931.5000     0.7419    95.6635
 2932.0000     0.6658    95.6879
 2932.5000     0.5897    97.6731
 2933.0000     0.5334    99.6583
 2933.5000     0.5338    99.6827
 2934.0000     0.5341    99.6594
 2934.5000     0.5345    99.5803
 2935.0000     0.5349    99.5012
 2935.5000     0.5352    99.4221
 2936.0000     0.5356    99.3430
 2936.5000     0.5359    99.2639
 2937.0000     0.5363    99.1847
 2937.5000     0.5367    99.1056
 2938.0000     0.5370    99.0265
 2938.5000     0.5374    98.9474
 2939.0000     0.5377    98.8683
 2939.5000     0.5381    98.7892
 2940.0000     0.5433    98.7100
 2940.5000     0.6024    98.6309
 2941.0000     0.6615    98.5518
 2941.5000     0.7206    98.4727
 2942.0000     0.7712    98.3936
 2942.5000     0.7716    98.3145
 2943.0000     0.7721    98.2353
 2943.5000     0.7726    98.2217
 2944.0000     0.7731    98.2670
 2944.5000     0.7736    98.3122
 2945.0000     0.7740    98.3575
 2945.5000     0.7745    98.3979
 2946.0000     0.7750    92.3677
 2946.5000     0.7755    94.1806
 2947.0000     0.7760    93.9958
 2947.5000     0.7764    93.8479
 2948.0000     0.7769    93.7000
 2948.5000     0.7774    93.5521
 2949.0000     0.7779    93.4042
 2949.5000     0.7784    89.3348
 2950.0000     0.7788    85.3023
 2950.5000     0.7793    92.9976
 2951.0000     0.7798    97.1112
 2951.5000     0.7803    98.5842
 2952.0000     0.8042   100.6549
 2952.5000     0.8681   104.3837
 2953.0000     0.9321   106.4955
 2953.5000     0.9960   171.1103
 2954.0000     1.0094   256.8418
 2954.5000     0.9556   202.9084
 2955.0000     0.9018   113.2353
 2955.5000     0.8481    83.6757
 2956.0000     0.7847    87.4493
 2956.5000     0.7851    87.3014
 2957.0000     0.7856    87.1535
 2957.5000     0.7861    87.0057
 2958.0000     0.7865    86.8578
 2958.5000     0.7870    86.7099
 2959.0000     0.7875    84.6012
 2959.5000     0.7880    84.4534
 2960.0000     0.7885    84.3055
 2960.5000     0.7889    84.1576
 2961.0000     0.7894    86.0075
 2961.5000     0.7899    85.8227
 2962.0000     0.7904    85.6748
 2962.5000     0.7909    85.5269
 2963.0000     0.7913    85.3790
 2963.5000     0.7918    87.1919
 2964.0000     0.7915    87.0440
 2964.5000     0.7908    88.8939
 2965.0000     0.7902    94.5914
 2965.5000     0.7896    96.4413
 2966.0000     0.7889    98.2172
 2966.5000     0.7883   101.9909
 2967.0000     0.7877   105.7646
 2967.5000     0.7870   105.6167
 2968.0000     0.7864   103.5080
 2968.5000     0.7857    99.4386
 2969.0000     0.7851    95.3692
 2969.5000     0.7845    95.2213
 2970.0000     0.7838    95.0734
 2970.5000     0.7832    94.9255
 2971.0000     0.7826    94.7777
 2971.5000     0.7819    94.6298
 2972.0000     0.7813    94.4819
 2972.5000     0.7806    96.3317
 2973.0000     0.7800    96.1765
 2973.5000     0.7794    96.0294
 2974.0000     0.7787    95.8824
 2974.5000     0.7781    95.7353
 2975.0000     0.7775    95.5882
 2975.5000     0.7768    95.4412
 2976.0000     0.7762    97.2574
 2976.5000     0.7755    97.1095
 2977.0000     0.7749    98.9224
 2977.5000     0.7743    98.7745
 2978.0000     0.7736    98.6266
 2978.5000     0.7730   100.4395
 2979.0000     0.7724   102.2525
