~VERSION INFORMATION
 VERS.                2.0:   CWLS LOG ASCII STANDARD - VERSION 2.0
 WRAP.                 NO:   ONE LINE PER DEPTH STEP
~WELL INFORMATION
#MNEM.UNIT      DATA TYPE    INFORMATION
#----------   ------------   ------------------------------
 STRT.F           30.0000:   START DEPTH
 STOP.F          502.0000:   STOP DEPTH
 STEP.F            0.5000:   STEP LENGTH
 NULL.          -999.2500:   NO VALUE
 COMP.   FLUOR DANIEL INC:   COMPANY
 WELL. NPR 3  74-66 SX-1 #66-10:   WELL
 FLD .             TEAPOT:   FIELD
 LOC .      S10 T38N R78W:   LOCATION
 CNTY.            NATRONA:   COUNTY
 STAT.            WYOMING:   STATE
 CTRY. UNITED STATES OF AMERICA:   COUNTRY
 SRVC.           Gearhart:   SERVICE COMPANY
 DATE.        19-JUL-1987:   LOGDATE
 API .       490251114700:   API NUMBER
~CURVE INFORMATION
#MNEM.UNIT       API CODE    CURVE DESCRIPTION
#----------   ------------   ------------------------------
 DEPT.F                  :   
 RLL .OHMM   07 220 00 00:   LATEROLOG RESISTIVITY
 RILD.OHMM   07 120 46 00:   INDUCTION LOG DEEP RESISTIVITY
 RILM.OHMM   07 120 44 00:   INDUCTION LOG MEDIUM RESISTIVITY
 GRR .GAPI   07 310 01 00:   GAMMA RAY FROM RES. LOG
 SPR .MV     07 010 01 00:   SPONTANEOUS POTENTIAL FROM RES. LOG
~PARAMETER INFORMATION
#MNEM.UNIT          VALUE    DESCRIPTION
#----------   ------------   ------------------------------
 PD  .                 GL:   PERMANENT DATUM
 EPD .F              5163:   ELEVATION PERMANENT DATUM
 LMF .                 KB:   LOG MEASURED FROM
 DAPD.F                 8:   FEET ABOVE PERMANENT DATUM
 DMF .                 KB:   DRILLING MEASURED FROM
 EKB .F              5171:   KELLING BUSHING
 EDF .F              5169:   DRILLING FLOOR
 EGL .F              5163:   GROUND LEVEL
 DATE.            7-19-87:   RUN DATE
 RUN .                  1:   RUN NUMBER
 DD  .F               500:   DEPTH DRILLER
 DL  .F               502:   DEPTH LOGGER
 BLI .F               500:   BOTTOM LOG INTERVAL
 TLI .F                30:   TOP LOG INTERVAL
 CS  .IN            8.625:   CASING SIZE
 CBD .F                40:   CASING BOTTOM DRILLER
 CBL .F                48:   CASING BOTTOM LOGGER
 BS  .IN            7.875:   BIT SIZE
 BSD .F               500:   BIT SIZE AT DEPTH
 DFT .                MUD:   DRILLING FLUID TYPE
 DFD .                8.9:   DRILLING FLUID DENSITY
 DFV .                 40:   DRILLING FLUID VISCOSITY
 MSS .            MUD PIT:   MUD SAMPLE SOURCE
 RMS .OHMM             .4:   RESISTIVITY MUD SAMPLE
 MST .F                70:   MUD SAMPLE TEMPERATURE
 RMF .OHMM             .3:   RESISTIVITY MUD FILTRATE SAMPLE
 MFST.F                70:   MUD FILTRATE SAMPLE TEMPERATURE
 RMC .OHMM            .32:   RESISTIVITY MUD CAKE
 MCST.F                70:   MUD CAKE SAMPLE TEMPERATURE
 MFSS.              CHART:   MUD FILTRATE SAMPLE SOURCE
 MCSS.              CHART:   MUD CAKE SAMPLE SOURCE
 RMB .OHMM            .35:   RESISTIVITY MUD AT BHT
 BHT .F                80:   BOTTOM HOLE TEMPERATURE
 TCS .HRS            2230:   TIME CURCULATED STOPPED
 TLAB.HRS            2330:   TIME LOGGER AT BOTTOM
 MRT .F                80:   MAXIMUM RECORDED TEMPERATURE
 LUN .               7597:   LOGGING UNIT NUMBER
 LUL .           GILLETTE:   LOGGING UNIT LOCATION
 ENGI.         WEATHERMON:   RECORDING ENGINEER
 WITN.             STRONG:   WITNESSED BY
 CLNT.            A2DTECH:   CLIENT CODE
 ORIG.       2", 5" PRINT:   ORIGIN OF DATA
 UWI .       490251114700:   UNIQUE WELL ID
 DICO. A2D Technologies, Inc.:   DIGITIZING COMPANY
~OTHER INFORMATION
~A   DEPT      RLL       RILD       RILM         GRR       SPR   
# ...
  335.0000    20.6065    22.6493    19.8703    87.5148   -89.9469
  335.5000    20.1841    21.9397    20.4549    87.4794   -89.6825
  336.0000    19.7703    22.1360    21.1273    87.9585   -89.4166
  336.5000    19.4501    22.4905    22.1735    88.5444   -89.5548
  337.0000    19.4501    22.8475    23.2066    87.1007   -89.7380
  337.5000    19.4496    23.2093    27.0527    85.9061   -89.9207
  338.0000    19.4492    23.5767    30.4221    84.9174   -90.1024
  338.5000    19.4486    23.9499    33.3479    83.9353   -90.2377
  339.0000    19.6812    24.3291    34.9309    83.4142   -90.3890
  339.5000    19.9212    24.7142    31.2052    84.4408   -90.5459
  340.0000    20.1633    25.2371    25.8368    85.8212   -89.7707
  340.5000    20.3752    25.7927    21.1768    86.5374   -89.2960
  341.0000    20.0792    26.3641    19.5324    85.9678   -89.8247
  341.5000    19.8226    26.9242    18.6928    84.5984   -90.7515
  342.0000    19.6304    26.2344    18.3951    83.4786   -90.9608
  342.5000    19.6317    25.5627    19.1260    84.2143   -90.4336
  343.0000    19.6317    24.9111    19.1973    85.3942   -89.7217
  343.5000    19.7134    24.2770    19.2701    87.3880   -89.8605
  344.0000    19.9389    23.6586    17.7129    89.3696   -90.9166
  344.5000    20.1669    23.1451    16.4538    91.4486   -92.5586
  345.0000    20.3752    22.9038    16.7314    91.3193   -92.0637
  345.5000    20.1674    22.6644    17.0770    89.8951   -92.1240
  346.0000    19.9382    22.4276    18.1461    88.3129   -91.2449
  346.5000    19.6311    22.1528    18.9645    87.7264   -89.7541
  347.0000    19.7711    22.4952    19.7121    86.2303   -90.8781
  347.5000    19.9928    22.9919    21.7038    83.5748   -92.1458
  348.0000    20.6212    24.2963    24.0876    80.7463   -93.6143
  348.5000    24.1548    25.5508    26.7590    77.5693   -96.0431
  349.0000    28.2081    26.8700    28.7374    75.6586   -96.5069
  349.5000    31.1263    28.2573    30.1043    74.1466   -94.3584
  350.0000    34.2826    29.0057    29.2551    73.8900   -93.5640
  350.5000    36.2539    27.4947    28.0374    73.7883   -93.1062
  351.0000    31.2617    26.5255    26.8705    73.9832   -96.8964
  351.5000    26.6952    25.2162    24.2325    74.5190  -101.7768
  352.0000    22.7958    23.4622    19.9006    76.7499  -101.3067
  352.5000    19.4660    21.8194    16.9768    79.4595   -94.6932
  353.0000    16.7625    20.1868    16.0496    82.0933   -94.1340
  353.5000    16.5782    19.1309    15.1335    83.8141   -94.2408
  354.0000    16.4538    18.0446    14.9363    85.6066   -95.4410
  354.5000    16.6976    17.2365    14.8548    87.2407   -95.1121
  355.0000    16.7625    17.1737    14.8548    88.6538   -94.6924
  355.5000    16.6795    17.1126    15.0290    88.8506   -95.1683
  356.0000    16.6222    17.0517    15.2330    87.8782   -96.5361
  356.5000    16.6075    16.9909    15.4401    86.3093   -94.8539
  357.0000    16.5653    16.9313    15.6511    85.7871   -94.7672
  357.5000    16.3527    16.7875    15.8523    85.3058   -96.2203
  358.0000    16.1430    16.6266    15.6095    84.7711   -98.3947
  358.5000    15.9357    16.4673    15.3740    83.3309   -99.1275
  359.0000    15.7312    16.3095    15.1346    82.8653   -96.4995
  359.5000    15.5293    16.1508    15.0145    83.2522   -96.1072
  360.0000    15.3300    15.7725    14.8919    84.9827   -96.8868
  360.5000    15.1333    15.3974    14.7696    87.5270   -97.6726
  361.0000    14.9664    14.9935    14.6482    88.2489   -97.2741
  361.5000    14.8707    15.0655    14.5278    88.0970   -98.5585
  362.0000    14.7755    15.1463    14.4084    87.9012   -98.4712
  362.5000    14.6810    15.2276    14.2874    88.5485   -98.2393
  363.0000    14.5870    15.2748    14.1570    89.2581  -100.3911
  363.5000    14.4937    15.2748    14.0278    89.8607  -100.9079
  364.0000    14.4007    15.1062    13.8997    89.1584   -99.7620
  364.5000    14.3080    14.9160    13.7904    88.4300   -99.4341
  365.0000    14.1811    14.7282    13.8409    88.4970   -99.0909
  365.5000    14.3163    14.5813    13.8854    89.8561   -98.6212
  366.0000    14.5479    14.6980    13.9192    91.0513   -98.1149
  366.5000    14.7174    14.8852    13.3747    90.0738   -99.3363
  367.0000    14.8604    15.0751    13.0424    87.9633   -99.0023
  367.5000    14.9935    15.2674    13.1043    86.6705   -98.2925
  368.0000    15.1278    15.4621    13.2195    86.4398   -97.9347
  368.5000    15.2633    15.6592    13.2871    88.0639   -99.4556
  369.0000    15.4175    15.8588    13.1809    91.0318   -99.6588
  369.5000    15.3336    16.0014    13.1065    91.9179   -98.7044
  370.0000    15.2111    15.6921    12.9929    91.6881   -97.7070
  370.5000    15.0589    15.4163    12.6318    89.8417   -96.5869
  371.0000    14.8538    15.1452    12.2808    88.3863   -95.3985
  371.5000    14.6469    14.9935    11.9396    87.4516   -96.8694
  372.0000    14.2165    14.7013    11.6078    87.7091   -98.7018
  372.5000    13.9093    14.0491    11.2852    88.7542   -99.0677
  373.0000    13.7087    14.0491    10.9716    89.7595   -98.9941
  373.5000    13.5128    14.0491    10.6668    90.7643   -99.2858
  374.0000    13.3190    13.8640    10.4349    91.7718   -98.9840
  374.5000    13.2871    13.6178    10.5892    92.5999   -98.9223
  375.0000    13.2858    13.5331    10.7175    93.1048   -99.4500
  375.5000    13.5486    13.7899    10.8472    92.5985   -99.0909
  376.0000    13.9269    14.1076    10.9881    92.0993   -98.1859
  376.5000    14.3158    14.6458    11.1479    91.6064   -97.2236
  377.0000    14.7151    15.5701    11.5803    91.1168   -96.6479
  377.5000    15.1255    16.7933    12.4143    90.6230   -96.5777
  378.0000    15.8770    18.1128    13.8223    90.1363   -96.4942
  378.5000    17.4817    19.5335    15.6637    87.6633   -96.0041
  379.0000    19.2486    21.5603    17.2537    83.4906   -94.5936
  379.5000    21.1942    24.2116    18.2065    79.8911   -93.2126
  380.0000    23.3364    27.1890    19.1947    77.1650   -92.6872
  380.5000    25.6950    30.5326    20.2542    74.9794   -92.9199
  381.0000    27.0511    33.5500    21.8184    73.3454   -93.1490
  381.5000    28.3000    35.9185    23.7434    71.8334   -93.3964
  382.0000    29.6066    35.7357    26.3656    72.4718   -93.1104
  382.5000    30.5411    35.4243    29.4196    74.6531   -92.7012
  383.0000    30.9555    34.9121    30.1043    75.3929   -92.1847
  383.5000    30.2785    34.1731    29.3179    73.5971   -91.6611
  384.0000    29.5274    33.9039    27.6005    72.8058   -91.1372
  384.5000    28.7950    33.8037    26.3977    72.2359   -90.5575
  385.0000    28.0807    33.6751    26.3071    74.9316   -90.8028
  385.5000    27.6377    33.6913    26.2168    78.0042   -92.5356
  386.0000    27.5222    32.5220    26.1869    79.3915   -94.3814
  386.5000    27.4072    32.1205    26.4986    77.5321   -96.1177
  387.0000    27.2927    32.2882    26.6782    75.7883   -96.7577
  387.5000    27.1787    32.5790    26.4314    75.1857   -96.9063
  388.0000    27.7692    33.3727    26.1781    75.2958   -96.6966
  388.5000    28.7587    33.6561    25.9272    77.1243   -97.3433
  389.0000    30.2871    33.6393    25.6788    78.9698   -97.9574
  389.5000    32.4573    33.4777    25.4668    79.7892   -98.5522
  390.0000    34.7831    33.1121    26.2226    78.0776   -98.9634
  390.5000    36.2539    31.7600    26.9046    72.4710  -100.6938
  391.0000    34.4724    30.4690    27.4436    68.9155  -100.1832
  391.5000    31.3736    29.2296    26.8711    69.8948   -99.5838
  392.0000    28.5531    28.0414    26.1929    73.9666   -99.4325
  392.5000    25.9784    26.9014    24.6014    79.4266  -101.6499
  393.0000    23.6459    26.2642    22.9919    81.6721  -103.7608
  393.5000    23.0818    25.8318    22.5717    83.3802  -103.6671
  394.0000    22.7509    25.4065    22.1576    83.3702  -102.2875
  394.5000    22.6416    24.9882    21.9383    82.3150  -101.3782
  395.0000    22.5329    24.5768    21.8425    81.8403  -101.8485
  395.5000    22.4246    24.1722    21.7449    82.6090  -101.4903
