~VERSION INFORMATION
 VERS.                2.0:   CWLS LOG ASCII STANDARD - VERSION 2.0
 WRAP.                 NO:   ONE LINE PER DEPTH STEP
~WELL INFORMATION
#MNEM.UNIT      DATA TYPE    INFORMATION
#----------   ------------   ------------------------------
 STRT.F            6.0000:   START DEPTH
 STOP.F         4020.0000:   STOP DEPTH
 STEP.F            0.5000:   STEP LENGTH
 NULL.          -999.2500:   NO VALUE
 COMP. LAWRENCE/ALLISON INC:   COMPANY
 WELL.       66 JX #33-33:   WELL
 FLD .              NPR-3:   FIELD
 LOC .      S33 T39N R78W:   LOCATION
 CNTY.            NATRONA:   COUNTY
 STAT.            WYOMING:   STATE
 CTRY. UNITED STATES OF AMERICA:   COUNTRY
 SRVC.      Dresser Atlas:   SERVICE COMPANY
 DATE.        02-DEC-1983:   LOGDATE
 API .       490251095100:   API NUMBER
~CURVE INFORMATION
#MNEM.UNIT       API CODE    CURVE DESCRIPTION
#----------   ------------   ------------------------------
 DEPT.F                  :   
 CALD.IN     45 280 60 00:   CALIPER
 CNC .DEC    42 890 03 00:   NEUTRON POROSITY SANDSTONE
 PORD.DEC    45 890 12 00:   POROSITY DENSITY SANDSTONE
 DEN .G/C3   45 350 01 00:   COMPENSATED BULK DENSTIY
 CORR.G/C3   45 356 01 00:   DENSITY CORRECTION
 RFOC.OHMM   07 220 04 00:   RESISTIVITY FOCUSED LOG
 RILD.OHMM   07 120 46 00:   INDUCTION LOG DEEP RESISTIVITY
 RILM.OHMM   07 120 44 00:   INDUCTION LOG MEDIUM RESISTIVITY
 GRR .GAPI   07 310 01 00:   GAMMA RAY FROM RES. LOG.
 DT  .US/F   60 520 00 00:   INTERVAL TRANSIT TIME
 SPR .MV     07 010 01 00:   SPONTANEOUS POTENTIAL
~PARAMETER INFORMATION
#MNEM.UNIT          VALUE    DESCRIPTION
#----------   ------------   ------------------------------
 PD  .                 GL:   PERMANENT DATUM
 EPD .F              5141:   ELEVATION PERMANENT DATUM
 LMF .                 KB:   LOG MEASURED FROM
 DAPD.F                10:   FEET ABOVE PERMANENT DATUM
 DMF .                 KB:   DRILLING MEASURED FROM
 EKB .F              5151:   KELLING BUSHING
 EGL .F              5141:   GROUND LEVEL
 DATE.            12-2-83:   RUN DATE
 RUN .                  1:   RUN NUMBER
 DD  .F              4025:   DEPTH DRILLER
 DL  .F              4020:   DEPTH LOGGER
 BLI .F              4018:   BOTTOM LOG INTERVAL
 TLI .F                10:   TOP LOG INTERVAL
 CS  .IN            8.625:   CASING SIZE
 CBD .F               718:   CASING BOTTOM DRILLER
 CBL .F               722:   CASING BOTTOM LOGGER
 BS  .IN            7.875:   BIT SIZE
 BSD .F              4025:   BIT SIZE AT DEPTH
 DFT .            GEL/KCL:   DRILLING FLUID TYPE
 DFD .                  9:   DRILLING FLUID DENSITY
 DFV .                 45:   DRILLING FLUID VISCOSITY
 DFPH.                8.5:   DRILLING FLUID PH
 DFL .                 12:   DRILLING FLUID LOSS
 MSS .           FLOWLINE:   MUD SAMPLE SOURCE
 RMS .OHMM            .37:   RESISTIVITY MUD SAMPLE
 MST .F                88:   MUD SAMPLE TEMPERATURE
 RMF .OHMM            .29:   RESISTIVITY MUD FILTRATE SAMPLE
 MFST.F                88:   MUD FILTRATE SAMPLE TEMPERATURE
 RMC .OHMM            .46:   RESISTIVITY MUD CAKE
 MCST.F                88:   MUD CAKE SAMPLE TEMPERATURE
 MFSS.               MEAS:   MUD FILTRATE SAMPLE SOURCE
 MCSS.               CALC:   MUD CAKE SAMPLE SOURCE
 RMB .OHMM            .26:   RESISTIVITY MUD AT BHT
 BHT .F               127:   BOTTOM HOLE TEMPERATURE
 TCS .HRS               4:   TIME CURCULATED STOPPED
 MRT .F               127:   MAXIMUM RECORDED TEMPERATURE
 LUN .               6264:   LOGGING UNIT NUMBER
 LUL .              WLSTN:   LOGGING UNIT LOCATION
 ENGI.            PANASUK:   RECORDING ENGINEER
 WITN.              SCOTT:   WITNESSED BY
 CLNT.            A2DTECH:   CLIENT CODE
 ORIG.       2", 5" PRINT:   ORIGIN OF DATA
 UWI .       490251095100:   UNIQUE WELL ID
 DICO. A2D Technologies, Inc.:   DIGITIZING COMPANY
~OTHER INFORMATION
~A    DEPT    CALD        CNC       PORD        DEN       CORR       RFOC       RILD       RILM          GRR       DT        SPR   
# ...
 2232.5000    10.1471     0.2998     0.0775     2.5174     0.0428     5.5000     4.8045     4.8804    93.4846    93.0709   -35.9611
 2233.0000    10.1505     0.3064     0.0854     2.5020     0.0505     5.6595     4.8045     4.9258    93.0725    92.8595   -36.0096
 2233.5000    10.1538     0.3114     0.0922     2.4958     0.0614     5.8286     4.8045     4.9872    94.1506    92.6548   -36.0301
 2234.0000    10.1572     0.3002     0.0893     2.5024     0.0537     5.8646     4.8045     4.9832    96.2575    92.7247   -36.0274
 2234.5000    10.1607     0.2937     0.0846     2.5097     0.0443     5.9018     4.8045     4.8760    99.9630    92.8086   -36.0292
 2235.0000    10.1677     0.2829     0.0826     2.5090     0.0366     5.9394     4.7618     4.7718   111.6339    92.8557   -36.0279
 2235.5000    10.1806     0.2814     0.0866     2.5007     0.0445     5.9917     4.7085     4.6697   122.3772    92.5947   -36.0300
 2236.0000    10.1934     0.2924     0.0921     2.4922     0.0536     5.8495     4.6558     4.5692   132.8649    92.3547   -36.0205
 2236.5000    10.2062     0.3122     0.0958     2.4920     0.0568     5.6251     4.6036     4.4702   139.0403    92.6167   -35.9326
 2237.0000    10.2191     0.3294     0.0947     2.4956     0.0591     5.4092     4.5501     4.3728   132.5025    93.1292   -35.8360
 2237.5000    10.2319     0.3596     0.0946     2.4955     0.0727     5.1241     4.4988     4.3116   125.7732    93.6891   -35.7413
 2238.0000    10.2447     0.3730     0.0954     2.4914     0.0980     5.1350     4.4615     4.2652   117.6424    94.2492   -35.6456
 2238.5000    10.2575     0.3644     0.0955     2.4914     0.0873     5.1772     4.4818     4.3905   120.9402    94.8098   -35.5508
 2239.0000    10.2704     0.3491     0.0950     2.4924     0.0738     5.2199     4.5043     4.6004   127.3028    95.3694   -35.4545
 2239.5000    10.2832     0.3338     0.0965     2.4888     0.0650     5.2676     4.5020     4.8209   132.4026    95.5999   -35.3609
 2240.0000    10.2960     0.3185     0.0990     2.4849     0.0688     5.6180     4.7956     5.0518   132.0398    95.6590   -35.2624
 2240.5000    10.3089     0.3146     0.1011     2.4817     0.0727     5.9917     5.0383     5.2929   131.3307    95.7180   -35.1730
 2241.0000    10.3217     0.3190     0.1033     2.4816     0.0749     6.0480     5.2925     5.5461   134.9028    95.8353   -35.0661
 2241.5000    10.3347     0.3340     0.1003     2.4880     0.0727     6.1334     5.5603     5.8099   138.9482    96.1222   -35.0675
 2242.0000    10.3516     0.3537     0.0947     2.4946     0.0712     6.6557     5.8417     6.0862   141.0509    96.4901   -35.1704
 2242.5000    10.3737     0.3735     0.0926     2.4960     0.0767     7.4298     6.1374     6.2883   137.3392    96.7389   -35.2549
 2243.0000    10.3956     0.3774     0.0950     2.4916     0.0821     7.3895     6.3757     6.4661   131.7088    96.6361   -35.3486
 2243.5000    10.4176     0.3613     0.0978     2.4881     0.0828     7.0660     6.5003     6.6912   127.5245    96.5357   -35.4372
 2244.0000    10.4396     0.3410     0.0953     2.4975     0.0735     7.1715     6.6299     6.8785   125.4818    96.4168   -35.5285
 2244.5000    10.4616     0.3290     0.0891     2.5057     0.0646     7.4450     6.6299     6.9421   124.7829    96.1363   -35.6194
 2245.0000    10.4836     0.3247     0.0846     2.5126     0.0565     7.6111     6.5531     6.7483   123.1121    95.6413   -35.7095
 2245.5000    10.5056     0.3181     0.0844     2.5081     0.0677     7.4724     6.3631     6.4304   122.1036    95.1038   -35.8026
 2246.0000    10.5276     0.3150     0.0882     2.5034     0.0820     6.9746     6.1785     6.1275   123.1720    94.9777   -35.8889
 2246.5000    10.5486     0.3317     0.0898     2.5004     0.0907     6.4799     5.9994     5.8388   124.7558    95.0405   -35.9877
 2247.0000    10.5678     0.3566     0.0873     2.5045     0.0880     6.1594     5.8254     5.5638   126.2502    95.4910   -36.0637
 2247.5000    10.5871     0.3814     0.0841     2.5097     0.0902     5.9716     5.6565     5.3654   127.5375    96.0621   -36.1880
 2248.0000    10.6064     0.3898     0.0826     2.5123     0.0984     5.8241     5.5665     5.3162   127.9569    96.5311   -36.0995
 2248.5000    10.6280     0.3587     0.0863     2.5024     0.0766     5.7752     5.6754     5.3692   127.5904    96.6137   -35.5941
 2249.0000    10.6599     0.3342     0.0978     2.4749     0.0588     6.1188     5.8044     5.4961   126.0624    96.4283   -35.0984
 2249.5000    10.6911     0.3279     0.1151     2.4495     0.0921     6.7773     5.9363     5.6260   124.7591    95.9719   -34.5910
 2250.0000    10.7224     0.3211     0.1326     2.4241     0.1327     7.2023     6.0713     5.7584   123.3301    95.4609   -34.0877
 2250.5000    10.7536     0.3138     0.1514     2.4017     0.1731     6.6923     6.2093     5.8937   122.5354    95.6122   -33.5880
 2251.0000    10.7848     0.3130     0.1506     2.4036     0.1787     6.1678     6.3504     6.1025   120.6975    95.7802   -33.0757
 2251.5000    10.7731     0.3112     0.1403     2.4285     0.1335     5.6843     6.5692     6.1825   116.6308    96.0621   -32.5890
 2252.0000    10.7184     0.3034     0.1291     2.4494     0.0916     5.3654     6.5627     6.2734   111.2271    96.5912   -32.0520
 2252.5000    10.6638     0.2998     0.1184     2.4633     0.0750     5.5458     6.5497     6.3904   107.1953    97.2635   -31.8364
 2253.0000    10.6091     0.3018     0.1115     2.4709     0.1043     5.9321     6.5366     6.3078   105.7364    97.3639   -31.9506
 2253.5000    10.5545     0.3122     0.1081     2.4734     0.1410     6.3453     6.5236     6.1424   105.2161    96.7188   -32.0149
 2254.0000    10.4998     0.3256     0.1071     2.4753     0.1445     6.6912     6.5090     5.9812   105.0962    95.4084   -32.1061
 2254.5000    10.4450     0.3389     0.1062     2.4729     0.1421     6.5038     6.3550     5.8244   104.8468    94.3587   -32.1816
 2255.0000    10.3905     0.3446     0.1082     2.4691     0.1328     6.2738     6.0476     5.7752   104.5704    94.7254   -32.2672
 2255.5000    10.3515     0.3331     0.1120     2.4578     0.1040     6.0058     5.7550     5.5367   103.7145    95.8313   -32.3432
 2256.0000    10.3517     0.3168     0.1186     2.4442     0.0752     5.6319     5.4766     5.1682   102.6295    97.1052   -32.4583
 2256.5000    10.3418     0.3070     0.1266     2.4385     0.0736     5.1718     5.2116     4.8335   102.4101    96.6270   -32.8874
 2257.0000    10.3314     0.3029     0.1310     2.4449     0.0851     5.1931     4.8614     4.4529   102.5765    95.1603   -33.3825
 2257.5000    10.3210     0.2974     0.1237     2.4553     0.0745     5.2208     4.4349     4.0752   102.6745    94.4289   -33.8627
 2258.0000    10.3106     0.2938     0.1151     2.4595     0.0595     5.1750     4.0458     3.7289   105.7507    94.5591   -34.3535
 2258.5000    10.3026     0.2974     0.1155     2.4452     0.0444     4.5936     3.6908     3.4120   108.6238    95.8573   -34.8335
 2259.0000    10.3135     0.3014     0.1264     2.4368     0.0523     4.4700     3.4083     3.1224   110.9776    97.8831   -35.3687
 2259.5000    10.3247     0.3052     0.1294     2.4481     0.0582     3.9679     3.2050     2.9846   113.1404    99.8205   -35.4323
 2260.0000    10.3358     0.3090     0.1139     2.4671     0.0557     3.4554     3.0604     2.8936   113.6894   101.1924   -35.3040
 2260.5000    10.3469     0.2984     0.1022     2.4804     0.0531     3.2645     2.9008     2.8699   112.7822   101.8737   -35.2078
 2261.0000    10.3587     0.2970     0.1042     2.4764     0.0512     3.5901     2.8176     2.8699   111.0877   101.7575   -35.0979
 2261.5000    10.3287     0.2958     0.1049     2.4794     0.0781     4.3023     2.8176     2.8965   112.3696   101.2535   -34.9958
 2262.0000    10.2828     0.2994     0.1015     2.4873     0.1076     4.2098     2.8965     3.0320   117.8310   100.7495   -34.8891
 2262.5000    10.2364     0.3023     0.0939     2.5028     0.1041     3.8625     3.0711     3.1988   121.7260   100.2455   -34.7854
