~VERSION INFORMATION
 VERS.                2.0:   CWLS LOG ASCII STANDARD - VERSION 2.0
 WRAP.                 NO:   ONE LINE PER DEPTH STEP
~WELL INFORMATION
#MNEM.UNIT      DATA TYPE    INFORMATION
#----------   ------------   ------------------------------
 STRT.F           16.0000:   START DEPTH
 STOP.F          661.0000:   STOP DEPTH
 STEP.F            0.5000:   STEP LENGTH
 NULL.          -999.2500:   NO VALUE
 COMP. FENIX & SCISSON INC:   COMPANY
 WELL.  26-66 SX 11 #I-11:   WELL
 FLD .             TEAPOT:   FIELD
 LOC .      S11 T38N R78W:   LOCATION
 CNTY.            NATRONA:   COUNTY
 STAT.            WYOMING:   STATE
 CTRY. UNITED STATES OF AMERICA:   COUNTRY
 SRVC.      Dresser Atlas:   SERVICE COMPANY
 DATE.        22-JUL-1980:   LOGDATE
 API .       490251083200:   API NUMBER
~CURVE INFORMATION
#MNEM.UNIT       API CODE    CURVE DESCRIPTION
#----------   ------------   ------------------------------
 DEPT.F                  :   
 SFL .OHMM   07 220 01 00:   SHALLOW FOCUSED LOG RESISTIVITY
 ILD .OHMM   07 120 46 00:   INDUCTION LOG DEEP
 ILM .OHMM   07 120 44 00:   INDUCTION LOG MEDIUM
 SPR .MV     07 010 01 00:   SPONTANEOUS POTENTIAL
 CALD.IN     45 280 60 00:   CALIPER
 GRD .GAPI   45 310 01 00:   GAMMA RAY FROM DENSITY LOG
 RHOB.G/C3   45 350 01 00:   BULK DENSITY
 CORR.G/C3   45 356 01 00:   DENSITY CORRECTION
 DPHI.DEC    45 890 12 00:   DENSITY POROSITY SANDSTONE
 NPHI.DEC    42 890 03 00:   NEUTRON POROSITY SANDSTONE
~PARAMETER INFORMATION
#MNEM.UNIT          VALUE    DESCRIPTION
#----------   ------------   ------------------------------
 PD  .                 GL:   PERMANENT DATUM
 EPD .F              5193:   ELEVATION PERMANENT DATUM
 LMF .                 KB:   LOG MEASURED FROM
 DAPD.F                 5:   FEET ABOVE PERMANENT DATUM
 DMF .                 KB:   DRILLING MEASURED FROM
 EKB .F              5198:   KELLING BUSHING
 EDF .F              5196:   DRILLING FLOOR
 EGL .F              5193:   GROUND LEVEL
 DATE.            7-22-80:   RUN DATE
 RUN .                  1:   RUN NUMBER
 DD  .F               655:   DEPTH DRILLER
 DL  .F               655:   DEPTH LOGGER
 BLI .F               653:   BOTTOM LOG INTERVAL
 TLI .F                20:   TOP LOG INTERVAL
 BS  .IN            7.875:   BIT SIZE
 BSD .F               655:   BIT SIZE AT DEPTH
 DFT .                KCL:   DRILLING FLUID TYPE
 DFD .                9.1:   DRILLING FLUID DENSITY
 DFV .                 46:   DRILLING FLUID VISCOSITY
 DFPH.                 11:   DRILLING FLUID PH
 DFL .                  6:   DRILLING FLUID LOSS
 MSS .           FLOWLINE:   MUD SAMPLE SOURCE
 RMS .OHMM            .17:   RESISTIVITY MUD SAMPLE
 MST .F                75:   MUD SAMPLE TEMPERATURE
 RMF .OHMM            .13:   RESISTIVITY MUD FILTRATE SAMPLE
 MFST.F                75:   MUD FILTRATE SAMPLE TEMPERATURE
 RMC .OHMM            .26:   RESISTIVITY MUD CAKE
 MCST.F                75:   MUD CAKE SAMPLE TEMPERATURE
 MFSS.                  C:   MUD FILTRATE SAMPLE SOURCE
 MCSS.                  C:   MUD CAKE SAMPLE SOURCE
 TCS .HRS               1:   TIME CURCULATED STOPPED
 LUN .               6240:   LOGGING UNIT NUMBER
 LUL .               RVTN:   LOGGING UNIT LOCATION
 ENGI.   K. RALL/J. GETTY:   RECORDING ENGINEER
 WITN.            RHOADES:   WITNESSED BY
 CLNT.            A2DTECH:   CLIENT CODE
 ORIG.        2" 5" PRINT:   ORIGIN OF DATA
 UWI .       490251083200:   UNIQUE WELL ID
 DICO. A2D Technologies, Inc.:   DIGITIZING COMPANY
~OTHER INFORMATION
~A   DEPT      SFL        ILD        ILM        SPR       CALD        GRD       RHOB       CORR         DPHI     NPHI   
# ...
   49.5000    20.3193     4.9426     4.0835   -71.4363     8.7265    81.8015     2.0679     0.0151     0.3267     0.3942
   50.0000    20.0718     5.1200     4.1884   -69.7086     8.7348    84.3826     2.0505     0.0059     0.3350     0.4477
   50.5000    20.0923     5.2860     4.5189   -62.2418     8.7427    88.2355     2.0459     0.0027     0.3440     0.4598
   51.0000    19.5547     5.2378     4.5607   -48.4599     8.7503    90.3186     2.0431    -0.0020     0.3440     0.4337
   51.5000    19.8854     5.0798     4.2227   -35.2571     8.7582    90.6908     2.0433     0.0012     0.3455     0.4194
   52.0000    11.4342     4.9635     3.5084   -22.0983     8.7655    89.5726     2.0389     0.0100     0.3509     0.4430
   52.5000    10.3521     4.9094     2.7644   -14.7312     8.8418    88.2807     2.0045     0.0090     0.4086     0.4634
   53.0000     8.6592     5.2453     2.9275   -13.4505     9.0179    87.8799     2.0056    -0.0193     0.4765     0.5160
   53.5000     7.1470     5.8371     3.2975   -12.8495     9.1931    87.7400     2.0054    -0.0137     0.5058     0.5581
   54.0000     6.0678     6.5245     4.2165   -12.2553     9.3695    85.9913     2.0054     0.0242     0.4868     0.5220
   54.5000     7.5521     6.2607     6.5318   -11.5484     9.4489    80.3497     2.0058     0.0572     0.4171     0.4285
   55.0000     9.1393     5.7360     6.3843   -10.8261     9.4289    75.1980     2.0231     0.0903     0.3418     0.3991
   55.5000    11.0601     5.8483     6.2092   -10.1856     9.4063    72.4487     2.0695     0.1233     0.3225     0.3821
   56.0000    11.5619     7.0851     6.0390   -10.4042     9.4062    71.8754     2.0970     0.1530     0.3014     0.4066
   56.5000    10.9371     8.6412     5.9024   -10.6592     9.4628    70.6571     2.1291     0.1255     0.2811     0.4221
   57.0000     9.9071    10.5391     6.0685   -10.9661     9.5189    69.8279     2.1609     0.0884     0.2609     0.4416
   57.5000     8.8190    13.3815     6.7222   -11.3262     9.5079    71.6076     2.1871     0.0504     0.2609     0.4679
   58.0000     7.8565    13.4324     7.6273   -11.6838     9.4974    74.1721     2.2082     0.0367     0.2609     0.4808
   58.5000     7.4995    11.7098     6.5466   -12.1748     9.4883    75.6178     2.2264     0.0289     0.2609     0.4510
   59.0000     8.2896    10.2147     5.4572   -12.7168     9.6147    74.7066     2.2134     0.0223     0.2613     0.4432
   59.5000     8.8675     8.9337     4.5607   -13.2595    10.0254    72.7600     2.1002     0.0419     0.2801     0.4536
   60.0000     9.0998     8.6722     4.3202   -13.8025    10.3945    69.0339     2.0018     0.0717     0.4273     0.4673
   60.5000     8.8605     8.4410     5.3602   -14.3423    10.5953    65.3415     2.0059     0.1008     0.4834     0.4724
   61.0000     8.5030     8.2230     7.3115   -15.1152     9.8703    63.1833     2.0055     0.0956     0.4919     0.4648
   61.5000     8.2780     7.9989     9.9428   -16.2952     9.3398    64.4826     2.0053     0.0840     0.4641     0.4438
   62.0000     8.1260     7.6234    10.5446   -18.8754     9.0665    66.4134     2.0060     0.0956     0.4154     0.3855
   62.5000     7.9989     7.2783     8.4059   -21.4652     8.8719    66.8967     2.0086     0.1170     0.3668     0.4013
   63.0000     7.5198     7.0963     7.3387   -23.5375     8.8155    67.5018     2.0808     0.1134     0.3003     0.4085
   63.5000     7.0963     7.0336     6.7175   -24.2556     8.7340    69.3641     2.1552     0.0782     0.2785     0.4132
   64.0000     7.2619     7.0008     6.2955   -25.7934     8.6602    73.8903     2.2297     0.0454     0.2539     0.3979
   64.5000     7.5187     6.9667     6.1239   -27.6373     8.5387    83.3331     2.3018     0.0457     0.2272     0.4131
   65.0000     7.7096     6.9678     6.2608   -29.4898     8.4100    87.0242     2.3231     0.0499     0.2135     0.4257
   65.5000     7.3362     6.8396     6.3538   -31.2713     8.2394    87.4022     2.3313     0.0522     0.2074     0.4397
   66.0000     6.8211     6.2111     5.7980   -32.3558     8.0704    87.9933     2.3412     0.0459     0.2026     0.3829
   66.5000     6.3421     5.6871     5.4014   -32.3522     8.0213    89.3431     2.3490     0.0395     0.1988     0.3661
   67.0000     6.1806     4.9460     4.5248   -33.0007     7.9874    88.1959     2.3418     0.0346     0.2051     0.3693
   67.5000     6.1806     4.0293     3.6217   -33.9081     7.9533    85.8997     2.3105     0.0296     0.2115     0.3708
   68.0000     6.1239     3.2800     2.9012   -34.8209     7.9418    85.5675     2.2415     0.0236     0.2499     0.3836
   68.5000     4.8248     2.6708     2.3160   -35.7334     7.9416    85.9643     2.1681     0.0231     0.2895     0.3997
   69.0000     3.7196     2.1430     2.0467   -36.3720     7.9416    86.8500     2.1001     0.0277     0.3291     0.4145
   69.5000     3.0383     1.9664     1.8420   -36.7410     7.9416    90.4449     2.0509     0.0149     0.3687     0.4378
   70.0000     2.7735     1.8079     1.6626   -37.2886     7.9416    95.0590     2.0035    -0.0055     0.4016     0.6174
   70.5000     2.7229     1.6410     1.4815   -38.3050     7.9416   102.0609     2.0035    -0.0211     0.4192     0.6717
   71.0000     2.7364     1.4826     1.4826   -39.3912     7.9416   105.9594     2.0034    -0.0202     0.4144     0.6035
   71.5000     2.7546     1.4826     1.5398   -41.0744     7.9416   103.6117     2.0032    -0.0189     0.4041     0.5588
   72.0000     2.7713     1.5814     1.7043   -41.1338     7.9416    99.2453     2.0022    -0.0085     0.3854     0.5229
   72.5000     2.7180     1.8628     2.0434   -38.6608     7.9416    97.7241     2.0699     0.0113     0.2990     0.4575
   73.0000     2.6721     2.2077     2.4605   -36.0294     7.9416    98.4457     2.1452     0.0040     0.2774     0.3992
   73.5000     3.3656     2.5784     2.9983   -34.0549     7.9416    99.6208     2.2205    -0.0058     0.2557     0.3821
   74.0000     4.7777     2.8664     3.9565   -33.7971     7.9416   100.4780     2.2955    -0.0070     0.2166     0.3709
   74.5000     6.7822     3.8522     5.5219   -33.5100     7.9416    97.2104     2.3663     0.0014     0.1850     0.3208
   75.0000     8.3931     5.4417     5.4987   -33.1982     7.9416    94.1469     2.3744     0.0085     0.1820     0.3003
   75.5000     8.0672     6.8789     6.7222   -32.8615     7.9416    92.3402     2.3812     0.0182     0.1780     0.2720
   76.0000     8.6062     8.6957     7.6346   -32.5685     7.9416    90.5558     2.4108     0.0432     0.1518     0.2663
   76.5000     9.2181    10.8979     8.6704   -32.6276     7.9416    88.7618     2.4441     0.0622     0.1356     0.2578
   77.0000     9.8608    12.6774     9.3651   -32.6901     7.9416    86.9060     2.4513     0.0504     0.1347     0.2469
   77.5000     9.9777    12.7947     9.7956   -32.7580     7.9416    86.1604     2.4431     0.0342     0.1415     0.2517
   78.0000     9.7875    12.3115     9.7956   -33.2871     7.9416    86.8772     2.4321     0.0342     0.1482     0.2672
   78.5000     9.5915    10.7565     8.9569   -33.8732     7.9416    87.6477     2.4370     0.0384     0.1446     0.2768
   79.0000     9.1308     8.9370     7.7002   -34.4595     7.9416    85.8012     2.4357     0.0422     0.1442     0.2824
   79.5000     8.6923     7.4252     6.3749   -35.0450     7.9422    84.0017     2.4164     0.0172     0.1619     0.2872
   80.0000     8.2889     6.1692     5.2777   -35.6308     7.9465    85.9149     2.3534    -0.0103     0.2010     0.3210
   80.5000     6.5593     5.3779     4.3331   -36.2208     7.9508    89.3355     2.2861    -0.0224     0.2384     0.3309
   81.0000     5.2418     4.6212     3.8639   -36.5914     7.9551    89.8172     2.2751    -0.0047     0.2409     0.3464
   81.5000     4.1954     4.0042     3.8285   -36.7048     7.9594    90.4178     2.2763     0.0169     0.2312     0.3701
   82.0000     4.0835     3.8954     4.5193   -36.2923     7.9637    92.0631     2.3003     0.0383     0.2198     0.3874
   82.5000     4.6150     4.0089     5.0768   -35.3297     7.9680    93.9470     2.3197     0.0501     0.2085     0.3738
