~VERSION INFORMATION
 VERS.                2.0:   CWLS LOG ASCII STANDARD - VERSION 2.0
 WRAP.                 NO:   ONE LINE PER DEPTH STEP
~WELL INFORMATION
#MNEM.UNIT      DATA TYPE    INFORMATION
#----------   ------------   ------------------------------
 STRT.F           32.0000:   START DEPTH
 STOP.F          571.0000:   STOP DEPTH
 STEP.F            0.5000:   STEP LENGTH
 NULL.          -999.2500:   NO VALUE
 COMP. FENIX & SCISSON INCORP.:   COMPANY
 WELL.      NPR-3 #21-S-3:   WELL
 FLD .             TEAPOT:   FIELD
 LOC .       S3 T38N R78W:   LOCATION
 CNTY.            NATRONA:   COUNTY
 STAT.            WYOMING:   STATE
 CTRY. UNITED STATES OF AMERICA:   COUNTRY
 SRVC.           BIRDWELL:   SERVICE COMPANY
 DATE.        25-JUL-1978:   LOGDATE
 API .       490251067100:   API NUMBER
~CURVE INFORMATION
#MNEM.UNIT       API CODE    CURVE DESCRIPTION
#----------   ------------   ------------------------------
 DEPT.F                  :   
 CALD.IN     45 280 60 00:   CALIPER FROM DENSITY LOG
 CORR.G/C3   45 356 01 00:   DENSITY CORRECTION
 DPHI.DEC    45 890 10 00:   DENSITY POROSITY LIMESTONE
 GRD .GAPI   45 310 01 00:   GAMMA RAY FROM DENSITY LOG
 RHOB.G/C3   45 350 01 00:   BULK DENSITY
 ILD .OHMM   05 120 46 00:   INDUCTION LOG DEEP
 SN  .OHMM   05 040 16 00:   SHORT NORMAL 16"
 SPR .MV     05 010 01 00:   SPONTANEOUS POTENTIAL FROM RES.
 NPHI.DEC    42 890 01 00:   NEUTRON POROSITY LIMESTONE
~PARAMETER INFORMATION
#MNEM.UNIT          VALUE    DESCRIPTION
#----------   ------------   ------------------------------
 PD  .                 GL:   PERMANENT DATUM
 EPD .F              5203:   ELEVATION PERMANENT DATUM
 LMF .                 KB:   LOG MEASURED FROM
 DAPD.F                 4:   FEET ABOVE PERMANENT DATUM
 DMF .                 KB:   DRILLING MEASURED FROM
 EKB .F              5207:   KELLING BUSHING
 EGL .F              5203:   GROUND LEVEL
 DATE.        25-JUL-1978:   RUN DATE
 RUN .                  1:   RUN NUMBER
 DD  .F               565:   DEPTH DRILLER
 DL  .F               573:   DEPTH LOGGER
 BLI .F               566:   BOTTOM LOG INTERVAL
 TLI .F                46:   TOP LOG INTERVAL
 CS  .IN            8.625:   CASING SIZE
 CBD .F                40:   CASING BOTTOM DRILLER
 CBL .F                48:   CASING BOTTOM LOGGER
 BS  .IN            7.875:   BIT SIZE
 BSD .F               565:   BIT SIZE AT DEPTH
 DFT .                KCL:   DRILLING FLUID TYPE
 DFD .                8.6:   DRILLING FLUID DENSITY
 DFV .                 30:   DRILLING FLUID VISCOSITY
 DFPH.                  9:   DRILLING FLUID PH
 MSS .           FLOWLINE:   MUD SAMPLE SOURCE
 LUN .               2958:   LOGGING UNIT NUMBER
 LUL .               CASP:   LOGGING UNIT LOCATION
 WITN.           MCGINLEY:   WITNESSED BY
 CLNT.            A2DTECH:   CLIENT CODE
 ORIG.           5" PRINT:   ORIGIN OF DATA
 UWI .       490251067100:   UNIQUE WELL ID
 DICO. A2D Technologies, Inc.:   DIGITIZING COMPANY
~OTHER INFORMATION
~A   DEPT     CALD       CORR       DPHI         GRD      RHOB        ILD         SN        SPR       NPHI   
# ...
  178.0000     6.6479     0.1455     0.1342   104.3845     2.4595     8.5267     8.6869   -47.9026  -999.2500
  178.5000     6.5289     0.1484     0.1321   105.3618     2.4550     8.5335     8.6934   -47.5911  -999.2500
  179.0000     6.4697     0.1454     0.1426   107.2519     2.4627     8.5403     8.6987   -47.7289  -999.2500
  179.5000     6.4553     0.1183     0.1486   106.5102     2.4917     8.5471     8.7039   -47.8632  -999.2500
  180.0000     6.4710     0.0432     0.1565   106.3655     2.4864     8.4935     8.7091   -47.9938  -999.2500
  180.5000     6.5014     0.0327     0.1609   107.7260     2.4377     8.5608     8.7143   -47.9792  -999.2500
  181.0000     6.5618     0.0280     0.1534   109.5350     2.4273     8.5677     8.7196   -48.1137  -999.2500
  181.5000     6.6222     0.0221     0.1556   111.0438     2.4302     8.6432     8.7249   -48.0958  -999.2500
  182.0000     6.7125     0.0161     0.1693   111.0551     2.4295     8.7623     8.7918   -48.0814  -999.2500
  182.5000     6.7878     0.0101     0.1667   110.4229     2.4152     8.8909     8.8579   -48.2193  -999.2500
  183.0000     6.8332     0.0100     0.1556   109.2656     2.4122     8.9595     8.9245   -48.0527  -999.2500
  183.5000     6.8936     0.0070     0.1447   108.8206     2.4224     9.0287     8.9917   -47.8898  -999.2500
  184.0000     6.9587    -0.0035     0.1360   110.0309     2.4422     9.1613     9.1220   -47.7147  -999.2500
  184.5000     7.0145    -0.0096     0.1307   107.4856     2.4602     9.2958     9.2542   -47.4118  -999.2500
  185.0000     7.1047    -0.0081     0.1286   106.5920     2.4684     9.4412     9.3883   -47.2488  -999.2500
  185.5000     7.1800    -0.0081     0.1292   106.1488     2.4721     9.5727     9.5245   -47.2345  -999.2500
  186.0000     7.2404    -0.0082     0.1316   105.3974     2.4714     9.7132     9.7970   -47.2202  -999.2500
  186.5000     7.3307    -0.0082     0.1271   104.3383     2.4699     9.7882     9.8754   -47.2058  -999.2500
  187.0000     7.3462    -0.0082     0.1283   103.6199     2.4698     9.9319    10.0153   -46.7457  -999.2500
  187.5000     7.4066    -0.0098     0.1352   103.4752     2.4773    10.0086    10.0906   -46.4339  -999.2500
  188.0000     7.4389    -0.0068     0.1310   104.2351     2.4691    10.0166    10.2369   -46.4162  -999.2500
  188.5000     7.4677    -0.0053     0.1262   104.2423     2.4668    10.0941    10.3139   -46.5541  -999.2500
  189.0000     7.4683    -0.0053     0.1197   103.4988     2.4751    10.3149    10.4633   -46.0904  -999.2500
  189.5000     7.5286    -0.0054     0.1206   104.1067     2.4818    10.6116    10.5420   -46.0760  -999.2500
  190.0000     7.5442    -0.0069     0.1266   105.7858     2.4840    10.9168    10.5484   -45.9131  -999.2500
  190.5000     7.5447    -0.0054     0.1314   105.6246     2.4810    11.2307    10.5549   -45.8988  -999.2500
  191.0000     7.5453     0.0035     0.1323   104.8811     2.4698    11.6336    10.5626   -45.8841  -999.2500
  191.5000     7.5309     0.0155     0.1329   103.0866     2.4660    11.8044    10.4948   -45.5693  -999.2500
  192.0000     7.5154     0.0275     0.1338   101.2902     2.4668    11.9857    10.3573   -45.2578  -999.2500
  192.5000     7.4426     0.0545     0.1347   101.5996     2.4668    12.1560    10.2923   -45.2434  -999.2500
  193.0000     7.2040     0.0695     0.1377   101.9072     2.4675    12.2498    10.3001   -45.3813  -999.2500
  193.5000     6.9654     0.1065     0.1443   101.6142     2.4645    12.3444    10.3062   -45.5155  -999.2500
  194.0000     6.7567     0.1475     0.1485   101.4555     2.4563    12.4396    10.3125   -45.6464  -999.2500
  194.5000     6.6228     0.1475     0.1344    99.5284     2.4495    12.3616    10.1773   -45.6318  -999.2500
  195.0000     6.5486     0.1429     0.1221    96.0804     2.4593    12.2890    10.1135   -45.7661  -999.2500
  195.5000     6.5193     0.1219     0.1185    99.2427     2.4795    11.9646    10.0500   -45.1538  -999.2500
  196.0000     6.4601     0.0798     0.1200   101.0517     2.4907    11.7292    10.0576   -45.1394  -999.2500
  196.5000     6.4607     0.0513     0.1413   101.3575     2.4765    11.5008    10.0636   -45.1251  -999.2500
  197.0000     6.4763     0.0302     0.1575   100.0152     2.4487    11.4287    10.0003   -45.2629  -999.2500
  197.5000     6.5068     0.0241     0.1650    97.7652     2.4315    11.2835     9.9377   -45.5423  -999.2500
  198.0000     6.5522     0.0166     0.1707    96.0821     2.4158    11.2150     9.8754   -45.0679  -999.2500
  198.5000     6.6276     0.0106     0.1749    95.3842     2.4045    11.0704     9.8134   -44.7669  -999.2500
  199.0000     6.7029     0.0061     0.1773    95.5416     2.3963    10.8488     9.8208   -45.0498  -999.2500
  199.5000     6.7782     0.0030     0.1729    95.5489     2.3940    10.4957     9.8947   -45.1840  -999.2500
  200.0000     6.8834     0.0000     0.1648    96.1569     2.3955    10.2165     9.8321   -45.0192  -999.2500
  200.5000     7.0660     0.0000     0.1570    97.6628     2.4037    10.3647    10.1147   -45.0005  -999.2500
  201.0000     7.1715    -0.0030     0.1510   100.3700     2.4255    10.2295    10.1937   -44.9818  -999.2500
  201.5000     7.3646    -0.0030     0.1450   102.4765     2.4367    10.0935    10.2718   -45.1116  -999.2500
  202.0000     7.4552    -0.0016     0.1357   104.2827     2.4509     9.8937    10.2793   -45.2422  -999.2500
  202.5000     7.5308    -0.0016     0.1351   104.4373     2.4592     9.6965    10.3580   -45.2228  -999.2500
  203.0000     7.5616    -0.0016     0.1358   102.7901     2.4629     9.4379    10.3656   -45.3527  -999.2500
  203.5000     7.5772     0.0014     0.1396    99.4912     2.4629     9.3138    10.3732   -45.9237  -999.2500
  204.0000     7.5185     0.0119     0.1444    96.7929     2.4516     9.2548    10.4528   -46.0582  -999.2500
  204.5000     7.4892     0.0316     0.1486    96.4870     2.4449     9.1342    10.3904   -46.1881  -999.2500
  205.0000     7.4305     0.0564     0.1516    97.5526     2.4426     9.0128    10.3980   -46.1647  -999.2500
  205.5000     7.3567     0.0959     0.1528    98.0075     2.4389     8.9569    10.4056   -45.8488  -999.2500
  206.0000     7.0437     0.1410     0.1516    98.0120     2.4351     8.9617    10.4132   -45.8148  -999.2500
  206.5000     6.8203     0.1605     0.1504    98.6180     2.4336     8.8438    10.3474   -45.9600  -999.2500
  207.0000     6.5926     0.1635     0.1486   100.1239     2.4351     8.8485    10.3569   -45.6206  -999.2500
  207.5000     6.4484     0.1589     0.1354   100.7290     2.4403     8.7924    10.3645   -45.1750  -999.2500
  208.0000     6.3897     0.1364     0.1270   101.0337     2.4598     8.6779    10.1616   -45.1562  -999.2500
  208.5000     6.3906     0.0793     0.1300   100.5877     2.4725     8.5626    10.0992   -45.2908  -999.2500
  209.0000     6.4064     0.0403     0.1587   100.4408     2.4717     8.3930    10.0372   -45.2674  -999.2500
  209.5000     6.4372     0.0252     0.1801   100.7467     2.4505     8.2826     9.9070   -45.2487  -999.2500
  210.0000     6.4829     0.0222     0.1834   101.0503     2.3879     8.3443     9.7113   -45.2300  -999.2500
  210.5000     6.5286     0.0207     0.1783   100.4552     2.3849     8.3487     9.5195   -45.2110  -999.2500
  211.0000     6.6043     0.0189     0.1738    99.4086     2.3878     8.3532     9.2666   -45.1879  -999.2500
  211.5000     6.6649     0.0147     0.1681    97.9116     2.4006     8.3003     8.8984   -45.1692  -999.2500
  212.0000     6.7256     0.0086     0.1633    96.8649     2.4148     8.2477     8.7846   -45.3038  -999.2500
  212.5000     6.8162     0.0071     0.1633    96.8694     2.4163     8.3102     8.4348   -45.7261  -999.2500
  213.0000     6.8918     0.0011     0.1618    97.4945     2.4163     8.3721     8.4410   -45.7074  -999.2500
  213.5000     7.0442    -0.0034     0.1580    98.8504     2.4178     8.4345     8.4472   -45.5401  -999.2500
  214.0000     7.1820    -0.0034     0.1526    99.8868     2.4245     8.4973     8.4534   -45.5214  -999.2500
