~VERSION INFORMATION
 VERS.                2.0:   CWLS LOG ASCII STANDARD - VERSION 2.0
 WRAP.                 NO:   ONE LINE PER DEPTH STEP
~WELL INFORMATION
#MNEM.UNIT      DATA TYPE    INFORMATION
#----------   ------------   ------------------------------
 STRT.F            2.0000:   START DEPTH
 STOP.F          508.0000:   STOP DEPTH
 STEP.F            0.1000:   STEP LENGTH
 NULL.          -999.2500:   NO VALUE
 COMP. LAWRENCE/ALLISON INC:   COMPANY
 WELL.      48-41 SX #3-3:   WELL
 FLD .             TEAPOT:   FIELD
 LOC .       S3 T38N R78W:   LOCATION
 CNTY.            NATRONA:   COUNTY
 STAT.            WYOMING:   STATE
 CTRY. UNITED STATES OF AMERICA:   COUNTRY
 SRVC.           Gearhart:   SERVICE COMPANY
 DATE.        09-JUL-1988:   LOGDATE
 API .       490251123300:   API NUMBER
~CURVE INFORMATION
#MNEM.UNIT       API CODE    CURVE DESCRIPTION
#----------   ------------   ------------------------------
 DEPT.F                  :   
 GRR .GAPI   07 310 01 00:   GAMMA RAY
 RILD.OHMM   07 120 46 00:   INDUCTION LOG DEEP RESISTIVITY
 RILM.OHMM   07 120 44 00:   INDUCTION LOG MEDIUM RESISTIVITY
~PARAMETER INFORMATION
#MNEM.UNIT          VALUE    DESCRIPTION
#----------   ------------   ------------------------------
 PD  .                 GL:   PERMANENT DATUM
 EPD .F              5200:   ELEVATION PERMANENT DATUM
 LMF .                 KB:   LOG MEASURED FROM
 DAPD.F                 5:   FEET ABOVE PERMANENT DATUM
 DMF .                 KB:   DRILLING MEASURED FROM
 EKB .F              5205:   KELLING BUSHING
 EDF .F              5204:   DRILLING FLOOR
 EGL .F              5200:   GROUND LEVEL
 DATE.        09-JUL-1988:   RUN DATE
 RUN .                  1:   RUN NUMBER
 DD  .F               510:   DEPTH DRILLER
 DL  .F               516:   DEPTH LOGGER
 BLI .F               508:   BOTTOM LOG INTERVAL
 TLI .F               1.5:   TOP LOG INTERVAL
 CS  .IN            9.625:   CASING SIZE
 CBD .F                40:   CASING BOTTOM DRILLER
 CBL .F                45:   CASING BOTTOM LOGGER
 BS  .IN             8.75:   BIT SIZE
 BSD .F               510:   BIT SIZE AT DEPTH
 DFT .                AIR:   DRILLING FLUID TYPE
 TCS .HRS            1800:   TIME CURCULATED STOPPED
 TLAB.HRS            1843:   TIME LOGGER AT BOTTOM
 MRT .F                70:   MAXIMUM RECORDED TEMPERATURE
 LUN .               7597:   LOGGING UNIT NUMBER
 LUL .           GILLETTE:   LOGGING UNIT LOCATION
 ENGI.         WEATHERMON:   RECORDING ENGINEER
 WITN.              FIVAS:   WITNESSED BY
 CLNT.            A2DTECH:   CLIENT CODE
 ORIG.           5" PRINT:   ORIGIN OF DATA
 UWI .       490251123300:   UNIQUE WELL ID
 DICO. A2D Technologies, Inc.:   DIGITIZING COMPANY
~OTHER INFORMATION
~A    DEPT      GRR      RILD       RILM   
# ...
  129.4000   109.8392    10.0892    10.1047
  129.5000   110.4102    10.0896    10.1046
  129.6000   110.9162    10.0901    10.1044
  129.7000   111.3345    10.0904    10.1043
  129.8000   111.6272    10.0909    10.1042
  129.9000   112.1551    10.0913    10.1040
  130.0000   112.3983    10.0917    10.1039
  130.1000   112.8442    10.0921    10.1037
  130.2000   113.2079    10.0926    10.1036
  130.3000   113.4618    10.0930    10.1159
  130.4000   113.6721    10.0934    10.1735
  130.5000   112.4676    10.1209    10.1734
  130.6000   111.4846    10.1644    10.1733
  130.7000   110.2808    10.1648    10.1731
  130.8000   108.7270    10.1653    10.1984
  130.9000   107.2572    10.1657    10.2436
  131.0000   106.1061    10.1661    10.2434
  131.1000   104.3336    10.1665    10.2432
  131.2000   102.8296    10.1669    10.2431
  131.3000   101.9227    10.1673    10.2430
  131.4000   101.0158    10.1678    10.2428
  131.5000   100.2140    10.1682    10.2427
  131.6000    99.6583    10.1687    10.2425
  131.7000    98.9040    10.1386    10.2424
  131.8000    98.0118    10.0992    10.2423
  131.9000    97.6006    10.0997    10.2421
  132.0000    96.9411    10.1001    10.2420
  132.1000    96.4011    10.1005    10.2419
  132.2000    96.2667    10.1009    10.2365
  132.3000    96.5123    10.1013    10.1708
  132.4000    96.5143    10.1017    10.1707
  132.5000    96.7269    10.1022    10.1296
  132.6000    97.1426    10.1026    10.1003
  132.7000    97.5367    10.1030    10.1001
  132.8000    97.7907    10.1034    10.1000
  132.9000    98.0581    10.1038    10.0998
  133.0000    98.6368    10.1043    10.0463
  133.1000    98.8543    10.1047    10.0299
  133.2000    98.9418    10.1051    10.0297
  133.3000    99.0606    10.1055    10.0104
  133.4000    99.2471    10.0593     9.9524
  133.5000    99.2488    10.0366     9.8913
  133.6000    99.2509    10.0370     9.8375
  133.7000    99.2525    10.0248     9.8228
  133.8000    99.0831     9.9672     9.7915
  133.9000    99.0763     9.9002     9.7547
  134.0000    99.3303     9.8531     9.7456
  134.1000    99.6303     9.7965     9.6872
  134.2000   100.4684     9.7403     9.6332
  134.3000   101.1467     9.6706     9.5773
  134.4000   102.0810     9.5621     9.5535
  134.5000   102.9651     9.4993     9.5325
  134.6000   103.6463     9.4526     9.4773
  134.7000   104.1804     9.3625     9.4217
  134.8000   105.0041     9.3050     9.3145
  134.9000   105.6973     9.2906     9.2919
  135.0000   106.4558     9.2372     9.2597
  135.1000   107.0824     9.1781     9.2061
  135.2000   107.5064     9.1314     9.1637
  135.3000   107.7605     9.0789     9.1623
  135.4000   108.0315     9.0528     9.0374
  135.5000   108.2685     9.0374     9.0373
  135.6000   108.3367     8.9854     9.0047
  135.7000   108.3384     8.9293     8.9526
  135.8000   108.4272     8.9297     8.9126
  135.9000   108.6438     8.8929     8.9106
  136.0000   108.6456     8.8418     8.8508
  136.1000   108.6473     8.8078     8.8078
  136.2000   108.6492     8.8013     8.7568
  136.3000   108.5098     8.7478     8.7288
  136.4000   108.3511     8.7481     8.7158
  136.5000   108.3950     8.7106     8.6683
  136.6000   108.6565     8.6884     8.6681
  136.7000   108.6582     8.6707     8.6680
  136.8000   108.6600     8.6209     8.6344
  136.9000   108.8079     8.5699     8.6080
  137.0000   108.9653     8.5702     8.6079
  137.1000   108.9671     8.5321     8.6077
  137.2000   108.9689     8.5118     8.6076
  137.3000   108.9707     8.5121     8.6075
  137.4000   108.9726     8.5125     8.6074
  137.5000   108.9743     8.5128     8.6073
  137.6000   108.6719     8.5133     8.6071
  137.7000   107.9171     8.5136     8.6070
  137.8000   107.1622     8.5139     8.6069
  137.9000   106.2670     8.5142     8.6067
  138.0000   105.6533     8.5146     8.6066
  138.1000   104.8984     8.5150     8.6327
  138.2000   104.2498     8.5154     8.6662
  138.3000   103.6903     8.5157     8.6661
  138.4000   102.9501     8.5160     8.6660
  138.5000   102.6579     8.5163     8.6658
  138.6000   102.2396     8.5167     8.6657
  138.7000   101.8975     8.5171     8.6656
  138.8000   101.7581     8.5175     8.6655
  138.9000   101.8830     8.5178     8.6654
  139.0000   102.4014     8.5181     8.6653
  139.1000   103.2721     8.5185     8.6651
  139.2000   103.9178     8.5189     8.6650
  139.3000   104.6760     8.5192     8.6649
  139.4000   105.4345     8.5196     8.6648
  139.5000   106.1930     8.5199     8.6647
  139.6000   106.9514     8.5203     8.6645
  139.7000   107.8078     8.5456     8.6644
  139.8000   108.4684     8.5802     8.6643
  139.9000   108.8862     8.5806     8.6642
  140.0000   109.3813     8.5810     8.6641
  140.1000   110.1398     8.5813     8.6742
  140.2000   110.8548     8.5816     8.7240
  140.3000   111.1369     8.5820     8.7239
  140.4000   110.6123     8.5824     8.7238
  140.5000   110.1869     8.5827     8.7236
  140.6000   109.8098     8.5831     8.7236
  140.7000   109.4834     8.5834     8.7235
  140.8000   109.0076     8.5838     8.7233
  140.9000   108.7344     8.5842     8.7232
  141.0000   108.7361     8.5845     8.7231
  141.1000   108.5581     8.5849     8.7229
  141.2000   108.3076     8.5852     8.7228
  141.3000   108.0573     8.5856     8.7227
  141.4000   107.8381     8.5860     8.7226
  141.5000   107.8402     8.5863     8.7224
  141.6000   107.6079     8.6064     8.7223
  141.7000   107.5421     8.6468     8.7222
  141.8000   107.5439     8.6471     8.7221
  141.9000   107.5457     8.6475     8.7220
  142.0000   107.5835     8.6478     8.7219
  142.1000   107.8511     8.6482     8.7217
  142.2000   108.0917     8.6699     8.7216
  142.3000   108.3457     8.7091     8.7215
  142.4000   108.5997     8.7094     8.7214
  142.5000   108.9443     8.7098     8.7212
  142.6000   109.4505     8.7102     8.7211
  142.7000   109.9735     8.7105     8.7210
  142.8000   110.2189     8.7338     8.7670
  142.9000   110.4730     8.7718     8.7814
  143.0000   110.7270     8.7721     8.7813
  143.1000   110.9810     8.7726     8.7811
  143.2000   111.2350     8.7729     8.7810
  143.3000   111.4926     8.7732     8.7809
  143.4000   111.7429     8.7982     8.7807
  143.5000   111.9969     8.8350     8.7806
  143.6000   112.2509     8.8353     8.7805
  143.7000   112.5049     8.8358     8.7804
  143.8000   112.7083     8.8824     8.7880
  143.9000   112.7126     8.8979     8.8412
  144.0000   113.3156     8.9247     8.8410
  144.1000   113.3170     8.9605     8.8800
  144.2000   113.4732     8.9673     8.9315
  144.3000   113.5174     9.0236     8.9640
  144.4000   113.2115     9.0240     8.9730
  144.5000   112.7089     9.0629     9.0260
  144.6000   112.1198     9.1160     9.0259
  144.7000   111.7036     9.1511     9.0670
  144.8000   111.3605     9.1594     9.0884
  144.9000   111.0005     9.2155     9.1091
  145.0000   110.5582     9.2672     9.1619
  145.1000   110.3077     9.3215     9.2147
  145.2000   110.0190     9.3453     9.2146
  145.3000   109.8069     9.3659     9.2579
  145.4000   109.5565     9.4208     9.2784
  145.5000   109.3062     9.4769     9.2783
  145.6000   109.0559     9.4773     9.2782
  145.7000   108.8210     9.5213     9.2795
  145.8000   108.8232     9.5439     9.3423
  145.9000   108.6063     9.5444     9.3422
  146.0000   108.3559     9.5448     9.3421
  146.1000   108.1055     9.5459     9.3660
  146.2000   107.9252     9.6120     9.4068
  146.3000   107.9270     9.6582     9.4066
  146.4000   107.9290     9.7148     9.4065
  146.5000   108.1538     9.7473     9.4064
  146.6000   108.4079     9.7477     9.4062
  146.7000   108.7863     9.7481     9.4061
  146.8000   109.2924     9.7486     9.4060
  146.9000   109.7730     9.7490     9.4058
  147.0000   110.0515     9.7494     9.4057
  147.1000   110.2811     9.7498     9.4056
  147.2000   110.7138     9.7353     9.4054
  147.3000   111.0909     9.6832     9.4053
  147.4000   111.3449     9.6837     9.4052
  147.5000   111.5686     9.6841     9.3997
