~VERSION INFORMATION
 VERS.                2.0:   CWLS LOG ASCII STANDARD - VERSION 2.0
 WRAP.                 NO:   ONE LINE PER DEPTH STEP
~WELL INFORMATION
#MNEM.UNIT      DATA TYPE    INFORMATION
#----------   ------------   ------------------------------
 STRT.F           40.0000:   START DEPTH
 STOP.F          876.5000:   STOP DEPTH
 STEP.F            0.5000:   STEP LENGTH
 NULL.          -999.2500:   NO VALUE
 COMP. FENIX & SCISSON INC:   COMPANY
 WELL.     NPR 3 #41-S-14:   WELL
 FLD .             TEAPOT:   FIELD
 LOC .      S14 T38N R78W:   LOCATION
 CNTY.            NATRONA:   COUNTY
 STAT.            WYOMING:   STATE
 CTRY. UNITED STATES OF AMERICA:   COUNTRY
 SRVC.            Unknown:   SERVICE COMPANY
 DATE.        12-MAR-1978:   LOGDATE
 API .       490251060200:   API NUMBER
~CURVE INFORMATION
#MNEM.UNIT       API CODE    CURVE DESCRIPTION
#----------   ------------   ------------------------------
 DEPT.F                  :   
 CALD.IN     45 280 60 00:   CALIPER FROM DENSITY LOG
 GRD .GAPI   45 310 01 00:   GAMMA RAY FROM DENSITY LOG
 RHOB.G/C3   45 350 01 00:   BULK DENSITY
 DPHI.DEC    45 890 12 00:   DENSITY POROSITY SANDSTONE
 CORR.G/C3   45 356 01 00:   DENSITY CORRECTION
 SPR .MV     05 010 01 00:   SPONTANEOUS POTENTIAL FROM RES.
 IL  .OHMM   05 120 00 00:   INDUCTION LOG
 SN  .OHMM   05 040 16 00:   SHORT NORMAL 16"
~PARAMETER INFORMATION
#MNEM.UNIT          VALUE    DESCRIPTION
#----------   ------------   ------------------------------
 PD  .                 GL:   PERMANENT DATUM
 EPD .F              5211:   ELEVATION PERMANENT DATUM
 LMF .                 KB:   LOG MEASURED FROM
 DMF .                 KB:   DRILLING MEASURED FROM
 EKB .F              5215:   KELLING BUSHING
 EGL .F              5211:   GROUND LEVEL
 DATE.            3-12-78:   RUN DATE
 RUN .                  1:   RUN NUMBER
 DD  .F               870:   DEPTH DRILLER
 DL  .F               872:   DEPTH LOGGER
 BLI .F               866:   BOTTOM LOG INTERVAL
 TLI .F                50:   TOP LOG INTERVAL
 CS  .IN            8.625:   CASING SIZE
 CBD .F                40:   CASING BOTTOM DRILLER
 CBL .F                40:   CASING BOTTOM LOGGER
 BS  .IN            7.875:   BIT SIZE
 BSD .F               870:   BIT SIZE AT DEPTH
 DFT .                KCL:   DRILLING FLUID TYPE
 DFD .                8.6:   DRILLING FLUID DENSITY
 DFV .                 33:   DRILLING FLUID VISCOSITY
 DFPH.                 10:   DRILLING FLUID PH
 DFL .               12.1:   DRILLING FLUID LOSS
 MSS .           FLOWLINE:   MUD SAMPLE SOURCE
 RMS .OHMM            .32:   RESISTIVITY MUD SAMPLE
 MST .F                54:   MUD SAMPLE TEMPERATURE
 RMF .OHMM            .36:   RESISTIVITY MUD FILTRATE SAMPLE
 MFST.F                55:   MUD FILTRATE SAMPLE TEMPERATURE
 RMC .OHMM             .5:   RESISTIVITY MUD CAKE
 MCST.F                56:   MUD CAKE SAMPLE TEMPERATURE
 MFSS.           MEASURED:   MUD FILTRATE SAMPLE SOURCE
 MCSS.           MEASURED:   MUD CAKE SAMPLE SOURCE
 RMB .OHMM            .24:   RESISTIVITY MUD AT BHT
 BHT .F                72:   BOTTOM HOLE TEMPERATURE
 TCS .HRS               4:   TIME CURCULATED STOPPED
 MRT .F                72:   MAXIMUM RECORDED TEMPERATURE
 LUN .               2958:   LOGGING UNIT NUMBER
 LUL .               CASP:   LOGGING UNIT LOCATION
 ENGI.             MILLER:   RECORDING ENGINEER
 WITN.         HARRINGTON:   WITNESSED BY
 CLNT.            A2DTECH:   CLIENT CODE
 ORIG.        2" 5" PRINT:   ORIGIN OF DATA
 UWI .       490251060200:   UNIQUE WELL ID
 DICO. A2D Technologies, Inc.:   DIGITIZING COMPANY
~OTHER INFORMATION
~A   DEPT     CALD         GRD      RHOB       DPHI       CORR        SPR         IL         SN   
# ...
   80.5000     8.1691    77.3795     2.3540     0.1625     0.0047   -51.2948     4.7579     5.3577
   81.0000     8.1695    77.8566     2.3566     0.1612     0.0050   -51.3679     4.7112     5.3469
   81.5000     8.1700    77.9310     2.3568     0.1614     0.0054   -51.2940     4.6649     5.3362
   82.0000     8.1704    77.8373     2.3493     0.1641     0.0058   -51.2245     4.6192     5.3255
   82.5000     8.1709    77.7933     2.3552     0.1621     0.0061   -51.2696     4.5615     5.3148
   83.0000     8.1713    78.9418     2.3625     0.1599     0.0065   -51.4505     4.5698     5.3039
   83.5000     8.1718    83.3466     2.3609     0.1585     0.0069   -51.7043     4.5813     5.2881
   84.0000     8.1722    87.4355     2.3568     0.1609     0.0076   -52.2489     4.5929     5.3123
   84.5000     8.1727    87.3638     2.3527     0.1645     0.0083   -52.5809     4.6038     5.3628
   85.0000     8.1732    86.9064     2.3486     0.1674     0.0090   -52.5810     4.6236     5.4137
   85.5000     8.1736    84.7193     2.3449     0.1713     0.0097   -52.5836     4.6424     5.4652
   86.0000     8.1741    79.9762     2.3497     0.1669     0.0104   -52.5834     4.6612     5.5171
   86.5000     8.1745    81.1208     2.3554     0.1609     0.0111   -52.5832     4.6801     5.5475
   87.0000     8.1750    83.1777     2.3610     0.1583     0.0118   -52.5832     4.6991     5.5630
   87.5000     8.1754    85.0821     2.3568     0.1605     0.0125   -52.5797     4.7182     5.5784
   88.0000     8.1759    84.4598     2.3565     0.1620     0.0104   -52.7357     4.7373     5.6161
   88.5000     8.1763    81.8840     2.3595     0.1602     0.0057   -52.9530     4.7565     5.6980
   89.0000     8.1768    79.2930     2.3623     0.1585     0.0009   -53.1722     4.7758     5.7813
   89.5000     8.1772    79.0084     2.3640     0.1591    -0.0039   -53.3768     4.7952     5.8653
   90.0000     8.1777    81.1512     2.3643     0.1588    -0.0074   -53.3830     4.8147     5.9506
   90.5000     8.1781    82.5401     2.3646     0.1566     0.0024   -53.3951     4.8671     5.9774
   91.0000     8.1786    82.4339     2.3652     0.1545     0.0084   -52.9859     4.9379     5.9943
   91.5000     8.1791    82.3665     2.3759     0.1522     0.0085   -52.4882     5.0097     6.0113
   92.0000     8.1795    82.8199     2.3852     0.1507     0.0092   -52.4735     5.0825     6.0867
   92.5000     8.1799    84.0987     2.3841     0.1498     0.0170   -52.5678     5.1755     6.2028
   93.0000     8.1804    83.3371     2.3828     0.1488     0.0185   -52.0123     5.3634     6.3211
   93.5000     8.1809    81.9077     2.3908     0.1467     0.0185   -51.5773     5.5582     6.4418
   94.0000     8.1813    80.9081     2.4005     0.1421     0.0193   -51.5856     5.6980     6.6006
   94.5000     8.1818    78.7989     2.3961     0.1376     0.0215   -51.5855     5.7351     6.5981
   95.0000     8.1822    77.6178     2.4012     0.1328     0.0220   -51.5852     5.7724     6.5930
   95.5000     8.1827    78.0253     2.4052     0.1356     0.0206   -51.5854     5.7999     6.5879
   96.0000     8.1831    78.7904     2.3951     0.1384     0.0230   -51.5854     5.7625     6.5828
   96.5000     8.1836    79.2150     2.3872     0.1420     0.0257   -51.5854     5.7055     6.5778
   97.0000     8.1841    82.1501     2.3890     0.1428     0.0284   -51.5854     5.6491     6.5727
   97.5000     8.1843    85.9752     2.3930     0.1412     0.0276   -51.5854     5.5931     6.5677
   98.0000     8.1630    86.3806     2.3940     0.1411     0.0267   -51.5856     5.5377     6.5626
   98.5000     8.1394    86.3733     2.3923     0.1416     0.0312   -51.5846     5.4829     6.5575
   99.0000     8.1159    84.3070     2.3956     0.1390     0.0297   -51.5411     5.4425     6.5526
   99.5000     8.0917    82.3608     2.3990     0.1361     0.0194   -51.4940     5.6115     6.5478
  100.0000     8.0901    83.6189     2.3976     0.1386     0.0092   -51.4470     5.7701     6.5405
  100.5000     8.0987    87.8143     2.3843     0.1419     0.0044   -51.4001     5.9330     6.5970
  101.0000     8.0992    88.8827     2.3824     0.1448     0.0055   -51.3532     6.0182     6.7102
  101.5000     8.0756    87.2118     2.3849     0.1446     0.0066   -51.3064     6.0259     6.8265
  102.0000     8.0548    85.2580     2.3806     0.1436     0.0033   -51.2591     6.0535     6.9234
  102.5000     7.8167    87.0322     2.3821     0.1441    -0.0012   -51.2116     6.1159     6.9634
  103.0000     7.9783    91.0585     2.3835     0.1457    -0.0058   -51.0614     6.2781     7.0695
  103.5000     8.1842    95.2157     2.3744     0.1473    -0.0055   -50.7783     6.4447     7.2122
  104.0000     8.2041    96.5565     2.3679     0.1488    -0.0033   -50.4964     6.6156     7.3578
  104.5000     8.2039    95.1679     2.3739     0.1479    -0.0010   -50.2142     6.7861     7.4441
  105.0000     8.2033    90.2954     2.3797     0.1466     0.0012   -49.9315     6.8182     7.4162
  105.5000     8.2028    85.5018     2.3850     0.1452     0.0009   -49.6471     6.8495     7.3945
  106.0000     8.2024    84.7749     2.3858     0.1440     0.0008   -49.5415     6.8809     7.3729
  106.5000     8.2021    85.6241     2.3839     0.1451     0.0026   -49.4785     6.9127     7.3514
  107.0000     8.2017    86.1307     2.3795     0.1461     0.0043   -49.4161     6.9127     7.3299
  107.5000     8.2013    85.8912     2.3824     0.1446     0.0059   -49.3940     6.8590     7.3085
  108.0000     8.2009    85.5876     2.3880     0.1424     0.0065   -49.5239     6.8143     7.2872
  108.5000     8.2005    85.4144     2.3897     0.1420     0.0046   -49.9805     6.7448     7.2656
  109.0000     8.2001    89.5434     2.3837     0.1443     0.0016   -50.4193     6.6333     7.2442
  109.5000     8.1997    90.6184     2.3791     0.1469    -0.0014   -50.8661     6.5144     7.1975
  110.0000     8.1993    88.7085     2.3793     0.1461    -0.0044   -51.1763     6.3461     7.1231
  110.5000     8.1989    86.6708     2.3715     0.1487    -0.0045   -51.4486     6.1821     7.0494
  111.0000     8.1985    84.6173     2.3683     0.1513    -0.0020   -51.8591     6.0740     6.9765
  111.5000     8.1981    83.6395     2.3700     0.1506     0.0005   -52.3905     6.1236     6.9126
  112.0000     8.1977    84.2784     2.3674     0.1501     0.0030   -52.7751     6.1783     6.9990
  112.5000     8.1973    85.2018     2.3712     0.1485     0.0037   -52.9385     6.2335     7.0948
  113.0000     8.1969    86.1176     2.3822     0.1454     0.0017   -52.8524     6.2892     7.1918
  113.5000     8.1965    86.7352     2.3889     0.1434    -0.0002   -52.8787     6.3451     7.2901
  114.0000     8.1961    85.5527     2.3900     0.1394     0.0013   -53.3438     6.4202     7.3897
  114.5000     8.1957    81.8535     2.4015     0.1332     0.0081   -53.8016     6.3901     7.4429
  115.0000     8.1953    76.3846     2.4137     0.1221     0.0013   -54.2940     6.3268     7.3172
  115.5000     8.1950    76.0947     2.4385     0.1108    -0.0003   -54.1121     6.2641     7.1322
  116.0000     8.1946    79.7978     2.4197     0.1258     0.0087   -53.7912     6.2020     6.9519
  116.5000     8.1942    84.5223     2.4081     0.1316     0.0123   -53.7186     6.1405     6.7761
  117.0000     8.1938    89.2867     2.3975     0.1382     0.0110   -53.6579     5.8658     6.6048
  117.5000     8.1934    91.6945     2.3761     0.1450     0.0097   -53.5977     5.5637     6.4379
  118.0000     8.1930    88.4375     2.3781     0.1477     0.0084   -53.4881     5.3267     6.2751
  118.5000     8.1926    86.7753     2.3798     0.1469     0.0071   -53.3661     5.2781     6.2447
  119.0000     8.1922    87.8655     2.3790     0.1470     0.0059   -53.2433     5.2394     6.2447
  119.5000     8.1918    88.8110     2.3769     0.1503     0.0046   -53.3123     5.2667     6.2447
  120.0000     8.1914    86.1434     2.3725     0.1525     0.0106   -53.5546     5.3013     6.2447
  120.5000     8.1910    83.9736     2.3681     0.1508     0.0217   -53.5221     5.3362     6.2447
