~VERSION INFORMATION
 VERS.                2.0:   CWLS LOG ASCII STANDARD - VERSION 2.0
 WRAP.                 NO:   ONE LINE PER DEPTH STEP
~WELL INFORMATION
#MNEM.UNIT      DATA TYPE    INFORMATION
#----------   ------------   ------------------------------
 STRT.F           40.0000:   START DEPTH
 STOP.F          596.0000:   STOP DEPTH
 STEP.F            0.5000:   STEP LENGTH
 NULL.          -999.2500:   NO VALUE
 COMP. FENIX & SCISSON INC:   COMPANY
 WELL. SX-15 N.O.R. #3 #51-15:   WELL
 FLD .             TEAPOT:   FIELD
 LOC .      S15 T38N R78W:   LOCATION
 CNTY.            NATRONA:   COUNTY
 STAT.            WYOMING:   STATE
 CTRY. UNITED STATES OF AMERICA:   COUNTRY
 SRVC.              Welex:   SERVICE COMPANY
 DATE.        12-MAR-1977:   LOGDATE
 API .       490251031100:   API NUMBER
~CURVE INFORMATION
#MNEM.UNIT       API CODE    CURVE DESCRIPTION
#----------   ------------   ------------------------------
 DEPT.F                  :   
 GRD .GAPI   45 310 01 00:   GAMMA RAY FROM DENSITY LOG
 CALD.IN     45 280 60 00:   CALIPER FROM DENSITY LOG
 CORR.G/C3   45 356 01 00:   DENSITY CORRECTION
 RHOB.G/C3   45 350 01 00:   BULK DENSITY
 DPOR.DEC    45 890 12 00:   DENSITY POROSITY SANDSTONE
 SGRD.OHMM   07 220 05 00:   SHALLOW GUARD RESISTIVITY
 ILD .OHMM   07 120 46 00:   INDUCTION LOG DEEP
 ILM .OHMM   07 120 44 00:   INDUCTION LOG MEDIUM
 SPR .MV     07 010 01 00:   SPONTANEOUS POTENTIAL
~PARAMETER INFORMATION
#MNEM.UNIT          VALUE    DESCRIPTION
#----------   ------------   ------------------------------
 PD  .                 GL:   PERMANENT DATUM
 EPD .F              5221:   ELEVATION PERMANENT DATUM
 LMF .                 GL:   LOG MEASURED FROM
 DMF .                 GL:   DRILLING MEASURED FROM
 EGL .F              5221:   GROUND LEVEL
 DATE.            3-12-77:   RUN DATE
 RUN .                  1:   RUN NUMBER
 DD  .F               600:   DEPTH DRILLER
 DL  .F               597:   DEPTH LOGGER
 BLI .F               596:   BOTTOM LOG INTERVAL
 TLI .F                45:   TOP LOG INTERVAL
 CS  .IN            8.625:   CASING SIZE
 CBD .F                46:   CASING BOTTOM DRILLER
 CBL .F                45:   CASING BOTTOM LOGGER
 BS  .IN            7.875:   BIT SIZE
 BSD .F               600:   BIT SIZE AT DEPTH
 DFT .            KCL-MUD:   DRILLING FLUID TYPE
 DFD .                8.9:   DRILLING FLUID DENSITY
 DFV .                 34:   DRILLING FLUID VISCOSITY
 MSS .            MUD PIT:   MUD SAMPLE SOURCE
 RMS .OHMM            .68:   RESISTIVITY MUD SAMPLE
 MST .F                40:   MUD SAMPLE TEMPERATURE
 RMF .OHMM            .57:   RESISTIVITY MUD FILTRATE SAMPLE
 MFST.F                40:   MUD FILTRATE SAMPLE TEMPERATURE
 RMC .OHMM            .78:   RESISTIVITY MUD CAKE
 MCST.F                40:   MUD CAKE SAMPLE TEMPERATURE
 MFSS.           MEASURED:   MUD FILTRATE SAMPLE SOURCE
 MCSS.           MEASURED:   MUD CAKE SAMPLE SOURCE
 RMB .OHMM            .41:   RESISTIVITY MUD AT BHT
 BHT .F                65:   BOTTOM HOLE TEMPERATURE
 TCS .HRS               3:   TIME CURCULATED STOPPED
 MRT .F                65:   MAXIMUM RECORDED TEMPERATURE
 LUN .                716:   LOGGING UNIT NUMBER
 LUL .             VERNAL:   LOGGING UNIT LOCATION
 ENGI.           CALLAHAN:   RECORDING ENGINEER
 WITN.         STUEBINGER:   WITNESSED BY
 CLNT.            A2DTECH:   CLIENT CODE
 ORIG.       2", 5" PRINT:   ORIGIN OF DATA
 UWI .       490251031100:   UNIQUE WELL ID
 DICO. A2D Technologies, Inc.:   DIGITIZING COMPANY
~OTHER INFORMATION
~A   DEPT       GRD        CALD     CORR       RHOB       DPOR       SGRD        ILD        ILM        SPR   
# ...
  368.5000   127.4199     7.8994     0.0508     2.5177     0.0990    10.6151     7.1070     7.5964   -54.9596
  369.0000   126.0228     7.9008     0.0480     2.5108     0.1020    10.7593     7.2025     7.5644   -54.9291
  369.5000   124.8109     7.9022     0.0418     2.5039     0.1051    10.9055     7.2992     7.5267   -54.8982
  370.0000   125.0810     7.9036     0.0354     2.5005     0.1063    11.0532     7.3973     7.6071   -54.8671
  370.5000   125.7189     7.9051     0.0360     2.5032     0.1045    11.1901     7.4967     7.7255   -54.8361
  371.0000   126.3401     7.9065     0.0380     2.5059     0.1026    11.1292     7.5642     7.8472   -54.8050
  371.5000   126.8945     7.9079     0.0301     2.4952     0.1067    11.0752     7.6180     7.9086   -54.7739
  372.0000   127.0095     7.9093     0.0218     2.4764     0.1124    11.0216     7.6722     7.9471   -54.7429
  372.5000   127.1398     7.9108     0.0134     2.4576     0.1181    10.9842     7.7268     7.9858   -54.7118
  373.0000   127.2711     7.9122     0.0127     2.4428     0.1227    11.2059     7.7818     8.0285   -54.6808
  373.5000   127.4018     7.9136     0.0189     2.4562     0.1195    11.3794     7.8095     8.2157   -54.6499
  374.0000   127.3645     7.9151     0.0337     2.4739     0.1135    11.5556     7.7248     8.4288   -54.6190
  374.5000   127.1316     7.9165     0.0478     2.4909     0.1086    11.7173     7.6604     8.6475   -54.5727
  375.0000   126.8999     7.9179     0.0423     2.4868     0.1091    11.5211     7.5964     8.8718   -54.4143
  375.5000   126.6667     7.9193     0.0360     2.4818     0.1117    11.3447     7.5267     9.1019   -54.2535
  376.0000   126.4383     7.9208     0.0299     2.4769     0.1143    11.1709     7.6122     9.2192   -54.0931
  376.5000   126.2731     7.9222     0.0238     2.4720     0.1169    11.0011     7.7360     8.9903   -53.9327
  377.0000   126.3969     7.9236     0.0201     2.4672     0.1195    10.7836     7.8618     8.8854   -53.7719
  377.5000   127.3662     7.9250     0.0198     2.4652     0.1211    11.1372     8.0301     9.3638   -53.6126
  378.0000   128.4172     7.9265     0.0298     2.4673     0.1189    11.6626     8.0276     9.7492   -53.5730
  378.5000   128.0976     7.9279     0.0345     2.4691     0.1167    12.2128     8.0288    10.1096   -53.5510
  379.0000   128.4261     7.9293     0.0351     2.4629     0.1189    12.7302     8.0330     9.5557   -53.5292
  379.5000   129.7494     7.9308     0.0358     2.4528     0.1211    13.0872     8.0341     9.2192   -53.5071
  380.0000   132.1821     7.9322     0.0360     2.4406     0.1289    12.5120     7.4478     9.3132   -53.4850
  380.5000   134.7591     7.9338     0.0291     2.4402     0.1311    12.3829     7.0361     9.3908   -53.4629
  381.0000   137.2718     7.9302     0.0227     2.4222     0.1392    12.8481     6.6766     8.5934   -53.4409
  381.5000   138.6351     7.9259     0.0164     2.3993     0.1533    11.9483     6.3654     7.5702   -53.4191
  382.0000   137.8855     7.9214     0.0169     2.3763     0.1670     8.2706     6.0951     6.6689   -53.3993
  382.5000   133.2271     7.9170     0.0234     2.3568     0.1750     4.9252     5.7609     5.6556   -53.2886
  383.0000   127.1325     7.9126     0.0300     2.3542     0.1795     3.9841     5.9144     6.1039   -53.1645
  383.5000   121.0202     7.9082     0.0364     2.4064     0.1584    12.4976     6.1407     6.8065   -53.0400
  384.0000   119.8400     7.9038     0.0268     2.4562     0.1302    13.4542     6.3754     7.4876   -52.9157
  384.5000   119.5158     7.8994     0.0159     2.4697     0.1180    13.6466     6.6191     8.0859   -52.7914
  385.0000   119.2159     7.8950     0.0308     2.4870     0.1089    13.8239     6.8777     8.7421   -52.6672
  385.5000   118.9054     7.8906     0.0440     2.5099     0.0998    14.0035     7.2024     9.3908   -52.5429
  386.0000   118.5982     7.8862     0.0411     2.5310     0.0893    14.1854     7.7114    10.2977   -52.4187
  386.5000   118.3552     7.8818     0.0386     2.5220     0.0953    14.3511     8.2565    10.2315   -52.2944
  387.0000   116.3290     7.8774     0.0365     2.5108     0.1034    14.1550     8.8400    10.1376   -52.1702
  387.5000   114.1012     7.8730     0.0429     2.5114     0.0967    13.9774     9.4648    10.0446   -52.0459
  388.0000   111.8461     7.8686     0.0492     2.5035     0.0860    13.8025    10.2032     9.9524   -51.9217
  388.5000   109.5721     7.8642     0.0381     2.4914     0.0939    13.6301    10.3863     9.8573   -51.7974
  389.0000   105.4600     7.8598     0.0355     2.4792     0.1045    13.4598    10.5935     9.6012   -51.6731
  389.5000   100.2291     7.8554     0.0346     2.4624     0.1150    13.2917    10.8049     9.2730   -51.5489
  390.0000    94.1558     7.8510     0.0343     2.4521     0.1230    13.2084    11.0205     9.0468   -51.4246
  390.5000    87.4718     7.8466     0.0369     2.4440     0.1281    14.7536    11.5444    10.2116   -51.3004
  391.0000    80.7288     7.8422     0.0393     2.4361     0.1348    17.3482    12.2325    10.1374   -51.1762
  391.5000    74.0427     7.8377     0.0506     2.4374     0.1272    20.7696    12.9615    10.0293   -51.0519
  392.0000    73.4303     7.8338     0.0660     2.4318     0.1340    24.8657    13.7340     9.9249   -50.9276
  392.5000    73.8661     7.8347     0.0691     2.4223     0.1444    29.7697    14.5525    10.8485   -50.8034
  393.0000    74.3809     7.8357     0.0574     2.3860     0.1547    33.2086    15.4202    12.3190   -50.6791
  393.5000    74.8867     7.8367     0.0694     2.3911     0.1615    24.4973    16.3402    13.9889   -50.5549
  394.0000    75.3887     7.8376     0.0545     2.3728     0.1629    24.2725    17.3067    15.8851   -50.4306
  394.5000    75.8908     7.8386     0.0516     2.3630     0.1745    26.6167    18.2525    18.0384   -50.3063
  395.0000    76.3928     7.8396     0.0491     2.3572     0.1795    24.8193    18.3978    20.4835   -50.1824
  395.5000    76.8952     7.8405     0.0466     2.3490     0.1811    23.6103    18.5437    22.9662   -50.0575
  396.0000    77.3964     7.8415     0.0485     2.3403     0.1885    26.0102    18.6908    22.8372   -50.0187
  396.5000    77.8956     7.8425     0.0511     2.3328     0.1947    27.7442    18.8391    22.7555   -50.0507
  397.0000    78.3909     7.8435     0.0537     2.3378     0.1925    28.6541    18.9886    24.0848   -50.0837
  397.5000    78.5565     7.8444     0.0563     2.3428     0.1930    26.6167    19.1393    25.1599   -50.1169
  398.0000    78.5527     7.8454     0.0589     2.3477     0.1905    25.3511    19.2759    26.2804   -50.1500
  398.5000    77.4854     7.8464     0.0615     2.3527     0.1813    24.6483    18.7653    26.8689   -50.1830
  399.0000    76.2744     7.8474     0.0640     2.3576     0.1784    24.5362    18.2138    26.1296   -50.2161
  399.5000    75.0704     7.8484     0.0667     2.3626     0.1763    24.4096    17.6786    26.4455   -50.2492
  400.0000    75.3535     7.8493     0.0745     2.3675     0.1741    24.2725    17.3048    26.6167   -50.2823
  400.5000    75.9323     7.8503     0.0820     2.3725     0.1722    22.2370    16.9365    24.3285   -50.3154
  401.0000    76.5213     7.8513     0.0884     2.3774     0.1679    20.3722    16.5761    23.1465   -50.3484
  401.5000    77.1262     7.8526     0.0745     2.3822     0.1640    23.2726    16.3283    24.5447   -50.3815
  402.0000    77.2728     7.8533     0.0735     2.3937     0.1601    27.6166    16.3283    25.9090   -50.4146
  402.5000    77.4275     7.8760     0.0741     2.3992     0.1557    21.8450    16.3280    27.4187   -50.4477
  403.0000    77.5861     7.8749     0.0649     2.3872     0.1608    25.6389    16.3282    29.3546   -50.4808
  403.5000    77.7484     7.8754     0.0623     2.3865     0.1658    29.0345    16.3272    31.4272   -50.5138
  404.0000    77.9157     7.8763     0.0661     2.3896     0.1593    27.3737    16.3262    33.6494   -50.5469
  404.5000    78.3223     7.8771     0.0699     2.3798     0.1633    26.1304    16.4894    36.0370   -50.5800
