~VERSION INFORMATION
 VERS.                2.0:   CWLS LOG ASCII STANDARD - VERSION 2.0
 WRAP.                 NO:   ONE LINE PER DEPTH STEP
~WELL INFORMATION
#MNEM.UNIT      DATA TYPE    INFORMATION
#----------   ------------   ------------------------------
 STRT.F           70.0000:   START DEPTH
 STOP.F         1072.0000:   STOP DEPTH
 STEP.F            0.5000:   STEP LENGTH
 NULL.          -999.2500:   NO VALUE
 COMP. LAWRENCE/ALLISON INC:   COMPANY
 WELL.    67-66 SX #11-11:   WELL
 FLD .             TEAPOT:   FIELD
 LOC .      S11 T38N R78W:   LOCATION
 CNTY.            NATRONA:   COUNTY
 STAT.            WYOMING:   STATE
 CTRY. UNITED STATES OF AMERICA:   COUNTRY
 SRVC.      Dresser Atlas:   SERVICE COMPANY
 DATE.        03-FEB-1986:   LOGDATE
 API .       490251105700:   API NUMBER
~CURVE INFORMATION
#MNEM.UNIT       API CODE    CURVE DESCRIPTION
#----------   ------------   ------------------------------
 DEPT.F                  :   
 RILD.OHMM   07 120 46 00:   RESISTIVITY INDUCTION LOG DEEP
 RILM.OHMM   07 120 44 00:   RESISTIVITY INDUCTION LOG MEDIUM
 GRD .GAPI   45 310 01 00:   GAMMA RAY FROM DENSITY LOG
 CALD.IN     45 280 60 00:   CALIPER FROM DENSITY LOG
 CORR.G/C3   45 356 01 00:   DENSITY CORRECTION
 PORD.DEC    45 890 12 00:   POROSITY DENSITY SANDSTONE
 DEN .G/C3   45 350 01 00:   COMPENSATED BULK DENSTIY
~PARAMETER INFORMATION
#MNEM.UNIT          VALUE    DESCRIPTION
#----------   ------------   ------------------------------
 PD  .                 GL:   PERMANENT DATUM
 EPD .F              5245:   ELEVATION PERMANENT DATUM
 LMF .                 GL:   LOG MEASURED FROM
 DMF .                 GL:   DRILLING MEASURED FROM
 EGL .F              5245:   GROUND LEVEL
 DATE.        03-FEB-1986:   RUN DATE
 RUN .                  1:   RUN NUMBER
 DD  .F              1120:   DEPTH DRILLER
 DL  .F              1074:   DEPTH LOGGER
 BLI .F              1068:   BOTTOM LOG INTERVAL
 TLI .F                86:   TOP LOG INTERVAL
 CS  .IN            8.625:   CASING SIZE
 CBD .F                86:   CASING BOTTOM DRILLER
 CBL .F                86:   CASING BOTTOM LOGGER
 BS  .IN             6.25:   BIT SIZE
 BSD .F              1120:   BIT SIZE AT DEPTH
 DFT .                AIR:   DRILLING FLUID TYPE
 TCS .HRS               2:   TIME CURCULATED STOPPED
 LUN .               6274:   LOGGING UNIT NUMBER
 LUL .           GILLETTE:   LOGGING UNIT LOCATION
 ENGI.             MILLER:   RECORDING ENGINEER
 WITN.           JENNINGS:   WITNESSED BY
 CLNT.            A2DTECH:   CLIENT CODE
 ORIG.           5" PRINT:   ORIGIN OF DATA
 UWI .       490251105700:   UNIQUE WELL ID
 DICO. A2D Technologies, Inc.:   DIGITIZING COMPANY
~OTHER INFORMATION
~A   DEPT     RILD       RILM        GRD       CALD       CORR       PORD        DEN   
# ...
  707.0000     7.7462     7.5535   145.7565     7.7079     0.0480     0.1175     2.4848
  707.5000     7.6481     7.4088   144.2948     7.6793     0.0722     0.1183     2.4831
  708.0000     7.6037     7.2656   141.9362     7.6957     0.0890     0.1216     2.4749
  708.5000     7.6123     7.2235   141.0724     7.6970     0.0756     0.1270     2.4669
  709.0000     7.5680     7.1324   140.2085     7.6829     0.0336     0.1294     2.4649
  709.5000     7.5766     7.0912   139.0457     7.6698    -0.0023     0.1293     2.4650
  710.0000     7.5851     7.0991   138.7715     7.6712     0.0386     0.1229     2.4726
  710.5000     7.4890     7.1071   140.0086     7.6575     0.0794     0.1154     2.4862
  711.0000     7.4435     7.1150   143.3301     7.6439     0.0874     0.1120     2.4939
  711.5000     7.4004     7.1230   148.7443     7.6303     0.0768     0.1111     2.4949
  712.0000     7.4107     7.1310   150.5711     7.6168     0.0694     0.1134     2.4850
  712.5000     7.4190     7.1389   151.2020     7.6331     0.0727     0.1194     2.4784
  713.0000     7.4791     7.1469   151.5340     7.6344     0.0744     0.1218     2.4754
  713.5000     7.5920     7.1549   150.9691     7.6507     0.0701     0.1193     2.4808
  714.0000     7.7603     7.2126   149.7980     7.6670     0.0597     0.1127     2.4952
  714.5000     7.8209     7.3212   150.4853     7.6684     0.0629     0.1072     2.5028
  715.0000     7.6685     7.3294   151.3602     7.6547     0.0737     0.1048     2.5052
  715.5000     7.4670     7.3376   151.6908     7.6561     0.0784     0.1059     2.5038
  716.0000     7.3235     7.3459   148.7157     7.6575     0.0770     0.1056     2.5077
  716.5000     7.2790     7.3541   138.2352     7.6588     0.0893     0.1001     2.5191
  717.0000     7.2892     7.2592   137.4401     7.6602     0.0985     0.0916     2.5259
  717.5000     7.2449     7.1675   142.0327     7.6765     0.0882     0.0895     2.5275
  718.0000     7.2029     7.1757   146.9137     7.6928     0.0808     0.0918     2.5156
  718.5000     7.1612     7.1310   153.7130     7.6788     0.1021     0.1063     2.4976
  719.0000     7.1196     7.0928   154.3139     7.6652     0.1023     0.1168     2.4827
  719.5000     7.0294     7.1007   153.7439     7.6520     0.1010     0.1221     2.4745
  720.0000     6.9856     7.0110   152.2870     7.6683     0.0922     0.1255     2.4685
  720.5000     6.9482     7.0189   150.5263     7.6696     0.0803     0.1234     2.4717
  721.0000     6.9560     6.9302   149.0645     7.6557     0.0760     0.1134     2.4891
  721.5000     6.9155     6.8427   149.0976     7.6574     0.0672     0.1040     2.5027
  722.0000     6.9234     6.8504   150.3264     7.6438     0.0523     0.1021     2.5076
  722.5000     6.9311     6.7620   152.1532     7.6451     0.0390     0.1051     2.5063
  723.0000     6.9389     6.7229   151.8864     7.6465     0.0331     0.1090     2.4982
  723.5000     6.9467     6.6840   151.6203     7.6478     0.0379     0.1082     2.4963
  724.0000     6.9545     6.7398   152.2522     7.6641     0.0621     0.1064     2.5018
  724.5000     7.0108     6.7474   156.4706     7.6804     0.0800     0.1052     2.5048
  725.0000     7.0186     6.8490   156.5521     7.6818     0.0896     0.1075     2.5004
  725.5000     7.0265     6.9042   153.8461     7.6831     0.0821     0.1099     2.4929
  726.0000     7.0344     7.0082   153.5187     7.6845     0.0674     0.1111     2.4930
  726.5000     7.1406     7.1137   156.0048     7.6858     0.0891     0.1095     2.4984
  727.0000     7.2485     7.2209   154.8420     7.7018     0.1041     0.1077     2.4993
  727.5000     7.3580     7.3296   150.3907     7.6882     0.1041     0.1061     2.5024
  728.0000     7.4691     7.4400   149.8176     7.6600     0.0922     0.1049     2.5055
  728.5000     7.6347     7.5503   151.0547     7.6314     0.0759     0.1039     2.5071
  729.0000     7.7500     7.5667   151.3866     7.6477     0.0626     0.1039     2.5064
  729.5000     7.8671     7.6724   151.7186     7.6491     0.0522     0.1056     2.5050
  730.0000     7.9307     7.7879   153.2464     7.6504     0.0374     0.1083     2.4961
  730.5000     7.8847     7.7965   153.5701     7.6518     0.0526     0.1107     2.4977
  731.0000     7.8368     7.8052   145.5396     7.6532     0.0754     0.1061     2.5091
  731.5000     7.7375     7.7065   137.7916     7.6545     0.0924     0.0946     2.5190
  732.0000     7.5814     7.6090   139.6266     7.6559     0.0773     0.0913     2.5243
  732.5000     7.4355     7.4100   143.5460     7.6722     0.0413     0.0973     2.5199
  733.0000     7.3446     7.3668   151.6508     7.6885     0.0355     0.1062     2.5035
  733.5000     7.2014     7.2741   153.4693     7.7047     0.0417     0.1183     2.4795
  734.0000     7.0610     7.2300   150.5210     7.7088     0.0600     0.1224     2.4735
  734.5000     6.9714     7.0426   149.3500     7.7071     0.0843     0.1164     2.4827
  735.0000     6.8830     6.9058   150.2881     7.6612     0.1086     0.1151     2.4888
  735.5000     6.7957     6.7716   151.5170     7.6500     0.1073     0.1157     2.4866
  736.0000     6.6636     6.6400   151.8490     7.6664     0.0969     0.1195     2.4762
  736.5000     6.6231     6.4661   151.8820     7.6677     0.0776     0.1270     2.4665
  737.0000     6.5392     6.3386   152.8118     7.6840     0.0552     0.1279     2.4666
  737.5000     6.5013     6.3475   153.4428     7.6854     0.0538     0.1273     2.4659
  738.0000     6.4636     6.3546   154.3727     7.6867     0.0465     0.1290     2.4652
  738.5000     6.4726     6.3617   157.0963     7.6581     0.0196     0.1308     2.4614
  739.0000     6.4799     6.4130   155.0366     7.6445     0.0213     0.1347     2.4533
  739.5000     6.4871     6.4202   150.8843     7.6459     0.0306     0.1394     2.4475
  740.0000     6.5396     6.4349   148.2267     7.6472     0.0428     0.1412     2.4438
  740.5000     6.6384     6.5226   146.1671     7.6635     0.0596     0.1393     2.4439
  741.0000     6.6921     6.5803   145.5939     7.6649     0.0748     0.1339     2.4478
  741.5000     6.7932     6.7237   145.9342     7.6662     0.0780     0.1245     2.4569
  742.0000     6.8481     6.8701   149.5546     7.6526     0.0692     0.1127     2.4728
  742.5000     6.9035     6.9723   152.5772     7.6390     0.0558     0.0970     2.4963
  743.0000     7.0078     7.0773   149.9196     7.6404     0.0455     0.0988     2.5137
  743.5000     7.0629     7.1839   149.9527     7.6567     0.0411     0.1078     2.5048
  744.0000     7.1199     7.1919   149.6785     7.6730     0.0519     0.1258     2.4687
  744.5000     7.1774     7.2499   146.7485     7.7042     0.0702     0.1324     2.4575
  745.0000     7.2388     7.2580   144.3633     7.6906     0.0915     0.1317     2.4621
  745.5000     7.3446     7.2141   146.5801     7.6770     0.1067     0.1222     2.4750
  746.0000     7.3528     7.2241   149.2137     7.6634     0.1004     0.1106     2.4887
  746.5000     7.3611     7.2322   144.6928     7.6648     0.0398     0.1084     2.5001
  747.0000     7.3182     7.2403   143.8975     7.6661     0.0289     0.1103     2.5024
  747.5000     7.2257     7.2484   144.2551     7.6675     0.0228     0.1133     2.4912
  748.0000     7.1834     7.2065   143.9044     7.6539     0.0030     0.1193     2.4770
  748.5000     7.0928     7.1629   141.6050     7.6702    -0.0021     0.1218     2.4756
  749.0000     7.0516     7.0724   141.9472     7.6563     0.0134     0.1190     2.4825
  749.5000     7.0595     6.9850   144.3766     7.6580     0.0315     0.1175     2.4841
  750.0000     7.0150     6.8949   147.3842     7.6604     0.0482     0.1208     2.4770
  750.5000     7.0053     6.9508   148.0151     7.6689     0.0578     0.1228     2.4730
  751.0000     6.9956     7.0079   148.6460     7.6778     0.0651     0.1217     2.4762
  751.5000     6.9917     7.0157   150.7717     7.6796     0.0730     0.1197     2.4794
  752.0000     7.0015     7.0723   150.5058     7.6665     0.0678     0.1200     2.4793
