~VERSION INFORMATION
 VERS.                2.0:   CWLS LOG ASCII STANDARD - VERSION 2.0
 WRAP.                 NO:   ONE LINE PER DEPTH STEP
~WELL INFORMATION
#MNEM.UNIT      DATA TYPE    INFORMATION
#----------   ------------   ------------------------------
 STRT.F            8.0000:   START DEPTH
 STOP.F          508.0000:   STOP DEPTH
 STEP.F            0.1000:   STEP LENGTH
 NULL.          -999.2500:   NO VALUE
 COMP. LAWRENCE/ALLISON INC:   COMPANY
 WELL. NPR 3 47-12 SX #3-3:   WELL
 FLD .             TEAPOT:   FIELD
 LOC .       S3 T38N R78W:   LOCATION
 CNTY.            NATRONA:   COUNTY
 STAT.            WYOMING:   STATE
 CTRY. UNITED STATES OF AMERICA:   COUNTRY
 SRVC.           Gearhart:   SERVICE COMPANY
 DATE.        12-AUG-1988:   LOGDATE
 API .       490251124100:   API NUMBER
~CURVE INFORMATION
#MNEM.UNIT       API CODE    CURVE DESCRIPTION
#----------   ------------   ------------------------------
 DEPT.F                  :   
 GRR .GAPI   07 310 01 00:   GAMMA RAY
 RILD.OHMM   07 120 46 00:   INDUCTION LOG DEEP RESISTIVITY
 RILM.OHMM   07 120 44 00:   INDUCTION LOG MEDIUM RESISTIVITY
~PARAMETER INFORMATION
#MNEM.UNIT          VALUE    DESCRIPTION
#----------   ------------   ------------------------------
 PD  .                 GL:   PERMANENT DATUM
 EPD .F              5208:   ELEVATION PERMANENT DATUM
 LMF .                 KB:   LOG MEASURED FROM
 DAPD.F                10:   FEET ABOVE PERMANENT DATUM
 DMF .                 KB:   DRILLING MEASURED FROM
 EKB .F              5218:   KELLING BUSHING
 EDF .F              5216:   DRILLING FLOOR
 EGL .F              5208:   GROUND LEVEL
 DATE.        12-AUG-1988:   RUN DATE
 RUN .                  1:   RUN NUMBER
 DD  .F               515:   DEPTH DRILLER
 DL  .F               516:   DEPTH LOGGER
 BLI .F               508:   BOTTOM LOG INTERVAL
 TLI .F                50:   TOP LOG INTERVAL
 CS  .IN            9.625:   CASING SIZE
 CBD .F                50:   CASING BOTTOM DRILLER
 CBL .F                50:   CASING BOTTOM LOGGER
 BS  .IN             8.75:   BIT SIZE
 BSD .F               515:   BIT SIZE AT DEPTH
 DFT .                AIR:   DRILLING FLUID TYPE
 TCS .HRS            1500:   TIME CURCULATED STOPPED
 TLAB.HRS            1640:   TIME LOGGER AT BOTTOM
 MRT .F                70:   MAXIMUM RECORDED TEMPERATURE
 LUN .               7597:   LOGGING UNIT NUMBER
 LUL .           GILLETTE:   LOGGING UNIT LOCATION
 ENGI.         WEATHERMON:   RECORDING ENGINEER
 WITN.             STRONG:   WITNESSED BY
 CLNT.            A2DTECH:   CLIENT CODE
 ORIG.       2", 5" PRINT:   ORIGIN OF DATA
 UWI .       490251124100:   UNIQUE WELL ID
 DICO. A2D Technologies, Inc.:   DIGITIZING COMPANY
~OTHER INFORMATION
~A    DEPT      GRR      RILD       RILM   
# ...
  372.0000   100.5870    16.1234    14.7483
  372.1000   100.7505    16.1230    14.7477
  372.2000   100.8908    16.1226    14.7471
  372.3000   100.8914    16.1222    14.7464
  372.4000   100.8920    16.1219    14.7459
  372.5000   100.8927    16.1900    14.8001
  372.6000   101.1047    16.2333    14.8475
  372.7000   101.1964    16.2330    14.8469
  372.8000   101.1970    16.2421    14.8463
  372.9000   101.1976    16.3451    14.8455
  373.0000   101.2063    16.3448    14.8450
  373.1000   101.5015    16.3444    14.8988
  373.2000   101.5020    16.3440    14.9473
  373.3000   101.5026    16.3437    14.9467
  373.4000   101.2887    16.3433    14.9461
  373.5000   100.8422    16.3428    14.9453
  373.6000   100.5793    16.3425    15.0163
  373.7000    99.6897    16.3421    15.0484
  373.8000    99.2770    16.3418    15.0845
  373.9000    98.7740    16.3589    15.1522
  374.0000    98.3761    16.4547    15.1529
  374.1000    98.0709    16.4544    15.2565
  374.2000    97.5713    16.4540    15.3280
  374.3000    97.2727    16.4536    15.4163
  374.4000    97.2732    16.4532    15.5050
  374.5000    97.2739    16.4529    15.6132
  374.6000    97.2744    16.4524    15.7935
  374.7000    97.2750    16.4521    15.9022
  374.8000    97.2756    16.4517    15.9759
  374.9000    97.2764    16.4513    16.0679
  375.0000    97.2769    16.4509    16.1229
  375.1000    97.2775    16.4506    16.1409
  375.2000    97.1781    16.4501    16.2341
  375.3000    96.9270    16.4498    16.2334
  375.4000    96.6741    16.4494    16.2328
  375.5000    96.1743    16.4490    16.2321
  375.6000    95.8708    16.4486    16.1948
  375.7000    95.4712    16.4483    16.1183
  375.8000    95.0661    16.4479    16.1176
  375.9000    94.7681    16.4475    16.1169
  376.0000    94.2572    16.4471    16.0433
  376.1000    94.0101    16.4468    16.0039
  376.2000    93.9559    16.4464    16.0032
  376.3000    93.9564    16.4460    16.0026
  376.4000    94.0522    16.4456    16.0019
  376.5000    94.2602    16.4452    15.9112
  376.6000    94.2608    16.3979    15.8898
  376.7000    94.2614    16.3308    15.8365
  376.8000    94.4567    16.3234    15.7784
  376.9000    94.5652    16.2171    15.7777
  377.0000    94.5658    16.2168    15.7770
  377.1000    94.6084    16.1565    15.7764
  377.2000    94.8696    16.1040    15.7758
  377.3000    94.8702    16.1036    15.7751
  377.4000    94.8708    16.1033    15.7415
  377.5000    94.8714    16.1029    15.6645
  377.6000    94.9624    16.0293    15.6638
  377.7000    95.1752    15.9909    15.5767
  377.8000    95.1758    15.9905    15.5541
  377.9000    95.4167    15.9901    15.5534
  378.0000    95.4795    15.9897    15.5212
  378.1000    95.4802    15.9032    15.4444
  378.2000    95.5687    15.8122    15.4437
  378.3000    95.7840    15.7684    15.3586
  378.4000    95.7846    15.7404    15.3355
  378.5000    95.7851    15.6587    15.2867
  378.6000    95.9730    15.6583    15.2280
  378.7000    96.0890    15.6579    15.2150
  378.8000    96.0896    15.5980    15.1212
  378.9000    96.0902    15.5490    15.0388
  379.0000    96.0908    15.5486    14.9514
  379.1000    96.3270    15.5483    14.9106
  379.2000    96.5793    15.5479    14.9100
  379.3000    96.6977    15.5476    14.9093
  379.4000    96.7813    15.4937    14.9087
  379.5000    97.0337    15.4394    14.8283
  379.6000    97.3047    15.4234    14.7422
  379.7000    97.5384    15.3320    14.7010
  379.8000    97.7909    15.2474    14.6730
  379.9000    98.1750    15.2253    14.5877
  380.0000    98.6790    15.1782    14.4962
  380.1000    99.1831    15.1194    14.4957
  380.2000    99.7289    15.1191    14.4351
  380.3000   100.1912    15.1186    14.3513
  380.4000   100.6952    15.1183    14.2678
  380.5000   101.3284    15.0588    14.1941
  380.6000   102.0059    15.0131    14.1935
  380.7000   102.5375    15.0128    14.1185
  380.8000   103.3634    15.0125    14.0941
  380.9000   103.8206    15.0120    14.0115
  381.0000   104.3246    15.0117    13.8983
  381.1000   104.7021    15.0114    13.8815
  381.2000   105.1060    15.0111    13.7052
  381.3000   105.8369    15.0107    13.7047
  381.4000   106.3928    15.0104    13.6489
  381.5000   106.8452    15.0100    13.6086
  381.6000   107.1742    15.0761    13.5849
  381.7000   107.4266    15.1138    13.5132
  381.8000   107.6055    15.1135    13.5126
  381.9000   107.5834    15.1131    13.5121
  382.0000   107.3041    15.1127    13.4579
  382.1000   107.0812    15.1124    13.4174
  382.2000   106.8300    15.1732    13.4168
  382.3000   106.5789    15.2168    13.4163
  382.4000   106.2568    15.2656    13.4157
  382.5000   105.7540    15.4346    13.4152
  382.6000   105.1898    15.5357    13.4675
  382.7000   104.7483    15.5353    13.5076
  382.8000   104.2455    15.5922    13.5070
  382.9000   103.7424    15.7200    13.5065
  383.0000   103.3767    15.8805    13.5059
  383.1000   103.3773    15.9712    13.5054
  383.2000   103.3780    16.0624    13.5573
  383.3000   103.3785    16.2276    13.5984
  383.4000   103.3791    16.3596    13.6188
  383.5000   103.3797    16.5223    13.6922
  383.6000   103.4466    16.7926    13.6915
  383.7000   103.6835    16.9972    13.8285
  383.8000   103.6842    17.3665    13.9353
  383.9000   103.6847    17.7683    14.0529
  384.0000   103.6853    18.1251    14.2157
  384.1000   103.6860    18.4702    14.3758
  384.2000   103.6229    18.8961    14.4708
  384.3000   103.3845    19.3885    14.6866
  384.4000   103.3853    19.7807    14.8866
  384.5000   103.1719    20.0846    15.0987
  384.6000   102.9208    20.3151    15.3845
  384.7000   102.6697    20.5762    15.7516
  384.8000   102.3570    20.9282    16.3955
  384.9000   101.8437    21.2149    16.8015
  385.0000   100.9683    21.5119    17.2292
  385.1000   100.1230    21.9593    17.6773
  385.2000    98.6351    22.4666    18.2461
  385.3000    97.0930    22.9622    19.0053
  385.4000    95.8349    23.3755    20.1921
  385.5000    94.5769    23.6325    21.1987
  385.6000    93.1051    24.0065    22.2105
  385.7000    92.0611    24.4966    23.0090
  385.8000    90.9610    25.0623    23.6819
  385.9000    89.9543    25.6090    24.3739
  386.0000    88.9474    25.9346    25.2160
  386.1000    87.9410    26.3350    25.7025
  386.2000    86.7547    26.7904    26.3033
  386.3000    86.1352    27.1071    26.9174
  386.4000    85.3807    27.3418    27.4748
  386.5000    84.7313    27.8204    27.7954
  386.6000    84.1748    28.5751    28.3719
  386.7000    83.4228    28.9844    28.7758
  386.8000    82.8249    29.4854    29.1740
  386.9000    82.4171    29.9949    29.5120
  387.0000    81.9142    30.5126    29.8904
  387.1000    81.5139    31.0516    30.4113
  387.2000    81.2627    31.3999    31.0473
  387.3000    81.0124    31.7605    31.3371
  387.4000    81.0131    32.0236    31.9245
  387.5000    81.0136    32.3321    32.5933
  387.6000    81.0143    32.8428    33.1230
  387.7000    81.0148    33.0470    33.5077
  387.8000    81.0154    33.5681    33.8954
  387.9000    81.0160    33.7403    34.1307
  388.0000    81.2668    33.8334    34.2095
  388.1000    81.5191    33.9735    34.2080
  388.2000    81.6230    33.9728    34.1694
  388.3000    81.6236    33.9718    33.9683
  388.4000    81.6242    33.8073    33.9669
  388.5000    81.6248    33.7356    33.8117
  388.6000    81.6254    33.7348    33.7288
  388.7000    81.6260    33.7340    33.6533
  388.8000    81.4806    33.7332    33.4578
  388.9000    81.1344    33.5413    33.2589
  389.0000    80.7200    33.3493    33.0703
  389.1000    80.7207    33.1584    32.8782
  389.2000    80.4759    33.0355    32.6871
  389.3000    80.4193    33.0079    32.4973
  389.4000    80.2762    32.8057    32.3085
  389.5000    80.1180    32.8050    32.1148
  389.6000    80.1186    32.8042    31.9343
  389.7000    80.1192    32.7092    31.7489
  389.8000    80.1198    32.4684    31.5645
  389.9000    79.9284    32.1265    31.4468
  390.0000    79.8184    32.1257    31.4455
  390.1000    79.8190    31.9667    31.4441
