~VERSION INFORMATION
 VERS.                2.0:   CWLS LOG ASCII STANDARD - VERSION 2.0
 WRAP.                 NO:   ONE LINE PER DEPTH STEP
~WELL INFORMATION
#MNEM.UNIT      DATA TYPE    INFORMATION
#----------   ------------   ------------------------------
 STRT.F           17.0000:   START DEPTH
 STOP.F         1345.0000:   STOP DEPTH
 STEP.F            0.5000:   STEP LENGTH
 NULL.          -999.2500:   NO VALUE
 COMP. DEPARTMENT OF ENERGY:   COMPANY
 WELL. RES 3 TEAPOT DOME ##86S-11:   WELL
 FLD .             TEAPOT:   FIELD
 LOC .      S11 T38N R78W:   LOCATION
 CNTY.            NATRONA:   COUNTY
 STAT.            WYOMING:   STATE
 CTRY. UNITED STATES OF AMERICA:   COUNTRY
 SRVC.       Schlumberger:   SERVICE COMPANY
 DATE.        13-AUG-1959:   LOGDATE
 API .       490250633200:   API NUMBER
~CURVE INFORMATION
#MNEM.UNIT       API CODE    CURVE DESCRIPTION
#----------   ------------   ------------------------------
 DEPT.F                  :   
 SPR .MV     05 010 01 00:   SPONTANEOUS POTENTIAL FROM RES.
 CILD.MMHO   05 110 46 00:   CONDUCTIVITY INDUCTION LOG DEEP
 ILD .OHMM   05 120 46 00:   INDUCTION LOG DEEP
 ASN .OHMM   05 041 16 00:   AMPLIFIED SHORT NORMAL 16"
~PARAMETER INFORMATION
#MNEM.UNIT          VALUE    DESCRIPTION
#----------   ------------   ------------------------------
 PD  .                 GL:   PERMANENT DATUM
 EPD .F              5295:   ELEVATION PERMANENT DATUM
 LMF .                 KB:   LOG MEASURED FROM
 DAPD.F                 4:   FEET ABOVE PERMANENT DATUM
 DMF .                 KB:   DRILLING MEASURED FROM
 EKB .F              5299:   KELLING BUSHING
 EGL .F              5295:   GROUND LEVEL
 DATE.            8-13-59:   RUN DATE
 RUN .                  1:   RUN NUMBER
 DD  .F              1350:   DEPTH DRILLER
 DL  .F              1350:   DEPTH LOGGER
 BLI .F              1345:   BOTTOM LOG INTERVAL
 TLI .F                17:   TOP LOG INTERVAL
 CBD .F                17:   CASING BOTTOM DRILLER
 CBL .F                17:   CASING BOTTOM LOGGER
 BS  .IN             6.75:   BIT SIZE
 BSD .F              1350:   BIT SIZE AT DEPTH
 DFT .                GEL:   DRILLING FLUID TYPE
 DFD .                9.8:   DRILLING FLUID DENSITY
 DFV .                 65:   DRILLING FLUID VISCOSITY
 DFPH.                9.5:   DRILLING FLUID PH
 DFL .                5.4:   DRILLING FLUID LOSS
 RMS .OHMM           2.84:   RESISTIVITY MUD SAMPLE
 MST .F                69:   MUD SAMPLE TEMPERATURE
 RMF .OHMM            2.5:   RESISTIVITY MUD FILTRATE SAMPLE
 MFST.F                69:   MUD FILTRATE SAMPLE TEMPERATURE
 RMC .OHMM           2.46:   RESISTIVITY MUD CAKE
 MCST.F                69:   MUD CAKE SAMPLE TEMPERATURE
 MFSS.                  M:   MUD FILTRATE SAMPLE SOURCE
 MCSS.                  M:   MUD CAKE SAMPLE SOURCE
 TCS .HRS               1:   TIME CURCULATED STOPPED
 LUN .               2523:   LOGGING UNIT NUMBER
 LUL .               CSPR:   LOGGING UNIT LOCATION
 ENGI.             KNOBEL:   RECORDING ENGINEER
 WITN.             MARTIN:   WITNESSED BY
 CLNT.            A2DTECH:   CLIENT CODE
 ORIG.         2"5" PRINT:   ORIGIN OF DATA
 UWI .       490250633200:   UNIQUE WELL ID
 DICO. A2D Technologies, Inc.:   DIGITIZING COMPANY
~OTHER INFORMATION
~A   DEPT      SPR        CILD         ILD      ASN   
# ...
 1039.0000   -25.1785   171.1898     6.0803     6.5868
 1039.5000   -25.3610   176.1390     5.8525     6.5278
 1040.0000   -25.5316   181.0689     5.6360     6.6615
 1040.5000   -25.5513   187.6365     5.5266     6.7563
 1041.0000   -25.5474   184.4507     5.7364     7.0971
 1041.5000   -25.5491   180.3595     6.0883     7.5000
 1042.0000   -25.5480   170.6629     6.3904     7.5760
 1042.5000   -25.5482   162.3515     6.7174     7.6581
 1043.0000   -25.5479   154.0593     6.8325     7.7256
 1043.5000   -25.5473   151.1530     6.8281     7.8005
 1044.0000   -25.5481   150.8027     6.8422     7.8733
 1044.5000   -25.5460   150.3905     6.8467     7.9327
 1045.0000   -25.5496   149.9784     6.8565     7.9629
 1045.5000   -25.5419   149.5663     6.8631     7.9768
 1046.0000   -25.5998   149.1541     6.8715     7.9941
 1046.5000   -25.7271   148.7420     6.8785     8.0084
 1047.0000   -25.8434   148.3299     6.8875     8.0235
 1047.5000   -25.9662   147.9178     6.8939     8.0099
 1048.0000   -26.0839   147.5056     6.9054     7.9222
 1048.5000   -26.2071   147.0935     6.8980     7.8390
 1049.0000   -26.3227   146.9848     6.8092     7.7614
 1049.5000   -26.4449   146.9848     6.7299     7.6707
 1050.0000   -26.4089   154.6534     6.6479     7.4408
 1050.5000   -26.1884   158.9189     6.5548     7.2428
 1051.0000   -26.0532   163.9964     6.3732     7.0213
 1051.5000   -25.9045   173.2736     6.1280     6.7936
 1052.0000   -25.7628   192.8946     5.8950     6.5229
 1052.5000   -25.6175   208.7306     5.6517     6.2382
 1053.0000   -25.4734   214.6793     5.4210     5.9427
 1053.5000   -25.3301   220.6147     5.1632     5.6720
 1054.0000   -25.1841   226.6074     4.9245     5.3007
 1054.5000   -25.0438   232.7148     4.8693     5.3604
 1055.0000   -24.8925   238.8938     4.7180     5.5241
 1055.5000   -24.8217   242.6163     4.7698     5.8387
 1056.0000   -24.8409   235.5312     5.2079     6.2517
 1056.5000   -24.9298   208.3333     5.6210     6.6450
 1057.0000   -25.0337   195.8626     6.0521     7.0754
 1057.5000   -25.1319   180.5783     6.4972     7.2578
 1058.0000   -25.2333   165.2940     6.6311     7.4142
 1058.5000   -25.3325   154.3222     6.7101     7.5811
 1059.0000   -25.4338   151.9755     6.8066     7.7523
 1059.5000   -25.5322   149.4080     6.8944     7.8395
 1060.0000   -25.6355   147.1581     6.9865     7.9319
 1060.5000   -25.7200   144.8919     7.0761     8.0177
 1061.0000   -25.7316   142.5840     7.1670     8.1078
 1061.5000   -25.6990   140.2624     7.2574     8.1955
 1062.0000   -25.6371   137.9370     7.3533     8.2844
 1062.5000   -25.5813   135.3015     7.4267     8.3720
 1063.0000   -25.5226   134.7724     7.5027     8.4689
 1063.5000   -25.4655   133.4924     7.5795     8.5827
 1064.0000   -25.4075   132.2123     7.6556     8.7107
 1064.5000   -25.3500   130.9323     7.7326     8.8378
 1065.0000   -25.2922   129.6523     7.8082     8.9666
 1065.5000   -25.2349   128.3722     7.8863     9.0184
 1066.0000   -25.1768   127.0922     7.9597     9.0616
 1066.5000   -25.1202   125.8121     8.0432     9.1053
 1067.0000   -25.0604   124.4302     8.0865     9.1533
 1067.5000   -25.0157   124.5261     8.0809     9.1784
 1068.0000   -25.0402   124.7527     8.0837     9.1744
 1068.5000   -25.0697   124.9794     8.0820     9.1629
 1069.0000   -25.0983   125.2061     8.0832     9.1491
 1069.5000   -25.1273   126.0118     8.0821     9.1169
 1070.0000   -25.1560   127.5462     8.0835     8.9856
 1070.5000   -25.1853   129.0806     8.0817     8.8406
 1071.0000   -25.2138   130.6150     8.0861     8.6917
 1071.5000   -25.2440   132.1494     8.0507     8.5689
 1072.0000   -25.2705   133.6838     7.9616     8.4832
 1072.5000   -25.3039   135.2564     7.8923     8.3703
 1073.0000   -25.3249   136.1586     7.7940     8.1400
 1073.5000   -25.3696   142.0372     7.7525     7.8767
 1074.0000   -25.2642   147.1147     7.5195     7.6361
 1074.5000   -25.0463   153.4873     7.0637     7.2864
 1075.0000   -24.8593   161.1942     6.6065     6.8345
 1075.5000   -24.6580   174.7480     6.2061     6.3874
 1076.0000   -24.4642   193.8984     5.6059     5.9404
 1076.5000   -24.2662   224.5749     4.7904     5.4937
 1077.0000   -24.0703   254.3447     4.4770     5.0477
 1077.5000   -23.8733   289.6271     4.1037     4.6021
 1078.0000   -23.6774   324.2210     3.8734     4.1566
 1078.5000   -23.4799   359.0122     3.6344     3.7265
 1079.0000   -23.2880   393.6823     3.4097     3.5505
 1079.5000   -23.1966   428.4231     3.1702     3.4067
 1080.0000   -23.3371   463.2098     2.9537     3.3773
 1080.5000   -23.5661   478.8258     2.7412     3.3894
 1081.0000   -23.7689   452.6219     2.9901     3.4721
 1081.5000   -23.9834   435.9017     3.5205     3.9551
 1082.0000   -24.1907   406.1736     3.9814     4.4381
 1082.5000   -24.3997   276.4272     4.4884     4.6732
 1083.0000   -24.5149   276.4272     4.8916     5.1246
 1083.5000   -24.5710   253.8297     4.5647     5.7644
 1084.0000   -24.6336   229.0007     4.8359     6.0869
 1084.5000   -24.2445   205.9229     5.6196     6.1574
 1085.0000   -24.2445   181.5176     5.8085     6.1879
 1085.5000   -24.2181   183.3897     5.7906     6.2214
 1086.0000   -23.9121   178.7503     5.7685     6.3082
 1086.5000   -23.8336   182.2596     5.7242     6.4591
 1087.0000   -23.7991   190.0316     5.5792     6.4739
 1087.5000   -23.7537   198.7358     5.4049     6.4239
 1088.0000   -23.7046   208.0091     5.2405     6.1320
 1088.5000   -23.4986   215.0725     5.0690     5.4877
 1089.0000   -23.2486   221.9644     4.9058     5.2044
 1089.5000   -22.9757   227.5386     4.7303     5.2570
 1090.0000   -22.7816   237.2442     4.5767     5.0522
 1090.5000   -22.9636   251.3969     4.3681     5.0976
 1091.0000   -23.2240   262.0545     4.3752     5.3618
 1091.5000   -23.4661   259.4012     4.6149     5.6073
 1092.0000   -23.7059   250.8620     4.8052     5.7445
 1092.5000   -23.9622   235.6204     5.0341     5.8926
 1093.0000   -24.0697   220.3797     5.2097     6.1358
 1093.5000   -24.0321   207.7307     5.4894     6.5014
 1094.0000   -24.0180   194.5488     5.8267     6.8605
 1094.5000   -23.9917   185.1332     6.1236     7.2102
 1095.0000   -23.9716   175.6662     6.4279     7.6001
 1095.5000   -23.9485   167.6147     6.7482     7.7908
 1096.0000   -23.9264   159.5633     6.9990     7.9887
 1096.5000   -23.9050   151.6889     7.1524     8.1238
 1097.0000   -23.8765   148.5754     7.3340     8.1618
 1097.5000   -23.7383   146.2655     7.4607     8.1894
 1098.0000   -23.6006   145.6980     7.3952     8.1395
 1098.5000   -23.4394   145.7633     7.2679     8.0591
 1099.0000   -23.3345   148.0039     7.1605     7.9901
 1099.5000   -23.2422   150.5973     7.0410     7.8788
 1100.0000   -23.1049   153.1908     6.9342     7.7266
 1100.5000   -22.9940   155.7842     6.8059     7.5877
 1101.0000   -23.0537   158.7949     6.7163     7.4251
 1101.5000   -23.1752   162.2437     6.5334     7.2954
 1102.0000   -23.2774   166.1513     6.2851     7.1260
 1102.5000   -23.3843   171.7038     6.0538     6.9212
 1103.0000   -23.4938   180.2973     5.8141     6.7190
 1103.5000   -23.5193   191.5057     5.5779     6.4054
 1104.0000   -23.3638   202.7141     5.3408     6.0919
 1104.5000   -23.2109   211.3463     5.1050     5.7806
 1105.0000   -23.0488   218.2386     4.9395     5.5219
 1105.5000   -22.9921   221.7683     4.9057     5.4958
 1106.0000   -23.1260   225.9373     4.8834     5.7041
 1106.5000   -23.3008   232.9114     4.8479     5.8347
 1107.0000   -23.4630   235.2202     4.8708     6.2675
 1107.5000   -23.6443   225.8087     5.2269     6.7683
 1108.0000   -23.6807   209.8172     5.7351     7.3682
 1108.5000   -23.5725   189.2686     6.1619     7.5100
 1109.0000   -23.4856   170.9989     6.6598     7.6372
 1109.5000   -23.3836   161.1973     6.9477     7.7570
 1110.0000   -23.2960   154.5051     6.9464     7.8583
 1110.5000   -23.1905   151.1149     7.0314     7.9595
 1111.0000   -23.2402   150.5375     7.1024     8.0541
 1111.5000   -23.3768   149.9401     7.1249     8.1557
