~VERSION INFORMATION
 VERS.                2.0:   CWLS LOG ASCII STANDARD - VERSION 2.0
 WRAP.                 NO:   ONE LINE PER DEPTH STEP
~WELL INFORMATION
#MNEM.UNIT      DATA TYPE    INFORMATION
#----------   ------------   ------------------------------
 STRT.F           30.0000:   START DEPTH
 STOP.F          677.0000:   STOP DEPTH
 STEP.F            0.5000:   STEP LENGTH
 NULL.          -999.2500:   NO VALUE
 COMP. FENIX & SCISSON INC:   COMPANY
 WELL. TEAPOT DOME #27 SX -2:   WELL
 FLD .             TEAPOT:   FIELD
 LOC .       S2 T38N R78W:   LOCATION
 CNTY.            NATRONA:   COUNTY
 STAT.            WYOMING:   STATE
 CTRY. UNITED STATES OF AMERICA:   COUNTRY
 SRVC.            Unknown:   SERVICE COMPANY
 DATE.        28-JAN-1978:   LOGDATE
 API .       490251056500:   API NUMBER
~CURVE INFORMATION
#MNEM.UNIT       API CODE    CURVE DESCRIPTION
#----------   ------------   ------------------------------
 DEPT.F                  :   
 ILD .OHMM   05 120 46 00:   INDUCTION LOG DEEP
 SN  .OHMM   05 040 16 00:   SHORT NORMAL 16"
 SPR .MV     05 010 01 00:   SPONTANEOUS POTENSIAL
 CALD.IN     45 280 60 00:   CALIPER FROM DENSITY LOG
 CORR.G/C3   45 356 01 00:   DENSITY CORRECTION
 DPHI.DEC    45 890 12 00:   DENSITY POROSITY SANDSTONE
 GRD .GAPI   45 310 01 00:   GAMMA RAY FROM DENSITY LOG
 RHOB.G/C3   45 350 01 00:   BULK DENSITY
~PARAMETER INFORMATION
#MNEM.UNIT          VALUE    DESCRIPTION
#----------   ------------   ------------------------------
 PD  .                 GL:   PERMANENT DATUM
 EPD .F              5147:   ELEVATION PERMANENT DATUM
 LMF .                 KB:   LOG MEASURED FROM
 DAPD.F                 4:   FEET ABOVE PERMANENT DATUM
 DMF .                 KB:   DRILLING MEASURED FROM
 EKB .F              5151:   KELLING BUSHING
 EGL .F              5147:   GROUND LEVEL
 DATE.        28-JAN-1978:   RUN DATE
 RUN .                  1:   RUN NUMBER
 DD  .F               675:   DEPTH DRILLER
 DL  .F               678:   DEPTH LOGGER
 BLI .F               677:   BOTTOM LOG INTERVAL
 TLI .F                40:   TOP LOG INTERVAL
 CS  .IN            8.625:   CASING SIZE
 CBD .F                40:   CASING BOTTOM DRILLER
 CBL .F                40:   CASING BOTTOM LOGGER
 BS  .IN            7.875:   BIT SIZE
 BSD .F               675:   BIT SIZE AT DEPTH
 DFT .                KCL:   DRILLING FLUID TYPE
 DFD .                8.6:   DRILLING FLUID DENSITY
 DFV .                .34:   DRILLING FLUID VISCOSITY
 DFPH.                9.5:   DRILLING FLUID PH
 MSS .           FLOWLINE:   MUD SAMPLE SOURCE
 RMS .OHMM           0.38:   RESISTIVITY MUD SAMPLE
 MST .F                60:   MUD SAMPLE TEMPERATURE
 RMF .OHMM           0.36:   RESISTIVITY MUD FILTRATE SAMPLE
 MFST.F                62:   MUD FILTRATE SAMPLE TEMPERATURE
 RMC .OHMM            0.7:   RESISTIVITY MUD CAKE
 MCST.F                63:   MUD CAKE SAMPLE TEMPERATURE
 MFSS.               MEAS:   MUD FILTRATE SAMPLE SOURCE
 MCSS.               MEAS:   MUD CAKE SAMPLE SOURCE
 RMB .OHMM           0.31:   RESISTIVITY MUD AT BHT
 BHT .F                76:   BOTTOM HOLE TEMPERATURE
 TCS .HRS               3:   TIME CURCULATED STOPPED
 MRT .F                76:   MAXIMUM RECORDED TEMPERATURE
 LUN .               2958:   LOGGING UNIT NUMBER
 LUL .             CASPER:   LOGGING UNIT LOCATION
 ENGI.           REYNOLDS:   RECORDING ENGINEER
 WITN.     MR. HARRINGTON:   WITNESSED BY
 CLNT.            A2DTECH:   CLIENT CODE
 ORIG.           5" PRINT:   ORIGIN OF DATA
 UWI .       490251056500:   UNIQUE WELL ID
 DICO. A2D Technologies, Inc.:   DIGITIZING COMPANY
~OTHER INFORMATION
~A   DEPT      ILD         SN        SPR       CALD       CORR       DPHI        GRD       RHOB   
# ...
  394.5000     8.5922     8.1624   -68.9919     8.6661     0.0242     0.1085    98.8233     2.4760
  395.0000     8.4832     8.1108   -68.9668     8.6533     0.0244     0.1106    98.1088     2.4746
  395.5000     8.4318     8.1182   -68.9467     8.6404     0.0230     0.1099    97.9852     2.4718
  396.0000     8.3790     8.0669   -68.9266     8.6429     0.0217     0.1153    98.4714     2.4599
  396.5000     8.3296     8.0188   -68.9058     8.6448     0.0218     0.1131    97.3029     2.4652
  397.0000     8.1662     7.9697   -69.0309     8.6468     0.0220     0.1131    97.0259     2.4661
  397.5000     8.1166     7.9208   -69.3098     8.6488     0.0207     0.1131    98.2408     2.4662
  398.0000     8.0674     7.7660   -69.4442     8.6499     0.0193     0.1133    98.4221     2.4663
  398.5000     7.9105     7.7183   -69.4191     8.6509     0.0180     0.1136    99.1849     2.4664
  399.0000     7.8086     7.6696   -69.3991     8.6520     0.0167     0.1219    99.8018     2.4658
  399.5000     7.4474     7.5197   -69.3782     8.6531     0.0139     0.1244   100.4186     2.4650
  400.0000     7.2014     7.2706   -69.3539     8.6541     0.0080     0.1308   101.3314     2.4473
  400.5000     7.0599     7.0636   -69.3338     8.6552     0.0067     0.1373   104.3214     2.4377
  401.0000     6.9212     6.8923   -69.4632     8.6562     0.0038     0.1460   104.9382     2.4333
  401.5000     6.7401     6.7100   -69.2937     8.6573     0.0055     0.1597   104.8092     2.4122
  402.0000     6.4283     6.5325   -69.4210     8.6583     0.0102     0.1761   104.5444     2.3841
  402.5000     6.0890     6.2728   -69.3960     8.6594     0.0133     0.1889   105.0199     2.3542
  403.0000     5.4587     6.0650   -69.3721     8.6604     0.0181     0.2125   105.3080     2.3371
  403.5000     4.9486     5.5389   -69.2003     8.6615     0.0272     0.2201   103.5593     2.3036
  404.0000     4.2985     4.9756   -69.1741     8.6625     0.0363     0.2411   102.1012     2.2797
  404.5000     3.8535     4.2795   -69.1526     8.6636     0.0365     0.2447   101.9745     2.2609
  405.0000     3.4547     3.5319   -69.1311     8.6658     0.0335     0.2426   102.4447     2.2530
  405.5000     3.1617     3.3221   -69.1095     8.6690     0.0288     0.2285   103.2055     2.2688
  406.0000     2.9948     3.2342   -69.0880     8.6712     0.0143     0.2047   103.3746     2.2853
  406.5000     2.9158     3.1923   -69.0658     8.6733     0.0114     0.1842   103.6916     2.3190
  407.0000     2.8981     3.1728   -68.8900     8.6759     0.0296     0.1838   104.0148     2.3498
  407.5000     3.0025     3.1757   -68.7190     8.6632     0.0073     0.1793   104.4789     2.3514
  408.0000     3.1749     3.2220   -68.5480     8.6352     0.0119     0.1530   109.8255     2.3814
  408.5000     3.4508     3.3603   -68.3770     8.6379     0.0167     0.1361   111.1780     2.4062
  409.0000     3.8027     3.5777   -68.3554     8.6252     0.0242     0.1290   113.4182     2.4272
  409.5000     4.1617     3.9425   -68.3333     8.6130     0.0289     0.1239   113.5872     2.4385
  410.0000     4.5674     4.5072   -68.3070     8.6151     0.0305     0.1224   109.9155     2.4543
  410.5000     5.0546     5.1651   -68.2854     8.6173     0.0307     0.1235   108.3094     2.4559
  411.0000     5.4563     5.5372   -68.2639     8.6040     0.0323     0.1238   108.1774     2.4530
  411.5000     5.8494     5.9361   -68.2423     8.6067     0.0339     0.1229   107.9027     2.4516
  412.0000     6.0174     6.1485   -68.2208     8.6089     0.0371     0.1213   108.6688     2.4532
  412.5000     6.1477     6.1955   -68.1988     8.6115     0.0403     0.1312   108.2462     2.4533
  413.0000     6.1952     6.2000   -68.1723     8.5985     0.0434     0.1359   107.8235     2.4391
  413.5000     6.2012     6.2047   -68.1508     8.6007     0.0436     0.1368   107.7021     2.4355
  414.0000     6.1636     6.1676   -68.1292     8.6030     0.0452     0.1373   108.0191     2.4348
  414.5000     6.1250     6.0459   -68.1077     8.6052     0.0469     0.1394   108.1882     2.4342
  415.0000     6.0059     5.9676   -68.0862     8.6074     0.0500     0.1453   108.3580     2.4264
  415.5000     5.8475     5.8499   -68.0643     8.6096     0.0532     0.1510   109.1234     2.4112
  416.0000     5.6151     5.6952   -68.0377     8.6119     0.0563     0.1586   110.7718     2.4023
  416.5000     5.4311     5.5423   -68.0162     8.6141     0.0580     0.1605   110.6450     2.3904
  417.0000     5.2879     5.2885   -67.9946     8.6163     0.0626     0.1542   110.0745     2.3935
  417.5000     5.2558     5.1486   -67.9731     8.6185     0.0642     0.1398   109.7998     2.4059
  418.0000     5.2600     5.1524   -67.9515     8.6207     0.0644     0.1281   110.1168     2.4288
  418.5000     5.2642     5.1562   -67.9297     8.6230     0.0661     0.1233   108.0722     2.4371
  419.0000     5.3047     5.2315   -67.9031     8.6252     0.0707     0.1221   105.7265     2.4425
  419.5000     5.4198     5.3078   -68.0364     8.6274     0.0844     0.1193   106.4874     2.4471
  420.0000     5.5221     5.5029   -68.0094     8.6296     0.0695     0.1159   109.3392     2.4628
  420.5000     5.8056     5.8544   -67.9879     8.6309     0.0530     0.0998   109.7894     2.4981
  421.0000     6.0485     6.1479   -67.8169     8.6290     0.0413     0.0980   109.5147     2.5019
  421.5000     6.4395     6.4561   -67.7952     8.6271     0.0385     0.1040   108.9442     2.4863
  422.0000     6.7157     6.8266   -67.7684     8.6252     0.0386     0.1099   108.7929     2.4729
  422.5000     7.0037     7.0223   -67.7469     8.6233     0.0403     0.1102   108.8388     2.4738
  423.0000     7.2541     7.2263   -67.7253     8.6214     0.0404     0.1098   109.0130     2.4731
  423.5000     7.3601     7.3811   -67.7038     8.6195     0.0405     0.1101   108.7383     2.4732
  424.0000     7.3666     7.4432   -67.6823     8.6177     0.0362     0.1086   106.6831     2.4785
  424.5000     7.3719     7.5199   -67.6607     8.6158     0.0274     0.1044   106.8575     2.4877
  425.0000     7.3773     7.5258   -67.6383     8.6139     0.0200     0.1058   106.8787     2.4862
  425.5000     7.3827     7.4786   -67.7671     8.6120     0.0171     0.1139   106.4614     2.4721
  426.0000     7.2871     7.4860   -67.7402     8.6101     0.0158     0.1201   106.7784     2.4609
  426.5000     7.2424     7.4921   -67.8735     8.6082     0.0160     0.1258   107.2433     2.4603
  427.0000     7.1499     7.4464   -68.1509     8.6063     0.0161     0.1320   107.8562     2.4460
  427.5000     7.0561     7.3503   -68.1240     8.6041     0.0163     0.1322   108.7650     2.4388
  428.0000     6.9170     7.3576   -68.1016     8.6044     0.0164     0.1346   109.6686     2.4366
  428.5000     6.8287     7.3634   -68.0755     8.6047     0.0150     0.1334   112.5108     2.4352
  429.0000     6.6482     7.2147   -68.0540     8.6050     0.0122     0.1343   113.2716     2.4353
  429.5000     6.4136     6.9812   -68.0324     8.6054     0.0064     0.1369   113.4407     2.4346
  430.0000     5.9651     6.7956   -68.0109     8.6057     0.0005     0.1405   113.1657     2.4332
  430.5000     5.6498     6.5271   -67.9893     8.6060     0.0142     0.1503   112.5955     2.4281
  431.0000     5.4253     6.2680   -67.9671     8.6064     0.0278     0.1563   112.6219     2.4095
  431.5000     5.3184     5.9762   -67.9409     8.6067     0.0400     0.1643   112.7910     2.3938
  432.0000     5.2495     5.7813   -67.9193     8.6070     0.0356     0.1607   112.9601     2.3805
  432.5000     5.2173     5.6676   -67.8978     8.6074     0.0313     0.1463   112.3896     2.4172
  433.0000     5.2581     5.6320   -67.8762     8.6077     0.0316     0.1229   110.7702     2.4472
  433.5000     5.2982     5.7157   -67.5557     8.6080     0.0331     0.1115   110.5088     2.4690
  434.0000     5.4126     5.9614   -67.2347     8.6084     0.0332     0.1067   110.3821     2.4818
  434.5000     5.5677     6.3487   -66.9094     8.6087     0.0329     0.1088   110.4085     2.4759
