~VERSION INFORMATION
 VERS.                2.0:   CWLS LOG ASCII STANDARD - VERSION 2.0
 WRAP.                 NO:   ONE LINE PER DEPTH STEP
~WELL INFORMATION
#MNEM.UNIT      DATA TYPE    INFORMATION
#----------   ------------   ------------------------------
 STRT.F            4.0000:   START DEPTH
 STOP.F          578.0000:   STOP DEPTH
 STEP.F            0.5000:   STEP LENGTH
 NULL.          -999.2500:   NO VALUE
 COMP.              FENIX:   COMPANY
 WELL.   NPR-3 #14SX11-11:   WELL
 FLD .             TEAPOT:   FIELD
 LOC .      S11 T38N R78W:   LOCATION
 CNTY.            NATRONA:   COUNTY
 STAT.            WYOMING:   STATE
 CTRY. UNITED STATES OF AMERICA:   COUNTRY
 SRVC.           BIRDWELL:   SERVICE COMPANY
 DATE.        14-FEB-1978:   LOGDATE
 API .       490251057100:   API NUMBER
~CURVE INFORMATION
#MNEM.UNIT       API CODE    CURVE DESCRIPTION
#----------   ------------   ------------------------------
 DEPT.F                  :   
 ILD .OHMM   05 120 46 00:   INDUCTION LOG DEEP
 SN  .OHMM   05 040 16 00:   SHORT NORMAL 16"
 SPR .MV     05 010 01 00:   SPONTANEOUS POTENTIAL FROM RES.
 CALD.IN     45 280 60 00:   CALIPER FROM DENSITY LOG
 CORR.G/C3   45 356 01 00:   DENSITY CORRECTION
 DPHI.DEC    45 890 12 00:   DENSITY POROSITY SANDSTONE
 GRD .GAPI   45 310 01 00:   GAMMA RAY FROM DENSITY LOG
 RHOB.G/C3   45 350 01 00:   BULK DENSITY
~PARAMETER INFORMATION
#MNEM.UNIT          VALUE    DESCRIPTION
#----------   ------------   ------------------------------
 PD  .                 GL:   PERMANENT DATUM
 EPD .F              5183:   ELEVATION PERMANENT DATUM
 LMF .                 KB:   LOG MEASURED FROM
 DAPD.F                 4:   FEET ABOVE PERMANENT DATUM
 DMF .                 KB:   DRILLING MEASURED FROM
 EKB .F              5187:   KELLING BUSHING
 EGL .F              5183:   GROUND LEVEL
 DATE.        14-FEB-1978:   RUN DATE
 RUN .                  1:   RUN NUMBER
 DD  .F               580:   DEPTH DRILLER
 DL  .F               580:   DEPTH LOGGER
 BLI .F               578:   BOTTOM LOG INTERVAL
 TLI .F                20:   TOP LOG INTERVAL
 CS  .IN            8.625:   CASING SIZE
 CBD .F                15:   CASING BOTTOM DRILLER
 CBL .F                39:   CASING BOTTOM LOGGER
 BS  .IN            7.875:   BIT SIZE
 BSD .F               580:   BIT SIZE AT DEPTH
 DFT .         LIGNO-SULF:   DRILLING FLUID TYPE
 DFD .                8.6:   DRILLING FLUID DENSITY
 DFV .                 33:   DRILLING FLUID VISCOSITY
 DFPH.                 11:   DRILLING FLUID PH
 DFL .                  4:   DRILLING FLUID LOSS
 MSS .           FLOWLINE:   MUD SAMPLE SOURCE
 RMS .OHMM            1.3:   RESISTIVITY MUD SAMPLE
 MST .F                62:   MUD SAMPLE TEMPERATURE
 RMF .OHMM            1.2:   RESISTIVITY MUD FILTRATE SAMPLE
 MFST.F                64:   MUD FILTRATE SAMPLE TEMPERATURE
 RMC .OHMM            1.6:   RESISTIVITY MUD CAKE
 MCST.F                62:   MUD CAKE SAMPLE TEMPERATURE
 MFSS.               MEAS:   MUD FILTRATE SAMPLE SOURCE
 BHT .F                70:   BOTTOM HOLE TEMPERATURE
 TCS .HRS               3:   TIME CURCULATED STOPPED
 MRT .F                70:   MAXIMUM RECORDED TEMPERATURE
 LUN .               2958:   LOGGING UNIT NUMBER
 LUL .               CASP:   LOGGING UNIT LOCATION
 ENGI.            POINTER:   RECORDING ENGINEER
 WITN.           MCGINLEY:   WITNESSED BY
 CLNT.            A2DTECH:   CLIENT CODE
 ORIG.           5" PRINT:   ORIGIN OF DATA
 UWI .       490251057100:   UNIQUE WELL ID
 DICO. A2D Technologies, Inc.:   DIGITIZING COMPANY
~OTHER INFORMATION
~A    DEPT     ILD         SN        SPR       CALD       CORR       DPHI         GRD      RHOB   
# ...
  368.5000     6.9160     7.6668   -36.4374     7.8363     0.0829     0.0904   100.0697     2.4977
  369.0000     6.9146     7.6642   -36.7463     7.8210     0.0830     0.0928   100.6747     2.4992
  369.5000     6.8653     7.7150   -37.0552     7.8208     0.0782     0.0973   103.1196     2.5038
  370.0000     6.7691     7.7123   -37.2111     7.7893     0.0736     0.1013   108.1149     2.4872
  370.5000     6.6284     7.7091   -36.9155     7.6989     0.0810     0.1118   110.6956     2.4654
  371.0000     6.4457     7.7066   -36.7697     7.7292     0.0989     0.1193   111.1493     2.4481
  371.5000     6.0966     7.5979   -36.4702     7.8050     0.1168     0.1094   109.9298     2.4504
  372.0000     5.7265     7.3877   -36.1756     7.7289     0.1212     0.0992   103.8479     2.4639
  372.5000     5.4920     7.0845   -36.1829     7.7115     0.0986     0.0941    98.9817     2.4835
  373.0000     5.4909     6.7937   -36.1888     7.7742     0.1001     0.0908    98.2188     2.4880
  373.5000     5.5280     6.4189   -36.1932     7.8196     0.1015     0.0920    98.5192     2.4962
  374.0000     5.5268     6.0760   -36.1457     7.8347     0.1104     0.0966    98.9729     2.5008
  374.5000     5.4493     5.9909   -36.1031     7.8497     0.1268     0.1047    98.5133     2.4902
  375.0000     5.3732     6.1567   -36.0606     7.8495     0.1342     0.1089    99.1183     2.4812
  375.5000     5.2251     6.2840   -36.2182     7.8494     0.1401     0.1098   100.3312     2.4742
  376.0000     5.0811     6.3261   -36.3768     7.8492     0.1415     0.0972   100.0243     2.4684
  376.5000     5.0101     6.1505   -36.5341     7.8339     0.1189     0.0824    97.4378     2.4865
  377.0000     5.0091     5.8950   -36.6915     7.7881     0.0959     0.0840    99.4098     2.5158
  377.5000     4.9735     5.7344   -36.8488     7.7728     0.0647     0.0831   100.9266     2.5143
  378.0000     4.9725     5.7325   -37.1577     7.7422     0.0482     0.0937   102.1395     2.5113
  378.5000     4.9714     5.8106   -37.4667     7.7269     0.0511     0.0843   102.4412     2.5075
  379.0000     5.0396     6.0134   -37.7769     7.7115     0.0315     0.0939   106.9968     2.5099
  379.5000     5.2164     6.3541   -37.9342     7.7450     0.0299     0.1014   106.9939     2.5053
  380.0000     5.4370     6.6677   -37.9401     7.8328     0.0403     0.0942   105.5218     2.4887
  380.5000     5.8668     6.9485   -37.9459     7.8327     0.0417     0.0906   100.3004     2.4910
  381.0000     6.0309     7.0431   -37.9107     7.8325     0.0387     0.0900    95.2822     2.4955
  381.5000     5.9055     7.1390   -37.8247     7.8324     0.0310     0.0920    91.4799     2.4970
  382.0000     6.1978     7.0868   -37.7387     7.8322     0.0355     0.1024    94.2126     2.4902
  382.5000     6.0675     7.0355   -37.6657     7.8321     0.0444     0.1054    97.8570     2.4796
  383.0000     5.9366     6.9845   -37.8231     7.8319     0.0503     0.0955    99.2239     2.4857
  383.5000     5.8189     6.9340   -37.6788     7.8317     0.0547     0.0952    99.1702     2.4947
  384.0000     5.7376     6.8799   -37.5332     7.8316     0.0546     0.0928    97.2396     2.4985
  384.5000     5.6967     6.7862   -37.3890     7.8314     0.0499     0.0823    94.8051     2.5053
  385.0000     5.6956     6.7839   -37.3948     7.8161     0.0439     0.0769    94.3462     2.5135
  385.5000     5.6944     6.8294   -37.2477     7.8008     0.0408     0.0782    89.4801     2.5203
  386.0000     5.7728     7.0184   -37.4065     7.8006     0.0377     0.0814    89.7811     2.5218
  386.5000     5.8118     7.3140   -37.5638     7.8004     0.0362     0.0844    93.7903     2.5143
  387.0000     5.9350     7.5693   -37.7232     7.8003     0.0376     0.0850    95.8542     2.5135
  387.5000     6.1055     7.8381   -38.0556     7.8001     0.0405     0.0802    95.0907     2.5083
  388.0000     6.3560     8.1628   -38.4919     7.8000     0.0419     0.0811    92.2002     2.5075
  388.5000     6.6247     8.3894   -38.4977     7.8150     0.0403     0.0836    92.8052     2.5173
  389.0000     6.8097     8.5628   -38.5036     7.7997     0.0372     0.0866    95.8418     2.5128
  389.5000     6.9038     8.6801   -38.5094     7.7843     0.0401     0.0881    95.8511     2.5083
  390.0000     7.0962     8.6765   -38.5153     7.7386     0.0460     0.0839    95.6738     2.5113
  390.5000     7.1939     8.6736   -38.6859     7.7080     0.0534     0.0788    94.7684     2.5128
  391.0000     7.2929     8.6706   -39.1344     7.6623     0.0533     0.0734    92.0299     2.5150
  391.5000     7.3932     8.7273   -39.7463     7.6014     0.0563     0.0755    91.5718     2.5241
  392.0000     7.4432     8.6642   -39.7522     7.5556     0.0547     0.0737    91.2642     2.5263
  392.5000     7.4233     8.6613   -39.4550     7.7074     0.0516     0.0716    89.8942     2.5233
  393.0000     7.3641     8.6584   -39.1576     7.5401     0.0470     0.0713    90.8024     2.5248
  393.5000     7.3049     8.6555   -38.8606     7.5248     0.0454     0.0755    92.4853     2.5301
  394.0000     7.3407     8.6526   -38.7149     7.5246     0.0438     0.0828    93.5314     2.5256
  394.5000     7.3382     8.6496   -38.5692     7.5245     0.0437     0.0840    93.8331     2.5158
  395.0000     7.3362     8.6461   -38.2720     7.5091     0.0436     0.0843    93.6775     2.5120
  395.5000     7.3343     8.6432   -37.9763     7.5242     0.0450     0.0840    92.7627     2.5113
  396.0000     7.3838     8.6403   -37.9822     7.5240     0.0480     0.0840    89.4163     2.5113
  396.5000     7.4845     8.6374   -37.9880     7.5391     0.0494     0.0840    85.9179     2.5120
  397.0000     7.7518     8.6345   -37.9939     7.5541     0.0478     0.0852    81.4894     2.5120
  397.5000     8.1291     8.6316   -37.8496     7.5539     0.0462     0.0870    81.5048     2.5105
  398.0000     8.4137     8.6287   -38.0070     7.5998     0.0401     0.1039    82.7169     2.4992
  398.5000     8.2956     8.6251   -38.1643     7.7360     0.0340     0.1153    88.1851     2.4857
  399.0000     7.8458     8.6222   -38.1701     7.8575     0.0356     0.1274   100.3402     2.4647
  399.5000     7.0687     8.5598   -38.3275     7.8725     0.0518     0.1622   104.5926     2.4331
  400.0000     5.9832     8.2655   -38.3333     7.7356     0.0832     0.1647   103.2219     2.3977
  400.5000     5.7377     8.0369   -38.3162     7.5378     0.0666     0.1235    90.3595     2.3842
  401.0000     5.6178     7.0430   -38.0420     7.5073     0.0485     0.1033    85.4341     2.4436
  401.5000     5.5775     6.3810   -38.3523     7.4767     0.0470     0.0889    84.8240     2.4887
  402.0000     5.4991     6.1694   -39.2672     7.4918     0.0499     0.0811    87.7079     2.5090
  402.5000     5.5745     6.2102   -39.7276     7.5372     0.0498     0.0736    86.7931     2.5263
  403.0000     5.8098     6.5167   -39.8850     7.6283     0.0497     0.0745    86.4681     2.5278
  403.5000     6.1079     7.1783   -39.8909     7.6433     0.0481     0.0766    87.7276     2.5248
  404.0000     7.5049     7.9754   -39.7451     7.5824     0.0480     0.0775    89.8238     2.5218
  404.5000     8.3255     8.7205   -39.9039     7.5629     0.0494     0.0772    87.9965     2.5188
  405.0000     9.1719     9.6739   -40.0613     7.6535     0.0493     0.0769    86.1698     2.5188
  405.5000     9.2339    10.3727   -40.2172     7.6680     0.0507     0.0775    83.5833     2.5195
  406.0000     9.2308    10.5087   -40.0727     7.6979     0.0536     0.0797    81.6054     2.5203
  406.5000     9.2284    10.5796   -40.0788     7.7126     0.0536     0.0800    82.9695     2.5158
  407.0000     9.0988    10.7251   -40.0849     7.7118     0.0534     0.0809    84.9746     2.5173
  407.5000     9.0958    10.8721   -39.9390     7.7264     0.0504     0.0845    86.3071     2.5158
  408.0000     9.2210    11.0983   -39.9463     7.7562     0.0473     0.0978    82.3521     2.5075
  408.5000     9.6096    11.2551   -39.7991     7.7360     0.0442     0.1146    71.2549     2.5010
