~VERSION INFORMATION
 VERS.                2.0:   CWLS LOG ASCII STANDARD - VERSION 2.0
 WRAP.                 NO:   ONE LINE PER DEPTH STEP
~WELL INFORMATION
#MNEM.UNIT      DATA TYPE    INFORMATION
#----------   ------------   ------------------------------
 STRT.F           30.0000:   START DEPTH
 STOP.F          547.0000:   STOP DEPTH
 STEP.F            0.5000:   STEP LENGTH
 NULL.          -999.2500:   NO VALUE
 COMP.   FINIX & SCISSION:   COMPANY
 WELL. SX-11 NPR #3 #11-11:   WELL
 FLD .             TEAPOT:   FIELD
 LOC .      S11 T38N R78W:   LOCATION
 CNTY.            NATRONA:   COUNTY
 STAT.            WYOMING:   STATE
 CTRY. UNITED STATES OF AMERICA:   COUNTRY
 SRVC.       Schlumberger:   SERVICE COMPANY
 DATE.        01-MAR-1977:   LOGDATE
 API .       490251058500:   API NUMBER
~CURVE INFORMATION
#MNEM.UNIT       API CODE    CURVE DESCRIPTION
#----------   ------------   ------------------------------
 DEPT.F                  :   
 ILD .OHMM               :   INDUCTION LOG DEEP
 ILM .OHMM   07 120 44 00:   INDUCTION LOG MEDIUM
 LL8 .OHMM   07 220 08 00:   
 SPR .MV     07 010 01 00:   SPONTANEOUS POTENTIAL
 CALD.IN     45 280 60 00:   CALIPER FROM DENSITY LOG
 CORR.G/C3   45 356 01 00:   DENSITY CORRECTION
 DPHI.DEC    45 890 12 00:   DENSITY POROSITY SANDSTONE
 GRD .GAPI   45 310 01 00:   GAMMA RAY FROM DENSITY LOG
 RHOB.G/C3   45 350 01 00:   BULK DENSITY
~PARAMETER INFORMATION
#MNEM.UNIT          VALUE    DESCRIPTION
#----------   ------------   ------------------------------
 PD  .                 GL:   PERMANENT DATUM
 EPD .F              5158:   ELEVATION PERMANENT DATUM
 LMF .                 GL:   LOG MEASURED FROM
 DMF .                 GL:   DRILLING MEASURED FROM
 EKB .F              5161:   KELLING BUSHING
 EGL .F              5158:   GROUND LEVEL
 DATE.        01-MAR-1977:   RUN DATE
 RUN .                  1:   RUN NUMBER
 DD  .F               575:   DEPTH DRILLER
 DL  .F               548:   DEPTH LOGGER
 BLI .F               547:   BOTTOM LOG INTERVAL
 TLI .F                45:   TOP LOG INTERVAL
 CS  .IN            8.625:   CASING SIZE
 CBD .F                40:   CASING BOTTOM DRILLER
 CBL .F                45:   CASING BOTTOM LOGGER
 BS  .IN            7.875:   BIT SIZE
 BSD .F               575:   BIT SIZE AT DEPTH
 DFT .                PIT:   DRILLING FLUID TYPE
 DFD .                8.7:   DRILLING FLUID DENSITY
 DFV .                 46:   DRILLING FLUID VISCOSITY
 DFPH.                  8:   DRILLING FLUID PH
 DFL .                6.8:   DRILLING FLUID LOSS
 MSS .                PIT:   MUD SAMPLE SOURCE
 RMS .OHMM          0.632:   RESISTIVITY MUD SAMPLE
 MST .F                65:   MUD SAMPLE TEMPERATURE
 RMF .OHMM          0.465:   RESISTIVITY MUD FILTRATE SAMPLE
 MFST.F                65:   MUD FILTRATE SAMPLE TEMPERATURE
 MFSS.               MEAS:   MUD FILTRATE SAMPLE SOURCE
 RMB .OHMM          0.635:   RESISTIVITY MUD AT BHT
 BHT .F                68:   BOTTOM HOLE TEMPERATURE
 TCS .HRS              12:   TIME CURCULATED STOPPED
 MRT .F                68:   MAXIMUM RECORDED TEMPERATURE
 LUN .               5642:   LOGGING UNIT NUMBER
 LUL .               CSPR:   LOGGING UNIT LOCATION
 ENGI.         JIM MARTIN:   RECORDING ENGINEER
 WITN.         STUEBINGER:   WITNESSED BY
 CLNT.            A2DTECH:   CLIENT CODE
 ORIG.           5" PRINT:   ORIGIN OF DATA
 UWI .       490251058500:   UNIQUE WELL ID
 DICO. A2D Technologies, Inc.:   DIGITIZING COMPANY
~OTHER INFORMATION
~A   DEPT      ILD        ILM        LL8        SPR       CALD       CORR       DPHI         GRD      RHOB   
# ...
  103.0000     7.5231     7.3662     7.9292   -56.2327     8.1760     0.0374     0.1235    87.2277     2.4427
  103.5000     7.6103     7.4423     8.0580   -55.4753     8.1619     0.0337     0.1070    88.1346     2.4577
  104.0000     7.6975     7.5730     8.1696   -54.7179     8.1779     0.0509     0.0995    90.5408     2.4887
  104.5000     7.7848     7.7344     8.3399   -53.9605     8.1787     0.0674     0.0929    91.8976     2.5068
  105.0000     7.8720     7.8946     8.4554   -53.2032     8.1798     0.0689     0.0941    90.4057     2.5197
  105.5000     7.9592     8.0556     8.6319   -52.5955     8.1805     0.0494     0.1097    89.6617     2.5118
  106.0000     8.0465     8.2237     8.8121   -52.1375     8.1815     0.0329     0.1160    91.7699     2.4811
  106.5000     8.1337     8.3788     8.9341   -51.6795     8.1674     0.0225     0.1190    93.4246     2.4616
  107.0000     8.2209     8.5118     8.9955   -51.0718     8.1683     0.0262     0.1129    91.6347     2.4653
  107.5000     8.3081     8.5702     9.0572   -50.1597     8.1542     0.0329     0.1041    92.2418     2.4818
  108.0000     8.3954     8.7003     9.1531   -49.5569     8.1251     0.0262     0.0960    94.4981     2.5044
  108.5000     8.4826     8.8091     9.2457   -49.2295     8.1111     0.0345     0.1009    94.6554     2.4976
  109.0000     8.5698     8.8315     9.2789   -48.7026     8.1122     0.0419     0.1070    94.6628     2.4856
  109.5000     8.6570     8.8690     9.3730   -48.0312     8.1130     0.0397     0.1103    94.9701     2.4774
  110.0000     8.6984     8.8683     9.3722   -47.5732     8.1287     0.0397     0.1133    95.8771     2.4722
  110.5000     8.6984     8.8677     9.4367   -47.1152     8.1296     0.0404     0.1163    97.6986     2.4654
  111.0000     8.6984     8.8671     9.4359   -46.5076     8.1305     0.0240     0.1250    99.0705     2.4482
  111.5000     8.6984     8.9021     9.5008   -46.0496     8.1314     0.0135     0.1304    97.3464     2.4250
  112.0000     8.6984     8.9273     9.5000   -45.5916     8.1323     0.0067     0.1325    94.4093     2.4325
  112.5000     8.6984     9.0104     9.5654   -44.8342     8.1333     0.0225     0.1169    93.8151     2.4617
  113.0000     8.6984     9.0503     9.5646   -44.2265     8.1192     0.0389     0.1049    94.5740     2.4858
  113.5000     8.7587     9.0609     9.5898   -43.6806     8.1201     0.0442     0.1073    92.7823     2.4956
  114.0000     8.8194     9.1118     9.6297   -42.8615     8.1210     0.0449     0.1148    90.9906     2.4708
  114.5000     8.8806     9.1274     9.6957   -42.2531     8.1219     0.0479     0.1073    89.7986     2.4761
  115.0000     8.9422     9.1737     9.6951   -41.7958     8.1228     0.0389     0.0998    88.9065     2.4973
  115.5000     8.9422     9.2085     9.7616   -41.1881     8.1237     0.0307     0.1034    87.8644     2.4907
  116.0000     9.0666     9.3052     9.8286   -40.4308     8.1246     0.0247     0.1106    88.1717     2.4771
  116.5000     9.1928     9.3997     9.8961   -39.8231     8.1255     0.0299     0.1109    89.6783     2.4694
  117.0000     9.3207     9.4934    10.0354   -39.2154     8.1263     0.0421     0.1012    90.8851     2.4949
  117.5000     9.4504     9.5586    10.1779   -38.9071     8.1272     0.0516     0.1003    89.3933     2.5054
  118.0000     9.6510     9.6242    10.3224   -38.7485     8.1281     0.0427     0.1052    86.1023     2.4889
  118.5000     9.8570     9.7036    10.5415   -38.5876     8.1290     0.0434     0.1001    83.8608     2.5047
  119.0000    10.2184     9.8926    10.8973   -38.4152     8.1299     0.0382     0.0952    82.6688     2.5069
  119.5000    11.0781    10.3821    11.4365   -38.1228     8.1308     0.0337     0.1012    82.0766     2.4860
  120.0000    11.7077    11.3570    12.3388   -37.8126     8.1317     0.0329     0.1075    84.1829     2.4897
  120.5000    12.1192    11.9192    12.2530   -37.3546     8.1328     0.0284     0.0970    87.0615     2.5107
  121.0000    11.6271    11.4342    11.9655   -37.0463     8.1335     0.0202     0.1126    88.7406     2.4597
  121.5000    11.1549    10.8936    11.6343   -36.7381     8.1345     0.0142     0.1237    90.0750     2.4343
  122.0000    10.9647    10.5436    11.3133   -36.3129     8.1353     0.0090     0.1285    90.9610     2.4293
  122.5000    10.6282    10.2202    11.0436   -35.9718     8.1362     0.0090     0.1237    92.3177     2.4388
  123.0000    10.4053    10.0247    10.8441   -35.8132     8.1371     0.0105     0.1339    92.9248     2.4118
  123.5000    10.2206     9.9271    10.5937   -35.6546     8.1380     0.0090     0.1414    92.1826     2.3961
  124.0000    10.0567     9.8177    10.4476   -35.4961     8.1541     0.0037     0.1372    91.2905     2.4051
  124.5000     9.9874     9.8171    10.2758   -35.4872     8.1548     0.0112     0.1288    90.5482     2.4276
  125.0000     9.9588     9.8164    10.2026   -35.1789     8.1557     0.0210     0.1225    89.8060     2.4479
  125.5000     9.9187     9.8506    10.1607   -34.7209     8.1567     0.0271     0.1165    89.5117     2.4606
  126.0000     9.9187     9.8831    10.2304   -34.4491     8.1575     0.0307     0.1158    90.8703     2.4538
  126.5000     9.9874     9.9510    10.2298   -34.1044     8.1584     0.0180     0.1210    90.2811     2.4461
  127.0000     9.9874     9.9503    10.2290   -33.6464     8.1593     0.0097     0.1264    89.5339     2.4374
  127.5000     9.9874     9.9496    10.2284   -33.3381     8.1602     0.0202     0.1193    89.2415     2.4562
  128.0000     9.9874     9.9488    10.2277   -33.3292     8.1611     0.0097     0.1186    90.0004     2.4480
  128.5000     9.9874     9.8686    10.2270   -33.3203     8.1620     0.0195     0.1228    90.6075     2.4532
  129.0000     9.9874     9.8109    10.1557   -33.4612     8.1629     0.0187     0.1108    90.0152     2.4832
  129.5000     9.9874     9.6756    10.0157   -33.4521     8.1578     0.0427     0.0961    89.4229     2.5283
  130.0000     9.9874     9.6083     9.8101   -33.4431     8.1497     0.0516     0.0823    88.6807     2.5373
  130.5000     9.8298     9.4758     9.5824   -33.4341     8.1507     0.0434     0.1066    90.2099     2.5013
  131.0000     9.5819     9.4100     9.3181   -33.5754     8.1581     0.0546     0.1000    91.7241     2.4870
  131.5000     9.4553     9.4027     9.1527   -33.5659     8.1675     0.0576     0.0961    93.0959     2.5051
  132.0000     9.3207     9.3438     9.0891   -33.4057     8.1683     0.0412     0.1051    92.6102     2.4841
  132.5000     9.1928     9.3627     9.1701   -33.3402     8.1692     0.0487     0.1108    93.3672     2.4758
  133.0000     9.1693     9.4075     9.2782   -33.2382     8.1701     0.0561     0.1084    94.8739     2.4871
  133.5000     9.1295     9.4067     9.3716   -33.0796     8.1711     0.0554     0.1029    96.2306     2.4976
  134.0000     9.1295     9.4061     9.5369   -33.0529     8.1719     0.0551     0.0996    93.9891     2.4931
  134.5000     9.1295     9.4054     9.6024   -32.9122     8.1728     0.0459     0.1098    92.4973     2.4737
  135.0000     9.1499     9.4048     9.6683   -32.9033     8.1737     0.0299     0.1137    92.8045     2.4632
  135.5000     9.1928     9.4040     9.6011   -32.8944     8.1746     0.0329     0.1185    93.5616     2.4534
  136.0000     9.1928     9.4035     9.4949   -32.8855     8.1755     0.0180     0.1221    94.1079     2.4422
  136.5000     9.1928     9.3297     9.4680   -32.8219     8.1656     0.0187     0.1185    94.7758     2.4497
  137.0000     9.1928     9.2831     9.4674   -32.6793     8.1623     0.0210     0.1210    95.3829     2.4445
  137.5000     9.1928     9.2086     9.5023   -32.5595     8.1632     0.0150     0.1193    96.7396     2.4540
  138.0000     9.1928     9.1445     9.5317   -32.4431     8.1641     0.0232     0.1141    99.2957     2.4678
  138.5000     9.1928     9.0184     9.5310   -32.2424     8.1650     0.0269     0.1113   101.1022     2.4708
  139.0000     9.0077     8.8498     9.4646   -32.0838     8.1659     0.0210     0.1164   102.9087     2.4580
