~VERSION INFORMATION
 VERS.                2.0:   CWLS LOG ASCII STANDARD - VERSION 2.0
 WRAP.                 NO:   ONE LINE PER DEPTH STEP
~WELL INFORMATION
#MNEM.UNIT      DATA TYPE    INFORMATION
#----------   ------------   ------------------------------
 STRT.F           80.5000:   START DEPTH
 STOP.F          768.0000:   STOP DEPTH
 STEP.F            0.5000:   STEP LENGTH
 NULL.          -999.2500:   NO VALUE
 COMP. U S NAVY/INTEX OIL CO:   COMPANY
 WELL. N.P.R. #3 #84-S-34:   WELL
 FLD .             TEAPOT:   FIELD
 LOC .      S34 T39N R78W:   LOCATION
 CNTY.            NATRONA:   COUNTY
 STAT.            WYOMING:   STATE
 CTRY. UNITED STATES OF AMERICA:   COUNTRY
 SRVC. Schlumberger Well Surveying Corp:   SERVICE COMPANY
 DATE.        17-FEB-1961:   LOGDATE
 API .       490250654000:   API NUMBER
~CURVE INFORMATION
#MNEM.UNIT       API CODE    CURVE DESCRIPTION
#----------   ------------   ------------------------------
 DEPT.F                  :   
 SPR .MV     05 010 01 00:   SPONTANEOUS POTENTIAL
 ASN .OHMM   05 041 16 00:   AMPLIFIED SHORT NORMAL 16"
 ILD .OHMM   05 120 46 00:   INDUCTION LOG DEEP
 CILD.MMHO   05 110 46 00:   CONDUCTIVITY INDUCTION LOG DEEP
 GR  .GAPI   30 310 01 00:   GAMMA RAY
~PARAMETER INFORMATION
#MNEM.UNIT          VALUE    DESCRIPTION
#----------   ------------   ------------------------------
 PD  .                 GL:   PERMANENT DATUM
 EPD .F              5083:   ELEVATION PERMANENT DATUM
 LMF .                 KB:   LOG MEASURED FROM
 DAPD.F                 4:   FEET ABOVE PERMANENT DATUM
 DMF .                 KB:   DRILLING MEASURED FROM
 EKB .F              5087:   KELLING BUSHING
 EGL .F              5083:   GROUND LEVEL
 DATE.            2-17-61:   RUN DATE
 RUN .                  1:   RUN NUMBER
 DD  .F               770:   DEPTH DRILLER
 DL  .F               769:   DEPTH LOGGER
 BLI .F               768:   BOTTOM LOG INTERVAL
 TLI .F                80:   TOP LOG INTERVAL
 CBD .F                12:   CASING BOTTOM DRILLER
 BS  .IN            7.875:   BIT SIZE
 BSD .F               770:   BIT SIZE AT DEPTH
 DFT .       GEL/OIL EMUL:   DRILLING FLUID TYPE
 DFD .                9.5:   DRILLING FLUID DENSITY
 DFV .                 50:   DRILLING FLUID VISCOSITY
 DFPH.                  8:   DRILLING FLUID PH
 DFL .                1.8:   DRILLING FLUID LOSS
 MSS .           FLOWLINE:   MUD SAMPLE SOURCE
 RMS .OHMM             .9:   RESISTIVITY MUD SAMPLE
 MST .F                69:   MUD SAMPLE TEMPERATURE
 RMF .OHMM            .54:   RESISTIVITY MUD FILTRATE SAMPLE
 MFST.F                69:   MUD FILTRATE SAMPLE TEMPERATURE
 RMC .OHMM           1.64:   RESISTIVITY MUD CAKE
 MCST.F                69:   MUD CAKE SAMPLE TEMPERATURE
 MFSS.                  M:   MUD FILTRATE SAMPLE SOURCE
 MCSS.                  M:   MUD CAKE SAMPLE SOURCE
 RMB .OHMM             .8:   RESISTIVITY MUD AT BHT
 BHT .F                78:   BOTTOM HOLE TEMPERATURE
 TCS .HRS               1:   TIME CURCULATED STOPPED
 MRT .F                78:   MAXIMUM RECORDED TEMPERATURE
 LUN .               2523:   LOGGING UNIT NUMBER
 LUL .               CSPR:   LOGGING UNIT LOCATION
 ENGI.             KNOBEL:   RECORDING ENGINEER
 WITN.          JORGENSEN:   WITNESSED BY
 CLNT.            A2DTECH:   CLIENT CODE
 ORIG.       2", 5" PRINT:   ORIGIN OF DATA
 UWI .       490250654000:   UNIQUE WELL ID
 DICO. A2D Technologies, Inc.:   DIGITIZING COMPANY
~OTHER INFORMATION
~A   DEPT      SPR        ASN        ILD       CILD         GR   
   80.5000   -23.9714  -999.2500  -999.2500  -999.2500  -999.2500
   81.0000   -23.8068  -999.2500     5.7652   165.3322  -999.2500
   81.5000   -23.6423     1.7153     5.7361   166.2901  -999.2500
   82.0000   -23.4777     2.4256     5.7070   167.2479  -999.2500
   82.5000   -23.3490     3.4434     5.7029   167.9663  -999.2500
   83.0000   -23.4407     4.2081     5.7344   168.9242  -999.2500
   83.5000   -23.5764     5.2231     5.7754   169.8816  -999.2500
   84.0000   -23.7143     6.2394     5.7541   170.8406  -999.2500
   84.5000   -23.8517     6.9237     5.6870   171.8018  -999.2500
   85.0000   -23.9888     7.1577     5.6195   172.7613  -999.2500
   85.5000   -24.1260     7.2249     5.5514   175.4739  -999.2500
   86.0000   -24.2631     7.2898     5.4839   178.1854  -999.2500
   86.5000   -24.4005     7.3555     5.4171   180.8977  -999.2500
   87.0000   -24.5385     7.2661     5.3751   183.6117  -999.2500
   87.5000   -24.6743     7.1637     5.2552   185.2818  -999.2500
   88.0000   -24.7660     7.0613     5.1787   185.2818  -999.2500
   88.5000   -24.5658     6.9580     5.2174   185.2818  -999.2500
   89.0000   -24.3690     6.9674     5.2543   184.8121  -999.2500
   89.5000   -24.1732     6.9982     5.2912   183.2855  -999.2500
   90.0000   -23.9772     7.0298     5.3284   181.7589  -999.2500
   90.5000   -23.7813     7.0612     5.3677   180.2323  -999.2500
   91.0000   -23.5854     7.0927     5.3242   179.2276  -999.2500
   91.5000   -23.3893     7.1238     5.2537   180.2453  -999.2500
   92.0000   -23.1931     7.1512     5.1823   181.7328  -999.2500
   92.5000   -22.9982     7.1517     5.1109   185.8038  -999.2500
   93.0000   -22.8039     7.0467     5.0397   189.8747  -999.2500
   93.5000   -22.8083     6.8800     4.9684   193.9457  -999.2500
   94.0000   -23.0365     6.7126     4.8972   198.0167  -999.2500
   94.5000   -23.2640     6.5445     4.8258   202.0858  -999.2500
   95.0000   -23.4928     6.3802     4.7548   206.1491  -999.2500
   95.5000   -23.7215     6.3122     4.6837   210.3160  -999.2500
   96.0000   -23.9501     6.2487     4.6462   211.6368  -999.2500
   96.5000   -24.1792     6.2660     4.6960   211.2279  -999.2500
   97.0000   -24.4084     6.3931     4.7497   208.5224  -999.2500
   97.5000   -24.6334     6.5192     4.8036   205.8123  -999.2500
   98.0000   -24.7230     6.6462     4.8574   203.0967  -999.2500
   98.5000   -24.4625     6.7738     4.9112   200.3827  -999.2500
   99.0000   -24.2144     6.7959     4.9649   198.6292  -999.2500
   99.5000   -23.9667     6.7794     5.0189   197.0858  -999.2500
  100.0000   -23.7183     6.7579     5.0733   195.5424  -999.2500
  100.5000   -23.4705     6.7770     5.1254   193.9989  -999.2500
  101.0000   -23.2220     6.8079     5.1180   192.4555  -999.2500
  101.5000   -22.9641     6.8392     5.0393   190.9121  -999.2500
  102.0000   -23.0453     6.8703     5.0050   190.9900  -999.2500
  102.5000   -23.2280     6.9016     4.9727   192.0792  -999.2500
  103.0000   -23.4151     6.9354     4.9400   194.5098  -999.2500
  103.5000   -23.5972     6.8745     4.9072   196.9378  -999.2500
  104.0000   -23.6681     6.7826     4.8744   199.3633  -999.2500
  104.5000   -23.2417     6.6897     4.8416   201.7867  -999.2500
  105.0000   -22.8057     6.5968     4.8086   204.2102  -999.2500
  105.5000   -22.9206     6.5039     4.7762   205.9842  -999.2500
  106.0000   -23.2268     6.4119     4.7543   205.0939  -999.2500
  106.5000   -23.5401     6.3315     4.7874   204.2037  -999.2500
  107.0000   -23.8658     6.4248     4.8195   203.3134  -999.2500
  107.5000   -23.8952     6.5538     4.8515   202.4232  -999.2500
  108.0000   -23.8154     6.6836     4.8834   201.5330  -999.2500
  108.5000   -23.7314     6.8118     4.9153   200.6427  -999.2500
  109.0000   -23.6477     6.9077     4.9491   200.1012  -999.2500
  109.5000   -23.5643     6.7945     4.9305   201.3795  -999.2500
  110.0000   -23.4808     6.6847     4.8895   202.6578  -999.2500
  110.5000   -23.3977     6.5758     4.8479   203.9361  -999.2500
  111.0000   -23.3391     6.4758     4.8063   205.2144  -999.2500
  111.5000   -23.4313     6.4728     4.7638   206.4927  -999.2500
  112.0000   -23.5243     6.5414     4.7811   207.7710  -999.2500
  112.5000   -23.6169     6.6028     4.8302   206.4196  -999.2500
  113.0000   -23.7094     6.6640     4.8796   203.5115  -999.2500
  113.5000   -23.8020     6.7251     4.9292   200.6043  -999.2500
  114.0000   -23.8945     6.7862     4.9786   197.6945  -999.2500
  114.5000   -23.9873     6.8473     5.0281   194.7861  -999.2500
  115.0000   -24.0805     6.9085     5.0775   192.5882  -999.2500
  115.5000   -24.1591     6.9698     5.1270   190.8573  -999.2500
  116.0000   -24.0790     7.0238     5.1766   189.1251  -999.2500
  116.5000   -23.9997     7.0075     5.2259   187.3945  -999.2500
  117.0000   -23.9216     6.9906     5.2706   185.6727  -999.2500
  117.5000   -23.8435     7.0080     5.2329   183.9335  -999.2500
  118.0000   -23.7654     7.0486     5.1678   185.2941  -999.2500
  118.5000   -23.6874     7.0900     5.1024   188.9598  -999.2500
  119.0000   -23.6093     7.0448     5.0367   192.6256  -999.2500
  119.5000   -23.5312     6.9352     4.9711   196.2913  -999.2500
  120.0000   -23.4532     6.8248     4.9055   199.9570  -999.2500
  120.5000   -23.3751     6.7138     4.8399   203.6227  -999.2500
  121.0000   -23.2971     6.6032     4.7741   207.2885  -999.2500
  121.5000   -23.2190     6.4923     4.7079   210.9542  -999.2500
  122.0000   -23.1409     6.4318     4.6480   214.5094  -999.2500
  122.5000   -23.0626     6.4145     4.7001   213.7961  -999.2500
  123.0000   -22.9832     6.4011     4.7550   213.1037  -999.2500
  123.5000   -22.9138     6.4715     4.8093   212.4217  -999.2500
  124.0000   -23.0555     6.5441     4.8635   208.4155  -999.2500
  124.5000   -23.2038     6.6162     4.9177   204.4687  -999.2500
  125.0000   -23.3510     6.6883     4.9719   200.5219  -999.2500
  125.5000   -23.4979     6.7603     5.0261   196.5752  -999.2500
  126.0000   -23.6449     6.8322     5.0803   192.5887  -999.2500
  126.5000   -23.7920     6.9039     5.1346   190.1211  -999.2500
  127.0000   -23.9384     6.9513     5.1885   187.6284  -999.2500
  127.5000   -24.0843     6.9722     5.2422   186.7507  -999.2500
  128.0000   -24.1256     6.9932     5.2447   187.6409  -999.2500
  128.5000   -24.0478     7.0139     5.1889   188.5312  -999.2500
  129.0000   -23.9704     7.0344     5.1332   189.4206  -999.2500
  129.5000   -23.8922     7.0456     5.0773   190.3109  -999.2500
  130.0000   -23.8141     7.0146     5.0213   191.2006  -999.2500
  130.5000   -23.7360     6.9453     4.9654   192.0902  -999.2500
  131.0000   -23.6579     6.8762     4.9094   193.6385  -999.2500
  131.5000   -23.5799     6.8068     4.8535   196.0125  -999.2500
  132.0000   -23.5018     6.7378     4.7976   198.3865  -999.2500
  132.5000   -23.4238     6.6691     4.7416   200.7605  -999.2500
  133.0000   -23.3457     6.6113     4.6856   203.1345  -999.2500
  133.5000   -23.2677     6.5694     4.6299   205.5085  -999.2500
  134.0000   -23.1896     6.5278     4.5746   207.8825  -999.2500
  134.5000   -23.1113     6.4868     4.5412   209.0083  -999.2500
  135.0000   -23.0334     6.4698     4.5656   208.3102  -999.2500
  135.5000   -22.9561     6.4908     4.6281   207.6240  -999.2500
  136.0000   -22.9451     6.5259     4.6903   206.8334  -999.2500
  136.5000   -23.0444     6.5853     4.7527   205.8885  -999.2500
  137.0000   -23.1422     6.6443     4.8150   204.9449  -999.2500
  137.5000   -23.2402     6.7034     4.8773   204.0014  -999.2500
  138.0000   -23.3382     6.7624     4.9397   203.0585  -999.2500
  138.5000   -23.4362     6.8215     5.0019   202.1162  -999.2500
  139.0000   -23.5340     6.8804     5.0642   198.9055  -999.2500
  139.5000   -23.6325     6.9399     5.1270   195.3445  -999.2500
  140.0000   -23.7328     6.9983     5.2283   191.7835  -999.2500
  140.5000   -23.6783     7.0475     5.4077   187.0564  -999.2500
  141.0000   -23.6010     7.3446     5.5857   180.1677  -999.2500
