~VERSION INFORMATION
 VERS.                2.0:   CWLS LOG ASCII STANDARD - VERSION 2.0
 WRAP.                 NO:   ONE LINE PER DEPTH STEP
~WELL INFORMATION
#MNEM.UNIT      DATA TYPE    INFORMATION
#----------   ------------   ------------------------------
 STRT.F           20.0000:   START DEPTH
 STOP.F          805.5000:   STOP DEPTH
 STEP.F            0.5000:   STEP LENGTH
 NULL.          -999.2500:   NO VALUE
 COMP. FENIX & SCISSON INC:   COMPANY
 WELL.    16-SX-14 #16-14:   WELL
 FLD .             TEAPOT:   FIELD
 LOC .      S14 T38N R78W:   LOCATION
 CNTY.            NATRONA:   COUNTY
 STAT.            WYOMING:   STATE
 CTRY. UNITED STATES OF AMERICA:   COUNTRY
 SRVC.            Unknown:   SERVICE COMPANY
 DATE.        23-MAY-1978:   LOGDATE
 API .       490251063200:   API NUMBER
~CURVE INFORMATION
#MNEM.UNIT       API CODE    CURVE DESCRIPTION
#----------   ------------   ------------------------------
 DEPT.F                  :   
 SN  .OHMM   05 040 16 00:   SHORT NORMAL 16"
 ILD .OHMM   05 120 46 00:   INDUCTION LOG DEEP
 SPR .MV     05 010 01 00:   SPONTANEOUS POTENTIAL FROM RES.
 RHOB.G/C3   45 350 01 00:   BULK DENSITY
 DPOR.DEC    45 890 12 00:   DENSITY POROSITY SANDSTONE
 CORR.G/C3   45 356 01 00:   DENSITY CORRECTION
 GRD .GAPI   45 310 01 00:   GAMMA RAY FROM DENSITY LOG
 CALD.IN     45 280 60 00:   CALIPER FROM DENSITY LOG
~PARAMETER INFORMATION
#MNEM.UNIT          VALUE    DESCRIPTION
#----------   ------------   ------------------------------
 PD  .                 GL:   PERMANENT DATUM
 EPD .F              5246:   ELEVATION PERMANENT DATUM
 LMF .                 KB:   LOG MEASURED FROM
 DAPD.F                 4:   FEET ABOVE PERMANENT DATUM
 DMF .                 KB:   DRILLING MEASURED FROM
 EKB .F              5250:   KELLING BUSHING
 EGL .F              5246:   GROUND LEVEL
 DATE.          5-23-1978:   RUN DATE
 RUN .                  1:   RUN NUMBER
 DD  .F               825:   DEPTH DRILLER
 DL  .F               812:   DEPTH LOGGER
 BLI .F               805:   BOTTOM LOG INTERVAL
 TLI .F                40:   TOP LOG INTERVAL
 CS  .IN            8.625:   CASING SIZE
 CBD .F                40:   CASING BOTTOM DRILLER
 BS  .IN            7.875:   BIT SIZE
 BSD .F               825:   BIT SIZE AT DEPTH
 DFT .                KCL:   DRILLING FLUID TYPE
 DFD .                8.6:   DRILLING FLUID DENSITY
 DFV .                 30:   DRILLING FLUID VISCOSITY
 DFPH.                 11:   DRILLING FLUID PH
 DFL .                 14:   DRILLING FLUID LOSS
 MSS .            MUD PIT:   MUD SAMPLE SOURCE
 RMS .OHMM            .32:   RESISTIVITY MUD SAMPLE
 MST .F                72:   MUD SAMPLE TEMPERATURE
 RMF .OHMM            .28:   RESISTIVITY MUD FILTRATE SAMPLE
 MFST.F                72:   MUD FILTRATE SAMPLE TEMPERATURE
 RMC .OHMM            .50:   RESISTIVITY MUD CAKE
 MCST.F                82:   MUD CAKE SAMPLE TEMPERATURE
 MFSS.               MEAS:   MUD FILTRATE SAMPLE SOURCE
 RMB .OHMM            .31:   RESISTIVITY MUD AT BHT
 BHT .F                75:   BOTTOM HOLE TEMPERATURE
 TCS .HRS               2:   TIME CURCULATED STOPPED
 MRT .F                75:   MAXIMUM RECORDED TEMPERATURE
 LUN .               2958:   LOGGING UNIT NUMBER
 LUL .              CSPR.:   LOGGING UNIT LOCATION
 ENGI.             MILLER:   RECORDING ENGINEER
 WITN.            RHOADES:   WITNESSED BY
 CLNT.            A2DTECH:   CLIENT CODE
 ORIG.    1" , 2.5" PRINT:   ORIGIN OF DATA
 UWI .       490251063200:   UNIQUE WELL ID
 DICO. A2D Technologies, Inc.:   DIGITIZING COMPANY
~OTHER INFORMATION
~A   DEPT       SN        ILD        SPR       RHOB       DPOR       CORR         GRD      CALD   
# ...
  546.5000     5.0764     4.1444   -29.3380     2.4812     0.1190     0.0425   100.8490     7.0166
  547.0000     5.2452     4.2767   -29.1772     2.4827     0.1207     0.0345    99.3581     7.0870
  547.5000     5.4199     4.4133   -29.0603     2.4789     0.1220     0.0365    96.2164     7.1538
  548.0000     5.6006     4.5542   -28.9687     2.4764     0.1220     0.0386    93.3443     7.2192
  548.5000     5.7872     4.6997   -28.8790     2.4754     0.1225     0.0412    93.6630     7.2314
  549.0000     5.9802     4.8498   -28.7895     2.4743     0.1242     0.0434    93.8810     7.2436
  549.5000     6.1781     5.0047   -28.7000     2.4732     0.1260     0.0456    93.0511     7.2616
  550.0000     6.3831     5.1645   -28.6097     2.4750     0.1259     0.0420    92.2516     7.1953
  550.5000     6.5949     5.3295   -28.5205     2.4767     0.1267     0.0384    93.4016     7.0672
  551.0000     6.9347     5.4683   -28.4322     2.4735     0.1293     0.0400    95.5825     6.9833
  551.5000     6.8598     5.5115   -28.3375     2.4702     0.1316     0.0417    95.3368     6.9943
  552.0000     6.6999     5.5550   -28.3403     2.4665     0.1316     0.0436    93.2552     7.0070
  552.5000     6.4421     5.5988   -28.3952     2.4655     0.1258     0.0454    94.0008     7.0236
  553.0000     6.4934     5.6628   -28.4449     2.4672     0.1225     0.0425    95.7040     7.0390
  553.5000     6.6483     5.6112   -28.4924     2.4688     0.1266     0.0382    96.4115     7.0544
  554.0000     6.8876     5.5193   -28.5433     2.4669     0.1284     0.0396    95.0136     7.0691
  554.5000     6.8746     5.4290   -28.5912     2.4604     0.1291     0.0408    93.7828     7.0861
  555.0000     6.5967     5.3401   -28.6400     2.4578     0.1310     0.0422    93.6807     7.1027
  555.5000     6.3301     5.2527   -28.6958     2.4563     0.1364     0.0436    95.1142     7.1525
  556.0000     6.0958     5.1667   -28.6766     2.4547     0.1351     0.0448    96.4335     7.2053
  556.5000     6.0393     5.0821   -28.5764     2.4532     0.1347     0.0461    98.1765     7.1755
  557.0000     5.9877     4.9989   -28.4833     2.4517     0.1375     0.0477   100.1751     7.0998
  557.5000     5.9390     4.8743   -28.3898     2.4500     0.1403     0.0485   102.1635     7.0566
  558.0000     5.8877     4.7383   -28.2959     2.4486     0.1428     0.0492   104.1011     7.0766
  558.5000     5.7125     4.4426   -28.2027     2.4475     0.1381     0.0342   106.0151     7.0845
  559.0000     5.3206     4.1253   -28.1048     2.4535     0.1317     0.0306   105.4282     7.1339
  559.5000     4.9556     3.8462   -28.0192     2.4618     0.1277     0.0313   102.7356     7.1220
  560.0000     4.4586     3.8874   -27.9239     2.4694     0.1281     0.0327   100.0828     7.0818
  560.5000     4.5010     3.9269   -28.1206     2.4728     0.1284     0.0344    97.7257     7.0394
  561.0000     4.6002     3.9668   -28.3535     2.4751     0.1251     0.0422    97.9487     6.9961
  561.5000     4.7014     4.0071   -28.6005     2.4772     0.1219     0.0501    98.1121     6.9943
  562.0000     4.8033     4.0477   -28.8262     2.4795     0.1186     0.0582    98.2647     7.0298
  562.5000     4.8869     4.2270   -29.0994     2.4818     0.1154     0.0662    98.4154     7.0623
  563.0000     5.3481     4.5190   -29.2045     2.4837     0.1121     0.0745    97.0902     7.0942
  563.5000     5.7672     4.8312   -29.3284     2.4885     0.1089     0.0783    95.7013     7.1270
  564.0000     6.2192     5.1650   -29.4431     2.4961     0.1074     0.0737    96.4979     7.1597
  564.5000     6.5747     5.5594   -29.4683     2.4999     0.1091     0.0679   100.0340     7.1923
  565.0000     6.6191     5.6186   -29.2839     2.5008     0.1108     0.0624    99.1853     7.2188
  565.5000     6.6639     5.6644   -29.1051     2.4990     0.1096     0.0637    97.5790     7.2194
  566.0000     6.7301     5.6693   -28.9230     2.4973     0.1075     0.0651    96.7888     7.2242
  566.5000     6.8141     5.6741   -28.7404     2.4954     0.1055     0.0668    97.0709     7.1617
  567.0000     6.8992     5.6790   -28.5593     2.5010     0.1036     0.0685    96.7628     6.9953
  567.5000     6.9854     5.6839   -28.3772     2.5084     0.1040     0.0700    94.5467     6.8351
  568.0000     7.0726     5.6887   -28.1954     2.5060     0.1046     0.0716    91.4201     6.7937
  568.5000     7.1609     5.6936   -28.0130     2.5031     0.1052     0.0735    92.3256     6.9858
  569.0000     7.2502     5.6985   -27.8319     2.4998     0.1041     0.0725    95.2766     7.1733
  569.5000     7.3286     5.7034   -27.6512     2.5020     0.1029     0.0693    97.6069     7.3696
  570.0000     7.3030     5.7083   -27.4650     2.5059     0.1037     0.0662    98.2207     7.4231
  570.5000     7.2687     5.7132   -27.2904     2.5021     0.1123     0.0627    98.7575     7.4205
  571.0000     7.2345     5.7181   -27.1213     2.4957     0.1177     0.0686   102.4008     7.4213
  571.5000     7.2006     5.7230   -27.2258     2.4879     0.1130     0.0802   104.2248     7.4121
  572.0000     7.1667     5.7279   -27.3329     2.4936     0.1084     0.0918   103.4034     7.3931
  572.5000     7.1331     5.7328   -27.4519     2.5049     0.1052     0.0762   101.6773     7.3768
  573.0000     7.0995     5.7379   -27.5654     2.5138     0.1086     0.0538   100.0786     7.3582
  573.5000     7.0636     5.7429   -27.6793     2.5080     0.1116     0.0450    98.4690     7.3347
  574.0000     7.0802     5.7477   -27.7945     2.4990     0.1135     0.0463    96.8234     7.2193
  574.5000     7.1106     5.7532   -27.9087     2.4910     0.1149     0.0459    96.3766     7.0557
  575.0000     7.1409     5.7577   -28.0232     2.4886     0.1164     0.0480    96.4407     6.8161
  575.5000     7.1881     5.7624   -28.1374     2.4866     0.1179     0.0541    96.5615     6.6996
  576.0000     7.1529     5.7681   -28.2517     2.4846     0.1193     0.0600   100.0743     6.7470
  576.5000     6.9855     5.7290   -28.3659     2.4813     0.1204     0.0635   101.5124     6.9443
  577.0000     6.8224     5.6452   -28.4801     2.4746     0.1248     0.0657   100.5878     7.1740
  577.5000     6.5634     5.5626   -28.5944     2.4681     0.1299     0.0613   101.6418     7.3999
  578.0000     6.6056     5.4812   -28.7086     2.4610     0.1349     0.0567   104.5862     7.4488
  578.5000     6.7418     5.4011   -28.8228     2.4555     0.1398     0.0533   105.7578     7.4252
  579.0000     6.9333     5.3221   -28.9371     2.4521     0.1420     0.0601   104.6490     7.3805
  579.5000     6.8297     5.2605   -29.0513     2.4483     0.1337     0.0622   103.8951     7.3337
  580.0000     6.6550     5.2605   -29.1659     2.4489     0.1308     0.0484   104.9741     7.3001
  580.5000     6.4823     5.2605   -29.2802     2.4563     0.1437     0.0351   105.3981     7.2625
  581.0000     6.3163     5.2605   -29.3943     2.4624     0.1597     0.0296   105.5218     7.2607
  581.5000     6.1546     4.9555   -29.5101     2.4360     0.1748     0.0344   103.2080     7.2593
  582.0000     5.9970     4.6902   -29.6224     2.3895     0.1702     0.0377   101.0458     7.2594
  582.5000     5.8435     4.4391   -29.7369     2.3949     0.1534     0.0364    99.2757     7.2684
  583.0000     5.6939     4.2015   -29.8616     2.4183     0.1366     0.0355    98.0030     7.2948
  583.5000     5.4270     4.0667   -29.8915     2.4391     0.1199     0.0343    97.5779     7.3205
  584.0000     5.1423     4.0812   -29.7882     2.4592     0.1165     0.0374    96.1478     7.3385
  584.5000     4.8869     4.0960   -29.6961     2.4804     0.1177     0.0423    94.8229     7.3333
  585.0000     4.8869     4.1108   -29.6038     2.4866     0.1158     0.0471    94.7232     7.3285
  585.5000     4.8869     4.1257   -29.5088     2.4884     0.1130     0.0519    95.8213     7.3228
  586.0000     5.0999     4.1410   -29.4156     2.4902     0.1102     0.0565    96.9122     7.3173
  586.5000     5.4153     4.3647   -29.3220     2.4920     0.1092     0.0617    98.0371     7.3122
