~VERSION INFORMATION
 VERS.                2.0:   CWLS LOG ASCII STANDARD - VERSION 2.0
 WRAP.                 NO:   ONE LINE PER DEPTH STEP
~WELL INFORMATION
#MNEM.UNIT      DATA TYPE    INFORMATION
#----------   ------------   ------------------------------
 STRT.F           99.0000:   START DEPTH
 STOP.F          750.0000:   STOP DEPTH
 STEP.F            0.5000:   STEP LENGTH
 NULL.          -999.2500:   NO VALUE
 COMP. U S NAVY/INTEX OIL CO:   COMPANY
 WELL.    NRP #3 #43-S-11:   WELL
 FLD .             TEAPOT:   FIELD
 LOC .      S11 T38N R78W:   LOCATION
 CNTY.            NATRONA:   COUNTY
 STAT.            WYOMING:   STATE
 CTRY. UNITED STATES OF AMERICA:   COUNTRY
 SRVC.       Schlumberger:   SERVICE COMPANY
 DATE.        12-JUL-1962:   LOGDATE
 API .       490250636100:   API NUMBER
~CURVE INFORMATION
#MNEM.UNIT       API CODE    CURVE DESCRIPTION
#----------   ------------   ------------------------------
 DEPT.F                  :   
 SPR .MV     05 010 01 00:   SPONTANEOUS POTENTIAL FROM RES.
 CILD.MMHO   05 110 46 00:   CONDUCTIVITY INDUCTION LOG DEEP
 ILD .OHMM   05 120 46 00:   INDUCTION LOG DEEP
 ASN .OHMM   05 041 16 00:   AMPLIFIED SHORT NORMAL 16"
 GR  .GAPI   30 310 01 00:   GAMMA RAY
~PARAMETER INFORMATION
#MNEM.UNIT          VALUE    DESCRIPTION
#----------   ------------   ------------------------------
 EPD .F              5177:   ELEVATION PERMANENT DATUM
 LMF .                 KB:   LOG MEASURED FROM
 DAPD.F                 5:   FEET ABOVE PERMANENT DATUM
 DMF .                 KB:   DRILLING MEASURED FROM
 EKB .F              5182:   KELLING BUSHING
 EGL .F              5177:   GROUND LEVEL
 DATE.          7-12-1962:   RUN DATE
 RUN .                  1:   RUN NUMBER
 DD  .F               750:   DEPTH DRILLER
 DL  .F               751:   DEPTH LOGGER
 BLI .F               750:   BOTTOM LOG INTERVAL
 TLI .F               100:   TOP LOG INTERVAL
 CBD .F                10:   CASING BOTTOM DRILLER
 BS  .IN             6.75:   BIT SIZE
 BSD .F               750:   BIT SIZE AT DEPTH
 DFT .           OIL EMUL:   DRILLING FLUID TYPE
 DFD .               10.2:   DRILLING FLUID DENSITY
 DFV .                 40:   DRILLING FLUID VISCOSITY
 DFL .                4.6:   DRILLING FLUID LOSS
 RMS .OHMM            5.2:   RESISTIVITY MUD SAMPLE
 MST .F                82:   MUD SAMPLE TEMPERATURE
 RMF .OHMM            3.7:   RESISTIVITY MUD FILTRATE SAMPLE
 MFST.F                82:   MUD FILTRATE SAMPLE TEMPERATURE
 RMC .OHMM            5.8:   RESISTIVITY MUD CAKE
 MCST.F                80:   MUD CAKE SAMPLE TEMPERATURE
 TCS .HRS              .5:   TIME CURCULATED STOPPED
 LUN .               2523:   LOGGING UNIT NUMBER
 LUL .               CSPR:   LOGGING UNIT LOCATION
 ENGI.           ELLERMAN:   RECORDING ENGINEER
 WITN.          JORGENSON:   WITNESSED BY
 CLNT.            A2DTECH:   CLIENT CODE
 ORIG.       2", 5" PRINT:   ORIGIN OF DATA
 UWI .       490250636100:   UNIQUE WELL ID
 DICO. A2D Technologies, Inc.:   DIGITIZING COMPANY
~OTHER INFORMATION
~A   DEPT      SPR       CILD        ILD          ASN       GR   
# ...
  282.0000   -63.5335    69.7091    14.2760    13.5164  -999.2500
  282.5000   -63.7288    70.5290    14.0220    13.6248  -999.2500
  283.0000   -62.9764    69.8670    13.7683    13.7298  -999.2500
  283.5000   -62.2324    69.2050    13.5145    13.8358  -999.2500
  284.0000   -61.6482    68.5430    13.2608    13.9434  -999.2500
  284.5000   -61.9184    67.8810    13.0078    13.9871  -999.2500
  285.0000   -62.1741    69.3380    12.7570    13.6585  -999.2500
  285.5000   -62.4275    73.9057    12.4799    13.0436  -999.2500
  286.0000   -62.6824    78.7362    11.5038    12.0995  -999.2500
  286.5000   -62.9458    87.2446    10.4651    11.1508  -999.2500
  287.0000   -62.9769    97.0271     9.4262    10.2412  -999.2500
  287.5000   -61.5892   106.8222     8.3948     9.3458  -999.2500
  288.0000   -60.2922   116.6129     7.5369     8.3108  -999.2500
  288.5000   -57.8590   126.3963     7.0917     7.4750  -999.2500
  289.0000   -56.6090   133.9017     6.6146     6.8584  -999.2500
  289.5000   -56.5549   142.0863     6.1443     6.5541  -999.2500
  290.0000   -56.4837   156.0431     5.8632     6.3462  -999.2500
  290.5000   -56.4143   158.3222     5.8752     6.3023  -999.2500
  291.0000   -56.1892   155.8861     5.8821     6.3062  -999.2500
  291.5000   -55.3651   153.4539     5.8888     6.3312  -999.2500
  292.0000   -54.4139   151.0132     5.8953     6.3569  -999.2500
  292.5000   -54.6659   148.5553     5.9018     6.3834  -999.2500
  293.0000   -55.2072   146.9408     5.9083     6.3769  -999.2500
  293.5000   -54.8045   147.5148     5.9148     6.2809  -999.2500
  294.0000   -54.3818   148.2957     5.9213     6.1842  -999.2500
  294.5000   -54.3190   148.9468     5.9278     6.0875  -999.2500
  295.0000   -54.9588   148.9468     5.9343     5.9912  -999.2500
  295.5000   -55.5957   148.3262     5.9408     6.0167  -999.2500
  296.0000   -56.1960   147.5332     5.9474     6.0952  -999.2500
  296.5000   -56.1453   146.7405     5.9539     6.1727  -999.2500
  297.0000   -55.9725   145.9469     5.9605     6.2499  -999.2500
  297.5000   -55.8034   145.1514     5.9678     6.3104  -999.2500
  298.0000   -55.6345   144.3612     5.9358     6.3085  -999.2500
  298.5000   -55.4657   143.9318     5.8976     6.2926  -999.2500
  299.0000   -55.2955   145.3426     5.8592     6.2769  -999.2500
  299.5000   -55.2231   147.4547     5.8209     6.2441  -999.2500
  300.0000   -54.9971   149.5668     5.7826     6.1724  -999.2500
  300.5000   -55.0123   151.6788     5.7444     6.1082  -999.2500
  301.0000   -55.0098   153.7924     5.7061     6.0443  -999.2500
  301.5000   -55.0125   155.9110     5.6678     5.9806  -999.2500
  302.0000   -54.4992   158.0091     5.6294     5.9165  -999.2500
  302.5000   -53.5899   158.9769     5.5921     5.8879  -999.2500
  303.0000   -53.0910   157.7482     5.5982     5.8875  -999.2500
  303.5000   -53.9837   155.5322     5.6917     5.9021  -999.2500
  304.0000   -54.9207   153.3171     5.7836     5.9959  -999.2500
  304.5000   -54.2714   151.1002     5.8758     6.0890  -999.2500
  305.0000   -53.6462   148.8842     5.9679     6.1820  -999.2500
  305.5000   -53.3068   146.6681     6.0600     6.2742  -999.2500
  306.0000   -55.9711   144.4521     6.1521     6.3290  -999.2500
  306.5000   -56.5844   142.2361     6.2442     6.3497  -999.2500
  307.0000   -56.2880   140.0201     6.3363     6.3751  -999.2500
  307.5000   -55.9662   137.9137     6.4284     6.3992  -999.2500
  308.0000   -55.8124   137.1671     6.5205     6.4445  -999.2500
  308.5000   -55.9044   137.7299     6.6126     6.5053  -999.2500
  309.0000   -56.0317   136.9107     6.7047     6.6681  -999.2500
  309.5000   -56.1588   135.0185     6.7968     6.8088  -999.2500
  310.0000   -56.1169   133.2652     6.8888     6.8290  -999.2500
  310.5000   -55.5147   131.5118     6.9811     6.8500  -999.2500
  311.0000   -55.8212   129.7585     7.0742     6.9069  -999.2500
  311.5000   -56.1968   127.8837     7.1664     6.9692  -999.2500
  312.0000   -55.6958   128.0592     7.1024     7.0314  -999.2500
  312.5000   -55.1855   129.3255     7.0262     7.0905  -999.2500
  313.0000   -54.6770   130.5918     6.9504     6.9766  -999.2500
  313.5000   -54.1706   131.8957     6.8750     6.8497  -999.2500
  314.0000   -54.3604   133.5339     6.7996     6.7223  -999.2500
  314.5000   -55.0843   135.2223     6.7241     6.6677  -999.2500
  315.0000   -55.1937   136.9107     6.6486     6.6253  -999.2500
  315.5000   -54.3797   137.9137     6.5733     6.5617  -999.2500
  316.0000   -53.7050   137.2033     6.4970     6.4999  -999.2500
  316.5000   -54.5739   136.4998     6.4826     6.4744  -999.2500
  317.0000   -55.4318   135.7963     6.5022     6.5926  -999.2500
  317.5000   -55.9112   135.0928     6.5225     6.7172  -999.2500
  318.0000   -56.4201   134.3887     6.5427     6.5721  -999.2500
  318.5000   -56.9708   133.6831     6.5641     6.6451  -999.2500
  319.0000   -56.8053   132.9744     6.5234     6.7564  -999.2500
  319.5000   -56.2901   132.8987     6.4568     6.8025  -999.2500
  320.0000   -55.7800   134.0689     6.3892     6.6158  -999.2500
  320.5000   -55.2674   135.7573     6.3216     6.5294  -999.2500
  321.0000   -54.7973   137.4457     6.2539     6.5278  -999.2500
  321.5000   -54.9225   138.9167     6.1831     6.5785  -999.2500
  322.0000   -55.1616   138.8066     6.2119     6.6459  -999.2500
  322.5000   -55.4106   138.0121     6.2702     6.7159  -999.2500
  323.0000   -55.0194   137.2175     6.3294     6.6902  -999.2500
  323.5000   -54.4768   136.4230     6.3884     6.6191  -999.2500
  324.0000   -53.8973   135.6284     6.4472     6.5474  -999.2500
  324.5000   -54.5969   134.8339     6.5061     6.4871  -999.2500
  325.0000   -55.6112   134.0394     6.5651     6.4933  -999.2500
  325.5000   -56.6287   133.2448     6.6239     6.6256  -999.2500
  326.0000   -56.6840   132.4503     6.6809     6.7635  -999.2500
  326.5000   -55.0303   131.6557     6.7318     6.9015  -999.2500
  327.0000   -53.7134   130.8927     6.7830     7.0135  -999.2500
  327.5000   -54.2432   133.0659     6.8327     7.0300  -999.2500
  328.0000   -54.9868   136.4427     6.8297     6.9883  -999.2500
  328.5000   -55.2138   136.9107     6.6351     6.8421  -999.2500
  329.0000   -55.0011   136.9107     6.4472     6.6500  -999.2500
  329.5000   -54.7687   140.6279     6.2594     6.4576  -999.2500
  330.0000   -54.6061   144.0722     6.0704     6.2620  -999.2500
  330.5000   -54.7113   147.5166     5.8770     6.2023  -999.2500
  331.0000   -54.8945   150.9609     5.8385     6.1522  -999.2500
  331.5000   -55.0118   153.8616     5.8093     6.1155  -999.2500
  332.0000   -54.9285   153.0823     5.7791     6.1129  -999.2500
  332.5000   -54.4577   152.3031     5.7488     6.1871  -999.2500
  333.0000   -54.0179   153.0124     5.7184     6.2967  -999.2500
  333.5000   -54.0785   153.3501     5.6880     6.4110  -999.2500
  334.0000   -54.1966   153.6877     5.6576     6.2828  -999.2500
  334.5000   -54.1814   154.0254     5.6270     6.1776  -999.2500
  335.0000   -53.5798   154.3656     5.5959     6.2909  -999.2500
  335.5000   -52.9749   154.7109     5.5707     6.3237  -999.2500
  336.0000   -52.9286   154.9241     5.6681     6.2075  -999.2500
  336.5000   -53.9732   153.9619     5.7702     6.0926  -999.2500
  337.0000   -53.0384   151.9795     5.8716     6.0119  -999.2500
  337.5000   -51.7132   149.5959     5.9729     6.0167  -999.2500
  338.0000   -50.9713   147.2122     6.0742     6.1028  -999.2500
  338.5000   -53.6898   145.1157     6.1755     6.3539  -999.2500
  339.0000   -54.1459   142.0404     6.2768     6.5960  -999.2500
  339.5000   -53.8091   138.9651     6.3781     6.7769  -999.2500
  340.0000   -53.4683   135.8898     6.4794     6.8332  -999.2500
  340.5000   -53.8608   132.8145     6.5808     6.8909  -999.2500
  341.0000   -54.1933   129.6999     6.6824     6.9311  -999.2500
  341.5000   -53.5530   129.9411     6.7836     6.8774  -999.2500
  342.0000   -53.5028   131.3741     6.8733     6.8514  -999.2500
  342.5000   -54.1433   132.8251     6.8728     6.8693  -999.2500
