~VERSION INFORMATION
 VERS.                2.0:   CWLS LOG ASCII STANDARD - VERSION 2.0
 WRAP.                 NO:   ONE LINE PER DEPTH STEP
~WELL INFORMATION
#MNEM.UNIT      DATA TYPE    INFORMATION
#----------   ------------   ------------------------------
 STRT.F            0.0000:   START DEPTH
 STOP.F          528.0000:   STOP DEPTH
 STEP.F            0.5000:   STEP LENGTH
 NULL.          -999.2500:   NO VALUE
 COMP.   FLUOR DANIEL INC:   COMPANY
 WELL. NAVAL PETROLEUM RESERVE 3 SX-3 53 #2-3:   WELL
 FLD .             TEAPOT:   FIELD
 LOC .       S3 T38N R78W:   LOCATION
 CNTY.            NATRONA:   COUNTY
 STAT.            WYOMING:   STATE
 CTRY. UNITED STATES OF AMERICA:   COUNTRY
 SRVC.      Western Atlas:   SERVICE COMPANY
 DATE.        06-JUL-1995:   LOGDATE
 API .       490252273900:   API NUMBER
~CURVE INFORMATION
#MNEM.UNIT       API CODE    CURVE DESCRIPTION
#----------   ------------   ------------------------------
 DEPT.F                  :   
 GRR .GAPI   07 310 01 00:   GAMMA RAY FROM RES. LOG.
 RILD.OHMM   07 120 46 00:   INDUCTION LOG DEEP RESISTIVITY
 RILM.OHMM   07 120 44 00:   INDUCTION LOG MEDIUM
~PARAMETER INFORMATION
#MNEM.UNIT          VALUE    DESCRIPTION
#----------   ------------   ------------------------------
 PD  .                 GL:   PERMANENT DATUM
 EPD .F              5146:   ELEVATION PERMANENT DATUM
 LMF .                 KB:   LOG MEASURED FROM
 DAPD.F                10:   FEET ABOVE PERMANENT DATUM
 DMF .                 KB:   DRILLING MEASURED FROM
 EKB .F              5156:   KELLING BUSHING
 EDF .F              5155:   DRILLING FLOOR
 EGL .F              5146:   GROUND LEVEL
 DATE.             7-6-95:   RUN DATE
 RUN .                  1:   RUN NUMBER
 DD  .F               535:   DEPTH DRILLER
 DL  .F               536:   DEPTH LOGGER
 BLI .F               528:   BOTTOM LOG INTERVAL
 TLI .F                53:   TOP LOG INTERVAL
 CS  .IN            9.625:   CASING SIZE
 CBD .F                52:   CASING BOTTOM DRILLER
 CBL .F                53:   CASING BOTTOM LOGGER
 BS  .IN             8.75:   BIT SIZE
 BSD .F               535:   BIT SIZE AT DEPTH
 DFT .                AIR:   DRILLING FLUID TYPE
 BHT .F               102:   BOTTOM HOLE TEMPERATURE
 MRT .F               102:   MAXIMUM RECORDED TEMPERATURE
 LUN .            HL 6530:   LOGGING UNIT NUMBER
 LUL .             CASPER:   LOGGING UNIT LOCATION
 ENGI.             RAUTIO:   RECORDING ENGINEER
 WITN.             STRONG:   WITNESSED BY
 CLNT.            A2DTECH:   CLIENT CODE
 ORIG. 2", 2.5", 5" PRINT:   ORIGIN OF DATA
 UWI .       490252273900:   UNIQUE WELL ID
 DICO. A2D Technologies, Inc.:   DIGITIZING COMPANY
~OTHER INFORMATION
~A    DEPT      GRR      RILD       RILM   
# ...
  182.0000   124.5391     8.4771     8.6862
  182.5000   125.1650     8.3203     8.5331
  183.0000   124.5585     8.1664     8.3827
  183.5000   122.9367     8.0151     8.2097
  184.0000   122.1438     7.8667     7.9613
  184.5000   122.8741     7.6492     7.7231
  185.0000   123.5771     7.3208     7.5086
  185.5000   124.3065     7.0065     7.3002
  186.0000   123.7477     6.7056     7.0975
  186.5000   122.0228     6.5087     6.8110
  187.0000   120.6879     6.5845     6.8374
  187.5000   119.7316     6.6484     6.8954
  188.0000   118.7835     6.7480     7.0017
  188.5000   117.8404     6.8987     7.1743
  189.0000   121.5414     7.0827     7.3438
  189.5000   125.5729     7.2759     7.5174
  190.0000   127.7563     7.4738     7.6950
  190.5000   126.1607     7.6771     7.8769
  191.0000   124.9068     7.8856     8.0425
  191.5000   125.8137     8.1937     8.0326
  192.0000   126.3674     8.1655     8.0226
  192.5000   126.2301     8.1164     8.0127
  193.0000   126.1033     8.0676     8.0028
  193.5000   125.9112     8.0190     7.9928
  194.0000   125.1182     7.9695     7.9829
  194.5000   124.4365     7.7967     7.9731
  195.0000   126.1396     7.6230     7.8597
  195.5000   128.3200     7.4444     7.6891
  196.0000   127.3352     7.1921     7.4690
  196.5000   125.2064     6.9483     7.2085
  197.0000   123.1931     6.7128     6.9571
  197.5000   124.5580     6.4853     6.7145
  198.0000   125.9773     6.2655     6.4804
  198.5000   125.3649     6.0532     6.2544
  199.0000   124.8393     5.8480     6.0388
  199.5000   125.5753     5.6603     5.9655
  200.0000   125.3622     5.8239     5.9281
  200.5000   124.0206     5.9835     6.1751
  201.0000   122.6326     6.1476     6.4125
  201.5000   124.0753     6.3161     6.6812
  202.0000   126.9587     6.5943     6.9899
  202.5000   129.6703     6.9601     7.3131
  203.0000   127.4445     7.3400     7.6513
  203.5000   124.8931     7.5977     7.8719
  204.0000   122.5107     7.7140     7.9681
  204.5000   122.8051     7.8320     8.0654
  205.0000   125.5517     7.9518     8.1640
  205.5000   129.2079     8.0734     8.2638
  206.0000   129.4059     8.1969     8.3647
  206.5000   129.1142     8.3223     8.4670
  207.0000   128.8667     8.4496     8.5704
  207.5000   129.9221     8.5814     8.6751
  208.0000   131.0330     8.6204     8.7812
  208.5000   130.9129     8.6603     8.8885
  209.0000   129.2950     8.7004     8.9547
  209.5000   127.6833     8.7406     9.0138
  210.0000   126.0691     8.7811     9.0733
  210.5000   124.8723     8.8228     9.1333
  211.0000   125.7172     8.8922     9.1936
  211.5000   128.9775     8.9819     9.2403
  212.0000   132.2828     9.0726     9.1633
  212.5000   131.3854     9.1540     9.1010
  213.0000   128.5692     9.1412     9.0392
  213.5000   127.2038     9.1284     8.9778
  214.0000   127.8709     9.1156     8.9168
  214.5000   129.1904     9.1028     8.8562
  215.0000   128.4973     9.0900     8.7961
  215.5000   127.8914     9.0773     8.7363
  216.0000   127.5108     9.0126     8.6770
  216.5000   127.2345     8.8987     8.6180
  217.0000   127.9236     8.7861     8.5157
  217.5000   128.6321     8.6740     8.3433
  218.0000   127.6313     8.5100     8.1744
  218.5000   125.2646     8.3491     8.0090
  219.0000   123.7254     8.1913     7.7459
  219.5000   122.1887     7.8456     7.0890
  220.0000   120.7037     7.2793     6.7056
  220.5000   122.9257     6.7552     6.3123
  221.0000   129.3816     6.2691     5.9421
  221.5000   136.2260     5.8179     5.3897
  222.0000   136.8521     5.2300     4.7940
  222.5000   133.9520     4.6812     4.2642
  223.0000   130.9586     4.1899     3.7929
  223.5000   128.4041     3.7502     3.3737
  224.0000   126.7777     3.3566     3.0008
  224.5000   125.5660     3.0044     2.7312
  225.0000   124.4272     2.7580     2.6763
  225.5000   123.2892     2.6763     2.7275
  226.0000   122.1685     2.6880     2.7678
  226.5000   122.3777     2.7282     2.8574
  227.0000   125.6325     2.8762     3.0775
  227.5000   130.3164     3.0747     3.3956
  228.0000   132.2035     3.4474     3.7978
  228.5000   133.9698     3.8638     4.2477
  229.0000   135.3959     4.2346     4.7509
  229.5000   135.5760     4.7441     5.3137
  230.0000   134.5377     5.3155     5.8302
  230.5000   133.4287     5.9542     6.3122
  231.0000   134.7266     6.4708     6.4868
  231.5000   136.5269     6.7822     6.6085
  232.0000   138.3866     6.9773     6.7330
  232.5000   137.0768     7.0684     6.8599
  233.0000   134.7899     6.9844     6.9373
  233.5000   136.6439     6.8810     6.7191
  234.0000   138.5444     6.7792     6.4797
  234.5000   138.5032     6.5768     6.1784
  235.0000   138.5771     6.2432     5.8900
  235.5000   142.9036     5.9265     5.6153
  236.0000   147.9870     5.6256     5.3538
  236.5000   148.8723     5.3651     5.1128
  237.0000   147.6660     5.1969     4.9881
  237.5000   145.2229     5.0346     4.8369
  238.0000   140.5971     4.9860     4.8999
  238.5000   135.8487     4.9495     5.0245
  239.0000   133.7583     4.9272     5.1524
  239.5000   135.6337     5.1294     5.2817
  240.0000   137.7043     5.3407     5.5374
  240.5000   136.7570     5.5769     5.8274
  241.0000   134.8708     5.8421     6.1339
  241.5000   135.3645     6.1199     6.4562
  242.0000   135.5949     6.4110     6.7954
  242.5000   135.5261     6.7159     7.1524
  243.0000   135.2468     7.0353     7.5282
  243.5000   134.9747     7.3698     7.9238
  244.0000   134.0819     7.7111     7.9695
  244.5000   133.3864     7.9920     7.9695
  245.0000   134.2976     8.1183     7.9695
  245.5000   136.1848     7.9682     7.9693
  246.0000   135.6552     7.8604     7.9686
  246.5000   134.8941     7.7539     7.9715
  247.0000   134.8751     7.6622     7.6848
  247.5000   134.8769     7.4935     7.4959
  248.0000   134.8833     7.3285     7.3115
  248.5000   135.1693     7.1536     7.1325
  249.0000   135.9284     6.9296     6.8068
  249.5000   136.3632     6.6380     6.4972
  250.0000   135.7066     6.2735     6.2017
  250.5000   136.4877     5.9290     5.9196
  251.0000   140.1741     5.6034     5.6503
  251.5000   143.4338     5.2958     5.3935
  252.0000   144.3668     5.0050     5.2062
  252.5000   142.6539     4.7045     5.1128
  253.0000   141.4471     4.8841     5.2179
  253.5000   140.9370     5.2494     5.3374
  254.0000   140.9235     5.6420     5.5068
  254.5000   140.9388     6.0388     5.5027
  255.0000   140.0642     6.3962     5.9749
  255.5000   138.7592     6.7535     6.3780
  256.0000   138.6068     7.1307     6.8095
  256.5000   142.6060     7.5291     7.2716
  257.0000   146.5701     7.7129     7.5593
  257.5000   147.7848     7.7874     7.6459
  258.0000   147.8631     7.8628     7.7300
  258.5000   147.2272     7.9387     7.8162
  259.0000   146.3982     8.0150     7.9035
  259.5000   142.9237     8.0631     7.9695
  260.0000   139.7501     8.1058     7.9036
  260.5000   140.5213     8.1495     7.9106
  261.0000   141.6649     8.1937     7.9177
  261.5000   143.2985     8.1632     7.9247
  262.0000   145.2417     8.1323     7.9318
  262.5000   146.9410     8.1015     7.9389
  263.0000   146.1733     8.0708     7.9459
  263.5000   143.5040     8.0402     7.9531
  264.0000   141.9477     8.0098     7.9601
  264.5000   140.6849     7.9695     7.9693
  265.0000   140.1443     7.9807     7.9430
  265.5000   141.1976     7.9975     7.9035
  266.0000   142.4021     8.0142     7.8642
  266.5000   143.2914     8.0311     7.8252
  267.0000   142.8394     8.0435     7.7864
  267.5000   142.4238     7.9066     7.7515
  268.0000   142.2209     7.7987     7.5434
  268.5000   142.5595     7.6171     7.3586
  269.0000   143.8926     7.3819     7.1781
  269.5000   145.4344     7.1540     7.0019
  270.0000   148.0795     6.9340     6.8312
  270.5000   152.5947     6.7485     6.6779
  271.0000   156.9960     6.6760     6.6355
  271.5000   159.9700     6.5813     6.5913
  272.0000   160.4010     6.4882     6.5478
  272.5000   156.6402     6.3964     6.5045
