~VERSION INFORMATION
 VERS.                2.0:   CWLS LOG ASCII STANDARD - VERSION 2.0
 WRAP.                 NO:   ONE LINE PER DEPTH STEP
~WELL INFORMATION
#MNEM.UNIT      DATA TYPE    INFORMATION
#----------   ------------   ------------------------------
 STRT.F           20.0000:   START DEPTH
 STOP.F          672.0000:   STOP DEPTH
 STEP.F            0.5000:   STEP LENGTH
 NULL.          -999.2500:   NO VALUE
 COMP.              FENIX:   COMPANY
 WELL.    NPR ##3 23-S-11:   WELL
 FLD .        TEAPOT DOME:   FIELD
 LOC .      S11 T38N R78W:   LOCATION
 CNTY.            NATRONA:   COUNTY
 STAT.            WYOMING:   STATE
 CTRY. UNITED STATES OF AMERICA:   COUNTRY
 SRVC.           BIRDWELL:   SERVICE COMPANY
 DATE.        05-FEB-1978:   LOGDATE
 API .       490251057300:   API NUMBER
~CURVE INFORMATION
#MNEM.UNIT       API CODE    CURVE DESCRIPTION
#----------   ------------   ------------------------------
 DEPT.F                  :   
 ILD .OHMM   05 120 46 00:   INDUCTION LOG DEEP
 SN  .OHMM   05 040 16 00:   SHORT NORMAL 16"
 SPR .MV     05 010 01 00:   SPONTANEOUS POTENTIAL FROM RES.
 CALD.IN     45 280 60 00:   CALIPER FROM DENSITY LOG
 CORR.G/C3   45 356 01 00:   DENSITY CORRECTION
 DPHI.DEC    45 890 10 00:   DENSITY POROSITY LIMESTONE
 GRD .GAPI   45 310 01 00:   GAMMA RAY FROM DENSITY LOG
 RHOB.G/C3   45 350 01 00:   BULK DENSITY
~PARAMETER INFORMATION
#MNEM.UNIT          VALUE    DESCRIPTION
#----------   ------------   ------------------------------
 PD  .                 GL:   PERMANENT DATUM
 EPD .F              5175:   ELEVATION PERMANENT DATUM
 LMF .                 KB:   LOG MEASURED FROM
 DMF .                 KB:   DRILLING MEASURED FROM
 EKB .F              5178:   KELLING BUSHING
 EGL .F              5175:   GROUND LEVEL
 DATE.        05-FEB-1978:   RUN DATE
 RUN .                  1:   RUN NUMBER
 DD  .F               670:   DEPTH DRILLER
 DL  .F               675:   DEPTH LOGGER
 BLI .F               670:   BOTTOM LOG INTERVAL
 TLI .F                40:   TOP LOG INTERVAL
 CS  .IN            8.625:   CASING SIZE
 CBD .F                39:   CASING BOTTOM DRILLER
 CBL .F                40:   CASING BOTTOM LOGGER
 BS  .IN            7.875:   BIT SIZE
 BSD .F               670:   BIT SIZE AT DEPTH
 DFT .                KCL:   DRILLING FLUID TYPE
 DFD .                8.4:   DRILLING FLUID DENSITY
 DFV .                 32:   DRILLING FLUID VISCOSITY
 DFPH.                  8:   DRILLING FLUID PH
 DFL .                8.8:   DRILLING FLUID LOSS
 MSS .           FLOWLINE:   MUD SAMPLE SOURCE
 RMS .OHMM           0.58:   RESISTIVITY MUD SAMPLE
 MST .F                62:   MUD SAMPLE TEMPERATURE
 RMF .OHMM           0.58:   RESISTIVITY MUD FILTRATE SAMPLE
 MFST.F                62:   MUD FILTRATE SAMPLE TEMPERATURE
 RMC .OHMM            0.9:   RESISTIVITY MUD CAKE
 MCST.F                66:   MUD CAKE SAMPLE TEMPERATURE
 MFSS.               MEAS:   MUD FILTRATE SAMPLE SOURCE
 RMB .OHMM           0.55:   RESISTIVITY MUD AT BHT
 BHT .F                72:   BOTTOM HOLE TEMPERATURE
 TCS .HRS               1:   TIME CURCULATED STOPPED
 MRT .F                72:   MAXIMUM RECORDED TEMPERATURE
 LUN .               2958:   LOGGING UNIT NUMBER
 LUL .               CASP:   LOGGING UNIT LOCATION
 ENGI.            POINTER:   RECORDING ENGINEER
 WITN.         HARRINGTON:   WITNESSED BY
 CLNT.            A2DTECH:   CLIENT CODE
 ORIG.           5" PRINT:   ORIGIN OF DATA
 UWI .       490251057300:   UNIQUE WELL ID
 DICO. A2D Technologies, Inc.:   DIGITIZING COMPANY
~OTHER INFORMATION
~A   DEPT      ILD         SN        SPR       CALD       CORR       DPHI         GRD      RHOB   
# ...
  587.0000    12.6999    12.5638   -44.5793     7.8095     0.0206     0.1766    59.6726     2.3580
  587.5000    12.6104    12.4752   -44.7410     7.8240     0.0236     0.1790    60.2695     2.3527
  588.0000    12.5212    12.2791   -44.9024     7.8530     0.0364     0.1790    60.5672     2.3498
  588.5000    12.5195    12.1303   -45.1486     7.8218     0.0484     0.1778    61.0135     2.3528
  589.0000    12.5178    12.1287   -45.5323     7.8210     0.0648     0.1715    60.0850     2.3573
  589.5000    12.3437    12.0065   -45.6936     7.7599     0.0776     0.1730    56.9590     2.3603
  590.0000    12.1720    11.8756   -46.0074     7.6837     0.0845     0.1751    56.3565     2.3603
  590.5000    12.0027    11.7918   -46.1688     7.5170     0.0918     0.1763    56.3537     2.3596
  591.0000    11.8358    11.7083   -46.1777     7.4559     0.0948     0.1778    56.3508     2.3574
  591.5000    11.8342    11.6258   -46.1860     7.4099     0.0971     0.1793    56.1973     2.3543
  592.0000    11.7504    11.5440   -46.1951     7.3940     0.1068     0.1835    56.0446     2.3491
  592.5000    11.6677    11.4624   -46.2043     7.3929     0.1036     0.1871    56.3416     2.3446
  593.0000    11.5855    11.4609   -46.2135     7.3921     0.1023     0.1832    58.1378     2.3529
  593.5000    11.3454    11.3325   -46.2226     7.3912     0.1218     0.1739    61.1915     2.3439
  594.0000    11.1876    11.2217   -46.2317     7.3904     0.1398     0.1678    62.6292     2.3417
  594.5000    10.9557    11.1386   -46.2425     7.3893     0.1413     0.1636    63.0761     2.3597
  595.0000    10.8785    10.9747   -46.0990     7.4037     0.1053     0.1606    62.4736     2.3965
  595.5000    10.8019    10.8342   -46.1079     7.4328     0.0776     0.1582    61.4213     2.4161
  596.0000    10.7258    10.6834   -46.1168     7.4922     0.0701     0.1546    59.9185     2.3988
  596.5000    10.7990    10.6082   -46.1265     7.6417     0.0259     0.1639    62.3144     2.3868
  597.0000    10.8723    10.6066   -46.2871     7.7915     0.0244     0.1672    63.2112     2.3853
  597.5000    10.8708    10.6560   -46.2961     7.8661     0.0221     0.1624    63.5082     2.3778
  598.0000    10.8694    10.6776   -46.3050     7.9253     0.0191     0.1441    63.5052     2.4016
  598.5000    10.9435    10.7504   -46.3140     7.9694     0.0154     0.1392    63.5018     2.4229
  599.0000    10.9421    10.7902   -46.6281     7.9838     0.0124     0.1377    64.2486     2.4282
  599.5000    10.9406    10.8224   -46.7913     7.9828     0.0109     0.1368    64.9953     2.4290
  600.0000    10.9391    10.8180   -46.8148     7.9668     0.0154     0.1415    65.2924     2.4222
  600.5000    10.8290    10.7808   -47.0201     7.9813     0.0173     0.1419    65.1389     2.4117
  601.0000    10.7188    10.7398   -47.2255     7.9656     0.0193     0.1389    65.1360     2.4102
  601.5000    10.6096    10.6626   -47.4411     7.9802     0.0206     0.1365    65.4329     2.4179
  602.0000    10.5516    10.5128   -47.4514     7.9644     0.0198     0.1353    65.5798     2.4222
  602.5000    10.4027    10.4373   -47.4619     7.9336     0.0191     0.1362    65.7259     2.4207
  603.0000    10.3265    10.3603   -47.4745     7.9180     0.0168     0.1368    66.1727     2.4207
  603.5000    10.2034    10.2166   -47.4848     7.9174     0.0161     0.1362    67.2184     2.4230
  604.0000    10.0373    10.1426   -47.4950     7.9169     0.0198     0.1356    68.2648     2.4260
  604.5000    10.0342    10.1403   -47.5053     7.9314     0.0213     0.1347    67.8120     2.4252
  605.0000    10.0306    10.1304   -47.5156     7.9307     0.0198     0.1338    66.2990     2.4305
  605.5000     9.9579    10.0641   -47.5259     7.9301     0.0168     0.1338    64.8067     2.4373
  606.0000     9.8469     9.9921   -47.5366     7.9144     0.0183     0.1347    64.9536     2.4282
  606.5000     9.7455     9.9891   -47.5473     7.8987     0.0250     0.1372    66.7496     2.4162
  607.0000     9.7427     9.9171   -47.5593     7.8982     0.0303     0.1320    68.6956     2.4252
  607.5000     9.6717     9.9148   -47.4145     7.8824     0.0325     0.1245    70.0412     2.4425
  608.0000     9.6016     9.8430   -47.3869     7.8819     0.0295     0.1215    70.3387     2.4523
  608.5000     9.5985     9.8403   -47.2851     7.8964     0.0265     0.1167    70.7847     2.4628
  609.0000     9.5952     9.8377   -47.1433     7.9109     0.0295     0.1209    71.0816     2.4688
  609.5000     9.5919     9.8353   -47.1559     7.9404     0.0294     0.1197    70.1109     2.4658
  610.0000     9.5886     9.9008   -47.1662     7.9700     0.0273     0.1149    65.6774     2.4591
  610.5000     9.5852     9.8982   -47.0240     7.9994     0.0242     0.1065    65.5244     2.4718
  611.0000     9.5819     9.9644   -47.0335     7.9686     0.0197     0.1109    65.9712     2.4687
  611.5000     9.5784     9.9617   -47.0442     7.9078     0.0266     0.1167    66.5810     2.4613
  612.0000     9.5752     9.9584   -47.0549     7.8767     0.0325     0.1140    67.3144     2.4643
  612.5000     9.5719     9.8868   -47.2184     7.8312     0.0347     0.0951    67.9111     2.4823
  613.0000     9.5686     9.8690   -47.2287     7.8156     0.0220     0.0915    67.6075     2.4951
  613.5000     9.5526     9.8132   -47.2398     7.8000     0.0182     0.1059    66.3911     2.4703
  614.0000     9.4955     9.7427   -47.5558     7.8145     0.0167     0.1200    64.9020     2.4470
  614.5000     9.4921     9.6058   -47.7186     7.8138     0.0152     0.1197    65.3487     2.4455
  615.0000     9.4237     9.5367   -47.8813     7.8434     0.0145     0.1197    65.7955     2.4440
  615.5000     9.3774     9.5341   -48.0442     7.8427     0.0130     0.1207    65.9424     2.4418
  616.0000     9.2875     9.4542   -48.0568     7.8421     0.0084     0.1222    65.3389     2.4388
  616.5000     9.1558     9.3320   -47.9147     7.8415     0.0032     0.1273    63.9865     2.4350
  617.0000     9.1527     9.3295   -47.9249     7.8410     0.0107     0.1279    63.3838     2.4282
  617.5000     9.0865     9.3270   -47.9352     7.8403     0.0159     0.1255    64.2803     2.4320
  618.0000     8.9583     9.2600   -47.9451     7.8397     0.0197     0.1219    66.9987     2.4388
  618.5000     8.8934     9.2575   -47.9558     7.8392     0.0219     0.1198    67.2727     2.4433
  619.0000     8.7659     9.0016   -47.9786     7.8385     0.0234     0.1180    67.2689     2.4433
  619.5000     8.4071     8.9992   -48.1535     7.8531     0.0242     0.1168    67.1160     2.4485
  620.0000     8.1178     9.0594   -48.4465     7.8675     0.0241     0.1162    66.6488     2.4545
  620.5000     7.9480     9.0564   -48.6092     7.8668     0.0250     0.1150    66.2096     2.4538
  621.0000     7.9453     8.9913   -48.9244     7.8814     0.0264     0.1126    70.2545     2.4591
  621.5000     7.9427     8.8036   -49.2395     7.8656     0.0286     0.1096    75.0491     2.4651
  622.0000     7.8852     8.6199   -49.4024     7.8649     0.0286     0.1096    77.0008     2.4673
  622.5000     7.7694     8.4400   -49.2601     7.8493     0.0286     0.1093    76.8414     2.4703
  623.0000     7.5581     8.0376   -49.1205     7.8640     0.0279     0.1090    75.0393     2.4733
  623.5000     7.3488     7.6543   -49.1308     7.8633     0.0256     0.1090    72.9373     2.4718
  624.0000     7.0960     7.1798   -49.1410     7.8778     0.0234     0.1093    72.6344     2.4651
  624.5000     6.6644     6.7046   -49.1513     7.8771     0.0196     0.1102    74.2798     2.4591
  625.0000     6.2158     6.4294   -49.2378     7.8765     0.0211     0.1114    75.1770     2.4598
  625.5000     5.7573     6.0805   -49.3247     7.8607     0.0263     0.1132    74.8734     2.4568
  626.0000     5.3549     5.7505   -49.4896     7.8602     0.0406     0.1183    75.3201     2.4508
  626.5000     5.1487     5.5145   -49.6509     7.8897     0.0458     0.1132    77.2654     2.4601
  627.0000     5.1550     5.2881   -49.8150     7.9193     0.0406     0.1060    84.6087     2.4696
