~VERSION INFORMATION
 VERS.                2.0:   CWLS LOG ASCII STANDARD - VERSION 2.0
 WRAP.                 NO:   ONE LINE PER DEPTH STEP
~WELL INFORMATION
#MNEM.UNIT      DATA TYPE    INFORMATION
#----------   ------------   ------------------------------
 STRT.F          600.0000:   START DEPTH
 STOP.F         2218.0000:   STOP DEPTH
 STEP.F            0.5000:   STEP LENGTH
 NULL.          -999.2500:   NO VALUE
 COMP. US DEPTMNT OF ENRGY:   COMPANY
 WELL.   37 STX 10 #37-10:   WELL
 FLD .             TEAPOT:   FIELD
 LOC .      S10 T38N R78W:   LOCATION
 CNTY.            NATRONA:   COUNTY
 STAT.            WYOMING:   STATE
 CTRY. UNITED STATES OF AMERICA:   COUNTRY
 SRVC.            Unknown:   SERVICE COMPANY
 DATE.        15-MAY-1991:   LOGDATE
 API .       490251094200:   API NUMBER
~CURVE INFORMATION
#MNEM.UNIT       API CODE    CURVE DESCRIPTION
#----------   ------------   ------------------------------
 DEPT.F                  :   
 TGAS.UNITS  91 830 01 00:   TOTAL GAS FROM HOTWIRE
 ROP .MIN/FT 91 810 01 00:   RATE OF DRILLING PENETRATION
~PARAMETER INFORMATION
#MNEM.UNIT          VALUE    DESCRIPTION
#----------   ------------   ------------------------------
 EKB .F              5231:   KELLING BUSHING
 EGL .F              5221:   GROUND LEVEL
 DATE.            5-15-91:   RUN DATE
 DD  .F              2218:   DEPTH DRILLER
 BLI .F              2218:   BOTTOM LOG INTERVAL
 TLI .F               960:   TOP LOG INTERVAL
 ENGI.              TOWER:   RECORDING ENGINEER
 WITN.               HUSK:   WITNESSED BY
 CLNT.            A2DTECH:   CLIENT CODE
 ORIG.           5" PRINT:   ORIGIN OF DATA
 UWI .       490251094200:   UNIQUE WELL ID
 DICO. A2D Technologies, Inc.:   DIGITIZING COMPANY
~OTHER INFORMATION
~A   DEPT     TGAS          ROP 
# ...
  843.0000  -999.2500    -0.2769
  843.5000  -999.2500    -0.2767
  844.0000  -999.2500    -0.2765
  844.5000  -999.2500    -0.2763
  845.0000  -999.2500    -0.2760
  845.5000  -999.2500    -0.2758
  846.0000  -999.2500    -0.2756
  846.5000  -999.2500    -0.2754
  847.0000  -999.2500    -0.2752
  847.5000  -999.2500    -0.2750
  848.0000  -999.2500    -0.2747
  848.5000  -999.2500    -0.2745
  849.0000  -999.2500    -0.2743
  849.5000  -999.2500    -0.2741
  850.0000  -999.2500    -0.2739
  850.5000  -999.2500    -0.2737
  851.0000  -999.2500    -0.2749
  851.5000  -999.2500    -0.3147
  852.0000  -999.2500    -0.4216
  852.5000  -999.2500    -0.4602
  853.0000  -999.2500    -0.4600
  853.5000  -999.2500    -0.4597
  854.0000  -999.2500    -0.4599
  854.5000  -999.2500    -0.4606
  855.0000  -999.2500    -0.4614
  855.5000  -999.2500    -0.4621
  856.0000  -999.2500    -0.4628
  856.5000  -999.2500    -0.4636
  857.0000  -999.2500    -0.4643
  857.5000  -999.2500    -0.4652
  858.0000  -999.2500    -0.4578
  858.5000  -999.2500    -0.4648
  859.0000  -999.2500    -0.4646
  859.5000  -999.2500    -0.4644
  860.0000  -999.2500    -0.4641
  860.5000  -999.2500    -0.4639
  861.0000  -999.2500    -0.4637
  861.5000  -999.2500    -0.4635
  862.0000  -999.2500    -0.4633
  862.5000  -999.2500    -0.4631
  863.0000  -999.2500    -0.4628
  863.5000  -999.2500    -0.4626
  864.0000  -999.2500    -0.4624
  864.5000  -999.2500    -0.4622
  865.0000  -999.2500    -0.4620
  865.5000  -999.2500    -0.4618
  866.0000  -999.2500    -0.4615
  866.5000  -999.2500    -0.4613
  867.0000  -999.2500    -0.4611
  867.5000  -999.2500    -0.4609
  868.0000  -999.2500    -0.4607
  868.5000  -999.2500    -0.4609
  869.0000  -999.2500    -0.4611
  869.5000  -999.2500    -0.4613
  870.0000  -999.2500    -0.4614
  870.5000  -999.2500    -0.4616
  871.0000  -999.2500    -0.4618
  871.5000  -999.2500    -0.4619
  872.0000  -999.2500    -0.4621
  872.5000  -999.2500    -0.4623
  873.0000  -999.2500    -0.4625
  873.5000  -999.2500    -0.4626
  874.0000  -999.2500    -0.4628
  874.5000  -999.2500    -0.4630
  875.0000  -999.2500    -0.4631
  875.5000  -999.2500    -0.4633
  876.0000  -999.2500    -0.4635
  876.5000  -999.2500    -0.4636
  877.0000  -999.2500    -0.4638
  877.5000  -999.2500    -0.4638
  878.0000  -999.2500    -0.4680
  878.5000  -999.2500    -0.4706
  879.0000  -999.2500    -0.4703
  879.5000  -999.2500    -0.4701
  880.0000  -999.2500    -0.4699
  880.5000  -999.2500    -0.4697
  881.0000  -999.2500    -0.4695
  881.5000  -999.2500    -0.4693
  882.0000  -999.2500    -0.4690
  882.5000  -999.2500    -0.4688
  883.0000  -999.2500    -0.4686
  883.5000  -999.2500    -0.4684
  884.0000  -999.2500    -0.4682
  884.5000  -999.2500    -0.4680
  885.0000  -999.2500    -0.4677
  885.5000  -999.2500    -0.4675
  886.0000  -999.2500    -0.4673
  886.5000  -999.2500    -0.4666
  887.0000  -999.2500    -0.4658
  887.5000  -999.2500    -0.4650
  888.0000  -999.2500    -0.4642
  888.5000  -999.2500    -0.4634
  889.0000  -999.2500    -0.4625
  889.5000  -999.2500    -0.4617
  890.0000  -999.2500    -0.4609
  890.5000  -999.2500    -0.4601
  891.0000  -999.2500    -0.4593
  891.5000  -999.2500    -0.4585
  892.0000  -999.2500    -0.4577
  892.5000  -999.2500    -0.4573
  893.0000  -999.2500    -0.4642
  893.5000  -999.2500    -0.4640
  894.0000  -999.2500    -0.4634
  894.5000  -999.2500    -0.4626
  895.0000  -999.2500    -0.4618
  895.5000  -999.2500    -0.4610
  896.0000  -999.2500    -0.4603
  896.5000  -999.2500    -0.4595
  897.0000  -999.2500    -0.4587
  897.5000  -999.2500    -0.4580
  898.0000  -999.2500    -0.4572
  898.5000  -999.2500    -0.4564
  899.0000  -999.2500    -0.4556
  899.5000  -999.2500    -0.4549
  900.0000  -999.2500    -0.4540
  900.5000  -999.2500    -0.4537
  901.0000  -999.2500    -0.4533
  901.5000  -999.2500    -0.4529
  902.0000  -999.2500    -0.4525
  902.5000  -999.2500    -0.4521
  903.0000  -999.2500    -0.4521
  903.5000  -999.2500    -0.4524
  904.0000  -999.2500    -0.4528
  904.5000  -999.2500    -0.4531
  905.0000  -999.2500    -0.4535
  905.5000  -999.2500    -0.4538
  906.0000  -999.2500    -0.4542
  906.5000  -999.2500    -0.4545
  907.0000  -999.2500    -0.4549
  907.5000  -999.2500    -0.4553
  908.0000  -999.2500    -0.4549
  908.5000  -999.2500    -0.4545
  909.0000  -999.2500    -0.4541
  909.5000  -999.2500    -0.4537
  910.0000  -999.2500    -0.4533
  910.5000  -999.2500    -0.4529
  911.0000  -999.2500    -0.4525
  911.5000  -999.2500    -0.4521
  912.0000  -999.2500    -0.4517
  912.5000  -999.2500    -0.4514
  913.0000  -999.2500    -0.4510
  913.5000  -999.2500    -0.4506
  914.0000  -999.2500    -0.4502
  914.5000  -999.2500    -0.4544
  915.0000  -999.2500    -0.4566
  915.5000  -999.2500    -0.4633
  916.0000  -999.2500    -0.4629
  916.5000  -999.2500    -0.4626
  917.0000  -999.2500    -0.4622
  917.5000  -999.2500    -0.4611
  918.0000  -999.2500    -0.4543
  918.5000  -999.2500    -0.4610
  919.0000  -999.2500    -0.4582
  919.5000  -999.2500    -0.4559
  920.0000  -999.2500    -0.4598
  920.5000  -999.2500    -0.4594
  921.0000  -999.2500    -0.4636
  921.5000  -999.2500    -0.4658
  922.0000  -999.2500    -0.4726
  922.5000  -999.2500    -0.4722
  923.0000  -999.2500    -0.4718
  923.5000  -999.2500    -0.4715
  924.0000  -999.2500    -0.4711
  924.5000  -999.2500    -0.4707
  925.0000  -999.2500    -0.4703
  925.5000  -999.2500    -0.4699
  926.0000  -999.2500    -0.4724
  926.5000  -999.2500    -0.4763
  927.0000  -999.2500    -0.4759
  927.5000  -999.2500    -0.4755
  928.0000  -999.2500    -0.4751
  928.5000  -999.2500    -0.4746
  929.0000  -999.2500    -0.4743
  929.5000  -999.2500    -0.4739
  930.0000  -999.2500    -0.4735
  930.5000  -999.2500    -0.4731
  931.0000  -999.2500    -0.4715
  931.5000  -999.2500    -0.4651
  932.0000  -999.2500    -0.4647
  932.5000  -999.2500    -0.4643
  933.0000  -999.2500    -0.4674
  933.5000  -999.2500    -0.4747
  934.0000  -999.2500    -0.4775
  934.5000  -999.2500    -0.4822
  935.0000  -999.2500    -0.4840
  935.5000  -999.2500    -0.4835
  936.0000  -999.2500    -0.4831
  936.5000  -999.2500    -0.4828
  937.0000  -999.2500    -0.4824
  937.5000  -999.2500    -0.4820
  938.0000  -999.2500    -0.4816
  938.5000  -999.2500    -0.4812
  939.0000  -999.2500    -0.4808
  939.5000  -999.2500    -0.4804
  940.0000  -999.2500    -0.4800
  940.5000  -999.2500    -0.4841
  941.0000  -999.2500    -0.4813
  941.5000  -999.2500    -0.4788
  942.0000  -999.2500    -0.4784
  942.5000  -999.2500    -0.4780
  943.0000  -999.2500    -0.4776
  943.5000  -999.2500    -0.4772
  944.0000  -999.2500    -0.4780
  944.5000  -999.2500    -0.4836
  945.0000  -999.2500    -0.4832
  945.5000  -999.2500    -0.4800
  946.0000  -999.2500    -0.4786
  946.5000  -999.2500    -0.4781
  947.0000  -999.2500    -0.4745
  947.5000  -999.2500    -0.4741
  948.0000  -999.2500    -0.4737
  948.5000  -999.2500    -0.4804
  949.0000  -999.2500    -0.4800
  949.5000  -999.2500    -0.4869
  950.0000  -999.2500    -0.4865
  950.5000  -999.2500    -0.4861
  951.0000  -999.2500    -0.4857
  951.5000  -999.2500    -0.4853
  952.0000  -999.2500    -0.4849
  952.5000  -999.2500    -0.4845
  953.0000  -999.2500    -0.4802
  953.5000  -999.2500    -0.4765
  954.0000  -999.2500    -0.4761
  954.5000  -999.2500    -0.4757
  955.0000  -999.2500    -0.4753
  955.5000  -999.2500    -0.3432
  956.0000  -999.2500     0.5455
  956.5000  -999.2500     0.5136
  957.0000  -999.2500     0.4629
  957.5000    45.8204     0.3851
  958.0000    50.2002     0.2791
  958.5000    49.7903     0.2311
  959.0000    49.4083     0.2308
  959.5000    49.0264     0.2305
  960.0000    48.6444     0.2303
  960.5000    48.2625     0.2300
  961.0000    47.8805     0.2297
  961.5000    47.4986     0.2364
  962.0000    47.1166     0.2615
  962.5000    46.7347     0.3020
  963.0000    46.3527     0.3538
  963.5000    45.9707     0.4169
  964.0000    45.5888     0.4757
