~VERSION INFORMATION
 VERS.                2.0:   CWLS LOG ASCII STANDARD - VERSION 2.0
 WRAP.                 NO:   ONE LINE PER DEPTH STEP
~WELL INFORMATION
#MNEM.UNIT      DATA TYPE    INFORMATION
#----------   ------------   ------------------------------
 STRT.F           84.0000:   START DEPTH
 STOP.F          860.0000:   STOP DEPTH
 STEP.F            0.5000:   STEP LENGTH
 NULL.          -999.2500:   NO VALUE
 COMP.               NAVY:   COMPANY
 WELL. 52-S-11  NPR #3 #52S-11:   WELL
 FLD .        TEAPOT DOME:   FIELD
 LOC .      S11 T38N R78W:   LOCATION
 CNTY.            NATRONA:   COUNTY
 STAT.            WYOMING:   STATE
 CTRY. UNITED STATES OF AMERICA:   COUNTRY
 SRVC.       Schlumberger:   SERVICE COMPANY
 DATE.        01-JUL-1962:   LOGDATE
 API .       490250637300:   API NUMBER
~CURVE INFORMATION
#MNEM.UNIT       API CODE    CURVE DESCRIPTION
#----------   ------------   ------------------------------
 DEPT.F                  :   
 ASN .OHMM   05 041 16 00:   AMPLIFIED SHORT NORMAL 16"
 CILD.MMHO   05 110 46 00:   CONDUCTIVITY INDUCTION LOG DEEP
 ILD .OHMM   05 120 46 00:   INDUCTION LOG DEEP
 SPR .MV     05 010 01 00:   SPONTANEOUS POTENTIAL FROM RES.
 GR  .GAPI   30 310 01 00:   GAMMA RAY
~PARAMETER INFORMATION
#MNEM.UNIT          VALUE    DESCRIPTION
#----------   ------------   ------------------------------
 LMF .                 KB:   LOG MEASURED FROM
 DMF .                 KB:   DRILLING MEASURED FROM
 EKB .F              5191:   KELLING BUSHING
 EGL .F              5186:   GROUND LEVEL
 DATE.           7-1-1962:   RUN DATE
 RUN .                  1:   RUN NUMBER
 DD  .F               860:   DEPTH DRILLER
 DL  .F               861:   DEPTH LOGGER
 BLI .F               860:   BOTTOM LOG INTERVAL
 TLI .F                91:   TOP LOG INTERVAL
 CBD .F                10:   CASING BOTTOM DRILLER
 BS  .IN             6.75:   BIT SIZE
 BSD .F               860:   BIT SIZE AT DEPTH
 DFT .            GEL-OIL:   DRILLING FLUID TYPE
 DFD .               10.2:   DRILLING FLUID DENSITY
 DFV .                 45:   DRILLING FLUID VISCOSITY
 DFL .                  4:   DRILLING FLUID LOSS
 MSS .           FLOWLINE:   MUD SAMPLE SOURCE
 RMS .OHMM           5.54:   RESISTIVITY MUD SAMPLE
 MST .F                75:   MUD SAMPLE TEMPERATURE
 RMB .OHMM           5.19:   RESISTIVITY MUD AT BHT
 BHT .F                80:   BOTTOM HOLE TEMPERATURE
 TCS .HRS               1:   TIME CURCULATED STOPPED
 MRT .F                80:   MAXIMUM RECORDED TEMPERATURE
 LUN .               2503:   LOGGING UNIT NUMBER
 LUL .              CSPR.:   LOGGING UNIT LOCATION
 ENGI.             KNOBEL:   RECORDING ENGINEER
 WITN.          JORGENSEN:   WITNESSED BY
 CLNT.            A2DTECH:   CLIENT CODE
 ORIG.      2" & 5" PRINT:   ORIGIN OF DATA
 UWI .       490250637300:   UNIQUE WELL ID
 DICO. A2D Technologies, Inc.:   DIGITIZING COMPANY
~OTHER INFORMATION
~A   DEPT      ASN       CILD        ILD        SPR         GR   
# ...
  511.0000    10.2695   105.2900     9.1143   -24.5410  -999.2500
  511.5000    10.0407   103.1273     9.1849   -24.5547  -999.2500
  512.0000     9.7666   101.6993     9.2446   -24.5683  -999.2500
  512.5000    10.0493   101.0265     9.3895   -24.5819  -999.2500
  513.0000    10.3394   101.8643     9.3824   -24.5956  -999.2500
  513.5000    10.1106   104.2127     9.2983   -24.6092  -999.2500
  514.0000     9.9044   107.3164     9.0639   -24.6228  -999.2500
  514.5000     9.7740   108.9095     8.9054   -24.6364  -999.2500
  515.0000     9.5755   110.5026     8.8227   -24.6501  -999.2500
  515.5000     9.4680   111.3404     8.7401   -24.6637  -999.2500
  516.0000     9.4664   112.1783     8.6574   -24.6773  -999.2500
  516.5000     9.4805   113.0161     8.5747   -24.6910  -999.2500
  517.0000     9.4634   113.0986     8.5679   -24.7046  -999.2500
  517.5000     9.4165   113.1811     8.4853   -24.5658  -999.2500
  518.0000     9.3544   114.0190     8.4785   -24.7318  -999.2500
  518.5000     9.3226   114.1015     8.3958   -24.7455  -999.2500
  519.0000     9.3210   114.1939     8.3890   -24.7591  -999.2500
  519.5000     9.3195   115.7779     8.3822   -24.7728  -999.2500
  520.0000     9.2726   116.6668     8.2995   -24.7866  -999.2500
  520.5000     9.2105   118.2805     8.2169   -24.8003  -999.2500
  521.0000     9.1635   119.8037     8.2101   -24.6612  -999.2500
  521.5000     9.0862   120.6420     8.2033   -24.6753  -999.2500
  522.0000     9.0090   120.8557     8.1965   -24.6890  -999.2500
  522.5000     8.9469   121.5799     8.2673   -24.7055  -999.2500
  523.0000     8.8848   120.8866     8.2588   -24.7191  -999.2500
  523.5000     8.8378   120.9897     8.2520   -24.7327  -999.2500
  524.0000     8.8211   120.2963     8.1693   -24.5939  -999.2500
  524.5000     8.8651   119.6442     8.1625   -24.6075  -999.2500
  525.0000     8.8940   119.7267     8.1557   -24.6212  -999.2500
  525.5000     8.9530   119.8093     8.2265   -24.6348  -999.2500
  526.0000     8.9666   119.8918     8.2956   -24.6484  -999.2500
  526.5000     8.9651   119.9743     8.2871   -24.5062  -999.2500
  527.0000     8.8879   120.8122     8.2803   -24.8281  -999.2500
  527.5000     8.7803   121.6500     8.2735   -25.9088  -999.2500
  528.0000     8.6879   122.4878     8.1908   -25.9225  -999.2500
  528.5000     8.6409   123.3256     8.1082   -25.4788  -999.2500
  529.0000     8.6242   124.1634     8.1014   -24.8826  -999.2500
  529.5000     8.6220   125.7565     8.0187   -24.5880  -999.2500
  530.0000     8.5909   128.8602     7.9360   -24.4492  -999.2500
  530.5000     8.5260   131.2086     7.7775   -24.7711  -999.2500
  531.0000     8.3403   133.5570     7.6190   -24.9372  -999.2500
  531.5000     7.9741   137.4160     7.4604   -25.1032  -999.2500
  532.0000     7.7921   142.0302     7.2260   -25.1169  -999.2500
  532.5000     7.6839   145.1339     7.1433   -25.1305  -999.2500
  533.0000     7.4603   148.2376     7.0607   -25.2965  -999.2500
  533.5000     7.2770   151.3412     6.9774   -25.6151  -999.2500
  534.0000     7.2149   153.6897     6.8195   -26.5433  -999.2500
  534.5000     7.1986   153.8899     6.8126   -27.3191  -999.2500
  535.0000     7.3482   153.0966     6.8818   -27.7901  -999.2500
  535.5000     7.5377   150.9161     7.0267   -28.1086  -999.2500
  536.0000     7.9796   148.7328     7.1037   -28.2747  -999.2500
  536.5000     8.0696   145.7942     7.2407   -28.4407  -999.2500
  537.0000     8.0226   142.8555     7.3098   -28.4544  -999.2500
  537.5000     7.9910   139.9169     7.5306   -28.4680  -999.2500
  538.0000     8.0807   136.9581     7.6756   -28.4817  -999.2500
  538.5000     8.2461   134.7553     7.8205   -28.8084  -999.2500
  539.0000     8.3812   132.6116     7.8896   -29.2835  -999.2500
  539.5000     8.3954   131.1836     7.9570   -29.6062  -999.2500
  540.0000     8.3635   131.3690     7.9502   -29.7556  -999.2500
  540.5000     8.3168   132.9830     7.8675   -29.6168  -999.2500
  541.0000     8.1792   134.4562     7.7090   -29.2978  -999.2500
  541.5000     8.0264   136.0661     7.5505   -28.5804  -999.2500
  542.0000     8.0103   137.6592     7.4678   -27.9843  -999.2500
  542.5000     8.0695   139.2523     7.3092   -27.0833  -999.2500
  543.0000     8.0378   140.0901     7.3024   -26.1823  -999.2500
  543.5000     7.9911   139.3967     7.2957   -25.4337  -999.2500
  544.0000     7.9596   138.7240     7.2889   -24.8376  -999.2500
  544.5000     7.9735   138.0512     7.4355   -24.5429  -999.2500
  545.0000     8.0480   137.3784     7.5046   -24.8648  -999.2500
  545.5000     8.1074   135.9710     7.6478   -25.4882  -999.2500
  546.0000     8.1364   134.5430     7.7186   -25.9592  -999.2500
  546.5000     8.1200   133.8496     7.7877   -26.5826  -999.2500
  547.0000     8.1353   132.4216     7.8568   -27.0535  -999.2500
  547.5000     8.2102   131.7488     7.8483   -27.3720  -999.2500
  548.0000     8.2852   131.0761     7.8415   -26.9283  -999.2500
  548.5000     8.3905   130.4033     7.8347   -26.6371  -999.2500
  549.0000     8.4016   130.5065     7.7520   -26.6507  -999.2500
  549.5000     8.3394   131.3443     7.7452   -26.6643  -999.2500
  550.0000     8.2169   131.8503     7.7390   -26.6780  -999.2500
  550.5000     8.1551   134.5347     7.7321   -26.6916  -999.2500
  551.0000     8.1387   136.8928     7.7254   -26.7052  -999.2500
  551.5000     8.0920   138.4215     7.7185   -26.7189  -999.2500
  552.0000     8.0453   139.2447     7.7117   -27.3293  -999.2500
  552.5000     8.0440   139.3127     7.7048   -27.1872  -999.2500
  553.0000     8.0428   139.3941     7.6967   -27.1982  -999.2500
  553.5000     8.0415   139.4616     7.6899   -27.2089  -999.2500
  554.0000     8.0706   138.7568     7.6831   -27.0427  -999.2500
  554.5000     8.0848   138.8411     7.6005   -26.6199  -999.2500
  555.0000     8.0832   138.9085     7.5937   -26.0235  -999.2500
  555.5000     8.0516   138.9759     7.5869   -25.8790  -999.2500
  556.0000     7.9898   139.0434     7.5043   -25.8923  -999.2500
  556.5000     7.9279   139.8660     7.4975   -26.2078  -999.2500
  557.0000     7.8661   141.4440     7.4149   -26.3708  -999.2500
  557.5000     7.8194   142.2667     7.4081   -25.9241  -999.2500
  558.0000     7.8333   142.3342     7.4013   -25.1725  -999.2500
  558.5000     7.8626   143.1568     7.3946   -24.5734  -999.2500
  559.0000     7.8459   143.2243     7.3878   -24.1267  -999.2500
  559.5000     7.7537   142.5195     7.3810   -23.8324  -999.2500
  560.0000     7.6464   142.6038     7.2984   -23.5382  -999.2500
  560.5000     7.5543   143.4265     7.3692   -23.3937  -999.2500
  561.0000     7.5227   143.4939     7.2848   -23.5594  -999.2500
  561.5000     7.5366   144.3166     7.2781   -23.5700  -999.2500
  562.0000     7.6113   145.1393     7.3489   -23.7331  -999.2500
  562.5000     7.6402   145.9620     7.3404   -23.7437  -999.2500
  563.0000     7.6227   146.0294     7.3336   -24.0592  -999.2500
  563.5000     7.5755   146.8521     7.3268   -24.0698  -999.2500
  564.0000     7.5152   147.6748     7.3201   -24.0804  -999.2500
  564.5000     7.4660   147.7422     7.3133   -24.2435  -999.2500
  565.0000     7.4521   148.5650     7.3065   -24.0990  -999.2500
  565.5000     7.4811   147.8771     7.2997   -24.1123  -999.2500
  566.0000     7.4644   147.1892     7.3689   -24.1229  -999.2500
  566.5000     7.4177   146.5013     7.3619   -24.1335  -999.2500
  567.0000     7.4013   146.5687     7.4312   -24.1441  -999.2500
  567.5000     7.4304   145.8809     7.5003   -24.1548  -999.2500
  568.0000     7.5200   144.4377     7.4918   -24.1654  -999.2500
  568.5000     7.6400   143.0114     7.5626   -24.1760  -999.2500
  569.0000     7.7902   140.8130     7.6317   -24.6439  -999.2500
  569.5000     7.9102   138.6145     7.7008   -24.8070  -999.2500
  570.0000     7.9847   137.1714     7.6923   -24.6625  -999.2500
  570.5000     8.0289   136.4666     7.7631   -25.1331  -999.2500
  571.0000     8.0583   135.7787     7.6788   -25.9059  -999.2500
  571.5000     8.0873   135.0909     7.5962   -26.5472  -999.2500
