~VERSION INFORMATION
 VERS.                2.0:   CWLS LOG ASCII STANDARD - VERSION 2.0
 WRAP.                 NO:   ONE LINE PER DEPTH STEP
~WELL INFORMATION
#MNEM.UNIT      DATA TYPE    INFORMATION
#----------   ------------   ------------------------------
 STRT.F           28.0000:   START DEPTH
 STOP.F          494.0000:   STOP DEPTH
 STEP.F            0.5000:   STEP LENGTH
 NULL.          -999.2500:   NO VALUE
 COMP.    FENIX & SCISSON:   COMPANY
 WELL.        67-S-3 #3-3:   WELL
 FLD .             TEAPOT:   FIELD
 LOC .       S3 T38N R78W:   LOCATION
 CNTY.            NATRONA:   COUNTY
 STAT.            WYOMING:   STATE
 CTRY. UNITED STATES OF AMERICA:   COUNTRY
 SRVC.           BIRDWELL:   SERVICE COMPANY
 DATE.        15-OCT-1978:   LOGDATE
 API .       490251072100:   API NUMBER
~CURVE INFORMATION
#MNEM.UNIT       API CODE    CURVE DESCRIPTION
#----------   ------------   ------------------------------
 DEPT.F                  :   
 ILD .OHMM   05 120 46 00:   INDUCTION LOG DEEP
 SN  .OHMM   05 040 16 00:   SHORT NORMAL 16"
 SPR .MV     05 010 01 00:   SPONTANEOUS POTENTIAL FROM RES.
 CALD.IN     45 280 60 00:   CALIPER FROM DENSITY LOG
 CORR.G/C3   45 356 01 00:   DENSITY CORRECTION
 DPHI.DEC    45 890 12 00:   DENSITY POROSITY SANDSTONE
 GRD .GAPI   45 310 01 00:   GAMMA RAY FROM DENSITY LOG
 RHOB.G/C3   45 350 01 00:   BULK DENSITY
~PARAMETER INFORMATION
#MNEM.UNIT          VALUE    DESCRIPTION
#----------   ------------   ------------------------------
 PD  .                 GL:   PERMANENT DATUM
 EPD .F              5173:   ELEVATION PERMANENT DATUM
 LMF .                 KB:   LOG MEASURED FROM
 DAPD.F                 4:   FEET ABOVE PERMANENT DATUM
 DMF .                 KB:   DRILLING MEASURED FROM
 EKB .F              5177:   KELLING BUSHING
 EGL .F              5173:   GROUND LEVEL
 DATE.        15-OCT-1978:   RUN DATE
 RUN .                  1:   RUN NUMBER
 DD  .F               492:   DEPTH DRILLER
 DL  .F               494:   DEPTH LOGGER
 BLI .F               488:   BOTTOM LOG INTERVAL
 TLI .F                46:   TOP LOG INTERVAL
 CS  .IN            8.625:   CASING SIZE
 CBD .F                40:   CASING BOTTOM DRILLER
 BS  .IN            7.875:   BIT SIZE
 BSD .F               492:   BIT SIZE AT DEPTH
 DFT .                KCL:   DRILLING FLUID TYPE
 DFD .                8.7:   DRILLING FLUID DENSITY
 DFV .                 35:   DRILLING FLUID VISCOSITY
 DFPH.                  9:   DRILLING FLUID PH
 LUN .               2958:   LOGGING UNIT NUMBER
 LUL .               CASP:   LOGGING UNIT LOCATION
 ENGI.             MILLER:   RECORDING ENGINEER
 WITN.           DINSMORE:   WITNESSED BY
 CLNT.            A2DTECH:   CLIENT CODE
 ORIG.           5" PRINT:   ORIGIN OF DATA
 UWI .       490251072100:   UNIQUE WELL ID
 DICO. A2D Technologies, Inc.:   DIGITIZING COMPANY
~OTHER INFORMATION
~A   DEPT      ILD         SN        SPR       CALD       CORR       DPHI         GRD      RHOB   
# ...
  433.0000    10.2165     9.2988   -16.1280     7.9451     0.0035     0.1027    95.8178     2.5082
  433.5000    10.4309     9.4289   -24.4513     7.9454     0.0035     0.1027    98.1600     2.5044
  434.0000    10.6499     9.6270   -19.9744     7.9457     0.0035     0.1018    98.7584     2.5045
  434.5000    10.9490     9.7618   -20.7083     7.9460     0.0050     0.1000   100.2524     2.5090
  435.0000    11.2566     9.8983   -21.7424     7.9313     0.0050     0.0988   101.0001     2.5127
  435.5000    11.5727     9.9675   -20.5393     7.9466     0.0049     0.0988   100.8520     2.5157
  436.0000    11.8978    10.0373   -18.4459     7.9469     0.0049     0.0988   101.0031     2.5150
  436.5000    12.0637    10.1076   -18.5846     7.9472     0.0034     0.0991    98.7657     2.5165
  437.0000    12.2320    10.1784   -19.0327     7.9325    -0.0011     0.1000    97.4080     2.5180
  437.5000    12.4026    10.2496   -19.6061     7.9477    -0.0011     0.1003    97.2761     2.5202
  438.0000    12.4026    10.3214   -19.5935     7.9331    -0.0026     0.1051   102.2032     2.5097
  438.5000    12.4026    10.3938   -19.2857     7.9484    -0.0012     0.1060   104.8913     2.5060
  439.0000    12.4026    10.4666   -18.6804     7.9487     0.0048     0.1036   103.9972     2.5045
  439.5000    12.4026    10.4673   -18.3727     7.9340     0.0108     0.0982   100.4166     2.5090
  440.0000    12.6629    10.3241   -18.2138     7.9493     0.0228     0.0943    99.8206     2.5172
  440.5000    12.5755    10.3703   -18.6501     7.9496     0.0288     0.0928   100.4195     2.5202
  441.0000    12.5755    10.4694   -19.5329     7.9499     0.0333     0.0925    99.8239     2.5232
  441.5000    12.5755    10.4701   -19.2226     7.9352     0.0348     0.0913    99.5268     2.5270
  442.0000    12.5755    10.4709   -18.9174     7.9356     0.0348     0.0898   100.4242     2.5309
  442.5000    12.5755    10.4716   -20.2441     7.9359     0.0273     0.0904   101.0226     2.5315
  443.0000    12.5755    10.4723   -19.9364     7.9361     0.0137     0.0949   102.2181     2.5247
  443.5000    12.5755    10.4730   -19.4799     7.9514     0.0047     0.1000   101.6226     2.5165
  444.0000    12.5755    10.4014   -22.4460     7.9666    -0.0013     0.1072    93.1166     2.5075
  444.5000    12.5755    10.3307   -21.5430     7.9669    -0.0013     0.1108    91.4758     2.5000
  445.0000    12.5755    10.3314   -18.1103     7.9672    -0.0012     0.1117    94.0150     2.4970
  445.5000    12.5755    10.3321   -19.1393     7.9675     0.0046     0.1108    94.9149     2.4985
  446.0000    12.5755    10.3329   -19.4294     7.9678     0.0061     0.1067    93.2716     2.5047
  446.5000    12.5755    10.3336   -19.4168     7.9681     0.0106     0.0952    95.2137     2.5202
  447.0000    12.5755    10.3343   -19.4067     7.9684     0.0121     0.0925    97.1555     2.5255
  447.5000    12.4887    10.2637   -19.3966     7.9687     0.0091     0.0919    96.4107     2.5300
  448.0000    12.3170    10.1937   -19.3865     7.9690     0.0046     0.0949    95.6655     2.5307
  448.5000    12.1475    10.0546   -19.0788     7.9693     0.0045     0.1003    96.2643     2.5255
  449.0000    11.9805     9.9815   -18.4613     7.9696     0.0045     0.1036    97.6090     2.5165
  449.5000    11.8978     9.7818   -18.3145     7.9848     0.0090     0.1039   100.4463     2.5090
  450.0000    11.7341     9.6483   -19.3436     7.9861     0.0112     0.1015   101.1940     2.5067
  450.5000    11.6600     9.5158   -20.0755     7.9996     0.0198     0.0955    99.8913     2.5126
  451.0000    11.4972     9.5141   -18.8724     8.0131     0.0225     0.0925    98.8060     2.5202
  451.5000    11.4193     9.3827   -18.7109     8.0172     0.0225     0.0913    99.7015     2.5248
  452.0000    11.2641     9.2532   -18.6979     7.9880     0.0225     0.0907    98.2090     2.5277
  452.5000    11.0349     9.1254   -18.8343     7.9889     0.0225     0.0913    98.0597     2.5292
  453.0000    10.8849     8.9994   -19.5625     8.0046     0.0225     0.0919    98.6851     2.5300
  453.5000    10.6629     8.8752   -20.4427     8.0053     0.0210     0.0923   100.2985     2.5292
  454.0000    10.5180     8.7527   -20.4300     8.0060     0.0225     0.0934   101.0448     2.5285
  454.5000    10.3715     8.6887   -20.1197     8.0217     0.0225     0.0940   100.5970     2.5202
  455.0000    10.1518     8.6211   -19.8093     8.0224     0.0255     0.0934    98.6567     2.5172
  455.5000     9.9562     8.5117   -20.2431     8.0231     0.0270     0.0916    99.1045     2.5247
  456.0000     9.8891     8.5110   -21.8924     8.0389     0.0285     0.0895   103.4328     2.5338
  456.5000     9.8225     8.5103   -18.5405     8.0247     0.0285     0.0895   105.2239     2.5360
  457.0000     9.8246     8.4510   -19.7954     8.0105     0.0315     0.0883   106.7274     2.5225
  457.5000     9.8263     8.4503   -20.9332     8.0262     0.0345     0.0858   107.1642     2.5307
  458.0000     9.8279     8.4496   -21.2213     8.0269     0.0375     0.0832   104.0299     2.5427
  458.5000     9.8296     8.3907   -20.6102     8.0276     0.0390     0.0817   104.6269     2.5435
  459.0000     9.8996     8.3900   -19.8535     8.0134     0.0405     0.0817   105.8209     2.5427
  459.5000     9.9016     8.3891   -19.6920     7.9992     0.0420     0.0814   109.4030     2.5457
  460.0000     9.8349     8.3306   -19.6793     8.0001     0.0435     0.0808   110.4478     2.5517
  460.5000     9.7013     8.2726   -19.6666     8.0008     0.0375     0.0799   111.1940     2.5533
  461.0000     9.5695     8.2149   -19.6539     8.0016     0.0345     0.0790   107.7537     2.5540
  461.5000     9.4390     8.1015   -19.7900     7.9874     0.0330     0.0775   105.3535     2.5525
  462.0000     9.3108     8.0451   -19.7768     7.9881     0.0375     0.0754   104.0299     2.5420
  462.5000     9.1846     7.9890   -19.7615     7.9739     0.0435     0.0763   101.6418     2.5337
  463.0000     9.1207     7.9333   -19.8976     7.9746     0.0481     0.0718   100.5970     2.5420
  463.5000     9.0613     7.8699   -19.8849     7.9755     0.0511     0.0700   106.4179     2.5607
  464.0000     8.9386     7.8230   -20.0242     7.9762     0.0465     0.0739   106.5672     2.5646
  464.5000     8.8784     7.7150   -19.2643     7.9770     0.0405     0.0823   107.3134     2.5585
  465.0000     8.7578     7.6084   -18.9540     7.9777     0.0330     0.0910   108.8060     2.5420
  465.5000     8.5791     7.6078   -18.9413     7.9933     0.0255     0.0970   111.8693     2.5277
  466.0000     8.4625     7.5548   -18.9286     7.9940     0.0240     0.0970   114.9254     2.5172
  466.5000     8.3475     7.5021   -18.9000     7.9948     0.0285     0.0937   112.9851     2.5240
  467.0000     8.2341     7.5015   -18.6024     8.0106     0.0345     0.0898   114.3284     2.5307
  467.5000     8.1787     7.5009   -18.5897     8.0113     0.0375     0.0877   116.5672     2.5337
  468.0000     8.1236     7.5001   -18.5770     8.0120     0.0255     0.0868   117.1642     2.5345
  468.5000     8.0132     7.4995   -18.5643     8.0128     0.0210     0.0988   112.0896     2.5285
  469.0000     8.0149     7.4988   -18.5516     8.0135     0.0225     0.1072   113.2836     2.5186
  469.5000     7.9606     7.5503   -18.5389     8.0142     0.0225     0.1075   114.7878     2.5015
  470.0000     7.9623     7.6021   -18.5263     8.0000     0.0225     0.0966   114.9254     2.5097
  470.5000     7.9636     7.6013   -18.5136     8.0007     0.0225     0.0895   108.6567     2.5247
  471.0000     8.0203     7.7064   -18.5007     8.0016     0.0240     0.0883   107.7612     2.5307
  471.5000     8.0783     7.7601   -18.4877     7.9874     0.0225     0.0901   111.1940     2.5345
  472.0000     8.1990     7.9210   -18.4723     8.0031     0.0225     0.0955   110.0000     2.5307
  472.5000     8.4818     8.1421   -18.4596     8.0038     0.0210     0.0967   106.4179     2.5210
  473.0000     8.8431     8.3696   -18.4469     8.0045     0.0212     0.0952   107.1642     2.5150
