~VERSION INFORMATION
 VERS.                2.0:   CWLS LOG ASCII STANDARD - VERSION 2.0
 WRAP.                 NO:   ONE LINE PER DEPTH STEP
~WELL INFORMATION
#MNEM.UNIT      DATA TYPE    INFORMATION
#----------   ------------   ------------------------------
 STRT.F           36.0000:   START DEPTH
 STOP.F          686.0000:   STOP DEPTH
 STEP.F            0.5000:   STEP LENGTH
 NULL.          -999.2500:   NO VALUE
 COMP.    FENIX & SCISSON:   COMPANY
 WELL.        NPR #15-S-2:   WELL
 FLD .             TEAPOT:   FIELD
 LOC .       S2 T38N R78W:   LOCATION
 CNTY.            NATRONA:   COUNTY
 STAT.            WYOMING:   STATE
 CTRY. UNITED STATES OF AMERICA:   COUNTRY
 SRVC.       Schlumberger:   SERVICE COMPANY
 DATE.        16-MAR-1977:   LOGDATE
 API .       490251029900:   API NUMBER
~CURVE INFORMATION
#MNEM.UNIT       API CODE    CURVE DESCRIPTION
#----------   ------------   ------------------------------
 DEPT.F                  :   
 SPR .MV     07 010 01 00:   SPONTANEOUS POTENTIAL FROM RES.
 ILD .OHMM   07 120 46 00:   INDUCTION LOG DEEP
 ILM .OHMM   07 120 44 00:   INDUCTION LOG MEDIUM
 LL8 .OHMM   07 220 08 00:   LATEROLOG-8 RES.
 GRD .GAPI   45 310 01 00:   GAMMA RAY FROM DENSITY LOG
 CALD.IN     45 280 60 00:   CALIPER FROM DENSITY LOG
 CORR.G/C3   45 356 01 00:   DENSITY CORRECTION
 RHOB.G/C3   45 350 01 00:   BULK DENSITY
 DPHI.DEC    45 890 12 00:   DENSITY POROSITY SANDSTONE
~PARAMETER INFORMATION
#MNEM.UNIT          VALUE    DESCRIPTION
#----------   ------------   ------------------------------
 PD  .                 GL:   PERMANENT DATUM
 EPD .F              5129:   ELEVATION PERMANENT DATUM
 LMF .                 KB:   LOG MEASURED FROM
 DAPD.F                 4:   FEET ABOVE PERMANENT DATUM
 DMF .                 KB:   DRILLING MEASURED FROM
 EKB .F              5133:   KELLING BUSHING
 EGL .F              5129:   GROUND LEVEL
 DATE.        15-MAR-1977:   RUN DATE
 RUN .                  1:   RUN NUMBER
 DD  .F               680:   DEPTH DRILLER
 DL  .F               680:   DEPTH LOGGER
 BLI .F               683:   BOTTOM LOG INTERVAL
 TLI .F                48:   TOP LOG INTERVAL
 CS  .IN            8.625:   CASING SIZE
 CBD .F                40:   CASING BOTTOM DRILLER
 CBL .F                49:   CASING BOTTOM LOGGER
 BS  .IN            7.875:   BIT SIZE
 BSD .F               680:   BIT SIZE AT DEPTH
 DFT .            KCL MUD:   DRILLING FLUID TYPE
 DFD .                8.8:   DRILLING FLUID DENSITY
 DFV .                 33:   DRILLING FLUID VISCOSITY
 DFPH.                9.6:   DRILLING FLUID PH
 DFL .                9.0:   DRILLING FLUID LOSS
 MSS .                PIT:   MUD SAMPLE SOURCE
 RMS .OHMM           0.22:   RESISTIVITY MUD SAMPLE
 MST .F                50:   MUD SAMPLE TEMPERATURE
 RMF .OHMM           0.21:   RESISTIVITY MUD FILTRATE SAMPLE
 MFST.F                50:   MUD FILTRATE SAMPLE TEMPERATURE
 MFSS.               MEAS:   MUD FILTRATE SAMPLE SOURCE
 TCS .HRS            1800:   TIME CURCULATED STOPPED
 TLAB.HRS            2130:   TIME LOGGER AT BOTTOM
 LUN .               7711:   LOGGING UNIT NUMBER
 LUL .               CSPR:   LOGGING UNIT LOCATION
 ENGI.             TAYLER:   RECORDING ENGINEER
 CLNT.            A2DTECH:   CLIENT CODE
 ORIG.           5" PRINT:   ORIGIN OF DATA
 UWI .       490251029900:   UNIQUE WELL ID
 DICO. A2D Technologies, Inc.:   DIGITIZING COMPANY
~OTHER INFORMATION
~A   DEPT      SPR        ILD        ILM        LL8         GRD      CALD       CORR       RHOB       DPHI   
# ...
  291.5000   -65.6250     8.7928     9.4436     9.5210   115.4489     8.3142     0.0060     2.4733     0.1078
  292.0000   -65.6102     8.8568     9.3195     9.3958   115.7684     8.3160     0.0129     2.4779     0.1077
  292.5000   -65.4462     8.9213     9.2606     9.3372   116.0879     8.3178     0.0182     2.4937     0.0942
  293.0000   -65.4315     8.9863     9.2055     9.3437   116.7045     8.3196     0.0176     2.5013     0.0891
  293.5000   -65.4167     8.9959     9.2126     9.3502   117.0240     8.3214     0.0154     2.5021     0.0911
  294.0000   -65.5549     9.0641     9.2257     9.4220   117.0464     8.3079     0.0125     2.4947     0.0959
  294.5000   -65.3873     9.1843     9.4213     9.4970   116.1772     8.3101     0.0110     2.4872     0.0995
  295.0000   -65.3725     9.3159     9.4943     9.6386   112.3362     8.3119     0.0112     2.4858     0.1007
  295.5000   -65.3578     9.4489     9.7020     9.8505   109.9811     8.3137     0.0112     2.4851     0.0977
  296.0000   -65.3333     9.5177     9.8573     9.9973   109.1119     8.3154     0.0053     2.4889     0.0958
  296.5000   -65.3283     9.5210    10.0608    10.3603   108.6829     8.3172     0.0031     2.4913     0.0946
  297.0000   -65.3135     9.5903    10.0700    10.7364   112.2769     8.3190     0.0130     2.4951     0.0931
  297.5000   -65.2985     9.6602    10.0776    11.0352   114.2309     8.3208     0.0176     2.5057     0.0879
  298.0000   -65.2836     9.6635    10.0135    10.9663   117.0764     8.3226     0.0162     2.4967     0.0855
  298.5000   -65.2686     9.6668     9.9517    10.8204   118.7332     8.3243     0.0140     2.4923     0.0897
  299.0000   -65.2509     9.5226     9.8235    10.6061   121.7273     8.3261     0.0126     2.4893     0.0975
  299.5000   -65.0869     9.3417     9.7628    10.5380   122.0468     8.3279     0.0067     2.4864     0.0999
  300.0000   -64.9089     9.2832     9.6335    10.7125   117.7332     8.3292     0.0045     2.4841     0.1008
  300.5000   -64.6943     9.1613     9.7107    10.6249   115.6969     8.3127     0.0077     2.4838     0.1001
  301.0000   -64.4796     9.1038     9.7187    10.4042   112.1516     8.3031     0.0115     2.4897     0.0977
  301.5000   -64.2711     9.0466     9.7267    10.0696   112.0238     8.3053     0.0117     2.4905     0.0952
  302.0000   -64.2535     8.9912     9.8712    10.0080   112.1932     8.2918     0.0200     2.5026     0.0882
  302.5000   -64.2359     8.9347    10.0177    10.0184   109.9851     8.2787     0.0132     2.5034     0.0914
  303.0000   -64.2183     8.9402    10.0960    10.0966   109.1144     8.2809     0.0118     2.4870     0.0974
  303.5000   -64.2006     8.9457    10.3174    10.2465   109.4324     8.2827     0.0127     2.4780     0.1035
  304.0000   -64.1830     8.9512    10.4706    10.3266   110.0475     8.2845     0.0128     2.4744     0.1053
  304.5000   -64.1654     8.9567    10.6261    10.4799   112.0000     8.2863     0.0114     2.4707     0.1070
  305.0000   -64.2970     8.9622    10.7091    10.4885   114.3982     8.3029     0.0115     2.4685     0.1092
  305.5000   -64.5779     8.9677    10.7180    10.4972   116.0535     8.3046     0.0116     2.4663     0.1110
  306.0000   -64.7140     8.9732    10.7269    10.5059   116.6686     8.3064     0.0109     2.4664     0.1095
  306.5000   -65.1397     8.9787    10.8107    10.4417   116.8380     8.3230     0.0110     2.4733     0.1071
  307.0000   -65.5699     8.9224    10.8951    10.4503   116.8588     8.3248     0.0095     2.4816     0.1031
  307.5000   -65.8507     8.9278    10.9042    10.3864   114.9480     8.3265     0.0112     2.4892     0.0951
  308.0000   -66.1316     8.8718    10.7624    10.3208   113.1857     8.3283     0.0173     2.4976     0.0912
  308.5000   -66.2826     8.8772    10.4748    10.1866   112.0178     8.3301     0.0159     2.5022     0.0884
  309.0000   -66.5442     8.8214    10.1929    10.1261   113.3759     8.3319     0.0129     2.5045     0.0866
  309.5000   -66.6758     8.7057    10.0578     9.9945   114.2883     8.3336     0.0123     2.5091     0.0841
  310.0000   -66.8030     8.6510     9.9936     9.8648   114.4576     8.3201     0.0124     2.5017     0.0904
  310.5000   -66.7854     8.5967     9.9414     9.8729   115.0728     8.3223     0.0087     2.4927     0.0964
  311.0000   -66.7678     8.5427     9.8807     9.8126   116.8767     8.3093     0.0043     2.4830     0.1018
  311.5000   -66.7502     8.5481     9.8203     9.6802   119.1263     8.3110     0.0051     2.4823     0.1002
  312.0000   -66.7326     8.4942     9.6274     9.5514   118.7013     8.2979     0.0059     2.4885     0.0984
  312.5000   -66.4164     8.4409     9.3710     9.3694   114.7103     8.2997     0.0083     2.4863     0.1002
  313.0000   -66.3988     8.2740     8.9330     9.3121   112.5022     8.3015     0.0121     2.4886     0.0959
  313.5000   -66.5305     8.0532     8.4564     9.6516   110.7400     8.3033     0.0145     2.4896     0.1031
  314.0000   -66.6627     7.7843     8.0406     9.3945   111.3551     8.3050     0.0078     2.4632     0.1115
  314.5000   -66.7940     7.4726     7.6844     9.0809   112.7132     8.3068     0.0049     2.4505     0.1216
  315.0000   -66.9254     7.1733     7.3763     8.8988   113.4770     8.3086     0.0080     2.4461     0.1231
  315.5000   -67.0570     6.9819     7.1798     8.3674   114.2407     8.3104     0.0103     2.4559     0.1183
  316.0000   -67.1886     6.9370     7.1345     7.5445   114.4101     8.3121     0.0119     2.4504     0.1218
  316.5000   -67.4695     6.8934     7.1917     6.8026   112.9450     8.2991     0.0120     2.4456     0.1224
  317.0000   -67.4475     6.9466     7.4007     6.9036   110.2912     8.3008     0.0121     2.4526     0.1191
  317.5000   -67.2806     7.1458     7.6159     8.3951   111.0550     8.2878     0.0107     2.4633     0.1100
  318.0000   -66.3675     7.4017     7.8372     9.9266   111.8187     8.2747     0.0033     2.4828     0.0988
  318.5000   -66.2006     7.6140     8.0650     9.4645   111.8395     8.2769     0.0080     2.4903     0.0955
  319.0000   -66.1830     7.8323     8.2994     9.2124   111.8603     8.2787     0.0088     2.4941     0.0937
  319.5000   -66.3191     8.0569     8.4815     9.0923   110.6924     8.2805     0.0085     2.4852     0.0999
  320.0000   -66.4507     8.1741     8.5477     9.2276   110.1189     8.2822     0.0149     2.4868     0.1011
  320.5000   -66.2794     8.2932     8.5548     9.4958   110.1397     8.2840     0.0188     2.4989     0.0918
  321.0000   -66.2618     8.2982     8.5619     9.5037   114.4695     8.2858     0.0061     2.4847     0.0956
  321.5000   -66.0949     8.3035     8.5691     9.5115   115.5305     8.2875     0.0016     2.4720     0.1085
  322.0000   -66.3758     8.2511     8.6417     9.5194   114.0654     8.2893     0.0108     2.4646     0.1145
  322.5000   -66.5075     8.2574     8.8338     9.3893   112.1545     8.2911     0.0176     2.4729     0.1090
  323.0000   -66.6391     8.2043     9.0192     9.2734   110.5409     8.2928     0.0222     2.4895     0.0964
  323.5000   -67.0692     8.0979     8.7805     9.2830   109.2244     8.2946     0.0216     2.4874     0.0969
  324.0000   -67.4950     8.0470     8.5466     9.2907   109.6909     8.2811     0.0194     2.4852     0.0984
  324.5000   -67.4774     7.9952     8.5536     9.2320   112.9807     8.2833     0.0180     2.4777     0.1008
  325.0000   -67.4597     7.8915     8.6205     8.8023   113.7444     8.2851     0.0173     2.4696     0.1107
  325.5000   -67.4421     7.8407     8.5660     8.2732   112.5765     8.2869     0.0129     2.4606     0.1130
  326.0000   -67.2753     7.7378     8.2817     8.2817   108.8826     8.2886     0.0062     2.4727     0.1103
  326.5000   -67.2576     7.5848     7.8946     8.8241   105.6345     8.2904     0.0033     2.4683     0.1148
  327.0000   -67.2400     7.4336     7.5256     8.7701   103.5750     8.2922     0.0041     2.4549     0.1183
  327.5000   -67.3761     7.0379     6.9287     8.5961   104.4874     8.2939     0.0080     2.4542     0.1180
