~VERSION INFORMATION
 VERS.                2.0:   CWLS LOG ASCII STANDARD - VERSION 2.0
 WRAP.                 NO:   ONE LINE PER DEPTH STEP
~WELL INFORMATION
#MNEM.UNIT      DATA TYPE    INFORMATION
#----------   ------------   ------------------------------
 STRT.F           40.0000:   START DEPTH
 STOP.F          490.0000:   STOP DEPTH
 STEP.F            0.5000:   STEP LENGTH
 NULL.          -999.2500:   NO VALUE
 COMP.    FENIX & SCISSON:   COMPANY
 WELL. RES 3 TEAPOT DOM #76-10:   WELL
 FLD .        TEAPOT DOME:   FIELD
 LOC .      S10 T38N R78W:   LOCATION
 CNTY.            NATRONA:   COUNTY
 STAT.            WYOMING:   STATE
 CTRY. UNITED STATES OF AMERICA:   COUNTRY
 SRVC.           BIRDWELL:   SERVICE COMPANY
 DATE.        19-JUN-1978:   LOGDATE
 API .       490251065100:   API NUMBER
~CURVE INFORMATION
#MNEM.UNIT       API CODE    CURVE DESCRIPTION
#----------   ------------   ------------------------------
 DEPT.F                  :   
 CALD.IN     45 280 60 00:   CALIPER FROM DENSITY LOG
 CORR.G/C3   45 356 01 00:   DENSITY CORRECTION
 DPHI.DEC    45 890 12 00:   DENSITY POROSITY SANDSTONE
 GRD .GAPI   45 310 01 00:   GAMMA RAY FROM DENSITY LOG
 RHOB.G/C3   45 350 01 00:   BULK DENSITY
 ILD .OHMM   05 120 46 00:   INDUCTION LOG DEEP
 SN  .OHMM   05 040 16 00:   SHORT NORMAL 16"
 SPR .MV     05 010 01 00:   SPONTANEOUS POTENTIAL FROM RES.
~PARAMETER INFORMATION
#MNEM.UNIT          VALUE    DESCRIPTION
#----------   ------------   ------------------------------
 PD  .                 GL:   PERMANENT DATUM
 EPD .F              5185:   ELEVATION PERMANENT DATUM
 LMF .                 KB:   LOG MEASURED FROM
 DAPD.F                 4:   FEET ABOVE PERMANENT DATUM
 DMF .                 KB:   DRILLING MEASURED FROM
 EKB .F              5189:   KELLING BUSHING
 EGL .F              5185:   GROUND LEVEL
 DATE.        19-JUN-1978:   RUN DATE
 RUN .                  1:   RUN NUMBER
 DD  .F               485:   DEPTH DRILLER
 DL  .F               490:   DEPTH LOGGER
 BLI .F               490:   BOTTOM LOG INTERVAL
 TLI .F                50:   TOP LOG INTERVAL
 CS  .IN            8.625:   CASING SIZE
 CBD .F                30:   CASING BOTTOM DRILLER
 CBL .F                30:   CASING BOTTOM LOGGER
 BS  .IN            7.875:   BIT SIZE
 BSD .F               485:   BIT SIZE AT DEPTH
 DFT .                KCL:   DRILLING FLUID TYPE
 DFD .                8.7:   DRILLING FLUID DENSITY
 DFV .                 34:   DRILLING FLUID VISCOSITY
 DFPH.               10.5:   DRILLING FLUID PH
 MSS .           FLOWLINE:   MUD SAMPLE SOURCE
 RMS .OHMM           0.24:   RESISTIVITY MUD SAMPLE
 MST .F                70:   MUD SAMPLE TEMPERATURE
 RMF .OHMM           0.24:   RESISTIVITY MUD FILTRATE SAMPLE
 MFST.F                72:   MUD FILTRATE SAMPLE TEMPERATURE
 RMC .OHMM           0.28:   RESISTIVITY MUD CAKE
 MCST.F                78:   MUD CAKE SAMPLE TEMPERATURE
 MFSS.               MEAS:   MUD FILTRATE SAMPLE SOURCE
 MCSS.               MEAS:   MUD CAKE SAMPLE SOURCE
 RMB .OHMM           0.27:   RESISTIVITY MUD AT BHT
 BHT .F                74:   BOTTOM HOLE TEMPERATURE
 TCS .HRS               1:   TIME CURCULATED STOPPED
 MRT .F                74:   MAXIMUM RECORDED TEMPERATURE
 LUN .               2958:   LOGGING UNIT NUMBER
 LUL .               CASP:   LOGGING UNIT LOCATION
 ENGI.           REYNOLDS:   RECORDING ENGINEER
 WITN.           MCGINLEY:   WITNESSED BY
 CLNT.            A2DTECH:   CLIENT CODE
 ORIG.           5" PRINT:   ORIGIN OF DATA
 UWI .       490251065100:   UNIQUE WELL ID
 DICO. A2D Technologies, Inc.:   DIGITIZING COMPANY
~OTHER INFORMATION
~A   DEPT     CALD       CORR       DPHI        GRD       RHOB        ILD         SN        SPR   
# ...
  161.5000     7.3642     0.0425     0.1213   106.5086     2.4752     5.8094     7.5636   -47.0499
  162.0000     7.3647     0.0425     0.1177   106.8197     2.4767     5.7824     7.5632   -46.7474
  162.5000     7.3801     0.0426     0.1137   107.1436     2.4753     5.7824     7.5626   -46.7474
  163.0000     7.3805     0.0412     0.1152   108.9504     2.4730     5.8017     7.5028   -46.5961
  163.5000     7.3810     0.0412     0.1176   111.5206     2.4716     5.8224     7.3554   -46.5961
  164.0000     7.3965     0.0413     0.1194   112.1988     2.4731     5.8224     7.2540   -46.5961
  164.5000     7.3818     0.0428     0.1203   109.9518     2.4716     5.8224     7.1540   -46.5961
  165.0000     7.3672     0.0429     0.1209   106.8841     2.4709     5.8224     7.2031   -46.4448
  165.5000     7.3378     0.0460     0.1212   108.2494     2.4709     5.8224     7.2526   -46.4448
  166.0000     7.3232     0.0490     0.1215   109.0482     2.4710     5.8224     7.2020   -46.4757
  166.5000     7.3237     0.0506     0.1212   107.7972     2.4710     5.8224     7.2016   -46.5961
  167.0000     7.3242     0.0491     0.1188   107.6767     2.4755     5.8224     7.1287   -46.6983
  167.5000     7.3546     0.0402     0.1146   107.3879     2.4778     5.8224     7.0529   -46.7474
  168.0000     7.3701     0.0313     0.1127   101.9761     2.4703     5.7824     7.0038   -46.7474
  168.5000     7.3855     0.0269     0.1212   100.9318     2.4666     5.5481     6.9072   -46.7474
  169.0000     7.3859     0.0269     0.1217   104.1069     2.4674     5.3972     6.8592   -46.7474
  169.5000     7.3864     0.0239     0.1199   107.1288     2.4652     5.3972     6.7180   -46.8986
  170.0000     7.3869     0.0181     0.1211   109.2472     2.4577     5.3972     6.5797   -46.8986
  170.5000     7.3873     0.0196     0.1280   108.6571     2.4503     5.3972     6.3999   -47.2012
  171.0000     7.3726     0.0212     0.1388   108.3633     2.4413     5.3972     6.3116   -47.3525
  171.5000     7.3581     0.0228     0.1436   109.5806     2.4458     5.3972     6.2246   -47.3525
  172.0000     7.3587     0.0213     0.1343   110.4941     2.4563     5.3972     6.3107   -47.3525
  172.5000     7.3891     0.0210     0.1301   110.0547     2.4601     5.3972     6.4872   -47.3525
  173.0000     7.4045     0.0199     0.1298   109.4622     2.4624     5.3972     6.6686   -47.3525
  173.5000     7.3900     0.0200     0.1271   110.2251     2.4609     5.4721     6.8077   -47.3525
  174.0000     7.3754     0.0186     0.1252   112.0422     2.4565     5.5865     6.8545   -47.3525
  174.5000     7.3458     0.0171     0.1259   112.5039     2.4527     5.7032     6.9014   -47.3525
  175.0000     7.3505     0.0157     0.1282   111.4621     2.4505     5.7032     6.9010   -47.3525
  175.5000     7.3618     0.0173     0.1294   112.0744     2.4506     5.7032     6.9485   -47.3525
  176.0000     7.3773     0.0173     0.1288   113.1385     2.4513     5.7427     6.9001   -47.3525
  176.5000     7.3626     0.0189     0.1312   113.1491     2.4521     5.7824     6.8995   -47.3525
  177.0000     7.3631     0.0189     0.1342   113.3114     2.4529     5.7811     6.8516   -47.3525
  177.5000     7.3618     0.0160     0.1321   113.3213     2.4537     5.6640     6.8039   -47.3525
  178.0000     7.3340     0.0146     0.1309   113.3313     2.4537     5.5865     6.7566   -47.3525
  178.5000     7.3345     0.0131     0.1315   112.1388     2.4537     5.5865     6.7562   -47.3525
  179.0000     7.3499     0.0117     0.1318   110.1909     2.4545     5.5481     6.7026   -47.3525
  179.5000     7.3654     0.0102     0.1318   108.3911     2.4545     5.5481     6.6625   -47.3525
  180.0000     7.3659     0.0088     0.1312   109.6185     2.4554     5.5100     6.6162   -47.3525
  180.5000     7.3663     0.0089     0.1300   110.3737     2.4561     5.4721     6.5250   -47.3525
  181.0000     7.3517     0.0089     0.1269   110.0824     2.4531     5.3972     6.3466   -47.5038
  181.5000     7.3222     0.0090     0.1290   110.3935     2.4434     5.3972     6.2591   -47.8064
  182.0000     7.3076     0.0106     0.1347   111.4719     2.4367     5.3601     6.0880   -47.9576
  182.5000     7.3081     0.0106     0.1386   111.6181     2.4375     5.1429     5.9628   -47.9576
  183.0000     7.3385     0.0122     0.1389   111.1762     2.4360     4.8670     5.8371   -48.1089
  183.5000     7.3554     0.0137     0.1404   111.9416     2.4285     4.5742     5.6413   -48.2602
  184.0000     7.3728     0.0153     0.1467   112.8554     2.4151     4.5115     5.4118   -48.4115
  184.5000     7.3849     0.0153     0.1512   111.9639     2.4091     4.5115     5.2277   -48.5628
  185.0000     7.3703     0.0274     0.1650   110.4678     2.4046     4.5115     5.0849   -48.7141
  185.5000     7.3557     0.0349     0.1677   108.6704     2.4024     4.5115     5.0147   -48.8654
  186.0000     7.3412     0.0275     0.1569   108.9859     2.4182     4.5427     5.0492   -49.0166
  186.5000     7.3417     0.0216     0.1407   111.7048     2.4377     4.5427     5.3357   -47.7801
  187.0000     7.3421     0.0216     0.1364   112.3171     2.4550     4.6058     5.9591   -46.7474
  187.5000     7.3577     0.0217     0.1322   113.3812     2.4715     4.9687     6.4851   -46.4448
  188.0000     7.3674     0.0217     0.1223   114.7490     2.4738     5.5865     6.9844   -46.4448
  188.5000     7.3735     0.0233     0.1184   113.1023     2.4708     5.8231     7.2295   -46.4448
  189.0000     7.3739     0.0249     0.1175   111.9074     2.4694     5.8627     7.3297   -46.4448
  189.5000     7.3723     0.0249     0.1205   111.1642     2.4716     5.9441     7.3291   -46.2935
  190.0000     7.3448     0.0265     0.1220   112.8333     2.4739     6.0266     7.3285   -46.1422
  190.5000     7.3302     0.0265     0.1202   112.9938     2.4762     6.0683     7.2776   -46.1422
  191.0000     7.3157     0.0275     0.1165   113.0037     2.4777     6.1568     7.2270   -46.1422
  191.5000     7.3313     0.0266     0.1159   113.9172     2.4770     6.1951     7.1767   -45.9909
  192.0000     7.3467     0.0252     0.1129   115.4357     2.4778     6.1951     7.2260   -45.8215
  192.5000     7.3471     0.0223     0.1105   115.4456     2.4778     6.1951     7.2254   -45.5371
  193.0000     7.3625     0.0223     0.1147   115.4548     2.4778     6.1951     7.2887   -45.5371
  193.5000     7.3630     0.0209     0.1138   115.4654     2.4779     6.2380     7.3759   -45.5371
  194.0000     7.3484     0.0195     0.1129   115.4778     2.4779     6.2380     7.4265   -45.5229
  194.5000     7.3188     0.0210     0.1123   114.8853     2.4787     6.2380     7.4829   -45.5371
  195.0000     7.2893     0.0226     0.1120   112.1843     2.4802     6.2380     7.5810   -45.5371
  195.5000     7.2899     0.0271     0.1135   110.6882     2.4840     6.2380     7.5804   -45.5371
  196.0000     7.3203     0.0302     0.1161   111.1524     2.4863     6.2380     7.5277   -45.7650
  196.5000     7.3507     0.0317     0.1137   111.1623     2.4848     6.1951     7.5272   -45.9909
  197.0000     7.3511     0.0318     0.1116   111.1722     2.4848     6.1951     7.5266   -46.1422
  197.5000     7.3516     0.0318     0.1119   110.7229     2.4879     6.1525     7.4743   -46.1422
  198.0000     7.3221     0.0319     0.1104   107.5800     2.4909     6.1525     7.4738   -46.2935
  198.5000     7.2775     0.0305     0.1080   106.0814     2.4894     6.1103     7.4219   -46.5961
  199.0000     7.2630     0.0305     0.1080   110.7625     2.4887     6.1525     7.4212   -46.5961
  199.5000     7.2935     0.0306     0.1077   112.2902     2.4910     6.1951     7.4208   -46.5961
  200.0000     7.2939     0.0303     0.1074   113.1944     2.4910     6.1525     7.4718   -46.6038
  200.5000     7.2919     0.0264     0.1065   113.2043     2.4865     6.0674     7.3702   -46.6525
  201.0000     7.2811     0.0218     0.1076   113.0636     2.4836     6.0248     7.1705   -46.7011
  201.5000     7.2704     0.0218     0.1100   110.8145     2.4791     5.9415     7.1221   -46.7520
