~VERSION INFORMATION
 VERS.                2.0:   CWLS LOG ASCII STANDARD - VERSION 2.0
 WRAP.                 NO:   ONE LINE PER DEPTH STEP
~WELL INFORMATION
#MNEM.UNIT      DATA TYPE    INFORMATION
#----------   ------------   ------------------------------
 STRT.F           19.5000:   START DEPTH
 STOP.F         1292.5000:   STOP DEPTH
 STEP.F            0.5000:   STEP LENGTH
 NULL.          -999.2500:   NO VALUE
 COMP. FENIX & SCISSON INC:   COMPANY
 WELL.  NPR-3 "SX" #74-14:   WELL
 FLD .             TEAPOT:   FIELD
 LOC .      S14 T38N R78W:   LOCATION
 CNTY.            NATRONA:   COUNTY
 STAT.            WYOMING:   STATE
 CTRY. UNITED STATES OF AMERICA:   COUNTRY
 SRVC.            Unknown:   SERVICE COMPANY
 DATE.        22-MAR-1978:   LOGDATE
 API .       490251060300:   API NUMBER
~CURVE INFORMATION
#MNEM.UNIT       API CODE    CURVE DESCRIPTION
#----------   ------------   ------------------------------
 DEPT.F                  :   
 SPR .MV     05 010 01 00:   SPONTANEOUS POTENTIAL
 SN  .OHMM   05 040 16 00:   SHORT NORMAL 16'
 ILD .OHMM   05 120 46 00:   INDUCTION LOG DEEP
 CALD.IN     45 280 60 00:   CALIPER
 GRD .GAPI   45 310 01 00:   GAMMA RAY FROM DENSITY LOG
 CORR.G/C3   45 356 01 00:   DENSITY CORRECTION
 RHOB.G/C3   45 350 01 00:   BULK DENSITY
 DPHI.DEC    45 890 12 00:   DENSITY POROSITY SANDSTONE
~PARAMETER INFORMATION
#MNEM.UNIT          VALUE    DESCRIPTION
#----------   ------------   ------------------------------
 PD  .                 GL:   PERMANENT DATUM
 EPD .F              5312:   ELEVATION PERMANENT DATUM
 LMF .                 KB:   LOG MEASURED FROM
 DMF .                 KB:   DRILLING MEASURED FROM
 EKB .F              5316:   KELLING BUSHING
 EGL .F              5312:   GROUND LEVEL
 DATE.          3-22-1978:   RUN DATE
 RUN .                  1:   RUN NUMBER
 DD  .F              1280:   DEPTH DRILLER
 DL  .F              1292:   DEPTH LOGGER
 BLI .F              1286:   BOTTOM LOG INTERVAL
 TLI .F                50:   TOP LOG INTERVAL
 CS  .IN            8.625:   CASING SIZE
 CBD .F                50:   CASING BOTTOM DRILLER
 CBL .F                50:   CASING BOTTOM LOGGER
 BS  .IN            7.875:   BIT SIZE
 BSD .F              1280:   BIT SIZE AT DEPTH
 DFT .                KCL:   DRILLING FLUID TYPE
 DFD .                8.6:   DRILLING FLUID DENSITY
 DFV .                 31:   DRILLING FLUID VISCOSITY
 DFPH.               10.5:   DRILLING FLUID PH
 DFL .               11.6:   DRILLING FLUID LOSS
 MSS .            MUD PIT:   MUD SAMPLE SOURCE
 RMS .OHMM            .38:   RESISTIVITY MUD SAMPLE
 MST .F                52:   MUD SAMPLE TEMPERATURE
 RMF .OHMM            .32:   RESISTIVITY MUD FILTRATE SAMPLE
 MFST.F                66:   MUD FILTRATE SAMPLE TEMPERATURE
 RMC .OHMM             .4:   RESISTIVITY MUD CAKE
 MCST.F                68:   MUD CAKE SAMPLE TEMPERATURE
 MFSS.           MEASURED:   MUD FILTRATE SAMPLE SOURCE
 RMB .OHMM            .24:   RESISTIVITY MUD AT BHT
 BHT .F                82:   BOTTOM HOLE TEMPERATURE
 TCS .HRS               4:   TIME CURCULATED STOPPED
 MRT .F                82:   MAXIMUM RECORDED TEMPERATURE
 LUN .               2958:   LOGGING UNIT NUMBER
 LUL .               CASP:   LOGGING UNIT LOCATION
 ENGI.            POINTER:   RECORDING ENGINEER
 WITN.           MCGINLEY:   WITNESSED BY
 CLNT.            A2DTECH:   CLIENT CODE
 ORIG.        2" 5" PRINT:   ORIGIN OF DATA
 UWI .       490251060300:   UNIQUE WELL ID
 DICO. A2D Technologies, Inc.:   DIGITIZING COMPANY
~OTHER INFORMATION
~A   DEPT      SPR         SN        ILD       CALD         GRD      CORR       RHOB       DPHI   
# ...
  748.5000   -49.8497     7.0379     6.8188     8.1632    92.3898     0.0109     2.4551     0.1006
  749.0000   -50.3597     7.0284     6.8012     8.1633    89.0694     0.0112     2.4593     0.1037
  749.5000   -50.8502     7.0189     6.8009     8.1634    90.6113     0.0115     2.4561     0.1041
  750.0000   -50.9494     7.0095     6.8008     8.1635    95.5087     0.0120     2.4528     0.1033
  750.5000   -50.6693     7.0001     6.8008     8.1636   100.2500     0.0074     2.4565     0.1026
  751.0000   -50.3817     6.9907     6.8008     8.1637   100.6329     0.0059     2.4562     0.1049
  751.5000   -50.1941     6.9813     6.8008     8.1638   100.4489     0.0097     2.4534     0.1066
  752.0000   -50.0359     6.9719     6.8008     8.1639   100.3106     0.0134     2.4504     0.1029
  752.5000   -49.8799     6.9626     6.8008     8.1640    97.3186     0.0120     2.4543     0.1016
  753.0000   -49.7242     6.9532     6.8008     8.1641    94.5657     0.0096     2.4593     0.1026
  753.5000   -49.7012     6.9439     6.8008     8.1642    99.5451     0.0074     2.4573     0.1026
  754.0000   -49.7009     6.9346     6.8008     8.1642   100.5176     0.0038     2.4556     0.1061
  754.5000   -49.7011     6.9278     6.8008     8.1643    98.6834     0.0038     2.4546     0.1086
  755.0000   -49.7012     6.9394     6.8008     8.1644    95.1204     0.0037     2.4496     0.1029
  755.5000   -49.7012     6.9491     6.8008     8.1645    95.3581     0.0035     2.4496     0.1011
  756.0000   -49.7012     6.9589     6.8008     8.1646    99.3661     0.0033     2.4591     0.1019
  756.5000   -49.7012     6.9687     6.8008     8.1647    98.3240     0.0031     2.4609     0.1026
  757.0000   -49.7012     6.9785     6.8008     8.1648    97.2653     0.0030     2.4580     0.1022
  757.5000   -49.7012     6.9884     6.8008     8.1649    97.3943     0.0028     2.4582     0.1008
  758.0000   -49.7012     6.9982     6.8008     8.1650    99.2420     0.0026     2.4609     0.0994
  758.5000   -49.7011     7.0081     6.8008     8.1651   101.1461     0.0024     2.4616     0.0996
  759.0000   -49.7009     7.0179     6.8008     8.1652   100.8769     0.0023     2.4616     0.1006
  759.5000   -49.7021     7.0279     6.8008     8.1653   100.6645     0.0021     2.4611     0.1016
  760.0000   -49.7328     7.0378     6.8009     8.1654   100.4663     0.0019     2.4567     0.1027
  760.5000   -49.8411     7.0477     6.8010     8.1655   100.0426    -0.0048     2.4562     0.1033
  761.0000   -49.9446     7.0552     6.8008     8.1656    92.5726    -0.0124     2.4569     0.1042
  761.5000   -50.0481     6.9817     6.7870     8.1657    94.3465    -0.0180     2.4544     0.1119
  762.0000   -50.0577     6.9159     6.6703     8.1657    96.5663    -0.0154     2.4406     0.1165
  762.5000   -49.9781     6.8507     6.5556     8.1658   100.1626    -0.0144     2.4350     0.1181
  763.0000   -49.8985     6.7862     6.4429     8.1659   100.7935    -0.0152     2.4321     0.1194
  763.5000   -49.8183     6.7223     6.3321     8.1660   100.9404    -0.0138     2.4302     0.1198
  764.0000   -49.7381     6.6389     6.2232     8.1661   100.2745    -0.0041     2.4293     0.1170
  764.5000   -49.6578     6.4348     6.1449     8.1662    97.1972    -0.0006     2.4327     0.1135
  765.0000   -49.5773     6.4417     6.1530     8.1663    95.8682     0.0027     2.4370     0.1100
  765.5000   -49.5048     6.4564     6.1600     8.1664    96.3486     0.0065     2.4439     0.1074
  766.0000   -49.5455     6.4712     6.1668     8.1665    96.8239     0.0073     2.4544     0.1063
  766.5000   -49.5882     6.4860     6.1736     8.1666    96.8530     0.0082     2.4543     0.1053
  767.0000   -49.6303     6.5008     6.1803     8.1667    98.1215     0.0091     2.4538     0.1040
  767.5000   -49.6724     6.5157     6.1870     8.1668   100.7170     0.0101     2.4555     0.1023
  768.0000   -49.7144     6.5306     6.1940     8.1669    99.6626     0.0110     2.4590     0.1006
  768.5000   -49.7564     6.5456     6.2005     8.1670    99.5973     0.0120     2.4607     0.1004
  769.0000   -49.7985     6.5859     6.2609     8.1671    99.7772     0.0100     2.4609     0.0999
  769.5000   -49.8409     6.6649     6.3604     8.1672    98.9838     0.0072     2.4612     0.0995
  770.0000   -49.8833     6.7449     6.4615     8.1673    96.7459     0.0045     2.4614     0.0990
  770.5000   -49.9687     6.8258     6.5642     8.1673    95.5965     0.0020     2.4599     0.1037
  771.0000   -50.0840     6.9078     6.6685     8.1674    98.3438     0.0012     2.4534     0.1057
  771.5000   -50.1998     7.0021     6.8638     8.1675    97.8465     0.0004     2.4525     0.1062
  772.0000   -50.3163     7.0210     6.8575     8.1676    96.8722    -0.0032     2.4512     0.1073
  772.5000   -50.4326     7.0399     6.8460     8.1677    97.1432    -0.0101     2.4463     0.1100
  773.0000   -50.5471     7.0588     6.8346     8.1678    96.5142    -0.0133     2.4453     0.1126
  773.5000   -50.6652     7.0778     6.8231     8.1679    98.3451    -0.0107     2.4388     0.1133
  774.0000   -50.4122     7.0969     6.8117     8.1680    99.1836    -0.0081     2.4395     0.1111
  774.5000   -49.8787     7.1217     6.8004     8.1681    96.5198    -0.0052     2.4443     0.1090
  775.0000   -49.4716     7.1093     6.7890     8.1682    97.1860    -0.0014     2.4490     0.1064
  775.5000   -49.3949     7.0848     6.7776     8.1683    97.9331     0.0024     2.4537     0.1034
  776.0000   -49.3124     7.0604     6.7663     8.1684   100.6003     0.0035     2.4544     0.1045
  776.5000   -49.2304     7.0361     6.7550     8.1685   102.5615     0.0028     2.4527     0.1045
  777.0000   -49.1490     7.0118     6.7437     8.1686   102.8918     0.0020     2.4530     0.1036
  777.5000   -49.1672     6.9877     6.7324     8.1687   102.6993     0.0013     2.4534     0.1050
  778.0000   -49.3036     6.9636     6.7212     8.1688   100.6977     0.0005     2.4494     0.1082
  778.5000   -49.4393     6.9396     6.7099     8.1689   100.8846    -0.0003     2.4507     0.1086
  779.0000   -49.5756     6.9157     6.6987     8.1690   103.1782    -0.0010     2.4485     0.1063
  779.5000   -49.7117     6.8919     6.6875     8.1691   105.9852    -0.0019     2.4524     0.1041
  780.0000   -49.8495     6.8638     6.6766     8.1692   101.9054     0.0003     2.4536     0.1038
  780.5000   -49.8752     6.9307     6.7178     8.1692    98.3467     0.0036     2.4546     0.0990
  781.0000   -49.8365     7.0405     6.8181     8.1693    97.7761     0.0069     2.4559     0.0947
  781.5000   -49.7972     7.1521     6.9200     8.1694    97.6364     0.0099     2.4636     0.0906
  782.0000   -49.7571     7.2654     7.0235     8.1695    95.4084     0.0083     2.4710     0.0904
  782.5000   -49.7167     7.3805     7.1284     8.1696    92.0866     0.0068     2.4766     0.0919
  783.0000   -49.6235     7.4974     7.2349     8.1697    96.6617     0.0052     2.4758     0.0986
  783.5000   -49.5195     7.5964     7.3430     8.1698    99.0345     0.0040     2.4712     0.1042
  784.0000   -50.3119     7.5972     7.4576     8.1699    97.5058     0.0032     2.4605     0.1012
  784.5000   -50.4695     7.5970     7.3785     8.1700    93.5497     0.0023     2.4596     0.0983
  785.0000   -50.0846     7.5968     7.2748     8.1701    92.3616     0.0014     2.4687     0.0962
  785.5000   -50.0094     7.5760     7.1725     8.1702    98.2393     0.0005     2.4668     0.0994
  786.0000   -50.0784     7.4214     7.0717     8.1703   102.9286    -0.0003     2.4607     0.1026
  786.5000   -49.9159     7.2702     6.9723     8.1704    99.7129    -0.0012     2.4548     0.1033
  787.0000   -49.7498     7.1221     6.8743     8.1705    97.0651    -0.0021     2.4574     0.1038
  787.5000   -49.5850     6.9915     6.7777     8.1706    96.7902    -0.0031     2.4549     0.1043
  788.0000   -49.4199     6.9484     6.6821     8.1706    98.1863    -0.0039     2.4560     0.1045
  788.5000   -49.2544     6.8623     6.6148     8.1707   103.3638    -0.0011     2.4555     0.1038
