~VERSION INFORMATION
 VERS.                2.0:   CWLS LOG ASCII STANDARD - VERSION 2.0
 WRAP.                 NO:   ONE LINE PER DEPTH STEP
~WELL INFORMATION
#MNEM.UNIT      DATA TYPE    INFORMATION
#----------   ------------   ------------------------------
 STRT.F           29.0000:   START DEPTH
 STOP.F          462.0000:   STOP DEPTH
 STEP.F            0.5000:   STEP LENGTH
 NULL.          -999.2500:   NO VALUE
 COMP.    FENIX & SCISSON:   COMPANY
 WELL.      NPR #71-SX-10:   WELL
 FLD .             TEAPOT:   FIELD
 LOC .      S10 T38N R78W:   LOCATION
 CNTY.            NATRONA:   COUNTY
 STAT.            WYOMING:   STATE
 CTRY. UNITED STATES OF AMERICA:   COUNTRY
 SRVC.              Welex:   SERVICE COMPANY
 DATE.        01-APR-1977:   LOGDATE
 API .       490251032300:   API NUMBER
~CURVE INFORMATION
#MNEM.UNIT       API CODE    CURVE DESCRIPTION
#----------   ------------   ------------------------------
 DEPT.F                  :   
 SPR .MV     07 010 01 00:   SPONTANEOUS POTENTIAL
 ILD .OHMM   07 120 46 00:   INDUCTION LOG DEEP
 ILM .OHMM   07 120 44 00:   INDUCTION LOG MEDIUM
 SGRD.OHMM   07 221 05 00:   SHALLOW SHORT GUARD RESISTIVITY
 CALD.IN     45 280 60 00:   CALIPER FROM DENSITY LOG
 GRD .GAPI   45 310 01 00:   GAMMA RAY FROM DENSITY LOG
 CORR.G/C3   45 356 01 00:   DENSITY CORRECTION
 RHOB.G/C3   45 350 01 00:   BULK DENSITY
 DPHI.DEC    45 890 12 00:   DENSITY POROSITY SANDSTONE
~PARAMETER INFORMATION
#MNEM.UNIT          VALUE    DESCRIPTION
#----------   ------------   ------------------------------
 PD  .                 GL:   PERMANENT DATUM
 EPD .F              5157:   ELEVATION PERMANENT DATUM
 LMF .                 GL:   LOG MEASURED FROM
 DMF .                 GL:   DRILLING MEASURED FROM
 EGL .F              5157:   GROUND LEVEL
 DATE.        01-APR-1977:   RUN DATE
 RUN .                  1:   RUN NUMBER
 DD  .F               475:   DEPTH DRILLER
 DL  .F               466:   DEPTH LOGGER
 BLI .F               463:   BOTTOM LOG INTERVAL
 TLI .F                30:   TOP LOG INTERVAL
 CS  .IN            8.625:   CASING SIZE
 BS  .IN            7.875:   BIT SIZE
 BSD .F               475:   BIT SIZE AT DEPTH
 DFT .                KCL:   DRILLING FLUID TYPE
 DFD .                8.5:   DRILLING FLUID DENSITY
 TCS .HRS               3:   TIME CURCULATED STOPPED
 MRT .F                67:   MAXIMUM RECORDED TEMPERATURE
 ENGI.            C. DOAK:   RECORDING ENGINEER
 WITN.   R. B. HARRINGTON:   WITNESSED BY
 CLNT.            A2DTECH:   CLIENT CODE
 ORIG.           5" PRINT:   ORIGIN OF DATA
 UWI .       490251032300:   UNIQUE WELL ID
 DICO. A2D Technologies, Inc.:   DIGITIZING COMPANY
~OTHER INFORMATION
~A   DEPT      SPR        ILD        ILM       SGRD         CALD      GRD       CORR       RHOB       DPHI   
   29.0000  -999.2500  -999.2500  -999.2500  -999.2500     7.9387  -999.2500  -999.2500  -999.2500  -999.2500
   29.5000  -999.2500  -999.2500  -999.2500  -999.2500     7.9545    89.3249  -999.2500  -999.2500  -999.2500
   30.0000  -999.2500  -999.2500  -999.2500  -999.2500     7.9705    85.0171  -999.2500  -999.2500  -999.2500
   30.5000  -999.2500  -999.2500  -999.2500  -999.2500     7.9865    84.5817    -0.4046  -999.2500  -999.2500
   31.0000  -999.2500  -999.2500  -999.2500  -999.2500     7.9877    87.1395    -0.4092  -999.2500  -999.2500
   31.5000  -999.2500  -999.2500  -999.2500  -999.2500     7.9889    90.5888    -0.4198  -999.2500  -999.2500
   32.0000  -999.2500  -999.2500  -999.2500  -999.2500     7.9901    92.2470    -0.4317  -999.2500  -999.2500
   32.5000  -999.2500  -999.2500  -999.2500  -999.2500     7.9913    90.7709    -0.4376  -999.2500  -999.2500
   33.0000  -999.2500  -999.2500  -999.2500  -999.2500     7.9924    88.1008    -0.4406  -999.2500  -999.2500
   33.5000  -999.2500  -999.2500  -999.2500  -999.2500     7.9936    87.3668    -0.4390  -999.2500  -999.2500
   34.0000  -999.2500  -999.2500  -999.2500  -999.2500     7.9948    87.3874    -0.4132     1.0032  -999.2500
   34.5000  -999.2500  -999.2500  -999.2500  -999.2500     7.9960    88.2993    -0.3571     1.0707  -999.2500
   35.0000  -999.2500  -999.2500  -999.2500  -999.2500     7.9972    89.6590    -0.3253     1.3176  -999.2500
   35.5000  -999.2500  -999.2500  -999.2500  -999.2500     7.9984    92.2128    -0.2843     1.4797  -999.2500
   36.0000  -999.2500  -999.2500  -999.2500  -999.2500     7.9996    96.1098    -0.1693     1.7378  -999.2500
   36.5000  -999.2500  -999.2500  -999.2500  -999.2500     7.9856   104.0367    -0.0603     1.8061  -999.2500
   37.0000  -999.2500  -999.2500  -999.2500  -999.2500     7.9723   108.0830    -0.0239     1.8100  -999.2500
   37.5000  -999.2500  -999.2500  -999.2500  -999.2500     7.9883   113.6218     0.0004     1.8288  -999.2500
   38.0000  -999.2500  -999.2500  -999.2500  -999.2500     8.0043   115.1267     0.0307     2.0724  -999.2500
   38.5000  -999.2500  -999.2500  -999.2500  -999.2500     8.0352   112.9084     0.0066     2.1085  -999.2500
   39.0000  -999.2500  -999.2500  -999.2500  -999.2500     8.0809   108.8950     0.0048     2.1231  -999.2500
   39.5000  -999.2500  -999.2500  -999.2500  -999.2500     8.1711   103.8368     0.0113     2.1490  -999.2500
   40.0000  -999.2500  -999.2500  -999.2500  -999.2500     8.3207    99.2263     0.0144     2.1930  -999.2500
   40.5000  -999.2500  -999.2500  -999.2500  -999.2500     8.4405    96.2536     0.0145     2.2013     0.2700
   41.0000  -999.2500  -999.2500  -999.2500  -999.2500     8.5011    98.5129     0.0130     2.2066     0.2658
   41.5000  -999.2500  -999.2500  -999.2500  -999.2500     8.4871   100.9174     0.0101     2.2067     0.2648
   42.0000   -24.2113     0.3566     2.2030  -999.2500     8.4735   102.8742     0.0056     2.2022     0.2681
   42.5000   -24.9223     0.4906     2.1293  -999.2500     8.4750   101.0995     0.0042     2.1978     0.2723
   43.0000   -22.5212     0.6385     2.1304  -999.2500     8.4761    98.8772     0.0027     2.1979     0.2729
   43.5000   -23.1004     1.3031     2.2843  -999.2500     8.4773    98.1432     0.0043     2.2009     0.2687
   44.0000   -23.8324     1.9887     2.3990     6.7627     8.4785    98.7608     0.0089     2.2153     0.2600
   44.5000   -23.0683     2.1772     2.4004    44.4485     8.4797    99.6727     0.0151     2.2333     0.2461
   45.0000   -23.2010     2.1937     2.4195    58.2494     8.4809    99.8343     0.0197     2.2446     0.2422
   45.5000   -23.6313     2.1796     2.4550    40.2748     8.4821    98.8101     0.0258     2.2185     0.2680
   46.0000   -23.4665     2.2117     2.5084    47.7787     8.4833    95.6922     0.0304     2.2088     0.2653
   46.5000   -23.0040     2.3390     2.5629    38.4130     8.4845    92.2758     0.0335     2.2156     0.2593
   47.0000   -22.6903     2.4737     2.6154    22.3272     8.4857    93.6355     0.0381     2.2217     0.2557
   47.5000   -22.3766     2.5272     2.6721    28.2695     8.5314    97.8310     0.0397     2.2277     0.2536
   48.0000   -22.2117     2.5287     2.7486    18.9340     8.6067   101.2803     0.0353     2.2308     0.2505
   48.5000   -22.1956     2.5129     2.8273    86.8473     8.7266   102.3415     0.0278     2.2226     0.2541
   49.0000   -22.1795     2.5319     2.9284    69.1653     8.8020   101.0147     0.0218     2.2272     0.2529
   49.5000   -22.1634     2.6963     3.0123    42.9294     8.7735    98.4938     0.0188     2.2355     0.2481
   50.0000   -22.2966     2.7929     3.1200    46.4014     8.7005    98.9580     0.0204     2.2513     0.2343
   50.5000   -22.7265     2.9131     3.2094    73.2610     8.6572    98.6759     0.0235     2.2679     0.2250
   51.0000   -23.0084     2.8944     3.2848    28.4075     8.6584    97.9460     0.0266     2.2860     0.2150
   51.5000   -23.5872     2.9574     3.3723    99.4695     8.6595    96.7643     0.0282     2.3010     0.2057
   52.0000   -23.8690     3.0423     3.4689   114.2942     8.6607    98.5759     0.0298     2.3124     0.2006
   52.5000   -24.1505     3.1296     3.5930    53.4258     8.6619   100.2342     0.0314     2.3169     0.1985
   53.0000   -24.1342     3.2418     3.7215    56.1169     8.6631   101.5939     0.0315     2.3207     0.1964
   53.5000   -24.1182     3.3813     3.8547    20.4471     8.6495   102.5058     0.0316     2.3253     0.1952
   54.0000   -24.3998     3.5025     3.9926    18.8875     8.6507   104.0148     0.0331     2.3284     0.1931
   54.5000   -24.6813     3.7042     4.1069     9.9013     8.6370   106.1208     0.0347     2.3292     0.1882
   55.0000   -25.1116     3.9447     4.1953     7.7234     8.6231   108.6745     0.0348     2.3398     0.1855
   55.5000   -25.2443     4.0579     4.2857     6.8710     8.6094   109.5824     0.0349     2.3496     0.1807
   56.0000   -25.5259     4.0604     4.3780     4.0199     8.5958   104.5283     0.0380     2.3564     0.1780
   56.5000   -25.6586     4.0070     4.4723     3.8474     8.5673   100.8134     0.0411     2.3595     0.1750
   57.0000   -25.9466     4.0096     4.5058     3.9582     8.5391    99.3373     0.0442     2.3640     0.1726
   57.5000   -26.6762     4.1533     4.5711     3.9336     8.5251    99.5029     0.0458     2.3694     0.1686
   58.0000   -26.9593     4.4229     4.7347     3.9637     8.5266   101.0119     0.0398     2.3769     0.1644
   58.5000   -27.5401     4.7101     4.8702     4.9156     8.5278   102.8194     0.0323     2.3755     0.1659
   59.0000   -28.1209     4.7787     4.9751     5.1276     8.5290   104.9254     0.0309     2.3718     0.1650
   59.5000   -28.9848     4.7817     4.9093     5.1312     8.5302   107.6284     0.0294     2.3809     0.1581
   60.0000   -29.2663     4.8513     4.9121     5.5409     8.5314   109.1373     0.0265     2.3937     0.1468
   60.5000   -29.5479     4.9220     4.9490     5.9833     8.5177   110.0493     0.0235     2.4103     0.1347
   61.0000   -29.8487     4.9592     4.9861     6.0271     8.5189   110.8120     0.0236     2.4201     0.1328
   61.5000   -30.1109     5.0314     5.0583     6.0290     8.5201   111.5747     0.0207     2.4029     0.1406
   62.0000   -30.2437     5.1047     5.2757     6.1227     8.5213   112.4866     0.0162     2.3887     0.1427
   62.5000   -30.0781     5.2150     6.0203     6.3307     8.5225   113.6971     0.0132     2.4000     0.1383
   63.0000   -30.0620     5.2550     6.2790     7.7154     8.5237   114.6091     0.0148     2.4121     0.1347
   63.5000   -30.1955     5.3321     6.0225     7.8079     8.5397   117.0135     0.0149     2.4219     0.1311
   64.0000   -30.1754     5.4087     5.7819     7.8122     8.5409   120.6121     0.0135     2.4333     0.1273
   64.5000   -30.3121     5.4121     5.6302     7.7615     8.5421   124.0613     0.0136     2.4416     0.1249
   65.0000   -30.4408     5.4531     5.5944     7.7669     8.5433   126.0181     0.0121     2.4484     0.1225
