~VERSION INFORMATION
 VERS.                2.0:   CWLS LOG ASCII STANDARD - VERSION 2.0
 WRAP.                 NO:   ONE LINE PER DEPTH STEP
~WELL INFORMATION
#MNEM.UNIT      DATA TYPE    INFORMATION
#----------   ------------   ------------------------------
 STRT.F           30.0000:   START DEPTH
 STOP.F          440.0000:   STOP DEPTH
 STEP.F            0.5000:   STEP LENGTH
 NULL.          -999.2500:   NO VALUE
 COMP. LAWRENCE/ALLISON INC:   COMPANY
 WELL. NPR #3 #52-31 SX 10:   WELL
 FLD .             TEAPOT:   FIELD
 LOC .      S10 T38N R78W:   LOCATION
 CNTY.            NATRONA:   COUNTY
 STAT.            WYOMING:   STATE
 CTRY. UNITED STATES OF AMERICA:   COUNTRY
 SRVC.           Gearhart:   SERVICE COMPANY
 DATE.        27-SEP-1988:   LOGDATE
 API .       490251124800:   API NUMBER
~CURVE INFORMATION
#MNEM.UNIT       API CODE    CURVE DESCRIPTION
#----------   ------------   ------------------------------
 DEPT.F                  :   
 GRR .GAPI   07 310 01 00:   GAMMA RAY FROM RES. LOG.
 RLL .OHMM   07 220 00 00:   LATEROLOG RESISTIVITY
 ILD .OHMM   07 120 46 00:   INDUCTION LOG DEEP
 ILM .OHMM   07 120 44 00:   INDUCTION LOG MEDIUM
 SPR .MV     07 010 01 00:   SPONTANEOUS POTENTIAL
~PARAMETER INFORMATION
#MNEM.UNIT          VALUE    DESCRIPTION
#----------   ------------   ------------------------------
 PD  .                 GL:   PERMANENT DATUM
 EPD .F              5179:   ELEVATION PERMANENT DATUM
 LMF .                 KB:   LOG MEASURED FROM
 DAPD.F                 8:   FEET ABOVE PERMANENT DATUM
 DMF .                 KB:   DRILLING MEASURED FROM
 EKB .F              5187:   KELLING BUSHING
 EDF .F              5185:   DRILLING FLOOR
 EGL .F              5179:   GROUND LEVEL
 DATE.            9-27-88:   RUN DATE
 RUN .                  1:   RUN NUMBER
 DD  .F               441:   DEPTH DRILLER
 DL  .F               442:   DEPTH LOGGER
 BLI .F               441:   BOTTOM LOG INTERVAL
 TLI .F                40:   TOP LOG INTERVAL
 CS  .IN            9.625:   CASING SIZE
 CBD .F                50:   CASING BOTTOM DRILLER
 CBL .F                50:   CASING BOTTOM LOGGER
 BS  .IN             8.75:   BIT SIZE
 BSD .F               441:   BIT SIZE AT DEPTH
 DFT .                MUD:   DRILLING FLUID TYPE
 MSS .           MUD TANK:   MUD SAMPLE SOURCE
 RMS .OHMM              2:   RESISTIVITY MUD SAMPLE
 MST .F                64:   MUD SAMPLE TEMPERATURE
 RMF .OHMM            2.4:   RESISTIVITY MUD FILTRATE SAMPLE
 MFST.F                66:   MUD FILTRATE SAMPLE TEMPERATURE
 RMC .OHMM              3:   RESISTIVITY MUD CAKE
 MCST.F                67:   MUD CAKE SAMPLE TEMPERATURE
 MFSS.                  M:   MUD FILTRATE SAMPLE SOURCE
 MCSS.                  M:   MUD CAKE SAMPLE SOURCE
 RMB .OHMM            1.3:   RESISTIVITY MUD AT BHT
 BHT .F                70:   BOTTOM HOLE TEMPERATURE
 TCS .HRS            0910:   TIME CURCULATED STOPPED
 TLAB.HRS            1113:   TIME LOGGER AT BOTTOM
 MRT .F                70:   MAXIMUM RECORDED TEMPERATURE
 LUN .               7597:   LOGGING UNIT NUMBER
 LUL .           GILLETTE:   LOGGING UNIT LOCATION
 ENGI.         WEATHERMON:   RECORDING ENGINEER
 WITN.             STRONG:   WITNESSED BY
 CLNT.            A2DTECH:   CLIENT CODE
 ORIG.       2", 5" PRINT:   ORIGIN OF DATA
 UWI .       490251124800:   UNIQUE WELL ID
 DICO. A2D Technologies, Inc.:   DIGITIZING COMPANY
~OTHER INFORMATION
~A   DEPT       GRR       RLL        ILD        ILM        SPR   
# ...
  213.0000   147.1706     6.8413     7.8126     7.4071   -93.1145
  213.5000   147.3565     6.8821     7.8000     7.4192   -93.3749
  214.0000   146.9024     6.9233     7.7875     7.4314   -93.6342
  214.5000   144.8935     6.9646     7.7750     7.4436   -93.8704
  215.0000   142.1347     7.0062     7.7627     7.4558   -93.8637
  215.5000   139.7862     7.0507     7.7503     7.4670   -93.8618
  216.0000   140.6856     7.1311     7.6872     7.3634   -93.8700
  216.5000   142.9596     7.0472     7.6266     7.2625   -94.0925
  217.0000   145.0125     6.8818     7.3860     7.1605   -94.2604
  217.5000   143.9261     6.6362     7.0626     6.8482   -94.0261
  218.0000   141.4028     6.3278     6.7807     6.5506   -93.7951
  218.5000   140.3230     6.0337     6.4936     6.2658   -93.5632
  219.0000   144.9316     5.7535     6.2187     5.9937   -93.4263
  219.5000   149.3111     5.4819     5.9554     5.7333   -93.3241
  220.0000   153.0539     5.3940     5.8278     5.5465   -93.4233
  220.5000   151.4951     5.5329     5.7468     5.6201   -93.6051
  221.0000   148.9110     5.7476     5.6669     5.6914   -93.4659
  221.5000   146.3207     5.9707     5.5583     5.7653   -93.3310
  222.0000   143.6662     6.2637     5.2582     5.8100   -93.1944
  222.5000   142.8805     6.0819     4.9742     5.2587   -93.0583
  223.0000   144.2976     5.6327     4.8292     4.8835   -92.9216
  223.5000   145.7669     5.2160     4.9020     4.4362   -92.7818
  224.0000   144.9545     4.8300     5.0410     4.4348   -92.6757
  224.5000   142.9002     4.4727     5.1801     4.6190   -93.1370
  225.0000   141.1212     4.2361     5.3228     4.9149   -93.6076
  225.5000   143.1636     4.6658     5.5365     5.2290   -94.0741
  226.0000   145.6360     5.1930     5.8261     5.5433   -94.4775
  226.5000   146.6396     5.5910     6.1309     5.8523   -94.4251
  227.0000   145.6702     5.8635     6.4516     6.1766   -94.3785
  227.5000   144.6277     6.1492     6.7890     6.4674   -94.3332
  228.0000   143.0787     6.4489     7.1306     6.6951   -94.2923
  228.5000   141.8007     6.7632     7.1054     7.0626   -94.4581
  229.0000   142.8197     6.8684     7.0639     7.0060   -94.8599
  229.5000   144.1978     6.7682     7.1316     6.5907   -95.2536
  230.0000   145.5794     6.4537     7.2641     6.1641   -95.1029
  230.5000   146.9540     6.1538     6.9314     5.7651   -94.6283
  231.0000   148.3286     5.8678     6.4752     5.3919   -94.3075
  231.5000   150.0934     5.5951     6.0496     5.0429   -94.5864
  232.0000   151.8499     5.3351     5.7098     4.7165   -94.0495
  232.5000   152.3262     5.0872     5.4015     4.6056   -93.4970
  233.0000   151.6037     5.0542     5.2456     4.7816   -93.8876
  233.5000   150.8368     5.4129     5.5983     4.9566   -94.2670
  234.0000   151.2342     5.8481     6.1713     5.1477   -94.6463
  234.5000   152.7960     6.3182     6.6806     5.4967   -94.8484
  235.0000   154.8488     6.5931     6.8647     5.8951   -94.7916
  235.5000   154.6309     6.8057     7.0539     6.3224   -94.7377
  236.0000   152.2052     7.0250     7.4129     6.6167   -94.6783
  236.5000   148.8578     7.0873     7.8228     6.8943   -94.7929
  237.0000   145.9379     7.1263     7.9264     7.1836   -94.9645
  237.5000   144.6547     7.1655     8.0263     7.4849   -95.1374
  238.0000   145.3108     7.2050     8.1274     7.8228   -95.3099
  238.5000   146.3204     7.2447     8.2268     7.9309   -95.4822
  239.0000   143.3529     7.3042     8.3214     7.9968   -95.6546
  239.5000   141.0343     7.3985     8.4169     8.0632   -95.8270
  240.0000   139.3037     7.2443     8.5136     8.1302   -95.9993
  240.5000   138.2090     7.1285     8.6114     8.1949   -96.1717
  241.0000   138.2145     7.3076     8.6765     8.2126   -96.3442
  241.5000   139.5334     7.3985     8.7018     8.2296   -96.5167
  242.0000   141.8208     7.2001     8.7271     8.2466   -96.6807
  242.5000   143.7749     7.1285     8.7526     8.2637   -96.7643
  243.0000   142.2569     7.3170     8.7781     8.2808   -96.8441
  243.5000   140.5736     7.4618     8.8037     8.2980   -96.8512
  244.0000   140.3728     7.6077     8.8294     8.3152   -96.6225
  244.5000   146.9231     7.4866     8.8552     8.3323   -96.4066
  245.0000   151.2658     7.3688     8.8810     8.3485   -96.2184
  245.5000   154.9970     7.2622     8.9069     8.3486   -96.0651
  246.0000   155.9165     6.9871     8.9451     8.3484   -96.3698
  246.5000   154.7666     6.8684     8.9964     8.4098   -96.6784
  247.0000   151.3763     7.2386     9.0478     8.4962   -96.7398
  247.5000   145.8219     7.5315     9.1000     8.5866   -96.8036
  248.0000   140.0830     7.8361     9.1517     8.3668   -96.8689
  248.5000   139.0761     8.1531     9.1617     8.0944   -96.9279
  249.0000   140.7771     8.2714     8.3753     7.6553   -97.0043
  249.5000   142.5418     8.1334     7.7446     6.7509   -97.0808
  250.0000   144.2974     7.5979     7.1606     5.9534   -97.1572
  250.5000   147.3781     6.7814     6.6219     5.2501   -97.2371
  251.0000   153.3857     6.0441     6.3762     4.7359   -97.4721
  251.5000   159.3651     5.5983     6.3762     4.6920   -97.9948
  252.0000   160.3023     5.9279     6.4714     5.1826   -98.1913
  252.5000   152.1878     6.4752     6.9054     5.7703   -97.9613
  253.0000   147.1636     7.0739     7.5457     6.4247   -97.7337
  253.5000   143.7361     7.7280     8.2452     7.1533   -97.4993
  254.0000   141.8460     8.4413     9.0097     7.9646   -97.3217
  254.5000   140.3408     9.0076     9.8423     8.7185   -98.2224
  255.0000   139.6334     9.0591    10.8387     9.5141   -98.8198
  255.5000   140.1055     9.1110    10.8332    10.1480   -98.4444
  256.0000   140.5785     9.1617    10.8958    10.0899   -98.0951
  256.5000   139.8168     9.0349    10.9382    10.0314   -97.7428
  257.0000   138.7617     8.9129    10.9808     9.9731   -97.6359
  257.5000   139.0041     8.7927    11.0234     9.9152   -97.5762
  258.0000   139.3932     8.6741    11.4112     9.8689   -97.5170
  258.5000   138.0689     8.5847    12.0953    10.1480   -97.4573
  259.0000   133.4510     9.5401    12.6861    10.6762   -97.3971
  259.5000   126.8560    10.3892    13.4643    11.3219   -97.3337
  260.0000   120.2260    11.3140    14.2904    12.2678   -97.3016
  260.5000   113.1899    12.3216    15.1671    13.2927   -97.6395
  261.0000   104.6241    13.4248    16.0975    14.4031   -97.9740
  261.5000    95.9145    14.7075    17.0851    15.6064   -97.7775
  262.0000    87.1949    14.9126    18.1333    16.6291   -97.5462
  262.5000    80.8730    15.2748    19.2457    17.8510   -97.2990
  263.0000    77.8430    16.5995    20.3752    19.1627   -97.8932
  263.5000    75.9625    17.0770    20.5046    19.7497   -98.5781
  264.0000    75.2298    17.1300    20.6489    19.9302   -99.2632
  264.5000    74.4738    17.1789    20.7968    20.1123   -99.8846
  265.0000    73.7205    17.2365    20.9470    20.1868   -99.7564
  265.5000    72.9215    16.7597    21.0981    19.6468   -99.6128
  266.0000    73.0447    15.7067    21.3801    19.0919   -99.4772
  266.5000    75.6540    15.8758    21.7287    19.3775   -99.3684
  267.0000    78.2680    16.0306    21.9641    19.9287   -99.2780
  267.5000    78.9657    16.3776    22.0067    20.4984   -99.2502
  268.0000    74.3400    17.4715    22.0495    21.1496  -101.4712
  268.5000    69.9532    18.5669    22.0923    20.9476  -101.3862
  269.0000    67.4959    18.9910    22.1343    20.5554  -101.4217
  269.5000    67.9334    19.4501    22.2106    20.1700  -101.4955
  270.0000    70.7385    18.8548    22.3542    19.8129  -101.5637
  270.5000    71.7258    18.2250    22.4992    19.9818  -101.6320
  271.0000    72.1596    18.1406    22.5933    20.1765  -101.7002
  271.5000    72.5953    18.0471    22.7694    20.3739  -101.7682
  272.0000    73.1981    17.9575    22.9468    20.5659  -101.8355
  272.5000    73.8080    17.8915    23.1256    20.6433  -101.9097
  273.0000    72.8020    18.4010    23.3058    20.7642  -102.2740
  273.5000    71.6296    18.8147    23.5406    20.8854  -102.6769
