~VERSION INFORMATION
 VERS.                2.0:   CWLS LOG ASCII STANDARD - VERSION 2.0
 WRAP.                 NO:   ONE LINE PER DEPTH STEP
~WELL INFORMATION
#MNEM.UNIT      DATA TYPE    INFORMATION
#----------   ------------   ------------------------------
 STRT.F          748.0000:   START DEPTH
 STOP.F         2238.0000:   STOP DEPTH
 STEP.F            0.5000:   STEP LENGTH
 NULL.          -999.2500:   NO VALUE
 COMP. LAWRENCE/ALLISON INC:   COMPANY
 WELL. NPR 3 #36-2-SHX-10:   WELL
 FLD .             TEAPOT:   FIELD
 LOC .      S10 T38N R78W:   LOCATION
 CNTY.            NATRONA:   COUNTY
 STAT.            WYOMING:   STATE
 CTRY. UNITED STATES OF AMERICA:   COUNTRY
 SRVC.            Unknown:   SERVICE COMPANY
 DATE.        02-JUN-1984:   LOGDATE
 API .       490256012900:   API NUMBER
~CURVE INFORMATION
#MNEM.UNIT       API CODE    CURVE DESCRIPTION
#----------   ------------   ------------------------------
 DEPT.F                  :   
 ROP .MIN/FT 91 810 01 00:   RATE OF DRILLING PENETRATION
 TGAS.UNITS  91 830 01 00:   TOTAL GAS FROM HOTWIRE
~PARAMETER INFORMATION
#MNEM.UNIT          VALUE    DESCRIPTION
#----------   ------------   ------------------------------
 EKB .F              5223:   KELLING BUSHING
 EGL .F              5213:   GROUND LEVEL
 DATE.             6-2-84:   RUN DATE
 DD  .F              2238:   DEPTH DRILLER
 BLI .F              2238:   BOTTOM LOG INTERVAL
 TLI .F               740:   TOP LOG INTERVAL
 CS  .IN            8.625:   CASING SIZE
 CBD .F               717:   CASING BOTTOM DRILLER
 LUN .               T-83:   LOGGING UNIT NUMBER
 ENGI.            JOHNSON:   RECORDING ENGINEER
 WITN.           SCHERGER:   WITNESSED BY
 CLNT.            A2DTECH:   CLIENT CODE
 ORIG.           5" PRINT:   ORIGIN OF DATA
 UWI .       490256012900:   UNIQUE WELL ID
 DICO. A2D Technologies, Inc.:   DIGITIZING COMPANY
~OTHER INFORMATION
~A   DEPT        ROP     TGAS   
# ...
  991.0000     0.7317     0.3665
  991.5000     0.7317     0.3571
  992.0000     0.7317     0.3478
  992.5000     0.7317     0.3385
  993.0000     0.7317     0.3292
  993.5000     0.7317     0.3198
  994.0000     0.7317     0.3105
  994.5000     0.7317     0.3012
  995.0000     0.7317     0.2918
  995.5000     0.7317     0.2825
  996.0000     0.7317     0.2732
  996.5000     0.7317     0.2638
  997.0000     0.7317     0.2545
  997.5000     0.7317     0.2452
  998.0000     0.7317     0.2359
  998.5000     0.7317     0.2265
  999.0000     0.7317     0.2172
  999.5000     0.7317     0.2079
 1000.0000     0.7317     0.1985
 1000.5000     0.7317     0.1892
 1001.0000     0.7317     0.1799
 1001.5000     0.7317     0.1706
 1002.0000     0.7318     0.1612
 1002.5000     0.7320     0.1519
 1003.0000     0.7321     0.1426
 1003.5000     0.7322     0.1332
 1004.0000     0.7323     0.1239
 1004.5000     0.7324     0.1146
 1005.0000     0.7325     0.1052
 1005.5000     0.7327     0.0959
 1006.0000     0.7328     0.0866
 1006.5000     0.7329     0.0773
 1007.0000     0.7330     0.0679
 1007.5000     0.7331     0.0586
 1008.0000     0.7332     0.0493
 1008.5000     0.7334     0.0399
 1009.0000     0.7335     0.0306
 1009.5000     0.7336     0.0213
 1010.0000     0.7337     0.0120
 1010.5000     0.7338     0.0026
 1011.0000     0.7339     0.0000
 1011.5000     0.7341     0.0000
 1012.0000     0.7342     9.6240
 1012.5000     0.7343    23.6569
 1013.0000     0.7344    36.3177
 1013.5000     0.7345    17.0353
 1014.0000     0.7346     0.0000
 1014.5000     0.7348     0.0000
 1015.0000     0.7349     0.0000
 1015.5000     0.7350     0.0000
 1016.0000     0.7351     0.0000
 1016.5000     0.7352     0.0000
 1017.0000     0.7353     0.0000
 1017.5000     0.7354     0.0000
 1018.0000     0.7356     0.0000
 1018.5000     0.7357     0.0000
 1019.0000     0.7358     0.0000
 1019.5000     0.7359     0.0000
 1020.0000     0.7360     0.0000
 1020.5000     0.7361     0.0000
 1021.0000     0.7363     0.0000
 1021.5000     0.7364     0.0000
 1022.0000     0.7365     0.0000
 1022.5000     0.7366     0.0000
 1023.0000     0.7367     0.0000
 1023.5000     0.7368     0.0000
 1024.0000     0.7370     0.0000
 1024.5000     0.7371     0.0000
 1025.0000     0.7372     0.0000
 1025.5000     0.7373     0.0000
 1026.0000     0.7374     0.0000
 1026.5000     0.7375     0.0000
 1027.0000     0.7377     0.0000
 1027.5000     0.7378     0.0000
 1028.0000     0.7379     0.0000
 1028.5000     0.7380     0.0000
 1029.0000     0.7381     0.0000
 1029.5000     0.7382     0.0000
 1030.0000     0.7384     0.0000
 1030.5000     0.7385     0.0000
 1031.0000     0.7386     0.0000
 1031.5000     0.7387     0.0000
 1032.0000     0.7388     0.0000
 1032.5000     0.7389     0.0000
 1033.0000     0.7391     0.0000
 1033.5000     0.7392     0.0000
 1034.0000     0.7393     0.0000
 1034.5000     0.7394     0.0000
 1035.0000     0.7395     0.0000
 1035.5000     0.7396     0.0000
 1036.0000     0.7398     0.0000
 1036.5000     0.7399     0.0000
 1037.0000     0.7400     0.0000
 1037.5000     0.7401     0.0000
 1038.0000     0.7402     0.0000
 1038.5000     0.7403     0.0000
 1039.0000     0.7404     0.0000
 1039.5000     0.7406     0.0000
 1040.0000     0.7407     0.0000
 1040.5000     0.7408     0.0000
 1041.0000     0.7409     0.0000
 1041.5000     0.7410     0.0000
 1042.0000     0.7411     0.0000
 1042.5000     0.7413     0.0000
 1043.0000     0.7414     9.6371
 1043.5000     0.7415    24.3113
 1044.0000     0.7951    28.7283
 1044.5000     0.8512    14.0634
 1045.0000     0.9073     0.0000
 1045.5000     0.9634     0.0000
 1046.0000     0.9893     0.0000
 1046.5000     0.9900     0.0000
 1047.0000     0.9906     0.0000
 1047.5000     0.9912     0.0000
 1048.0000     0.9919     0.0000
 1048.5000     0.9925     0.0382
 1049.0000     0.9931     0.0794
 1049.5000     0.9938     0.1206
 1050.0000     0.9944     0.1618
 1050.5000     0.9950     0.2030
 1051.0000     0.9956     0.2442
 1051.5000     0.9963     0.2854
 1052.0000     0.9969     0.3266
 1052.5000     0.9975     0.3678
 1053.0000     0.9982     0.4090
 1053.5000     0.9988     0.4502
 1054.0000     0.9994     0.4915
 1054.5000     1.0001     0.5327
 1055.0000     1.0007     0.5739
 1055.5000     1.0013     0.6151
 1056.0000     1.0020     0.6563
 1056.5000     1.0026     0.6975
 1057.0000     1.0032     0.7387
 1057.5000     1.0039     0.7799
 1058.0000     1.0045     0.8211
 1058.5000     1.0051     0.8623
 1059.0000     1.0057     0.9035
 1059.5000     1.0064     0.9447
 1060.0000     1.0070     0.9859
 1060.5000     1.0076     1.0271
 1061.0000     1.0083     1.0684
 1061.5000     1.0089     1.1096
 1062.0000     1.0095     1.1498
 1062.5000     1.0102     1.1815
 1063.0000     1.0108     1.2131
 1063.5000     1.0114     1.2448
 1064.0000     1.0121     1.2764
 1064.5000     1.0127     1.3081
 1065.0000     1.0133     1.3398
 1065.5000     1.0140     1.3714
 1066.0000     1.0146     1.4031
 1066.5000     1.0152     1.4347
 1067.0000     1.0158     1.4664
 1067.5000     1.0165     1.4981
 1068.0000     1.0171     1.5297
 1068.5000     1.0177     1.5614
 1069.0000     1.0184     1.5930
 1069.5000     1.0190     1.6289
 1070.0000     1.0196     1.4146
 1070.5000     1.0203     1.1673
 1071.0000     1.0209     0.9199
 1071.5000     1.0215     0.6725
 1072.0000     1.0222     0.4251
 1072.5000     1.0228     0.1777
 1073.0000     1.0234     8.7180
 1073.5000     1.0241    50.2884
 1074.0000     1.0247    89.9916
 1074.5000     1.0253    89.9958
 1075.0000     1.0259    90.0000
 1075.5000     1.0266    90.0000
 1076.0000     1.0272    90.0000
 1076.5000     1.0278    10.0591
 1077.0000     1.0285     8.1801
 1077.5000     1.0291     6.5097
 1078.0000     1.0297     5.6758
 1078.5000     1.0304     4.8427
 1079.0000     1.0310     4.0105
 1079.5000     1.0316     3.5966
 1080.0000     1.0323     3.1807
 1080.5000     1.0329     2.5574
 1081.0000     1.0335     2.3518
 1081.5000     1.0342     1.7293
 1082.0000     1.0348     1.5237
 1082.5000     1.0354     1.5287
 1083.0000     1.0360     0.9035
 1083.5000     1.0367     0.9089
 1084.0000     1.0373     0.7026
 1084.5000     1.0379     0.7080
 1085.0000     1.0386     0.7123
 1085.5000     1.0392     0.5057
 1086.0000     1.0398     0.0925
 1086.5000     1.0405     0.0968
 1087.0000     1.0411     0.1012
 1087.5000     1.0417     0.1067
 1088.0000     1.0424     0.1220
 1088.5000     1.0430     0.1373
 1089.0000     1.0436     0.1527
 1089.5000     1.0443     0.1680
 1090.0000     1.0449     0.1834
 1090.5000     1.0455     0.1987
 1091.0000     1.0461     0.2140
 1091.5000     1.0468     0.2294
 1092.0000     1.0474     0.2447
 1092.5000     1.0480     0.2600
 1093.0000     1.0487     0.2754
 1093.5000     1.0493     0.2907
 1094.0000     1.0499     0.3061
 1094.5000     1.0506     0.3214
 1095.0000     1.0512     0.3367
 1095.5000     1.0518     0.3521
 1096.0000     1.0525     0.3674
 1096.5000     1.0531     0.3827
 1097.0000     1.0537     0.3981
 1097.5000     1.0544     0.4134
 1098.0000     1.0550     0.4288
 1098.5000     1.0556     0.4441
 1099.0000     1.0562     0.4594
 1099.5000     1.0569     0.4748
 1100.0000     1.0575     0.4901
 1100.5000     1.0581     0.5055
 1101.0000     1.0588     0.5208
 1101.5000     1.0594     0.5361
 1102.0000     1.0591     0.5515
 1102.5000     1.0585     0.5668
 1103.0000     1.0578     0.5821
 1103.5000     1.0572     0.5975
 1104.0000     1.0565     0.6128
 1104.5000     1.0559     0.6282
 1105.0000     1.0552     0.6435
 1105.5000     1.0546     0.5101
 1106.0000     1.0539     0.2348
 1106.5000     1.0533    44.1594
 1107.0000     1.0526    90.0000
 1107.5000     1.0520    90.0000
 1108.0000     1.0513    90.0000
 1108.5000     1.0507     1.9090
 1109.0000     1.0500     1.7514
 1109.5000     1.0494     1.5938
 1110.0000     1.0487     1.4361
 1110.5000     1.0481     1.2785
 1111.0000     1.0474     1.1209
 1111.5000     1.0468     0.9633
 1112.0000     1.0461     0.8057
