~VERSION INFORMATION
 VERS.                2.0:   CWLS LOG ASCII STANDARD - VERSION 2.0
 WRAP.                 NO:   ONE LINE PER DEPTH STEP
~WELL INFORMATION
#MNEM.UNIT      DATA TYPE    INFORMATION
#----------   ------------   ------------------------------
 STRT.F           28.0000:   START DEPTH
 STOP.F          693.0000:   STOP DEPTH
 STEP.F            0.5000:   STEP LENGTH
 NULL.          -999.2500:   NO VALUE
 COMP. FENIX & SCISSON INC:   COMPANY
 WELL.       NPR-3 #63-15:   WELL
 FLD .             TEAPOT:   FIELD
 LOC .      S15 T38N R78W:   LOCATION
 CNTY.            NATRONA:   COUNTY
 STAT.            WYOMING:   STATE
 CTRY. UNITED STATES OF AMERICA:   COUNTRY
 SRVC.            Unknown:   SERVICE COMPANY
 DATE.        10-JUN-1978:   LOGDATE
 API .       490251063800:   API NUMBER
~CURVE INFORMATION
#MNEM.UNIT       API CODE    CURVE DESCRIPTION
#----------   ------------   ------------------------------
 DEPT.F                  :   
 SPR .MV     05 010 01 00:   SPONTANEOUS POTENTIAL FROM RES.
 SN  .OHMM   05 040 16 00:   SHORT NORMAL 16"
 ILD .OHMM   05 120 46 00:   INDUCTION LOG DEEP
 CALD.IN     45 280 60 00:   CALIPER FROM DENSITY LOG
 GRD .GAPI   45 310 01 00:   GAMMA RAY FROM DENSITY LOG
 CORR.G/C3   45 356 01 00:   DENSITY CORRECTION
 DPHI.DEC    45 890 12 00:   DENSITY POROSITY SANDSTONE
 DEN .G/C3   45 350 01 00:   DENSITY
~PARAMETER INFORMATION
#MNEM.UNIT          VALUE    DESCRIPTION
#----------   ------------   ------------------------------
 PD  .                 GL:   PERMANENT DATUM
 EPD .F              5265:   ELEVATION PERMANENT DATUM
 LMF .                 KB:   LOG MEASURED FROM
 DAPD.F                 4:   FEET ABOVE PERMANENT DATUM
 DMF .                 KB:   DRILLING MEASURED FROM
 EKB .F              5269:   KELLING BUSHING
 EGL .F              5265:   GROUND LEVEL
 DATE.        10-JUN-1978:   RUN DATE
 RUN .                  1:   RUN NUMBER
 DD  .F               690:   DEPTH DRILLER
 DL  .F               697:   DEPTH LOGGER
 BLI .F               690:   BOTTOM LOG INTERVAL
 TLI .F                35:   TOP LOG INTERVAL
 CS  .IN            8.625:   CASING SIZE
 CBD .F                40:   CASING BOTTOM DRILLER
 CBL .F                35:   CASING BOTTOM LOGGER
 BS  .IN            7.875:   BIT SIZE
 BSD .F               690:   BIT SIZE AT DEPTH
 DFT .                KCL:   DRILLING FLUID TYPE
 DFD .                8.7:   DRILLING FLUID DENSITY
 DFV .                 34:   DRILLING FLUID VISCOSITY
 DFPH.                 10:   DRILLING FLUID PH
 DFL .               11.6:   DRILLING FLUID LOSS
 MSS .            MUD PIT:   MUD SAMPLE SOURCE
 RMS .OHMM            .32:   RESISTIVITY MUD SAMPLE
 MST .F                74:   MUD SAMPLE TEMPERATURE
 RMF .OHMM            .28:   RESISTIVITY MUD FILTRATE SAMPLE
 MFST.F                78:   MUD FILTRATE SAMPLE TEMPERATURE
 RMC .OHMM            .36:   RESISTIVITY MUD CAKE
 MCST.F                78:   MUD CAKE SAMPLE TEMPERATURE
 MFSS.               MEAS:   MUD FILTRATE SAMPLE SOURCE
 MCSS.               MEAS:   MUD CAKE SAMPLE SOURCE
 BHT .F                80:   BOTTOM HOLE TEMPERATURE
 TCS .HRS            0100:   TIME CURCULATED STOPPED
 MRT .F                80:   MAXIMUM RECORDED TEMPERATURE
 LUN .               2958:   LOGGING UNIT NUMBER
 LUL .               CASP:   LOGGING UNIT LOCATION
 ENGI.             MILLER:   RECORDING ENGINEER
 WITN.           MCGINLEY:   WITNESSED BY
 CLNT.            A2DTECH:   CLIENT CODE
 ORIG.           5" PRINT:   ORIGIN OF DATA
 UWI .       490251063800:   UNIQUE WELL ID
 DICO. A2D Technologies, Inc.:   DIGITIZING COMPANY
~OTHER INFORMATION
~A   DEPT      SPR         SN        ILD       CALD        GRD       CORR       DPHI        DEN   
# ...
  595.0000    -3.3084    10.1868    11.0480     6.8893    57.7485     0.0635     0.1542     2.3897
  595.5000    -3.2889    10.4075    11.0534     6.9205    58.2124     0.0636     0.1521     2.4124
  596.0000    -4.1711    10.5596    11.0659     6.9366    60.1687     0.0667     0.1439     2.4200
  596.5000    -4.3089    10.4938    11.3760     6.9677    65.2594     0.0713     0.1445     2.4290
  597.0000    -5.0374    10.5026    11.6202     6.9988    64.8277     0.0775     0.1466     2.4291
  597.5000    -5.1751    10.5096    11.7065     7.1497    63.0527     0.0851     0.1457     2.4284
  598.0000    -5.1551    10.5167    11.7934     7.4833    63.8150     0.0927     0.1408     2.4292
  598.5000    -5.2889    10.5237    12.2996     7.7509    63.6818     0.1003     0.1325     2.4458
  599.0000    -5.2725    10.5308    12.3909     7.7074    64.1920     0.1079     0.1205     2.4496
  599.5000    -5.2528    10.6110    12.4829     7.6634    66.7030     0.1140     0.1230     2.4624
  600.0000    -5.2369    10.6919    12.4887     7.6160    67.9104     0.1186     0.1470     2.4632
  600.5000    -5.4158    10.7000    12.4575     7.5749    68.3770     0.0665     0.1512     2.4153
  601.0000    -5.4716    10.7082    12.4226     7.5183    68.5383     0.0391     0.1480     2.4116
  601.5000    -5.5275    10.7163    12.1762     7.5044    66.3196     0.0335     0.1491     2.4184
  602.0000    -5.5833    10.7250    11.8524     7.5212    60.2163     0.0337     0.1457     2.4222
  602.5000    -5.6155    10.7329    11.7772     7.5376    60.6802     0.0264     0.1471     2.4246
  603.0000    -5.5972    10.8906    11.7065     7.5391    61.7411     0.0220     0.1520     2.4231
  603.5000    -5.5826    10.9744    11.7970     7.5555    62.2204     0.0162     0.1495     2.4157
  604.0000    -5.5679    10.7453    11.8057     7.5869    60.1273     0.0133     0.1552     2.4097
  604.5000    -5.5533    10.6169    11.7330     7.6482    61.2164     0.0120     0.1600     2.4052
  605.0000    -5.5387    10.5515    11.8255     7.6647    64.2936     0.0152     0.1576     2.4039
  605.5000    -5.5240    10.4865    11.8344     7.6362    65.4036     0.0168     0.1539     2.4092
  606.0000    -5.9585    10.1393    11.8432     7.6826    64.0764     0.0230     0.1503     2.4131
  606.5000    -6.0936    10.1468    11.8520     7.6541    64.3951     0.0262     0.1479     2.4192
  607.0000    -6.0753    10.1544    11.8608     7.6110    62.9186     0.0232     0.1467     2.4222
  607.5000    -6.3601    10.1619    11.8697     7.6274    60.2481     0.0175     0.1473     2.4223
  608.0000    -6.9479    10.1694    11.7966     7.6888    59.2154     0.0161     0.1484     2.4261
  608.5000    -6.9296    10.2478    11.5626     7.6749    59.6833     0.0163     0.1445     2.4255
  609.0000    -6.7653    10.3284    11.3333     7.6614    60.2964     0.0180     0.1441     2.4270
  609.5000    -6.6010    10.4078    11.0287     7.6782    60.6110     0.0227     0.1417     2.4301
  610.0000    -6.5863    10.4879    10.8883     7.6796    61.8212     0.0258     0.1366     2.4310
  610.5000    -6.5717    10.4957    10.8212     7.6362    64.0841     0.0245     0.1347     2.4400
  611.0000    -6.7068    10.5035    10.7545     7.5931    67.2686     0.0231     0.1347     2.4454
  611.5000    -6.8419    10.5113    10.6883     7.5497    68.1381     0.0248     0.1344     2.4454
  612.0000    -7.4224    10.5191    10.6982     7.5358    65.7702     0.0265     0.1317     2.4523
  612.5000    -8.0065    10.5269    10.7062     7.5226    66.0848     0.0267     0.1295     2.4591
  613.0000    -7.8422    10.4620    10.7142     7.5091    64.9068     0.0237     0.1295     2.4554
  613.5000    -7.8276    10.3976    10.7222     7.5106    58.6543     0.0180     0.1298     2.4532
  614.0000    -8.5615    10.4795    10.7302     7.4967    58.0693     0.0166     0.1297     2.4548
  614.5000    -8.8499    10.4873    10.7381     7.5285    62.2686     0.0183     0.1294     2.4549
  615.0000    -8.8316    10.4940    10.7487     7.5449    63.6279     0.0200     0.1282     2.4542
  615.5000    -8.8170    10.5029    10.8291     7.5913    64.5396     0.0202     0.1282     2.4535
  616.0000    -8.8023    10.5107    10.8374     7.6530    66.0482     0.0203     0.1281     2.4528
  616.5000    -8.7874    10.5185    10.8471     7.6994    66.2135     0.0235     0.1284     2.4537
  617.0000    -8.7725    10.5263    10.8551     7.7158    66.0726     0.0251     0.1233     2.4583
  617.5000    -8.6051    10.5341    10.8632     7.7472    64.7441     0.0283     0.1169     2.4659
  618.0000    -8.5905    10.5420    10.8713     7.7786    59.8479     0.0330     0.1133     2.4749
  618.5000    -8.7292    10.6233    10.8794     7.7800    61.0581     0.0361     0.1108     2.4795
  619.0000    -8.7109    10.6328    10.8875     7.7965    61.6712     0.0348     0.1069     2.4833
  619.5000    -8.8496    10.6407    10.8957     7.8129    63.1798     0.0350     0.1042     2.4857
  620.0000    -8.6817    10.6486    10.9038     7.8443    68.2705     0.0367     0.1027     2.4902
  620.5000    -8.6670    10.6565    10.9119     7.8458    70.0737     0.0368     0.1023     2.4934
  621.0000    -8.6524    10.6644    10.9203     7.8173    69.0450     0.0370     0.1032     2.4971
  621.5000    -8.6377    10.5988    10.8528     7.8038    69.0651     0.0372     0.1053     2.4965
  622.0000    -8.6228    10.5333    10.7879     7.8206    68.0364     0.0328     0.1077     2.4853
  622.5000    -8.6049    10.4686    10.6474     7.8220    65.0674     0.0240     0.1098     2.4816
  623.0000    -9.0393    10.4041    10.5088     7.8082    65.2389     0.0226     0.1127     2.4839
  623.5000    -9.1781    10.3401    10.4421     7.7947    66.4572     0.0228     0.1130     2.4848
  624.0000    -9.3131    10.2764    10.3081     7.7516    66.9333     0.0245     0.1106     2.4803
  624.5000    -9.2948    10.1427    10.3158     7.7380    67.9717     0.0216     0.1205     2.4789
  625.0000    -9.2802    10.0802    10.1812     7.7246    68.4355     0.0173     0.1198     2.4730
  625.5000    -9.4189    10.0181    10.0489     7.7260    69.7949     0.0174     0.1165     2.4663
  626.0000    -9.4007     9.9564    10.0564     7.6230    70.8558     0.0176     0.1171     2.4761
  626.5000    -9.3860     9.9657    10.0641     7.5942    71.0211     0.0178     0.1185     2.4770
  627.0000    -9.3713     9.9731    10.0733     7.7008    72.2312     0.0180     0.1167     2.4740
  627.5000    -9.3563     9.9805    10.0093     7.7023    72.2473     0.0211     0.1083     2.4801
  628.0000    -9.3385     9.9881    10.0187     7.7187    70.4724     0.0243     0.1107     2.4869
  628.5000    -9.3239     9.9282     9.9551     7.7351    67.0556     0.0244     0.1115     2.4870
  629.0000    -9.3092     9.9356     9.9644     7.7516    66.1761     0.0246     0.1084     2.4878
  629.5000    -9.4480     9.9429     9.9718     7.7680    67.2930     0.0293     0.1039     2.4902
  630.0000    -9.4297     9.9503    10.0486     7.8144    68.5970     0.0339     0.0961     2.4963
  630.5000    -9.4150     9.9577    10.0178     7.7859    68.6166     0.0356     0.0964     2.5038
  631.0000    -9.4004     9.9651     9.9929     7.7278    68.3342     0.0358     0.1009     2.5069
  631.5000    -9.3858     9.9725    10.0022     7.6245    67.1562     0.0374     0.1045     2.5055
  632.0000    -9.3712     9.9110     9.9387     7.5657    64.9335     0.0376     0.1128     2.4904
  632.5000    -9.3563     9.7821     9.9480     7.6873    64.7964     0.0318     0.1092     2.4831
  633.0000    -9.3413     9.7219     9.8866     7.7786    65.1150     0.0289     0.1104     2.4802
  633.5000    -9.3236     9.5971     9.8258     7.8250    66.0266     0.0291     0.1188     2.4773
  634.0000    -9.3090     9.6043     9.8333     7.8111    67.3860     0.0293     0.1190     2.4766
  634.5000    -9.2944     9.6114     9.8422     7.8578    69.6409     0.0294     0.1175     2.4767
  635.0000    -9.2797     9.5504     9.8496     7.7994    71.4480     0.0311     0.1187     2.4760
