~VERSION INFORMATION
 VERS.                2.0:   CWLS LOG ASCII STANDARD - VERSION 2.0
 WRAP.                 NO:   ONE LINE PER DEPTH STEP
~WELL INFORMATION
#MNEM.UNIT      DATA TYPE    INFORMATION
#----------   ------------   ------------------------------
 STRT.F            0.0000:   START DEPTH
 STOP.F          556.0000:   STOP DEPTH
 STEP.F            0.5000:   STEP LENGTH
 NULL.          -999.2500:   NO VALUE
 COMP.       F D SERV INC:   COMPANY
 WELL. NAVAL PETROLEUM RESERVE NPR #3 #86-3 SX 3:   WELL
 FLD .             TEAPOT:   FIELD
 LOC .       S3 T38N R78W:   LOCATION
 CNTY.            NATRONA:   COUNTY
 STAT.            WYOMING:   STATE
 CTRY. UNITED STATES OF AMERICA:   COUNTRY
 SRVC.      Western Atlas:   SERVICE COMPANY
 DATE.        24-OCT-1992:   LOGDATE
 API .       490252255300:   API NUMBER
~CURVE INFORMATION
#MNEM.UNIT       API CODE    CURVE DESCRIPTION
#----------   ------------   ------------------------------
 DEPT.F                  :   
 GRR .GAPI   07 310 01 00:   GAMMA RAY
 RILD.OHMM   07 120 46 00:   INDUCTION LOG DEEP RESISTIVITY
 RILM.OHMM   07 120 44 00:   RESITIVITY LONG MEDIUM
~PARAMETER INFORMATION
#MNEM.UNIT          VALUE    DESCRIPTION
#----------   ------------   ------------------------------
 PD  .                 GL:   PERMANENT DATUM
 EPD .F              5157:   ELEVATION PERMANENT DATUM
 LMF .                 KB:   LOG MEASURED FROM
 DAPD.F                10:   FEET ABOVE PERMANENT DATUM
 DMF .                 KB:   DRILLING MEASURED FROM
 EKB .F              5167:   KELLING BUSHING
 EDF .F              5166:   DRILLING FLOOR
 EGL .F              5157:   GROUND LEVEL
 DATE.        24-OCT-1992:   RUN DATE
 RUN .                  1:   RUN NUMBER
 DD  .F               565:   DEPTH DRILLER
 DL  .F               564:   DEPTH LOGGER
 BLI .F               564:   BOTTOM LOG INTERVAL
 TLI .F                 0:   TOP LOG INTERVAL
 CS  .IN            8.625:   CASING SIZE
 CBD .F                85:   CASING BOTTOM DRILLER
 CBL .F                56:   CASING BOTTOM LOGGER
 BS  .IN            7.875:   BIT SIZE
 BSD .F               565:   BIT SIZE AT DEPTH
 DFT .           AIR FOAM:   DRILLING FLUID TYPE
 DFD .                   :   DRILLING FLUID DENSITY
 DFV .                   :   DRILLING FLUID VISCOSITY
 DFPH.                   :   DRILLING FLUID PH
 DFL .                   :   DRILLING FLUID LOSS
 MSS .                   :   MUD SAMPLE SOURCE
 RMS .OHMM               :   RESISTIVITY MUD SAMPLE
 MST .F                  :   MUD SAMPLE TEMPERATURE
 RMF .OHMM               :   RESISTIVITY MUD FILTRATE SAMPLE
 MFST.F                  :   MUD FILTRATE SAMPLE TEMPERATURE
 RMC .OHMM               :   RESISTIVITY MUD CAKE
 MCST.F                  :   MUD CAKE SAMPLE TEMPERATURE
 MFSS.                   :   MUD FILTRATE SAMPLE SOURCE
 MCSS.                   :   MUD CAKE SAMPLE SOURCE
 RMB .OHMM               :   RESISTIVITY MUD AT BHT
 BHT .F                  :   BOTTOM HOLE TEMPERATURE
 TCS .HRS               1:   TIME CURCULATED STOPPED
 TLAB.HRS                :   TIME LOGGER AT BOTTOM
 MRT .F                76:   MAXIMUM RECORDED TEMPERATURE
 LUN .            HL-6274:   LOGGING UNIT NUMBER
 LUL .             CASPER:   LOGGING UNIT LOCATION
 ENGI.             RAUTIO:   RECORDING ENGINEER
 WITN.        GARY STRONG:   WITNESSED BY
 CLNT.            A2DTECH:   CLIENT CODE
 ORIG.           5" PRINT:   ORIGIN OF DATA
 UWI .       490252255300:   UNIQUE WELL ID
 DICO. A2D Technologies, Inc.:   DIGITIZING COMPANY
 OS  .                   :   OTHER SERVICES
 PWI .                   :   PRIMARY WELL IDENTIFIER
 R1  .                   :   REMARKS 1
 R2  .                   :   REMARKS 2
 LSRV.                   :   LOG MNEMONIC
~OTHER INFORMATION
~A    DEPT      GRR      RILD       RILM   
# ...
  182.0000   108.4054    11.4896    11.5568
  182.5000   109.6363    11.4097    11.3164
  183.0000   112.6591    11.1736    11.0810
  183.5000   117.7999    11.0959    10.8505
  184.0000   121.1253    10.8662    10.6248
  184.5000   122.6352    10.7907    10.4038
  185.0000   123.8426    10.6413    10.2582
  185.5000   124.4448    10.5674    10.1857
  186.0000   123.2309    10.4210    10.0435
  186.5000   118.9919    10.2767     9.9724
  187.0000   115.9633    10.2053     9.8332
  187.5000   116.8681    10.1286     9.7637
  188.0000   118.3780     9.9941     9.6946
  188.5000   119.2829     9.9941     9.6261
  189.0000   118.9773     9.9246     9.6245
  189.5000   119.3162     9.9246     9.6232
  190.0000   121.3913     9.8557     9.6219
  190.5000   124.7167     9.8557     9.6206
  191.0000   124.7137     9.7872     9.6193
  191.5000   123.8031     9.7192     9.6180
  192.0000   120.7745     9.6517     9.5500
  192.5000   117.1407     9.6517     9.5486
  193.0000   111.6389     9.7192     9.4808
  193.5000   109.5698     9.7192     9.4796
  194.0000   111.0797     9.7192     9.5448
  194.5000   115.6154     9.7192     9.5432
  195.0000   119.8484     9.7872     9.6089
  195.5000   120.1488     9.7872     9.6744
  196.0000   120.1452     9.8557     9.7407
  196.5000   120.1422     9.7192     9.5971
  197.0000   120.1386     9.4519     9.1463
  197.5000   118.9254     9.1919     8.8939
  198.0000   117.7122     8.8713     8.7089
  198.5000   117.1041     8.4542     8.4099
  199.0000   117.1012     8.1645     8.1778
  199.5000   117.0982     8.0515     8.0636
  200.0000   117.3969     7.9955     8.1185
  200.5000   118.2988     8.0493     8.0600
  201.0000   119.8058     7.9906     8.0578
  201.5000   121.3142     7.9885     8.1125
  202.0000   119.7940     7.9863     8.1098
  202.5000   119.4806     8.0406     8.1642
  203.0000   119.7823     8.0378     8.1620
  203.5000   120.3801     8.0924     8.2168
  204.0000   121.2820     8.1463     8.2714
  204.5000   122.1838     8.1441     8.3275
  205.0000   122.7831     8.2562     8.3834
  205.5000   123.6850     8.3112     8.4981
  206.0000   125.4945     8.3674     8.5552
  206.5000   128.5214     8.4822     8.6728
  207.0000   128.4619     8.5996     8.7374
  207.5000   126.0806     8.7180     8.9122
  208.0000   125.7722     8.8375     8.9727
  208.5000   125.7663     8.8968     9.0960
  209.0000   126.3656     9.0256     9.0930
  209.5000   127.5701     9.0800     9.0905
  210.0000   128.7745     9.0769     9.0881
  210.5000   129.9980     9.0114     8.9600
  211.0000   129.3665     8.8842     8.9538
  211.5000   127.5452     8.7588     8.8307
  212.0000   128.7496     8.6352     8.7671
  212.5000   133.2823     8.5728     8.7039
  213.0000   139.3279     8.4518     8.6412
  213.5000   139.9274     8.3907     8.5789
  214.0000   133.8699     8.3297     8.5171
  214.5000   127.7499     8.3275     8.5148
  215.0000   125.6872     8.2674     8.5125
  215.5000   126.2865     8.2651     8.5097
  216.0000   127.1898     8.3213     8.5074
  216.5000   126.5774     8.3184     8.5645
  217.0000   124.1509     8.4330     8.5622
  217.5000   123.2373     8.4946     8.6202
  218.0000   125.0550     8.5467     8.6776
  218.5000   127.8507     8.4845     8.6752
  219.0000   131.0852     8.4822     8.6639
  219.5000   130.7767     8.4799     8.6098
  220.0000   125.6272     8.4187     8.6075
  220.5000   121.6879     8.4164     8.5454
  221.0000   120.4732     8.4141     8.4839
  221.5000   123.7941     8.3534     8.4816
  222.0000   125.6198     8.3511     8.4205
  222.5000   126.5056     8.3483     8.2998
  223.0000   126.1957     8.1165     8.0952
  223.5000   125.8872     7.8911     7.8874
  224.0000   123.7634     7.6720     7.6297
  224.5000   122.2447     7.4590     7.2649
  225.0000   121.6336     7.2519     6.9658
  225.5000   122.5355     7.0015     6.7257
  226.0000   124.4297     6.7566     6.5849
  226.5000   128.8778     6.5260     6.5374
  227.0000   126.1473     6.3892     6.5892
  227.5000   124.3260     6.3431     6.6718
  228.0000   125.2279     6.3414     6.7631
  228.5000   125.5261     6.4291     6.8089
  229.0000   124.6110     6.5628     6.9503
  229.5000   125.2123     6.7465     7.1945
  230.0000   127.7055     6.8873     7.3957
  230.5000   129.1320     7.1354     7.5529
  231.0000   126.4015     7.3801     7.7065
  231.5000   125.7905     7.5868     7.8124
  232.0000   126.0887     7.6917     7.8103
  232.5000   127.5942     7.7435     7.8633
  233.0000   127.5884     7.7955     7.8061
  233.5000   126.6616     7.7929     7.8040
  234.0000   125.4060     7.7908     7.8019
  234.5000   125.7554     7.7859     7.7456
  235.0000   126.0521     7.7234     7.6893
  235.5000   125.4396     7.6228     7.6339
  236.0000   125.7363     7.5152     7.5264
  236.5000   126.9407     7.4610     7.4203
  237.0000   128.7504     7.3556     7.2146
  237.5000   128.1392     7.2014     7.0635
  238.0000   128.7371     7.0505     6.8677
  238.5000   130.2441     6.7128     6.4861
  239.0000   131.4485     6.2460     5.8889
  239.5000   130.8376     5.7147     5.6073
  240.0000   129.9240     5.4032     5.3764
  240.5000   129.3130     5.3642     5.3006
  241.0000   128.3994     5.3628     5.3366
  241.5000   125.8982     5.4746     5.4096
  242.0000   124.4542     5.5500     5.6388
  242.5000   127.7752     5.6658     6.0564
  243.0000   130.1899     5.8258     6.6140
  243.5000   130.1841     5.9938     6.9424
  244.0000   128.9679     6.4177     7.1864
  244.5000   125.0286     6.7840     7.3873
  245.0000   124.4176     7.2214     7.5412
  245.5000   126.6778     7.5279     7.7520
  246.0000   129.5481     7.7928     7.8586
  246.5000   128.9371     8.0111     8.0286
  247.0000   128.6287     8.1782     8.2460
  247.5000   129.2294     8.3536     8.4178
  248.0000   129.8287     8.5820     8.5937
  248.5000   128.9137     8.8223     8.8334
  249.0000   128.9077     9.0070     9.0174
  249.5000   129.2045     9.3233     9.1414
  250.0000   131.0126     9.6515     9.3318
  250.5000   130.3278     9.7271     9.4603
  251.0000   125.5541     9.8544     9.6567
  251.5000   124.6420     9.9919     9.7894
  252.0000   126.1475    10.0613     9.9240
  252.5000   127.9571    10.0604    10.1307
  253.0000   129.7666    10.0598    10.2700
  253.5000   132.1814    10.0591    10.4112
  254.0000   134.5961    10.0584    10.4076
  254.5000   135.4979    10.0577    10.2610
  255.0000   132.1623    10.0569    10.1164
  255.5000   133.3667     9.9863    10.0435
  256.0000   135.1762    10.0555     9.8332
  256.5000   133.6575    10.0548     9.4284
  257.0000   131.8362    10.0542     9.2242
  257.5000   130.9226    10.0535     8.9745
  258.0000   132.1270     9.9829     8.8480
  258.5000   133.6340     9.8440     8.7843
  259.0000   131.8112     9.7069     8.6605
  259.5000   128.4771     9.5718     8.5384
  260.0000   126.3532     9.3079     8.3597
  260.5000   127.8602     8.9884     8.0715
  261.0000   129.3672     8.5597     7.7327
  261.5000   129.0588     7.9827     7.2668
  262.0000   129.0529     7.3374     6.6825
  262.5000   131.7952     6.6817     6.1027
  263.0000   134.4860     5.8317     5.4961
  263.5000   133.8750     5.0021     4.9843
  264.0000   131.7511     4.3205     4.3353
  264.5000   132.6529     3.7579     3.7177
  265.0000   135.0676     3.3376     3.1531
  265.5000   135.3658     2.8628     2.7936
  266.0000   129.9122     2.5935     2.5870
  266.5000   122.5386     2.4725     2.5505
  267.0000   114.1652     2.4552     2.5856
  267.5000   113.5542     2.4550     2.6578
  268.0000   115.6664     2.4893     2.7705
  268.5000   122.9222     2.5774     2.9093
  269.0000   128.3626     2.7634     3.2025
  269.5000   132.5928     3.0678     3.8933
  270.0000   132.8896     3.5863     4.4427
  270.5000   132.5810     4.2272     4.9995
  271.0000   134.6917     4.7257     5.5099
  271.5000   138.6192     5.4325     5.8239
  272.0000   140.7314     5.8651     6.1558
  272.5000   141.9358     6.2446     6.3750
