~VERSION INFORMATION
 VERS.                2.0:   CWLS LOG ASCII STANDARD - VERSION 2.0
 WRAP.                 NO:   ONE LINE PER DEPTH STEP
~WELL INFORMATION
#MNEM.UNIT      DATA TYPE    INFORMATION
#----------   ------------   ------------------------------
 STRT.F          664.0000:   START DEPTH
 STOP.F         1880.0000:   STOP DEPTH
 STEP.F            0.5000:   STEP LENGTH
 NULL.          -999.2500:   NO VALUE
 COMP. LAWRENCE/ALLISON INC:   COMPANY
 WELL.     NPR 3 TX #42-3:   WELL
 FLD .             TEAPOT:   FIELD
 LOC .       S3 T38N R78W:   LOCATION
 CNTY.            NATRONA:   COUNTY
 STAT.            WYOMING:   STATE
 CTRY. UNITED STATES OF AMERICA:   COUNTRY
 SRVC.            Unknown:   SERVICE COMPANY
 DATE.        23-JUN-1984:   LOGDATE
 API .       490251096800:   API NUMBER
~CURVE INFORMATION
#MNEM.UNIT       API CODE    CURVE DESCRIPTION
#----------   ------------   ------------------------------
 DEPT.F                  :   
 ROP .MIN/FT 91 810 01 00:   RAT OF DRILLING PENETRATION
 TGAS.UNITS  91 830 01 00:   TOTAL GAS FROM HOTWIRE
~PARAMETER INFORMATION
#MNEM.UNIT          VALUE    DESCRIPTION
#----------   ------------   ------------------------------
 EKB .F              5142:   KELLING BUSHING
 EGL .F              5132:   GROUND LEVEL
 DATE.            6-23-84:   RUN DATE
 BLI .F              1180:   BOTTOM LOG INTERVAL
 TLI .F               660:   TOP LOG INTERVAL
 CS  .IN            8.625:   CASING SIZE
 CBD .F               653:   CASING BOTTOM DRILLER
 LUN .               T-63:   LOGGING UNIT NUMBER
 ENGI.            JOHNSON:   RECORDING ENGINEER
 WITN.           SCHERGER:   WITNESSED BY
 CLNT.            A2DTECH:   CLIENT CODE
 ORIG.           5" PRINT:   ORIGIN OF DATA
 UWI .       490251096800:   UNIQUE WELL ID
 DICO. A2D Technologies, Inc.:   DIGITIZING COMPANY
~OTHER INFORMATION
~A   DEPT        ROP       TGAS 
# ...
 1514.5000     1.5601    86.6834
 1515.0000     1.3906    86.8113
 1515.5000     1.1577    86.9393
 1516.0000     0.9764    87.0672
 1516.5000     0.9375    87.1951
 1517.0000     0.9375    87.3251
 1517.5000     0.9375    87.4563
 1518.0000     0.9375    87.6109
 1518.5000     0.9167    87.7388
 1519.0000     0.7708    87.8667
 1519.5000     0.7292    89.0435
 1520.0000     0.8750    86.0140
 1520.5000     1.0007    86.0403
 1521.0000     1.1250    86.0665
 1521.5000     1.2094    86.0928
 1522.0000     1.3569    86.1191
 1522.5000     1.4167    86.1454
 1523.0000     1.2021    86.1717
 1523.5000     1.0392    86.1979
 1524.0000     0.9556    87.2732
 1524.5000     0.9167    87.2994
 1525.0000     0.8958    87.3257
 1525.5000     0.8958    87.3520
 1526.0000     0.9167    87.3783
 1526.5000     1.0208    87.4045
 1527.0000     1.1667    87.4308
 1527.5000     1.2917    87.4571
 1528.0000     1.3333    87.4834
 1528.5000     1.3333    86.4598
 1529.0000     1.2917    86.4870
 1529.5000     1.0833    86.5133
 1530.0000     1.0625    86.5396
 1530.5000     1.2292    86.5658
 1531.0000     1.3125    86.5921
 1531.5000     1.4583    86.6184
 1532.0000     1.4792    86.6447
 1532.5000     1.4167    86.6709
 1533.0000     1.1458    86.6972
 1533.5000     0.9792    86.7235
 1534.0000     0.8333    86.7498
 1534.5000     0.7708   175.9369
 1535.0000     0.6458   356.3828
 1535.5000     0.5625   449.7591
 1536.0000     0.4792   448.7365
 1536.5000     0.5625   448.7693
 1537.0000     0.7083    94.2501
 1537.5000     0.8542    91.1295
 1538.0000     0.9792    86.9600
 1538.5000     1.0208    85.9373
 1539.0000     1.0417    84.9081
 1539.5000     1.0417    84.9409
 1540.0000     1.0208    86.0214
 1540.5000     1.1042    86.1102
 1541.0000     0.9792    86.1990
 1541.5000     0.8542    85.2389
 1542.0000     0.7917    85.3499
 1542.5000     0.7500    84.3676
 1543.0000     0.7292    84.4786
 1543.5000     0.7500    84.5674
 1544.0000     0.7708    84.6562
 1544.5000     0.8542    85.7940
 1545.0000     0.9167    86.9318
 1545.5000     1.0000    87.0236
 1546.0000     1.0208    87.1317
 1546.5000     1.0208    87.2205
 1547.0000     1.0208    87.3093
 1547.5000     1.0208    87.3981
 1548.0000     1.0208    87.4869
 1548.5000     1.0208    86.5268
 1549.0000     1.0208    84.5177
 1549.5000     1.0208    83.5576
 1550.0000     1.0208    83.6686
 1550.5000     1.0208    83.7575
 1551.0000     1.0208    84.8952
 1551.5000     1.0208    84.9841
 1552.0000     1.0208    85.0729
 1552.5000     1.0000    85.1617
 1553.0000     1.0000    85.2535
 1553.5000     1.0208    85.3615
 1554.0000     1.0833    85.4504
 1554.5000     1.1667    85.5392
 1555.0000     1.2708    85.6280
 1555.5000     1.4167    85.7169
 1556.0000     1.5000    85.8057
 1556.5000     1.5000    85.8960
 1557.0000     1.5000    86.0055
 1557.5000     1.5000    86.0944
 1558.0000     1.5000    86.1832
 1558.5000     1.5000    86.2720
 1559.0000     1.5000    86.3608
 1559.5000     1.5000    86.4496
 1560.0000     1.5416    86.5385
 1560.5000     1.5411    85.5783
 1561.0000     1.5406    79.3957
 1561.5000     1.5400    77.3644
 1562.0000     1.5395    76.4042
 1562.5000     1.5390    77.5642
 1563.0000     1.5385    77.6530
 1563.5000     1.5380    77.7419
 1564.0000     1.5375    82.4461
 1564.5000     1.3911   448.2214
 1565.0000     1.2448   448.3102
 1565.5000     1.1193   448.3991
 1566.0000     1.0146   432.7536
 1566.5000     1.1182   222.0107
 1567.0000     1.2649    98.3233
 1567.5000     1.4332    87.9226
 1568.0000     1.4709    86.9403
 1568.5000     1.3377    82.8555
 1569.0000     1.2197    82.9458
 1569.5000     1.0942    81.9842
 1570.0000     0.9687    81.0240
 1570.5000     0.9473    81.1351
 1571.0000     0.9051    79.1260
 1571.5000     0.8005    79.2148
 1572.0000     0.7583    79.3036
 1572.5000     0.7578    78.3435
 1573.0000     0.7989    78.4353
 1573.5000     0.9026    78.5434
 1574.0000     1.0270    78.6322
 1574.5000     1.1099    78.7210
 1575.0000     1.2344    75.6408
 1575.5000     1.3588    74.6807
 1576.0000     1.4000    73.7413
 1576.5000     1.4620    73.8331
 1577.0000     1.4184    73.9426
 1577.5000     1.2890    77.1783
 1578.0000     1.0410    76.2181
 1578.5000     0.8728    74.2091
 1579.0000     0.7301    75.3468
 1579.5000     0.6879    75.4357
 1580.0000     0.6457    70.3189
 1580.5000     0.5821    70.5539
 1581.0000     0.6853    70.7890
 1581.5000     0.9134    71.0240
 1582.0000     1.0999    71.2590
 1582.5000     1.3280    71.4941
 1583.0000     1.6603    71.7291
 1583.5000     1.7426    70.8564
 1584.0000     1.7627    71.1502
 1584.5000     1.7614    71.3853
 1585.0000     1.7396    71.6203
 1585.5000     1.5927    71.8553
 1586.0000     1.3611    72.0903
 1586.5000     1.1910    72.3254
 1587.0000     1.0896    72.5604
 1587.5000     1.1717    72.7955
 1588.0000     1.2956    73.0305
 1588.5000     1.3571    73.2655
 1589.0000     1.4813    73.5006
 1589.5000     1.4176    73.7356
 1590.0000     1.2499    73.9707
 1590.5000     1.1447    74.2057
 1591.0000     1.0395    74.4407
 1591.5000     1.0593    74.6757
 1592.0000     1.1833    74.9108
 1592.5000     1.3281    75.1458
 1593.0000     1.4167    75.3808
 1593.5000     1.2844    75.6159
 1594.0000     1.1792    75.8509
 1594.5000     1.0734    76.0860
 1595.0000     0.9896    76.3210
 1595.5000     0.9677    76.5560
 1596.0000     0.9665   106.1617
 1596.5000     0.9446   450.0000
 1597.0000     0.9852   449.6329
 1597.5000     1.0050   449.8737
 1598.0000     1.0668   277.0319
 1598.5000     1.1697    77.9633
 1599.0000     1.2728    75.0525
 1599.5000     1.3759    75.2894
 1600.0000     1.3967    73.4266
 1600.5000     1.4010    74.4755
 1601.0000     1.4054    75.5245
 1601.5000     1.4097    80.4657
 1602.0000     1.4140   218.1818
 1602.5000     1.4183   448.9510
 1603.0000     1.4226   450.0000
 1603.5000     1.4270   450.0000
 1604.0000     1.4313   429.0210
 1604.5000     1.4356   348.5339
 1605.0000     1.4399   251.7482
 1605.5000     1.4442   143.7063
 1606.0000     1.4486    65.0350
 1606.5000     1.4529    65.0350
 1607.0000     1.4572    65.0350
 1607.5000     1.4615    65.0350
 1608.0000     1.4658    63.9860
 1608.5000     1.4702    61.8881
 1609.0000     1.4745    61.8881
 1609.5000     1.5198    61.8881
 1610.0000     1.6458    61.8881
 1610.5000     1.7396    61.8881
 1611.0000     1.8773    62.9371
 1611.5000     1.9616    67.1329
 1612.0000     2.0459    67.1329
 1612.5000     1.8178    65.0350
 1613.0000     1.6521    65.0350
 1613.5000     1.5271    63.9860
 1614.0000     1.4874    63.9860
 1614.5000     1.4887    62.9371
 1615.0000     1.5103    60.8392
 1615.5000     1.4905    59.7902
 1616.0000     1.4706    59.7902
 1616.5000     1.3886    59.7902
 1617.0000     1.3062    59.7902
 1617.5000     1.2241    60.8392
 1618.0000     1.3085    60.8392
 1618.5000     1.3928    58.7413
 1619.0000     1.4355    55.5944
 1619.5000     1.4782    55.5944
 1620.0000     1.4999    57.7093
 1620.5000     1.5204    57.8110
 1621.0000     1.5824    57.9127
 1621.5000     1.6027    55.8911
 1622.0000     1.5812    62.3120
 1622.5000     1.5807    70.8053
 1623.0000     1.6010    71.9581
 1623.5000     1.6005    71.0087
 1624.0000     1.5791    71.1358
 1624.5000     1.4744    70.1632
 1625.0000     1.3697    70.2903
 1625.5000     1.2859    70.3920
 1626.0000     1.3687    69.4406
 1626.5000     1.5974    67.4476
 1627.0000     1.8052    66.5014
 1627.5000     1.9991    66.6285
 1628.0000     2.0125    65.6559
 1628.5000     1.8036    65.7830
 1629.0000     1.6364    65.8847
 1629.5000     1.5109    64.9121
 1630.0000     1.4270    65.0392
 1630.5000     1.3849    65.1409
 1631.0000     1.3219    65.2448
 1631.5000     1.2585    65.3698
 1632.0000     1.3236   239.5974
 1632.5000     1.4244   367.6711
 1633.0000     1.5072   324.7658
 1633.5000     1.5900   262.9794
 1634.0000     1.6730    80.5637
 1634.5000     1.7974    70.1759
 1635.0000     1.9010    62.8494
 1635.5000     2.0880    72.5027
