~VERSION INFORMATION
 VERS.                2.0:   CWLS LOG ASCII STANDARD - VERSION 2.0
 WRAP.                 NO:   ONE LINE PER DEPTH STEP
~WELL INFORMATION
#MNEM.UNIT      DATA TYPE    INFORMATION
#----------   ------------   ------------------------------
 STRT.F           35.0000:   START DEPTH
 STOP.F          601.0000:   STOP DEPTH
 STEP.F            0.5000:   STEP LENGTH
 NULL.          -999.2500:   NO VALUE
 COMP. FENIX & SCISSON INC:   COMPANY
 WELL. NPR #3 71SX #71-15:   WELL
 FLD .             TEAPOT:   FIELD
 LOC .      S15 T38N R78W:   LOCATION
 CNTY.            NATRONA:   COUNTY
 STAT.            WYOMING:   STATE
 CTRY. UNITED STATES OF AMERICA:   COUNTRY
 SRVC.              Welex:   SERVICE COMPANY
 DATE.        10-MAR-1977:   LOGDATE
 API .       490251031200:   API NUMBER
~CURVE INFORMATION
#MNEM.UNIT       API CODE    CURVE DESCRIPTION
#----------   ------------   ------------------------------
 DEPT.F                  :   
 SPR .MV     07 010 01 00:   SPONTANEOUS POTENTIAL
 SGRD.OHMM   07 220 05 00:   SHALLOW RESISTIVITY
 DRES.OHMM   07 120 46 00:   INDUCTION LOG DEEP
 MRES.OHMM   07 120 44 00:   INDUCTION LOG MEDIUM
 GRD .GAPI   45 310 01 00:   GAMMA RAY FROM DENSITY LOG
 CALD.IN     45 280 60 00:   CALIPER
 RHOB.G/C3   45 350 01 00:   BULK DENSITY
 DPHI.DEC    45 890 12 00:   DENSITY POROSITY
 CORR.G/C3   45 356 01 00:   DENSITY CORRECTION
~PARAMETER INFORMATION
#MNEM.UNIT          VALUE    DESCRIPTION
#----------   ------------   ------------------------------
 PD  .                 GL:   PERMANENT DATUM
 EPD .F              5241:   ELEVATION PERMANENT DATUM
 LMF .                 GL:   LOG MEASURED FROM
 DMF .                 GL:   DRILLING MEASURED FROM
 EGL .F              5241:   GROUND LEVEL
 DATE.            3-10-77:   RUN DATE
 RUN .                  1:   RUN NUMBER
 DD  .F               600:   DEPTH DRILLER
 DL  .F               603:   DEPTH LOGGER
 BLI .F               601:   BOTTOM LOG INTERVAL
 TLI .F                35:   TOP LOG INTERVAL
 CS  .IN            8.625:   CASING SIZE
 CBD .F                40:   CASING BOTTOM DRILLER
 CBL .F                40:   CASING BOTTOM LOGGER
 BS  .IN            7.875:   BIT SIZE
 BSD .F               600:   BIT SIZE AT DEPTH
 DFT .            KCL MUD:   DRILLING FLUID TYPE
 DFD .                8.6:   DRILLING FLUID DENSITY
 DFV .                 10:   DRILLING FLUID VISCOSITY
 DFPH.                7.2:   DRILLING FLUID PH
 DFL .                  8:   DRILLING FLUID LOSS
 MSS .            MUD PIT:   MUD SAMPLE SOURCE
 RMS .OHMM            .36:   RESISTIVITY MUD SAMPLE
 MST .F                47:   MUD SAMPLE TEMPERATURE
 RMF .OHMM            .35:   RESISTIVITY MUD FILTRATE SAMPLE
 MFST.F                47:   MUD FILTRATE SAMPLE TEMPERATURE
 RMC .OHMM            .40:   RESISTIVITY MUD CAKE
 MCST.F                47:   MUD CAKE SAMPLE TEMPERATURE
 MFSS.           FANN KIT:   MUD FILTRATE SAMPLE SOURCE
 MCSS.           FANN KIT:   MUD CAKE SAMPLE SOURCE
 RMB .OHMM            .31:   RESISTIVITY MUD AT BHT
 BHT .F                53:   BOTTOM HOLE TEMPERATURE
 TCS .HRS             1.5:   TIME CURCULATED STOPPED
 MRT .F                53:   MAXIMUM RECORDED TEMPERATURE
 LUN .               8611:   LOGGING UNIT NUMBER
 LUL .           GILLETTE:   LOGGING UNIT LOCATION
 ENGI.               DOAK:   RECORDING ENGINEER
 WITN.         STUEBINGER:   WITNESSED BY
 CLNT.            A2DTECH:   CLIENT CODE
 ORIG.       2", 5" PRINT:   ORIGIN OF DATA
 UWI .       490251031200:   UNIQUE WELL ID
 DICO. A2D Technologies, Inc.:   DIGITIZING COMPANY
~OTHER INFORMATION
~A   DEPT      SPR       SGRD       DRES       MRES         GRD      CALD       RHOB       DPHI       CORR   
# ...
  217.5000   -32.0772    14.3437    10.3293    11.8191   102.8622     7.9062     2.4310     0.1296     0.0387
  218.0000   -32.0645    14.6028    10.2553    11.5963   103.7048     7.9063     2.4296     0.1288     0.0384
  218.5000   -32.0515    14.8740    10.2055    11.6795   102.2109     7.9065     2.4286     0.1251     0.0395
  219.0000   -32.0370    15.1599    10.1560    11.7881   100.3420     7.9066     2.4375     0.1215     0.0428
  219.5000   -32.0871    15.0987    10.1067    11.8978    98.4436     7.9068     2.4470     0.1178     0.0462
  220.0000   -32.1522    15.0196    10.0576    12.0328    96.5306     7.9069     2.4561     0.1141     0.0480
  220.5000   -32.2179    15.1478    10.0087    11.9844    97.0722     7.9071     2.4575     0.1126     0.0472
  221.0000   -32.2836    15.2799     9.9600    11.9015    98.6434     7.9072     2.4545     0.1134     0.0465
  221.5000   -32.3491    15.4416     9.9116    11.8192   100.2223     7.9074     2.4495     0.1154     0.0457
  222.0000   -32.4147    15.1381     9.8635    11.7374   101.8002     7.9075     2.4445     0.1174     0.0450
  222.5000   -32.4803    14.6090     9.8155    11.6562   103.3682     7.9077     2.4459     0.1184     0.0443
  223.0000   -32.5459    14.6355     9.7678    11.5756   103.2809     7.9079     2.4551     0.1153     0.0472
  223.5000   -32.6115    14.7374     9.7148    11.4955    99.7023     7.9080     2.4642     0.1108     0.0503
  224.0000   -32.6770    14.4994     9.6393    11.4159    96.3395     7.9082     2.4734     0.1042     0.0534
  224.5000   -32.7426    13.8972     9.5643    11.3088    97.1845     7.9083     2.4824     0.0950     0.0564
  225.0000   -32.8084    13.3199     9.4899    11.1839    97.9019     7.9085     2.4843     0.0982     0.0565
  225.5000   -32.8527    13.5270     9.4161    11.0603    97.1888     7.9086     2.4749     0.1064     0.0519
  226.0000   -32.8836    13.7369     9.3429    10.9381    98.5798     7.9088     2.4651     0.1145     0.0478
  226.5000   -32.9144    14.0774     9.2703    10.8174   100.2851     7.9089     2.4554     0.1213     0.0464
  227.0000   -32.9451    13.9831     9.1982    10.7626   101.9914     7.9091     2.4488     0.1229     0.0448
  227.5000   -32.9759    13.7546     9.1266    10.7252   103.6930     7.9092     2.4431     0.1245     0.0432
  228.0000   -33.0067    13.4535     9.0557    10.6880   104.7531     7.9094     2.4377     0.1264     0.0417
  228.5000   -33.0374    13.4981     8.9853    10.6509   105.1381     7.9096     2.4254     0.1313     0.0401
  229.0000   -33.0682    13.5876     8.9154    10.6140   104.4288     7.9097     2.4127     0.1390     0.0385
  229.5000   -33.0990    13.6942     8.8461    10.5773   103.6643     7.9099     2.4123     0.1364     0.0398
  230.0000   -33.1297    13.4962     8.7773    10.5407   102.9018     7.9100     2.4227     0.1302     0.0416
  230.5000   -33.1605    13.2580     8.7090    10.5043   102.7694     7.9102     2.4364     0.1239     0.0436
  231.0000   -33.1913    13.0576     8.6413    10.4515   103.4121     7.9103     2.4398     0.1214     0.0424
  231.5000   -33.2210    12.9755     8.5741    10.3420   104.7010     7.9105     2.4373     0.1242     0.0393
  232.0000   -33.3247    12.8938     8.5390    10.2336   104.9712     7.9106     2.4364     0.1238     0.0390
  232.5000   -33.4689    12.8127     8.5229    10.1265   104.9596     7.9108     2.4385     0.1225     0.0403
  233.0000   -33.6136    12.7321     8.5068    10.0206   104.2419     7.9110     2.4417     0.1212     0.0427
  233.5000   -33.7584    12.6520     8.4908    10.0029   103.4719     7.9111     2.4449     0.1199     0.0452
  234.0000   -33.9032    12.5724     8.4747    10.0029   102.7016     7.9113     2.4459     0.1187     0.0476
  234.5000   -34.0479    12.4933     8.4587    10.0029   101.3362     7.9114     2.4463     0.1171     0.0501
  235.0000   -34.1927    12.3710     8.4428    10.0029    99.5668     7.9116     2.4508     0.1155     0.0525
  235.5000   -34.3374    12.5506     8.4271    10.0030    98.5234     7.9117     2.4559     0.1139     0.0549
  236.0000   -34.4821    12.9674     8.4118    10.0031    97.8186     7.9119     2.4611     0.1123     0.0570
  236.5000   -34.6269    13.3980     8.3965    10.0039    98.6728     7.9120     2.4663     0.1093     0.0586
  237.0000   -34.7716    13.8213     8.2695    10.0058    99.5804     7.9122     2.4715     0.1044     0.0602
  237.5000   -34.9164    13.2585     8.1238     9.9258   100.4861     7.9123     2.4766     0.0996     0.0618
  238.0000   -35.0613    12.7428     7.9819     9.7568   101.3920     7.9125     2.4796     0.0974     0.0627
  238.5000   -35.2055    12.2472     7.8424     9.5906   102.3000     7.9127     2.4775     0.1018     0.0635
  239.0000   -35.3492    11.7709     7.7053     9.4271   103.2062     7.9128     2.4724     0.1054     0.0642
  239.5000   -35.4125    11.3130     7.5706     9.2664   103.9348     7.9130     2.4617     0.1122     0.0596
  240.0000   -35.3777    10.7518     7.4386     9.1085   103.3835     7.9131     2.4470     0.1207     0.0540
  240.5000   -35.3431    10.0844     7.3088     8.8710   102.0224     7.9133     2.4321     0.1292     0.0485
  241.0000   -35.3080     9.4585     7.2326     8.8798   100.7229     7.9134     2.4169     0.1377     0.0430
  241.5000   -35.2728    10.2391     7.2163     8.8989    99.8697     7.9136     2.4083     0.1423     0.0422
  242.0000   -35.2377    11.3366     7.2003     8.9181   101.8579     7.9137     2.4104     0.1419     0.0422
  242.5000   -35.2027    11.5963     7.1848     8.9373   103.9055     7.9139     2.4124     0.1404     0.0422
  243.0000   -35.1676    11.5963     7.1719     8.9566   104.4977     7.9140     2.4172     0.1391     0.0422
  243.5000   -35.1325    11.5975     7.2966     8.9759   105.0310     7.9142     2.4253     0.1339     0.0422
  244.0000   -35.0974    11.3381     7.4140     8.9953   105.5722     7.9144     2.4330     0.1291     0.0449
  244.5000   -35.0624    11.0758     7.5333     9.0148   106.1574     7.9145     2.4478     0.1243     0.0480
  245.0000   -35.0273    11.5156     7.6545     9.0343   107.6265     7.9147     2.4622     0.1195     0.0510
  245.5000   -34.9922    11.8790     7.7776     9.1056   109.2324     7.9148     2.4715     0.1147     0.0541
  246.0000   -34.9571    11.5863     7.8763     9.1850   110.8765     7.9150     2.4622     0.1090     0.0552
  246.5000   -34.9221    11.2169     7.9087     9.2651   110.8168     7.9151     2.4486     0.1161     0.0508
  247.0000   -34.8870    11.4537     7.9413     9.3458   109.9422     7.9153     2.4351     0.1247     0.0465
  247.5000   -34.8519    11.7130     7.9740     9.4273   106.9800     7.9154     2.4267     0.1314     0.0440
  248.0000   -34.8168    11.9771     8.0069     9.5095   105.6483     7.9156     2.4332     0.1289     0.0434
  248.5000   -34.7817    12.2479     8.0399     9.5924   105.7851     7.9157     2.4392     0.1238     0.0429
  249.0000   -34.7466    12.5245     8.0730     9.6761   105.9119     7.9159     2.4424     0.1208     0.0423
  249.5000   -34.7116    12.8287     8.1063     9.7606   106.4304     7.9160     2.4380     0.1237     0.0415
  250.0000   -34.6765    12.7885     8.1397     9.8202   107.1644     7.9162     2.4338     0.1275     0.0407
  250.5000   -34.6392    12.7350     8.1632     9.8140   107.9757     7.9164     2.4296     0.1306     0.0398
  251.0000   -34.6805    12.6819     8.1631     9.8081   108.7893     7.9165     2.4253     0.1330     0.0390
  251.5000   -34.7508    12.6285     8.1632     9.8027   109.5782     7.9167     2.4211     0.1347     0.0382
  252.0000   -34.8220    12.5121     8.1632     9.7972   109.7563     7.9168     2.4174     0.1350     0.0373
  252.5000   -34.8931    12.3301     8.1632     9.7918   108.3740     7.9170     2.4150     0.1391     0.0364
  253.0000   -34.9641    12.1508     8.1632     9.7863   104.7643     7.9171     2.4170     0.1332     0.0373
  253.5000   -35.0351    11.9748     8.1632     9.7808   101.9592     7.9173     2.4297     0.1249     0.0397
