~VERSION INFORMATION
 VERS.                2.0:   CWLS LOG ASCII STANDARD - VERSION 2.0
 WRAP.                 NO:   ONE LINE PER DEPTH STEP
~WELL INFORMATION
#MNEM.UNIT      DATA TYPE    INFORMATION
#----------   ------------   ------------------------------
 STRT.F           38.0000:   START DEPTH
 STOP.F          846.0000:   STOP DEPTH
 STEP.F            0.5000:   STEP LENGTH
 NULL.          -999.2500:   NO VALUE
 COMP. FENIX & SCISSON INC:   COMPANY
 WELL.    NPR 3 #34-SX-14:   WELL
 FLD .        TEAPOT DOME:   FIELD
 LOC .      S14 T38N R78W:   LOCATION
 CNTY.            NATRONA:   COUNTY
 STAT.            WYOMING:   STATE
 CTRY. UNITED STATES OF AMERICA:   COUNTRY
 SRVC.           BIRDWELL:   SERVICE COMPANY
 DATE.        26-APR-1978:   LOGDATE
 API .       490251063500:   API NUMBER
~CURVE INFORMATION
#MNEM.UNIT       API CODE    CURVE DESCRIPTION
#----------   ------------   ------------------------------
 DEPT.F                  :   
 NEUT.CPS    81 330 30 00:   NEUTRON
 TT  .US/F   81 520 00 00:   TRANSIT TIME
 GRD .GAPI   45 310 01 00:   GAMMA RAY FROM DENSITY LOG
 RHOB.G/C3   45 350 01 00:   BULK DENSITY
 DPOR.DEC    45 890 10 00:   DENSITY POROSITY
 CALD.IN     45 280 60 00:   CALIPER FROM DENSITY LOG
 CORR.G/C3   45 356 01 00:   DENSITY CORRECTION
~PARAMETER INFORMATION
#MNEM.UNIT          VALUE    DESCRIPTION
#----------   ------------   ------------------------------
 PD  .                 GL:   PERMANENT DATUM
 EPD .F              5232:   ELEVATION PERMANENT DATUM
 LMF .                 KB:   LOG MEASURED FROM
 DMF .                 KB:   DRILLING MEASURED FROM
 EKB .F              5236:   KELLING BUSHING
 EGL .F              5232:   GROUND LEVEL
 DATE.          4-26-1978:   RUN DATE
 RUN .                  1:   RUN NUMBER
 DD  .F               855:   DEPTH DRILLER
 DL  .F               853:   DEPTH LOGGER
 BLI .F               846:   BOTTOM LOG INTERVAL
 TLI .F                40:   TOP LOG INTERVAL
 CS  .IN            8.625:   CASING SIZE
 CBD .F                40:   CASING BOTTOM DRILLER
 CBL .F                40:   CASING BOTTOM LOGGER
 BS  .IN            7.875:   BIT SIZE
 BSD .F               855:   BIT SIZE AT DEPTH
 DFT .                KCL:   DRILLING FLUID TYPE
 DFD .                8.5:   DRILLING FLUID DENSITY
 DFV .                 31:   DRILLING FLUID VISCOSITY
 DFPH.                 10:   DRILLING FLUID PH
 DFL .               10.4:   DRILLING FLUID LOSS
 MSS .          FLUID PIT:   MUD SAMPLE SOURCE
 RMS .OHMM            .36:   RESISTIVITY MUD SAMPLE
 MST .F                68:   MUD SAMPLE TEMPERATURE
 RMF .OHMM            .28:   RESISTIVITY MUD FILTRATE SAMPLE
 MFST.F                74:   MUD FILTRATE SAMPLE TEMPERATURE
 RMC .OHMM            .48:   RESISTIVITY MUD CAKE
 MCST.F                79:   MUD CAKE SAMPLE TEMPERATURE
 MFSS.               MEAS:   MUD FILTRATE SAMPLE SOURCE
 RMB .OHMM            .33:   RESISTIVITY MUD AT BHT
 BHT .F                75:   BOTTOM HOLE TEMPERATURE
 TCS .HRS               1:   TIME CURCULATED STOPPED
 MRT .F                75:   MAXIMUM RECORDED TEMPERATURE
 LUN .               3006:   LOGGING UNIT NUMBER
 LUL .              CASP.:   LOGGING UNIT LOCATION
 ENGI.             MILLER:   RECORDING ENGINEER
 WITN.           MCGINLEY:   WITNESSED BY
 CLNT.            A2DTECH:   CLIENT CODE
 ORIG.      2" , 5" PRINT:   ORIGIN OF DATA
 UWI .       490251063500:   UNIQUE WELL ID
 DICO. A2D Technologies, Inc.:   DIGITIZING COMPANY
~OTHER INFORMATION
~A   DEPT     NEUT         TT         GRD      RHOB       DPOR       CALD       CORR   
# ...
  538.5000  -999.2500  -999.2500    82.8349     2.4461     0.1137     8.8623     0.0148
  539.0000  -999.2500  -999.2500    83.5114     2.4385     0.1150     8.8623     0.0119
  539.5000  -999.2500  -999.2500    82.4231     2.4380     0.1150     8.8623     0.0109
  540.0000  -999.2500  -999.2500    80.9863     2.4375     0.1150     8.8623     0.0099
  540.5000  -999.2500  -999.2500    79.8677     2.4328     0.1270     8.8623     0.0090
  541.0000  -999.2500  -999.2500    80.5431     2.4112     0.1388     8.8623     0.0080
  541.5000  -999.2500  -999.2500    81.4905     2.3902     0.1511     8.8623     0.0070
  542.0000  -999.2500  -999.2500    81.2934     2.3693     0.1616     8.8623     0.0061
  542.5000  -999.2500  -999.2500    80.2609     2.3484     0.1725     8.8623     0.0051
  543.0000  -999.2500  -999.2500    79.5471     2.3275     0.1835     8.8623     0.0041
  543.5000  -999.2500  -999.2500    79.4943     2.3066     0.1945     8.8623     0.0041
  544.0000  -999.2500  -999.2500    79.5009     2.2856     0.2054     8.8623     0.0122
  544.5000  -999.2500  -999.2500    79.6082     2.2646     0.2164     8.8623     0.0211
  545.0000  -999.2500  -999.2500    79.7206     2.2438     0.2206     8.8623     0.0300
  545.5000  -999.2500  -999.2500    79.8322     2.2375     0.2170     8.8623     0.0389
  546.0000  -999.2500  -999.2500    79.9459     2.2428     0.1990     8.8620     0.0478
  546.5000  -999.2500  -999.2500    80.0488     2.2875     0.1763     8.8610     0.0568
  547.0000  -999.2500  -999.2500    80.5265     2.3424     0.1536     8.8830     0.0607
  547.5000  -999.2500  -999.2500    81.0385     2.3969     0.1309     8.8629     0.0374
  548.0000  -999.2500  -999.2500    81.5653     2.4089     0.1293     8.8509     0.0159
  548.5000  -999.2500  -999.2500    82.0802     2.4150     0.1276     8.8118     0.0099
  549.0000  -999.2500  -999.2500    82.1061     2.4230     0.1228     8.7733     0.0074
  549.5000  -999.2500  -999.2500    82.2349     2.4315     0.1180     8.7347     0.0111
  550.0000  -999.2500  -999.2500    82.9203     2.4400     0.1132     8.6961     0.0147
  550.5000  -999.2500  -999.2500    83.5925     2.4484     0.1118     8.6617     0.0184
  551.0000  -999.2500  -999.2500    84.5089     2.4460     0.1130     8.6626     0.0200
  551.5000  -999.2500  -999.2500    85.4245     2.4413     0.1171     8.6627     0.0173
  552.0000  -999.2500  -999.2500    86.3348     2.4316     0.1227     8.6627     0.0125
  552.5000  -999.2500  -999.2500    87.0130     2.4218     0.1283     8.6627     0.0079
  553.0000  -999.2500  -999.2500    87.5132     2.4119     0.1339     8.6627     0.0149
  553.5000  -999.2500  -999.2500    88.0116     2.4028     0.1362     8.6628     0.0226
  554.0000  -999.2500  -999.2500    88.5101     2.4023     0.1294     8.6600     0.0253
  554.5000  -999.2500  -999.2500    89.0080     2.4103     0.1246     8.6394     0.0279
  555.0000  -999.2500  -999.2500    89.5118     2.4182     0.1198     8.6188     0.0236
  555.5000  -999.2500  -999.2500    89.7177     2.4260     0.1150     8.5981     0.0201
  556.0000  -999.2500  -999.2500    88.9868     2.4339     0.1130     8.5775     0.0208
  556.5000  -999.2500  -999.2500    88.1273     2.4420     0.1120     8.5622     0.0215
  557.0000  -999.2500  -999.2500    87.2669     2.4435     0.1100     8.5728     0.0221
  557.5000  -999.2500  -999.2500    86.5531     2.4506     0.1059     8.6583     0.0228
  558.0000  -999.2500  -999.2500    86.2992     2.4582     0.1018     8.7468     0.0234
  558.5000  -999.2500  -999.2500    86.1674     2.4653     0.1010     8.7383     0.0241
  559.0000  -999.2500  -999.2500    86.4889     2.4659     0.1025     8.7071     0.0247
  559.5000  -999.2500  -999.2500    86.8105     2.4664     0.1013     8.7133     0.0254
  560.0000  -999.2500  -999.2500    87.0997     2.4683     0.0988     8.7263     0.0261
  560.5000  -999.2500  -999.2500    86.6398     2.4717     0.0962     8.7405     0.0300
  561.0000  -999.2500  -999.2500    85.7471     2.4748     0.0985     8.7421     0.0338
  561.5000  -999.2500  -999.2500    84.8597     2.4652     0.1044     8.6763     0.0308
  562.0000  -999.2500  -999.2500    85.0254     2.4537     0.1102     8.4394     0.0256
  562.5000  -999.2500  -999.2500    86.3316     2.4430     0.1161     8.2141     0.0261
  563.0000  -999.2500  -999.2500    85.7465     2.4387     0.1181     7.9900     0.0260
  563.5000  -999.2500  -999.2500    84.6570     2.4345     0.1177     7.9630     0.0260
  564.0000  -999.2500  -999.2500    83.7025     2.4303     0.1144     8.0876     0.0337
  564.5000  -999.2500  -999.2500    84.7711     2.4367     0.1110     8.3252     0.0469
  565.0000  -999.2500  -999.2500    85.9114     2.4447     0.1077     8.4265     0.0601
  565.5000  -999.2500  -999.2500    87.0559     2.4527     0.1043     8.4576     0.0725
  566.0000  -999.2500  -999.2500    88.1955     2.4607     0.1016     8.4860     0.0820
  566.5000  -999.2500  -999.2500    89.3393     2.4672     0.1031     8.5147     0.0911
  567.0000  -999.2500  -999.2500    89.7367     2.4642     0.1026     8.5277     0.0999
  567.5000  -999.2500  -999.2500    88.4350     2.4640     0.1006     8.5346     0.1002
  568.0000  -999.2500  -999.2500    87.0518     2.4684     0.1050     8.5415     0.0880
  568.5000  -999.2500  -999.2500    88.6317     2.4321     0.1167     8.5483     0.0647
  569.0000  -999.2500  -999.2500    90.8506     2.4073     0.1286     8.5552     0.0417
  569.5000  -999.2500  -999.2500    92.8471     2.4031     0.1363     8.5619     0.0258
  570.0000  -999.2500  -999.2500    92.2395     2.4011     0.1296     8.5661     0.0275
  570.5000  -999.2500  -999.2500    91.5863     2.4121     0.1208     8.5698     0.0360
  571.0000  -999.2500  -999.2500    91.3282     2.4259     0.1120     8.5734     0.0399
  571.5000  -999.2500  -999.2500    92.0701     2.4398     0.1033     8.5771     0.0351
  572.0000  -999.2500  -999.2500    92.2243     2.4535     0.1022     8.5808     0.0302
  572.5000  -999.2500  -999.2500    89.5765     2.4659     0.0994     8.5844     0.0264
  573.0000  -999.2500  -999.2500    87.0027     2.4722     0.0941     8.5881     0.0300
  573.5000  -999.2500  -999.2500    85.9315     2.4794     0.0887     8.5918     0.0334
  574.0000  -999.2500  -999.2500    86.7510     2.4865     0.0883     8.5954     0.0361
  574.5000  -999.2500  -999.2500    87.5596     2.4902     0.0896     8.5987     0.0359
  575.0000  -999.2500  -999.2500    88.3727     2.4886     0.0898     8.6083     0.0357
  575.5000  -999.2500  -999.2500    89.1804     2.4903     0.0875     8.5910     0.0356
  576.0000  -999.2500  -999.2500    90.0048     2.4925     0.0849     8.5526     0.0354
  576.5000  -999.2500  -999.2500    90.1468     2.4903     0.0870     8.5134     0.0353
  577.0000  -999.2500  -999.2500    89.0209     2.4874     0.0886     8.4743     0.0351
  577.5000  -999.2500  -999.2500    86.7574     2.4880     0.0876     8.4353     0.0349
  578.0000  -999.2500  -999.2500    87.9494     2.4889     0.0865     8.4024     0.0348
  578.5000  -999.2500  -999.2500    89.4369     2.4895     0.0886     8.4036     0.0346
  579.0000  -999.2500  -999.2500    88.8787     2.4884     0.0908     8.3984     0.0345
  579.5000  -999.2500  -999.2500    88.4277     2.4864     0.0922     8.3856     0.0343
  580.0000  -999.2500  -999.2500    90.9262     2.4845     0.0922     8.3891     0.0342
  580.5000  -999.2500  -999.2500    92.5986     2.4825     0.0926     8.3933     0.0341
  581.0000  -999.2500  -999.2500    91.6591     2.4805     0.0934     8.3976     0.0341
  581.5000  -999.2500  -999.2500    92.3361     2.4786     0.0943     8.4018     0.0338
  582.0000  -999.2500  -999.2500    93.0016     2.4766     0.0952     8.3993     0.0316
  582.5000  -999.2500  -999.2500    90.6985     2.4746     0.0972     8.3370     0.0293
  583.0000  -999.2500  -999.2500    88.4662     2.4721     0.0998     8.3125     0.0271
  583.5000  -999.2500  -999.2500    88.0634     2.4686     0.1024     8.2596     0.0248
