~VERSION INFORMATION
 VERS.                2.0:   CWLS LOG ASCII STANDARD - VERSION 2.0
 WRAP.                 NO:   ONE LINE PER DEPTH STEP
~WELL INFORMATION
#MNEM.UNIT      DATA TYPE    INFORMATION
#----------   ------------   ------------------------------
 STRT.F            1.0000:   START DEPTH
 STOP.F          483.0000:   STOP DEPTH
 STEP.F            0.5000:   STEP LENGTH
 NULL.          -999.2500:   NO VALUE
 COMP. LAWRENCE/ALLISON INC:   COMPANY
 WELL.   47-66-1 SX #47-3:   WELL
 FLD .             TEAPOT:   FIELD
 LOC .       S3 T38N R78W:   LOCATION
 CNTY.            NATRONA:   COUNTY
 STAT.            WYOMING:   STATE
 CTRY. UNITED STATES OF AMERICA:   COUNTRY
 SRVC.           Gearhart:   SERVICE COMPANY
 DATE.        07-JUN-1988:   LOGDATE
 API .       490251121500:   API NUMBER
~CURVE INFORMATION
#MNEM.UNIT       API CODE    CURVE DESCRIPTION
#----------   ------------   ------------------------------
 DEPT.F                  :   
 GRR .GAPI   07 310 01 00:   GAMMA RAY
 RILD.OHMM   07 120 46 00:   INDUCTION LOG DEEP RESISTIVITY
 RILM.OHMM   07 120 44 00:   INDUCTION LOG MEDIUM RESISTIVITY
~PARAMETER INFORMATION
#MNEM.UNIT          VALUE    DESCRIPTION
#----------   ------------   ------------------------------
 PD  .                 GL:   PERMANENT DATUM
 EPD .F              5183:   ELEVATION PERMANENT DATUM
 LMF .                 KB:   LOG MEASURED FROM
 DAPD.F                 5:   FEET ABOVE PERMANENT DATUM
 DMF .                 KB:   DRILLING MEASURED FROM
 EKB .F              5188:   KELLING BUSHING
 EGL .F              5183:   GROUND LEVEL
 DATE.        07-JUN-1988:   RUN DATE
 RUN .                  1:   RUN NUMBER
 DD  .F               490:   DEPTH DRILLER
 DL  .F               483:   DEPTH LOGGER
 BLI .F               483:   BOTTOM LOG INTERVAL
 CS  .IN            8.625:   CASING SIZE
 CBD .F                40:   CASING BOTTOM DRILLER
 CBL .F                40:   CASING BOTTOM LOGGER
 BS  .IN            7.875:   BIT SIZE
 BSD .F               490:   BIT SIZE AT DEPTH
 DFT .                AIR:   DRILLING FLUID TYPE
 TLAB.HRS            0400:   TIME LOGGER AT BOTTOM
 MRT .F                70:   MAXIMUM RECORDED TEMPERATURE
 LUN .               7597:   LOGGING UNIT NUMBER
 LUL .           GILLETTE:   LOGGING UNIT LOCATION
 ENGI.          HUCKFELDT:   RECORDING ENGINEER
 WITN.             STRONG:   WITNESSED BY
 CLNT.            A2DTECH:   CLIENT CODE
 ORIG.           5" PRINT:   ORIGIN OF DATA
 UWI .       490251121500:   UNIQUE WELL ID
 DICO. A2D Technologies, Inc.:   DIGITIZING COMPANY
~OTHER INFORMATION
~A    DEPT      GRR      RILD       RILM   
# ...
  274.0000    71.6610    30.0758    27.0612
  274.5000    73.7851    30.2799    26.7111
  275.0000    72.5759    30.6971    27.0862
  275.5000    69.5261    30.9071    28.6400
  276.0000    67.7332    31.1154    30.7081
  276.5000    67.7368    31.3267    30.4947
  277.0000    69.5578    31.5570    30.0724
  277.5000    71.0759    32.1975    29.6560
  278.0000    70.1377    32.6427    29.6560
  278.5000    67.4460    33.0942    29.8635
  279.0000    66.2368    33.7864    30.7081
  279.5000    66.5427    34.4963    31.8308
  280.0000    66.5858    34.7273    33.1559
  280.5000    64.4272    34.7187    32.9255
  281.0000    64.7339    33.9937    31.7975
  281.5000    67.1610    32.5955    30.9229
  282.0000    70.1942    30.6083    29.6422
  282.5000    73.2274    29.0917    28.0471
  283.0000    76.5899    27.9454    26.7111
  283.5000    78.9914    27.3619    25.6168
  284.0000    79.2973    26.9779    25.0865
  284.5000    79.3002    26.7853    24.5672
  285.0000    79.0000    26.5939    24.9122
  285.5000    77.7596    26.4028    25.2620
  286.0000    76.2786    25.8515    25.6168
  286.5000    76.5852    25.4887    25.0865
  287.0000    77.1941    25.1310    24.2270
  287.5000    78.4091    24.7783    23.5472
  288.0000    79.6607    24.0913    22.9127
  288.5000    80.5368    23.5882    22.2825
  289.0000    81.1458    23.2572    22.2825
  289.5000    82.0578    23.0911    22.2825
  290.0000    82.0607    22.9262    21.9739
  290.5000    82.0636    22.9216    21.3696
  291.0000    81.7634    22.9159    21.0737
  291.5000    82.0700    22.7523    20.7818
  292.0000    82.0729    22.9079    20.7818
  292.5000    82.0758    22.7432    21.0737
  293.0000    82.0788    22.7386    21.2211
  293.5000    82.0823    23.0520    21.0737
  294.0000    82.6912    23.2097    21.0737
  294.5000    83.3002    23.6939    20.9272
  295.0000    83.9091    24.0228    21.0737
  295.5000    83.9127    24.6955    21.3696
  296.0000    83.6126    25.5646    21.9739
  296.5000    82.4033    25.9194    22.9127
  297.0000    80.8911    25.9129    24.2270
  297.5000    78.4697    25.7279    25.6168
  298.0000    76.9582    25.3668    26.1582
  298.5000    76.6573    25.0107    26.1371
  299.0000    77.5700    24.6586    25.6168
  299.5000    80.3001    24.3125    24.9122
  300.0000    83.0303    24.1385    24.3393
  300.5000    84.8586    23.4704    23.8864
  301.0000    85.1704    22.9803    23.2118
  301.5000    85.4821    22.6578    22.5804
  302.0000    85.7939    22.1846    22.1086
  302.5000    85.4995    21.8723    21.4963
  303.0000    85.2073    21.8679    21.0471
  303.5000    84.9130    21.7118    20.4480
  304.0000    84.0126    21.7074    20.0356
  304.5000    82.8092    21.7031    19.7542
  305.0000    82.2118    21.6977    19.6131
  305.5000    82.5257    21.8461    19.4729
  306.0000    83.1405    21.6890    19.6053
  306.5000    83.4522    21.6847    19.7385
  307.0000    83.1579    21.6804    20.0107
  307.5000    81.9444    21.5055    20.0067
  308.0000    82.8744    21.2224    20.0028
  308.5000    85.0043    20.9246    19.9978
  309.0000    85.9221    20.6309    19.9938
  309.5000    85.0218    20.3414    19.8509
  310.0000    83.2123    20.1960    19.7091
  310.5000    82.9179    20.0509    19.5683
  311.0000    84.7470    20.0469    19.4275
  311.5000    86.5739    19.9037    19.1546
  312.0000    87.7947    19.6244    19.0178
  312.5000    88.1064    19.4842    18.8819
  313.0000    88.4182    19.2098    18.7417
  313.5000    87.8208    19.0727    18.4828
  314.0000    86.9226    19.0689    18.3507
  314.5000    86.3252    19.0650    18.0930
  315.0000    85.1218    19.0612    17.8389
  315.5000    84.8273    18.9250    17.5794
  316.0000    84.8364    18.5290    17.2200
  316.5000    84.8470    18.1422    16.9782
  317.0000    84.2475    17.8876    16.7397
  317.5000    83.3471    17.8840    16.5046
  318.0000    83.0528    17.7563    16.5013
  318.5000    83.3667    17.7518    16.4973
  319.0000    85.1957    17.7483    16.4940
  319.5000    86.1135    17.8688    16.4907
  320.0000    85.5162    17.8652    16.6029
  320.5000    83.7067    17.8617    16.8489
  321.0000    82.2002    17.8572    17.3043
  321.5000    81.2777    17.7297    17.5438
  322.0000    80.7047    17.6031    17.5403
  322.5000    80.4081    17.3560    17.2940
  323.0000    80.7221    16.9937    16.9318
  323.5000    81.9429    16.7551    16.5780
  324.0000    81.9516    16.4045    16.3452
  324.5000    82.3100    16.0620    16.0037
  325.0000    83.7893    15.7266    15.7789
  325.5000    85.3132    15.5059    15.3411
  326.0000    86.8370    15.3909    15.0206
  326.5000    88.0579    15.1784    14.8097
  327.0000    89.2950    15.1753    14.6017
  327.5000    89.5926    15.1723    14.3932
  328.0000    89.6013    15.1693    14.1937
  328.5000    89.3048    15.1662    14.1909
  329.0000    89.3156    15.1631    14.1881
  329.5000    89.6274    15.3721    14.2846
  330.0000    89.9394    15.4765    14.4889
  330.5000    89.9500    15.5824    14.6826
  331.0000    89.6535    15.7972    14.8859
  331.5000    89.0583    15.9044    15.0919
  332.0000    87.8549    16.0124    15.4071
  332.5000    86.6413    16.1211    15.5226
  333.0000    85.7532    16.2305    15.7265
  333.5000    85.7619    16.2265    15.7225
  334.0000    86.0737    16.1106    15.7194
  334.5000    86.9914    15.8837    15.4987
  335.0000    87.3032    15.5521    15.2809
  335.5000    86.0316    15.2274    14.9610
  336.0000    84.8963    14.9094    14.7509
  336.5000    86.1193    14.7002    14.4427
  337.0000    87.3401    14.4938    14.1409
  337.5000    88.8640    14.3897    13.7485
  338.0000    90.0889    14.2869    13.4613
  338.5000    91.6108    14.2840    13.1800
  339.0000    92.2256    14.2812    12.9949
  339.5000    93.1434    14.4787    12.8124
  340.0000    93.4551    14.6782    12.8092
  340.5000    93.1608    14.8812    12.8067
  341.0000    91.5978    15.2986    12.9846
  341.5000    89.5440    16.1723    13.3485
  342.0000    87.7345    17.4618    14.2209
  342.5000    85.6220    19.1071    16.6776
  343.0000    83.5095    20.4816    18.7726
  343.5000    80.7909    22.8923    20.6933
  344.0000    76.5594    25.4091    23.1308
  344.5000    74.4469    28.5982    25.5516
  345.0000    72.9404    32.0539    29.7170
  345.5000    71.4340    35.2302    32.7575
  346.0000    69.6245    38.8319    35.1160
  346.5000    66.5363    41.0515    36.1019
  347.0000    61.4622    40.1924    36.3473
  347.5000    59.6527    37.9881    36.0858
  348.0000    61.4796    36.4409    36.0786
  348.5000    67.2459    35.6800    35.5719
  349.0000    71.8001    34.2124    34.5867
  349.5000    75.5846    33.0346    33.1337
  350.0000    77.5755    32.3433    31.7973
  350.5000    77.5818    32.3345    31.7886
  351.0000    76.9273    32.3258    31.5589
  351.5000    74.5647    32.3170    31.5485
  352.0000    71.5403    32.5363    31.5399
  352.5000    70.3327    32.5252    31.3122
  353.0000    70.3401    32.2906    31.3037
  353.5000    70.9521    32.0576    31.2951
  354.0000    72.7762    31.7967    30.8533
  354.5000    73.9942    30.9413    30.4177
  355.0000    74.9092    30.7181    29.9883
  355.5000    74.9152    30.0746    29.3596
  356.0000    74.8969    29.6504    28.9451
  356.5000    74.0179    29.4365    28.5198
  357.0000    73.7208    29.0213    27.9379
  357.5000    73.1222    28.6119    27.3505
  358.0000    73.1281    28.0125    26.5910
  358.5000    74.6492    27.2288    25.8526
  359.0000    76.4733    26.6396    25.1347
  359.5000    78.2974    25.9230    24.7798
  360.0000    79.2124    25.5573    24.4300
  360.5000    78.6121    25.0219    24.2537
  361.0000    77.4061    24.8414    24.2470
  361.5000    76.1999    24.6623    24.2404
  362.0000    76.6062    24.6556    24.2338
  362.5000    78.6375    24.6488    24.2271
  363.0000    80.1586    24.8145    24.3900
  363.5000    81.3766    24.8077    24.3817
  364.0000    81.3825    24.9743    24.5472
  364.5000    80.7824    25.1421    24.5389
