~VERSION INFORMATION
 VERS.                2.0:   CWLS LOG ASCII STANDARD - VERSION 2.0
 WRAP.                 NO:   ONE LINE PER DEPTH STEP
~WELL INFORMATION
#MNEM.UNIT      DATA TYPE    INFORMATION
#----------   ------------   ------------------------------
 STRT.F           30.0000:   START DEPTH
 STOP.F          547.0000:   STOP DEPTH
 STEP.F            0.5000:   STEP LENGTH
 NULL.          -999.2500:   NO VALUE
 COMP.   FINIX & SCISSION:   COMPANY
 WELL. SX-11 NPR #3 #11-11:   WELL
 FLD .             TEAPOT:   FIELD
 LOC .      S11 T38N R78W:   LOCATION
 CNTY.            NATRONA:   COUNTY
 STAT.            WYOMING:   STATE
 CTRY. UNITED STATES OF AMERICA:   COUNTRY
 SRVC.       Schlumberger:   SERVICE COMPANY
 DATE.        01-MAR-1977:   LOGDATE
 API .       490251058500:   API NUMBER
~CURVE INFORMATION
#MNEM.UNIT       API CODE    CURVE DESCRIPTION
#----------   ------------   ------------------------------
 DEPT.F                  :   
 ILD .OHMM               :   INDUCTION LOG DEEP
 ILM .OHMM   07 120 44 00:   INDUCTION LOG MEDIUM
 LL8 .OHMM   07 220 08 00:   
 SPR .MV     07 010 01 00:   SPONTANEOUS POTENTIAL
 CALD.IN     45 280 60 00:   CALIPER FROM DENSITY LOG
 CORR.G/C3   45 356 01 00:   DENSITY CORRECTION
 DPHI.DEC    45 890 12 00:   DENSITY POROSITY SANDSTONE
 GRD .GAPI   45 310 01 00:   GAMMA RAY FROM DENSITY LOG
 RHOB.G/C3   45 350 01 00:   BULK DENSITY
~PARAMETER INFORMATION
#MNEM.UNIT          VALUE    DESCRIPTION
#----------   ------------   ------------------------------
 PD  .                 GL:   PERMANENT DATUM
 EPD .F              5158:   ELEVATION PERMANENT DATUM
 LMF .                 GL:   LOG MEASURED FROM
 DMF .                 GL:   DRILLING MEASURED FROM
 EKB .F              5161:   KELLING BUSHING
 EGL .F              5158:   GROUND LEVEL
 DATE.        01-MAR-1977:   RUN DATE
 RUN .                  1:   RUN NUMBER
 DD  .F               575:   DEPTH DRILLER
 DL  .F               548:   DEPTH LOGGER
 BLI .F               547:   BOTTOM LOG INTERVAL
 TLI .F                45:   TOP LOG INTERVAL
 CS  .IN            8.625:   CASING SIZE
 CBD .F                40:   CASING BOTTOM DRILLER
 CBL .F                45:   CASING BOTTOM LOGGER
 BS  .IN            7.875:   BIT SIZE
 BSD .F               575:   BIT SIZE AT DEPTH
 DFT .                PIT:   DRILLING FLUID TYPE
 DFD .                8.7:   DRILLING FLUID DENSITY
 DFV .                 46:   DRILLING FLUID VISCOSITY
 DFPH.                  8:   DRILLING FLUID PH
 DFL .                6.8:   DRILLING FLUID LOSS
 MSS .                PIT:   MUD SAMPLE SOURCE
 RMS .OHMM          0.632:   RESISTIVITY MUD SAMPLE
 MST .F                65:   MUD SAMPLE TEMPERATURE
 RMF .OHMM          0.465:   RESISTIVITY MUD FILTRATE SAMPLE
 MFST.F                65:   MUD FILTRATE SAMPLE TEMPERATURE
 MFSS.               MEAS:   MUD FILTRATE SAMPLE SOURCE
 RMB .OHMM          0.635:   RESISTIVITY MUD AT BHT
 BHT .F                68:   BOTTOM HOLE TEMPERATURE
 TCS .HRS              12:   TIME CURCULATED STOPPED
 MRT .F                68:   MAXIMUM RECORDED TEMPERATURE
 LUN .               5642:   LOGGING UNIT NUMBER
 LUL .               CSPR:   LOGGING UNIT LOCATION
 ENGI.         JIM MARTIN:   RECORDING ENGINEER
 WITN.         STUEBINGER:   WITNESSED BY
 CLNT.            A2DTECH:   CLIENT CODE
 ORIG.           5" PRINT:   ORIGIN OF DATA
 UWI .       490251058500:   UNIQUE WELL ID
 DICO. A2D Technologies, Inc.:   DIGITIZING COMPANY
~OTHER INFORMATION
~A   DEPT      ILD        ILM        LL8        SPR       CALD       CORR       DPHI         GRD      RHOB   
# ...
  468.0000    26.3562    25.9061    27.2753   -23.1557     7.7295     0.0678     0.1864    61.4201     2.3441
  468.5000    26.1818    25.4240    27.0961   -23.1352     7.7754     0.0675     0.1822    62.0287     2.3411
  469.0000    25.8285    25.2658    26.7345   -23.1174     7.8064     0.0695     0.1843    61.8877     2.3463
  469.5000    25.4827    24.9884    26.3756   -23.0996     7.7925     0.0536     0.1906    61.5968     2.3350
  470.0000    25.1404    24.7607    26.2023   -23.3856     7.7486     0.0439     0.1972    61.4535     2.3275
  470.5000    24.9675    24.5994    25.8484   -23.6627     7.7197     0.0379     0.2005    61.4647     2.3223
  471.0000    24.7481    24.4392    25.6786   -23.9905     7.7357     0.0425     0.1944    62.5231     2.3193
  471.5000    24.4752    24.3477    25.6893   -24.2742     7.8864     0.0493     0.1863    64.1812     2.3313
  472.0000    24.2367    24.2924    25.6982   -24.6571     7.9474     0.0543     0.1803    65.3895     2.3433
  472.5000    23.9333    24.1336    25.7086   -24.9387     7.9484     0.0588     0.1735    65.5461     2.3575
  473.0000    23.6629    24.1460    25.7172   -25.0750     7.9344     0.0610     0.1809    64.5767     2.3380
  473.5000    23.3387    23.9895    25.1969   -25.2069     7.9205     0.0520     0.1919    63.9170     2.3207
  474.0000    23.0180    23.3452    25.2053   -25.1846     7.9216     0.0445     0.2050    62.8765     2.3102
  474.5000    22.5548    22.8757    25.0394   -24.8674     7.9376     0.0318     0.2099    62.4334     2.3042
  475.0000    22.3252    22.5058    24.8752   -24.7879     7.9536     0.0251     0.2068    63.3441     2.3207
  475.5000    21.9737    22.2688    24.5413   -24.5329     7.9702     0.0430     0.1763    64.4025     2.3500
  476.0000    21.7644    22.1259    24.3800   -24.3648     7.9868     0.0587     0.1621    63.9616     2.3740
  476.5000    21.5012    21.9827    23.8887   -24.1973     8.0016     0.0512     0.1681    63.3686     2.3649
  477.0000    21.3010    21.2450    23.7298   -24.1796     7.9984     0.0363     0.1789    64.4292     2.3552
  477.5000    21.0399    20.8154    23.5739   -24.0119     7.9887     0.0288     0.1843    65.9374     2.3499
  478.0000    20.7755    20.3990    23.0986   -23.9940     7.9900     0.0325     0.1873    65.1967     2.3447
  478.5000    20.6716    20.1274    22.6315   -23.9760     7.9758     0.0357     0.1855    62.5070     2.3402
  479.0000    20.4849    19.9970    22.3295   -23.9581     7.9771     0.0160     0.1906    60.5669     2.3356
  479.5000    20.2857    19.7739    21.8759   -23.9401     7.9782     0.0100     0.1928    62.2250     2.3326
  480.0000    20.0662    19.6028    21.2853   -23.9222     7.9790     0.0175     0.1889    64.4828     2.3461
  480.5000    19.7968    19.6109    20.7125   -23.9042     7.9801     0.0236     0.1763    65.8461     2.3582
  481.0000    19.5874    19.3497    20.5764   -23.8862     7.9813     0.0265     0.1730    66.0000     2.3649
  481.5000    19.1908    18.7905    20.1599   -23.7151     7.9822     0.0265     0.1715    66.1739     2.3687
  482.0000    18.8010    18.3734    19.7522   -23.5476     7.9982     0.0332     0.1694    66.7676     2.3733
  482.5000    18.4216    18.1498    19.6224   -23.0806     7.9994     0.0422     0.1646    67.2514     2.3810
  483.0000    18.1745    17.8412    19.6306   -23.3622     8.0153     0.0512     0.1574    67.9868     2.3926
  483.5000    18.0454    17.5962    19.6371   -23.7935     8.0164     0.0594     0.1592    68.5954     2.3828
  484.0000    17.9016    17.4226    19.6437   -24.0751     8.0174     0.0579     0.1652    69.5039     2.3746
  484.5000    17.7459    17.2566    19.6503   -24.2069     8.0185     0.0481     0.1661    70.2624     2.3828
  485.0000    17.5766    17.1448    19.6568   -23.8897     8.0043     0.0391     0.1637    68.7721     2.3768
  485.5000    17.5810    17.1512    19.6635   -23.8719     8.0055     0.0309     0.1691    70.1303     2.3731
  486.0000    17.4168    17.0407    18.7408   -23.7043     8.0066     0.0264     0.1628    68.4901     2.3798
  486.5000    17.3490    16.9286    17.6143   -23.8362     8.0076     0.0361     0.1619    67.1497     2.3745
  487.0000    17.3540    16.6634    17.2579   -23.8204     8.0089     0.0189     0.1664    66.7088     2.3708
  487.5000    17.2650    16.4394    17.2636   -23.8024     7.9948     0.0092     0.1718    66.5656     2.3513
  488.0000    17.1248    16.2625    17.2694   -23.7827     7.9960    -0.0013     0.1859    66.1270     2.3385
  488.5000    16.8955    16.0863    17.3952   -23.7665     7.9969    -0.0051     0.1925    65.8338     2.3310
  489.0000    16.6682    15.9421    17.6439   -23.7485     7.9979    -0.0021     0.1970    66.5946     2.3287
  489.5000    16.5380    15.8385    17.7737   -23.7292     7.9990     0.0114     0.1874    67.6530     2.3467
  490.0000    16.3352    15.7822    17.9032   -23.8655     8.0000     0.0249     0.1790    68.5615     2.3595
  490.5000    16.2148    15.6356    17.6629   -24.1427     8.0012     0.0271     0.1736    69.4699     2.3662
  491.0000    15.9790    15.5260    17.3055   -24.4287     8.0021     0.0166     0.1703    69.9264     2.3737
  491.5000    15.7938    15.4337    17.1916   -24.4064     8.0031     0.0228     0.1667    65.7396     2.3827
  492.0000    15.6886    15.2934    16.8439   -24.3886     8.0042     0.0316     0.1619    66.0484     2.3910
  492.5000    15.4394    15.2052    16.6027   -24.3713     8.0054     0.0345     0.1574    66.2073     2.3955
  493.0000    15.2700    15.0267    16.2816   -24.3529     8.0064     0.0300     0.1553    65.9160     2.3932
  493.5000    15.0445    14.9139    15.8434   -24.7842     8.0075     0.0323     0.1586    66.5250     2.3902
  494.0000    14.8980    14.5410    15.5228   -25.0658     8.0084     0.0495     0.1517    67.1336     2.3969
  494.5000    14.7626    14.2272    15.4195   -25.4975     8.0095     0.0607     0.1409    64.8936     2.4179
  495.0000    14.6281    13.9810    15.0045   -25.9283     8.0106     0.0570     0.1325    63.1035     2.4344
  495.5000    14.3686    13.6741    14.7009   -26.0646     8.0115     0.0405     0.1250    62.6626     2.4412
  496.0000    14.2413    13.5697    14.5884   -26.3460     8.0126     0.0293     0.1310    63.7610     2.4162
  496.5000    14.0805    13.4014    14.2113   -26.5571     8.0137     0.0307     0.1370    66.1739     2.4157
  497.0000    13.9433    13.3170    14.1179   -26.6048     8.0147     0.0158     0.1340    66.8873     2.4284
  497.5000    13.7996    13.3223    13.9272   -26.5868     8.0157     0.0083     0.1358    66.2719     2.4106
  498.0000    13.6444    13.1458    13.6884   -26.4157     8.0169     0.0068     0.1403    66.1555     2.4209
  498.5000    13.5152    13.1506    13.3413   -26.2515     8.0178     0.0083     0.1467    66.6164     2.4111
  499.0000    13.3429    13.1566    12.9942   -26.2335     8.0189     0.0090     0.1509    66.9252     2.4036
  499.5000    13.1639    13.1620    12.6472   -26.2125     8.0199     0.0225     0.1455    67.5338     2.4096
  500.0000    13.0309    13.0769    12.8077   -26.1220     8.0210     0.0382     0.1392    68.9058     2.4171
  500.5000    12.8977    12.5478    12.0382   -26.0273     8.0489     0.0329     0.1408    70.5467     2.4209
  501.0000    12.9514    12.5505    12.0901   -26.0083     8.0768     0.0209     0.1461    71.4508     2.4103
  501.5000    12.9382    12.5656    12.1381   -26.5883     8.0988     0.0127     0.1485    71.0070     2.4043
  502.0000    12.9003    12.6431    12.2562   -27.0181     8.0998     0.0194     0.1327    70.5647     2.4060
  502.5000    12.9013    12.6453    12.3407   -27.1488     8.1008     0.0366     0.1186    70.2694     2.4585
  503.0000    12.9023    12.6483    12.4744   -27.1250     8.0549     0.0575     0.1057    69.8271     2.4817
  503.5000    12.9031    12.6262    12.4772   -27.2604     8.0132     0.0625     0.0964    69.9830     2.5012
  504.0000    12.9039    12.5657    12.5661   -27.3863     8.0591     0.0470     0.1016    70.7386     2.4972
