~VERSION INFORMATION
 VERS.                2.0:   CWLS LOG ASCII STANDARD - VERSION 2.0
 WRAP.                 NO:   ONE LINE PER DEPTH STEP
~WELL INFORMATION
#MNEM.UNIT      DATA TYPE    INFORMATION
#----------   ------------   ------------------------------
 STRT.F            2.0000:   START DEPTH
 STOP.F          595.0000:   STOP DEPTH
 STEP.F            0.5000:   STEP LENGTH
 NULL.          -999.2500:   NO VALUE
 COMP.       F D SERV INC:   COMPANY
 WELL.    73-5 SX-3 #73-3:   WELL
 FLD .             TEAPOT:   FIELD
 LOC .       S3 T38N R78W:   LOCATION
 CNTY.            NATRONA:   COUNTY
 STAT.            WYOMING:   STATE
 CTRY. UNITED STATES OF AMERICA:   COUNTRY
 SRVC.     Atlas Wireline:   SERVICE COMPANY
 DATE.        01-MAY-1992:   LOGDATE
 API .       490252252200:   API NUMBER
~CURVE INFORMATION
#MNEM.UNIT       API CODE    CURVE DESCRIPTION
#----------   ------------   ------------------------------
 DEPT.F                  :   
 CALD.IN     45 280 60 00:   CALIPER FROM DENSITY
 CORR.G/C3   45 356 01 00:   DENSITY CORRECTION
 DEN .G/C3   45 350 01 00:   COMPENSATED BULK DENSTIY
 GRD .GAPI   45 310 01 00:   GAMMA RAY FROM DENSITY LOG
 RILD.OHMM   07 120 46 00:   INDUCTION LOG DEEP RESISTIVITY
 RILM.OHMM   07 120 44 00:   INDUCTION LOG MEDIUM RESISTIVITY
 PORD.DEC    45 890 12 00:   POROSITY DENSITY SANDSTONE
~PARAMETER INFORMATION
#MNEM.UNIT          VALUE    DESCRIPTION
#----------   ------------   ------------------------------
 PD  .                 GL:   PERMANENT DATUM
 EPD .F              5147:   ELEVATION PERMANENT DATUM
 LMF .                 KB:   LOG MEASURED FROM
 DAPD.F                 5:   FEET ABOVE PERMANENT DATUM
 DMF .                 KB:   DRILLING MEASURED FROM
 EKB .F              5152:   KELLING BUSHING
 EGL .F              5147:   GROUND LEVEL
 DATE.        01-MAY-1992:   RUN DATE
 RUN .                  1:   RUN NUMBER
 DD  .F               600:   DEPTH DRILLER
 DL  .F               603:   DEPTH LOGGER
 BLI .F               601:   BOTTOM LOG INTERVAL
 TLI .F                 2:   TOP LOG INTERVAL
 CS  .IN            8.625:   CASING SIZE
 CBD .F                46:   CASING BOTTOM DRILLER
 CBL .F                53:   CASING BOTTOM LOGGER
 BS  .IN            7.875:   BIT SIZE
 BSD .F               600:   BIT SIZE AT DEPTH
 DFT .                AIR:   DRILLING FLUID TYPE
 TCS .HRS               1:   TIME CURCULATED STOPPED
 LUN .            HL-6274:   LOGGING UNIT NUMBER
 LUL .             CASPER:   LOGGING UNIT LOCATION
 ENGI.             ZIEGER:   RECORDING ENGINEER
 WITN.             STRONG:   WITNESSED BY
 CLNT.            A2DTECH:   CLIENT CODE
 ORIG.           5" PRINT:   ORIGIN OF DATA
 UWI .       490252252200:   UNIQUE WELL ID
 DICO. A2D Technologies, Inc.:   DIGITIZING COMPANY
~OTHER INFORMATION
~A    DEPT    CALD       CORR        DEN         GRD      RILD       RILM       PORD   
# ...
  229.5000     8.1386     0.0009     2.5487   144.7160     9.9287    10.1812     0.0614
  230.0000     8.1386    -0.0023     2.5532   140.8121    10.0662    10.3222     0.0593
  230.5000     8.1386    -0.0055     2.5501   139.3143    10.2048    10.5378     0.0608
  231.0000     8.1386    -0.0086     2.5440   140.5394    10.3454    10.7585     0.0638
  231.5000     8.1386    -0.0148     2.5349   141.7323    10.6345    10.9075     0.0678
  232.0000     8.1386    -0.0180     2.5288   142.0391    10.7817    11.0585     0.0714
  232.5000     8.1386    -0.0182     2.5258   142.0462    11.0831    11.1336     0.0759
  233.0000     8.1386    -0.0153     2.5227   140.5484    11.2358    11.2877     0.0780
  233.5000     8.1386    -0.0124     2.5196   137.5468    11.3906    11.3644     0.0793
  234.0000     8.1235    -0.0126     2.5166   134.8460    11.4671    11.3615     0.0802
  234.5000     8.1235    -0.0097     2.5150   133.3481    11.4639    11.3592     0.0808
  235.0000     8.1235    -0.0099     2.5149   133.6548    11.3810    11.3568     0.0814
  235.5000     8.1235    -0.0100     2.5164   135.4653    11.3778    11.3545     0.0814
  236.0000     8.1235    -0.0102     2.5194   138.4787    11.2956    11.2732     0.0814
  236.5000     8.1386    -0.0103     2.5193   145.1012    11.2133    11.1925     0.0814
  237.0000     8.1386    -0.0074     2.5133   151.7236    11.0549    11.1124     0.0817
  237.5000     8.1386    -0.0076     2.5117   158.6469    10.8987    10.8800     0.0820
  238.0000     8.1386    -0.0077     2.5192   165.5701    10.6700    10.7270     0.0790
  238.5000     8.1386    -0.0048     2.5252   170.3880    10.4461    10.5026     0.0772
  239.0000     8.1386    -0.0080     2.5282   169.7846    10.3706    10.3550     0.0757
  239.5000     8.1386    -0.0112     2.5251   167.0037    10.2240    10.2808     0.0766
  240.0000     8.1386    -0.0144     2.5175   162.8870    10.1502    10.2787     0.0790
  240.5000     8.1386    -0.0145     2.5099   167.4057    10.2900    10.3486     0.0827
  241.0000     8.1386    -0.0147     2.5069   169.8176    10.5783    10.4189     0.0866
  241.5000     8.1386    -0.0088     2.5100   170.4236    11.0275    10.4897     0.0849
  242.0000     8.1536    -0.0059     2.5339   162.0099    11.6574    10.6349     0.0767
  242.5000     8.1536    -0.0061     2.5566   150.5873    11.9008    10.7071     0.0621
  243.0000     8.1536    -0.0062     2.5731   145.4805    11.8147    10.5560     0.0486
  243.5000     8.1536    -0.0094     2.5565   146.3886    11.2484    10.4076     0.0525
  244.0000     8.1687    -0.0095     2.5232   157.2216    10.5569    10.2613     0.0670
  244.5000     8.1687    -0.0097     2.4854   161.4366    10.2615    10.1878     0.0857
  245.0000     8.1687    -0.0098     2.4657   159.6395    10.0425    10.1149     0.1045
  245.5000     8.1687    -0.0100     2.4611   160.5477     9.8408     9.9727     0.1169
  246.0000     8.1687    -0.0101     2.4611   162.6589     9.7691     9.9013     0.1184
  246.5000     8.1686    -0.0103     2.4671   160.5595     9.7664     9.8304     0.1093
  247.0000     8.1528    -0.0074     2.4761   155.1519     9.6959     9.8284     0.1042
  247.5000     8.1386    -0.0076     2.4851   147.5990     9.6932     9.6902     0.0979
  248.0000     8.1213    -0.0077     2.4958   147.6450     9.6231     9.4831     0.0896
  248.5000     8.0934    -0.0079     2.5049   145.7543     9.4212     9.2804     0.0852
  249.0000     8.0783    -0.0050     2.5076   143.4478     9.0957     8.9683     0.0849
  249.5000     8.0783     0.0039     2.5091   141.6492     8.8429     8.5988     0.0852
  250.0000     8.0779    -0.0028     2.5151   141.0521     8.5988     8.3838     0.0843
  250.5000     8.0736    -0.0091     2.5090   141.0630     8.2394     7.9495     0.0848
  251.0000     8.0692    -0.0208     2.5029   139.8689     7.8800     7.5229     0.0875
  251.5000     8.0649    -0.0270     2.4999   138.9733     7.5794     7.2211     0.0946
  252.0000     8.0633    -0.0241     2.4908   141.0896     7.3185     7.0716     0.1019
  252.5000     8.0633    -0.0123     2.4847   142.0007     7.0658     7.0224     0.1037
  253.0000     8.0783    -0.0064     2.4952   143.5134     6.9193     6.9736     0.0995
  253.5000     8.0934    -0.0005     2.5057   145.3268     6.8702     7.0224     0.0932
  254.0000     8.1084    -0.0007     2.5057   146.8394     6.9174     7.0224     0.0902
  254.5000     8.1386    -0.0042     2.5026   147.4697     7.0625     7.1211     0.0865
  255.0000     8.1386    -0.0101     2.5011   144.7519     7.2614     7.3226     0.0908
  255.5000     8.1386    -0.0164     2.5025   142.6156     7.4142     7.5299     0.0923
  256.0000     8.1386    -0.0196     2.5055   139.6170     7.6228     7.6357     0.0914
  256.5000     8.1386    -0.0198     2.5085   141.4724     7.7830     7.6357     0.0890
  257.0000     8.1386    -0.0139     2.5114   147.1956     7.8913     7.6892     0.0865
  257.5000     8.1386    -0.0110     2.5159   148.1067     7.9457     7.7430     0.0815
  258.0000     8.1386    -0.0112     2.5189   148.1156     8.0002     7.7972     0.0803
  258.5000     8.1386    -0.0144     2.5219   148.4252     7.9989     7.8518     0.0791
  259.0000     8.1386    -0.0267     2.5218   150.8401     7.9421     7.7972     0.0788
  259.5000     8.1386    -0.0269     2.5203   155.0595     7.8858     7.7972     0.0797
  260.0000     8.1536    -0.0271     2.5142   158.0759     7.8299     7.7430     0.0819
  260.5000     8.1536    -0.0242     2.5080   157.4833     7.7204     7.6357     0.0846
  261.0000     8.1536    -0.0184     2.5020   153.8831     7.5591     7.5299     0.0882
  261.5000     8.1536    -0.0125     2.5005   151.1850     7.4534     7.4255     0.0910
  262.0000     8.1536    -0.0127     2.4989   150.8932     7.2980     7.3739     0.0916
  262.5000     8.1536    -0.0129     2.5019   147.8947     7.1458     7.2211     0.0901
  263.0000     8.1536    -0.0131     2.5049   144.9762     6.9968     7.0716     0.0886
  263.5000     8.1687    -0.0163     2.5033   138.5093     6.8509     6.8769     0.0877
  264.0000     8.1687    -0.0195     2.5002   134.6905     6.6615     6.5950     0.0877
  264.5000     8.1698    -0.0257     2.4911   134.0956     6.2989     6.3688     0.0953
  265.0000     8.1837    -0.0289     2.4684   136.8135     5.8736     6.1505     0.1068
  265.5000     8.1988    -0.0291     2.4503   138.3262     5.5540     6.1049     0.1234
  266.0000     8.1988    -0.0232     2.4517   141.0418     5.6312     6.0652     0.1195
  266.5000     8.1988    -0.0173     2.4657   144.9604     5.8304     6.3246     0.1087
  267.0000     8.1988    -0.0145     2.4808   148.5783     6.1254     6.6876     0.1005
  267.5000     8.1988    -0.0116     2.4999   148.8857     6.5279     7.0224     0.0927
  268.0000     8.1837    -0.0058     2.5135   146.1901     7.0852     7.4775     0.0854
  268.5000     8.1687    -0.0060     2.5180   144.3944     7.4388     7.8518     0.0842
  269.0000     8.1536    -0.0062     2.5224   146.5086     7.8101     8.1306     0.0830
  269.5000     8.1386    -0.0063     2.5254   148.9234     8.1429     8.3607     0.0779
  270.0000     8.1235    -0.0095     2.5299   151.6391     8.4308     8.5375     0.0743
  270.5000     8.1235    -0.0097     2.5329   150.4050     8.6080     8.5375     0.0731
  271.0000     8.1084    -0.0099     2.5343   146.8448     8.7278     8.5375     0.0716
  271.5000     8.1084    -0.0101     2.5358   156.7807     8.7877     8.5375     0.0695
  272.0000     8.0934    -0.0072     2.5373   163.7069     8.7865     8.5375     0.0683
  272.5000     8.0783    -0.0074     2.5387   161.9113     8.8469     8.5973     0.0702
  273.0000     8.0783    -0.0076     2.5294   155.9051     8.8456     8.6615     0.0741
  273.5000     8.0760    -0.0078     2.5175   154.4080     8.8443     8.7792     0.0796
  274.0000     8.0633    -0.0110     2.5099   162.8401     8.8431     8.7792     0.0856
  274.5000     8.0633    -0.0142     2.5068   164.0520     8.8479     8.7792     0.0896
