~VERSION INFORMATION
 VERS.                2.0:   CWLS LOG ASCII STANDARD - VERSION 2.0
 WRAP.                 NO:   ONE LINE PER DEPTH STEP
~WELL INFORMATION
#MNEM.UNIT      DATA TYPE    INFORMATION
#----------   ------------   ------------------------------
 STRT.F           60.0000:   START DEPTH
 STOP.F         1143.0000:   STOP DEPTH
 STEP.F            0.5000:   STEP LENGTH
 NULL.          -999.2500:   NO VALUE
 COMP. U S NAVY-INTEX OIL:   COMPANY
 WELL.    N.P.R . 3 #63-2:   WELL
 FLD .             TEAPOT:   FIELD
 LOC .       S2 T38N R78W:   LOCATION
 CNTY.            NATRONA:   COUNTY
 STAT.            WYOMING:   STATE
 CTRY. UNITED STATES OF AMERICA:   COUNTRY
 SRVC. Schlumberger Well Surveying Corp:   SERVICE COMPANY
 DATE.        24-MAY-1964:   LOGDATE
 API .       490250645500:   API NUMBER
~CURVE INFORMATION
#MNEM.UNIT       API CODE    CURVE DESCRIPTION
#----------   ------------   ------------------------------
 DEPT.F                  :   
 SPR .MV     05 010 01 00:   SPONTANEOUS POTENTIAL FROM RES.
 ASN .OHMM   05 041 16 00:   AMPLIFIED SHORT NORMAL 16"
 ILD .OHMM   05 120 46 00:   INDUCTION LOG DEEP
 CILD.MMHO   05 110 46 00:   CONDUCTIVITY INDUCTION LOG DEEP
 CALS.IN     60 280 50 00:   CALIPER FROM SONIC LOG
 DT  .US/F   60 520 33 00:   INTERVAL TRANSIT TIME
~PARAMETER INFORMATION
#MNEM.UNIT          VALUE    DESCRIPTION
#----------   ------------   ------------------------------
 PD  .                 GL:   PERMANENT DATUM
 EPD .F              5181:   ELEVATION PERMANENT DATUM
 LMF .                 KB:   LOG MEASURED FROM
 DAPD.F                 5:   FEET ABOVE PERMANENT DATUM
 DMF .                 KB:   DRILLING MEASURED FROM
 EKB .F              5186:   KELLING BUSHING
 EGL .F              5181:   GROUND LEVEL
 DATE.        24-MAY-1964:   RUN DATE
 RUN .                  1:   RUN NUMBER
 DD  .F              1140:   DEPTH DRILLER
 DL  .F              1144:   DEPTH LOGGER
 BLI .F              1143:   BOTTOM LOG INTERVAL
 TLI .F                82:   TOP LOG INTERVAL
 CS  .IN            8.625:   CASING SIZE
 CBD .F                10:   CASING BOTTOM DRILLER
 BS  .IN            7.875:   BIT SIZE
 BSD .F              1140:   BIT SIZE AT DEPTH
 DFT .            GEL/OIL:   DRILLING FLUID TYPE
 DFD .                9.0:   DRILLING FLUID DENSITY
 DFV .                 63:   DRILLING FLUID VISCOSITY
 DFPH.                8.0:   DRILLING FLUID PH
 DFL .                7.6:   DRILLING FLUID LOSS
 MSS .           FLOWLINE:   MUD SAMPLE SOURCE
 RMS .OHMM           0.87:   RESISTIVITY MUD SAMPLE
 MST .F                84:   MUD SAMPLE TEMPERATURE
 RMF .OHMM           0.43:   RESISTIVITY MUD FILTRATE SAMPLE
 MFST.F                84:   MUD FILTRATE SAMPLE TEMPERATURE
 RMC .OHMM           1.52:   RESISTIVITY MUD CAKE
 MCST.F                84:   MUD CAKE SAMPLE TEMPERATURE
 MFSS.                 FP:   MUD FILTRATE SAMPLE SOURCE
 MCSS.                 FP:   MUD CAKE SAMPLE SOURCE
 TCS .HRS               2:   TIME CURCULATED STOPPED
 LUN .               4507:   LOGGING UNIT NUMBER
 LUL .               CSPR:   LOGGING UNIT LOCATION
 ENGI.             DANNER:   RECORDING ENGINEER
 WITN.          JORGENSEN:   WITNESSED BY
 CLNT.            A2DTECH:   CLIENT CODE
 ORIG.       2", 5" PRINT:   ORIGIN OF DATA
 UWI .       490250645500:   UNIQUE WELL ID
 DICO. A2D Technologies, Inc.:   DIGITIZING COMPANY
~OTHER INFORMATION
~A   DEPT      SPR          ASN        ILD      CILD      CALS         DT   
# ...
  424.0000   -42.9578     6.9679     5.1622   193.5341  -999.2500  -999.2500
  424.5000   -42.8080     7.0465     5.1618   193.9997  -999.2500  -999.2500
  425.0000   -42.8087     7.1477     5.1802   194.6548  -999.2500  -999.2500
  425.5000   -42.8095     7.2010     5.2361   194.6612  -999.2500  -999.2500
  426.0000   -42.8104     7.2525     5.2357   194.6688  -999.2500  -999.2500
  426.5000   -42.8110     7.2674     5.2403   194.2432  -999.2500  -999.2500
  427.0000   -42.6612     7.2574     5.3604   191.8724  -999.2500  -999.2500
  427.5000   -42.6619     7.2672     5.4054   186.4091  -999.2500  -999.2500
  428.0000   -42.5120     7.2903     5.5345   179.3383  -999.2500  -999.2500
  428.5000   -42.5129     7.3189     5.6456   172.0908  -999.2500  -999.2500
  429.0000   -42.4563     7.4169     5.8408   167.2542  -999.2500  -999.2500
  429.5000   -42.3637     7.5610     5.9838   162.5869  -999.2500  -999.2500
  430.0000   -42.3644     7.8366     6.1786   158.5851  -999.2500  -999.2500
  430.5000   -42.3968     8.2234     6.3585   155.6678  -999.2500  -999.2500
  431.0000   -42.5167     8.6185     6.5466   154.0438  -999.2500  -999.2500
  431.5000   -42.7327     9.0136     6.5201   152.8400  -999.2500  -999.2500
  432.0000   -43.1205     9.3955     6.4294   153.5441  -999.2500  -999.2500
  432.5000   -43.1212     9.3212     6.3387   154.1045  -999.2500  -999.2500
  433.0000   -43.2726     8.9518     6.2479   156.7095  -999.2500  -999.2500
  433.5000   -43.2734     8.4957     6.1572   160.4882  -999.2500  -999.2500
  434.0000   -43.2741     8.2598     6.0555   169.1882  -999.2500  -999.2500
  434.5000   -43.2748     8.1046     5.8432   173.6561  -999.2500  -999.2500
  435.0000   -43.2757     8.0757     5.7545   178.2383  -999.2500  -999.2500
  435.5000   -43.1256     8.0757     5.7541   178.2455  -999.2500  -999.2500
  436.0000   -43.1265     8.0156     5.8289   178.0524  -999.2500  -999.2500
  436.5000   -43.1273     7.8508     5.8284   175.2497  -999.2500  -999.2500
  437.0000   -42.9563     7.7725     5.9782   172.9595  -999.2500  -999.2500
  437.5000   -42.8276     7.7667     6.0592   169.2397  -999.2500  -999.2500
  438.0000   -42.7741     7.9348     6.2513   164.5279  -999.2500  -999.2500
  438.5000   -42.6785     8.1364     6.4653   159.5594  -999.2500  -999.2500
  439.0000   -42.5286     8.3380     6.6524   152.6968  -999.2500  -999.2500
  439.5000   -42.6800     8.5396     6.7964   149.2648  -999.2500  -999.2500
  440.0000   -42.6808     8.7412     7.1071   145.1807  -999.2500  -999.2500
  440.5000   -42.8321     8.9429     7.2777   140.8022  -999.2500  -999.2500
  441.0000   -42.9834     9.1445     7.4975   137.3391  -999.2500  -999.2500
  441.5000   -43.0791     9.3371     7.5514   136.1672  -999.2500  -999.2500
  442.0000   -43.1355     9.4718     7.5146   137.2540  -999.2500  -999.2500
  442.5000   -43.1364     9.6065     7.3799   139.2256  -999.2500  -999.2500
  443.0000   -43.2876     9.7387     6.9496   141.4233  -999.2500  -999.2500
  443.5000   -43.4390     9.5794     6.7312   144.5053  -999.2500  -999.2500
  444.0000   -43.4399     9.1448     6.4234   150.5127  -999.2500  -999.2500
  444.5000   -43.4405     8.7939     6.2345   159.3680  -999.2500  -999.2500
  445.0000   -43.5919     8.5750     6.1975   166.3400  -999.2500  -999.2500
  445.5000   -43.4420     8.3674     6.2721   165.5948  -999.2500  -999.2500
  446.0000   -43.4428     8.1748     6.2963   164.2986  -999.2500  -999.2500
  446.5000   -43.4436     8.0360     6.4215   161.3542  -999.2500  -999.2500
  447.0000   -43.3931     8.3138     6.5366   158.4098  -999.2500  -999.2500
  447.5000   -43.2945     8.5349     6.5710   155.0838  -999.2500  -999.2500
  448.0000   -43.1446     8.7754     6.6456   153.7348  -999.2500  -999.2500
  448.5000   -42.9692     8.9882     6.6717   152.0796  -999.2500  -999.2500
  449.0000   -42.6944     9.0375     6.7950   150.8760  -999.2500  -999.2500
  449.5000   -42.5444     9.0780     6.6774   151.2722  -999.2500  -999.2500
  450.0000   -42.3946     9.0180     6.4689   161.1454  -999.2500  -999.2500
  450.5000   -42.5459     8.3000     6.1933   172.2714  -999.2500  -999.2500
  451.0000   -42.6130     8.0133     5.9394   176.3333  -999.2500  -999.2500
  451.5000   -42.8487     7.9636     5.7421   179.9739  -999.2500  -999.2500
  452.0000   -43.0663     7.9232     5.5786   182.8613  -999.2500  -999.2500
  452.5000   -43.1588     7.8231     5.4267   186.0322  -999.2500  -999.2500
  453.0000   -43.3027     7.5699     5.3656   187.9091  -999.2500  -999.2500
  453.5000   -43.4540     7.2633     5.2601   189.1278  -999.2500  -999.2500
  454.0000   -43.4549     7.1934     5.2147   190.5737  -999.2500  -999.2500
  454.5000   -43.6061     7.2632     5.2143   190.5798  -999.2500  -999.2500
  455.0000   -43.6069     7.4791     5.2140   191.3408  -999.2500  -999.2500
  455.5000   -43.6078     7.5329     5.2135   191.3479  -999.2500  -999.2500
  456.0000   -43.7591     7.4279     5.2132   191.3554  -999.2500  -999.2500
  456.5000   -43.7598     7.3460     5.2128   192.1172  -999.2500  -999.2500
  457.0000   -43.6793     7.2328     5.2125   192.1235  -999.2500  -999.2500
  457.5000   -43.6106     7.1211     5.2302   191.3782  -999.2500  -999.2500
  458.0000   -43.6116     6.9820     5.2868   191.3856  -999.2500  -999.2500
  458.5000   -43.6122     6.9327     5.3615   190.6392  -999.2500  -999.2500
  459.0000   -43.4624     6.9802     5.3611   189.1426  -999.2500  -999.2500
  459.5000   -43.3742     7.0825     5.4104   188.1011  -999.2500  -999.2500
  460.0000   -43.1626     7.2024     5.4355   186.8976     7.8278  -999.2500
  460.5000   -43.1635     7.3046     5.3600   189.4901     7.8278  -999.2500
  461.0000   -42.9503     7.3672     5.2487   194.5062     7.8278  -999.2500
  461.5000   -42.8592     7.3609     5.0528   201.2282     7.8127  -999.2500
  462.0000   -42.7139     7.2738     4.9083   205.5525     7.8052  -999.2500
  462.5000   -42.7146     6.9809     4.7579   209.6201     7.7900  -999.2500
  463.0000   -42.7154     6.6324     4.6073   214.2396     7.7825  -999.2500
  463.5000   -42.8667     6.3773     4.4942   220.3022     7.7674  -999.2500
  464.0000   -42.8795     6.2825     4.4565   225.3621     7.7221  -999.2500
  464.5000   -43.0190     6.2265     4.4560   226.8750     7.6465  -999.2500
  465.0000   -43.0647     6.2121     4.3806   226.8825     7.7372  -999.2500
  465.5000   -43.1710     6.2159     4.3802   226.8915     7.7221  -999.2500
  466.0000   -43.1717     6.2270     4.3799   226.6716     7.6616  -999.2500
  466.5000   -43.1921     6.2339     4.4546   225.3995     7.6616  -999.2500
  467.0000   -43.3239     6.2449     4.4541   224.2646     7.7372  -999.2500
  467.5000   -43.3773     6.3068     4.4538   223.7196     7.7674  -999.2500
  468.0000   -43.4759     6.3316     4.4534   220.9049     7.7825  -999.2500
  468.5000   -43.5625     6.3398     4.5281   217.8805     7.7825  -999.2500
  469.0000   -43.6280     6.3662     4.6029   214.1418     7.7598  -999.2500
  469.5000   -43.6289     6.3914     4.6775   210.6286     7.6238  -999.2500
  470.0000   -43.6897     6.4323     4.7522   207.1286     7.4804  -999.2500
  470.5000   -43.7809     6.4812     4.8269   202.8700     7.6314  -999.2500
  471.0000   -43.7816     6.5543     4.9449   200.7931     7.7372  -999.2500
  471.5000   -43.7824     6.6773     5.0651   196.8600     7.7825  -999.2500
  472.0000   -43.7832     6.8558     5.2012   193.2533     7.7674  -999.2500
  472.5000   -43.7839     6.9659     5.3053   188.8741     7.7069  -999.2500
  473.0000   -43.7846     7.1255     5.4257   184.0822     7.6314  -999.2500
  473.5000   -43.7854     7.2935     5.5456   181.5098     7.6163  -999.2500
  474.0000   -43.7861     7.4133     5.6657   179.5531     7.7069  -999.2500
  474.5000   -43.7869     7.4401     5.7999   178.8328     7.7372  -999.2500
  475.0000   -43.7877     7.4462     5.8308   177.8992     7.7372  -999.2500
  475.5000   -43.7884     7.4699     5.8743   176.5895     7.7221  -999.2500
