~VERSION INFORMATION
 VERS.                2.0:   CWLS LOG ASCII STANDARD - VERSION 2.0
 WRAP.                 NO:   ONE LINE PER DEPTH STEP
~WELL INFORMATION
#MNEM.UNIT      DATA TYPE    INFORMATION
#----------   ------------   ------------------------------
 STRT.F           22.0000:   START DEPTH
 STOP.F          500.0000:   STOP DEPTH
 STEP.F            0.5000:   STEP LENGTH
 NULL.          -999.2500:   NO VALUE
 COMP.    FENIX & SCISSON:   COMPANY
 WELL.      NPR-3 #65S3-3:   WELL
 FLD .             teapot:   FIELD
 LOC .       S3 T38N R78W:   LOCATION
 CNTY.            NATRONA:   COUNTY
 STAT.            WYOMING:   STATE
 CTRY. UNITED STATES OF AMERICA:   COUNTRY
 SRVC.           BIRDWELL:   SERVICE COMPANY
 DATE.        07-JAN-1978:   LOGDATE
 API .       490251055200:   API NUMBER
~CURVE INFORMATION
#MNEM.UNIT       API CODE    CURVE DESCRIPTION
#----------   ------------   ------------------------------
 DEPT.F                  :   
 ILD .OHMM   05 120 46 00:   INDUCTION LOG DEEP
 SN  .OHMM   05 040 16 00:   SHORT NORMAL 16"
 SPR .MV     05 010 01 00:   SPONTANEOUS POTENTIAL FROM RES.
 CALD.IN     45 280 60 00:   CALIPER FROM DENSITY LOG
 DPHI.DEC    45 890 12 00:   DENSITY POROSITY SANDSTONE
 DRHO.G/C3   45 356 01 00:   DENSITY CORRECTION
 GRD .GAPI   45 310 01 00:   GAMMA RAY FROM DENSITY LOG
 RHOB.G/C3   45 350 01 00:   BULK DENSITY
~PARAMETER INFORMATION
#MNEM.UNIT          VALUE    DESCRIPTION
#----------   ------------   ------------------------------
 PD  .                 GL:   PERMANENT DATUM
 EPD .F              5156:   ELEVATION PERMANENT DATUM
 LMF .                 KB:   LOG MEASURED FROM
 DAPD.F                 4:   FEET ABOVE PERMANENT DATUM
 DMF .                 KB:   DRILLING MEASURED FROM
 EKB .F              5160:   KELLING BUSHING
 EGL .F              5156:   GROUND LEVEL
 DATE.        07-JAN-1978:   RUN DATE
 RUN .                  1:   RUN NUMBER
 DD  .F               500:   DEPTH DRILLER
 DL  .F               502:   DEPTH LOGGER
 BLI .F               500:   BOTTOM LOG INTERVAL
 TLI .F                30:   TOP LOG INTERVAL
 CS  .IN            8.625:   CASING SIZE
 CBD .F                40:   CASING BOTTOM DRILLER
 CBL .F                40:   CASING BOTTOM LOGGER
 BS  .IN            7.875:   BIT SIZE
 BSD .F               500:   BIT SIZE AT DEPTH
 DFT .                KCL:   DRILLING FLUID TYPE
 DFD .                8.6:   DRILLING FLUID DENSITY
 DFV .                 33:   DRILLING FLUID VISCOSITY
 DFPH.                9.0:   DRILLING FLUID PH
 DFL .                7.6:   DRILLING FLUID LOSS
 MSS .           FLOWLINE:   MUD SAMPLE SOURCE
 RMS .OHMM           0.23:   RESISTIVITY MUD SAMPLE
 MST .F                60:   MUD SAMPLE TEMPERATURE
 RMF .OHMM            2.2:   RESISTIVITY MUD FILTRATE SAMPLE
 MFST.F                60:   MUD FILTRATE SAMPLE TEMPERATURE
 RMC .OHMM            3.4:   RESISTIVITY MUD CAKE
 MCST.F                60:   MUD CAKE SAMPLE TEMPERATURE
 MFSS.               MEAS:   MUD FILTRATE SAMPLE SOURCE
 MCSS.               MEAS:   MUD CAKE SAMPLE SOURCE
 RMB .OHMM            1.9:   RESISTIVITY MUD AT BHT
 BHT .F                71:   BOTTOM HOLE TEMPERATURE
 TCS .HRS               8:   TIME CURCULATED STOPPED
 MRT .F                71:   MAXIMUM RECORDED TEMPERATURE
 LUN .               2958:   LOGGING UNIT NUMBER
 LUL .             CASPER:   LOGGING UNIT LOCATION
 ENGI.            POINTER:   RECORDING ENGINEER
 WITN.      DAVE MCGINLEY:   WITNESSED BY
 CLNT.            A2DTECH:   CLIENT CODE
 ORIG.           5" PRINT:   ORIGIN OF DATA
 UWI .       490251055200:   UNIQUE WELL ID
 DICO. A2D Technologies, Inc.:   DIGITIZING COMPANY
~OTHER INFORMATION
~A   DEPT      ILD         SN        SPR       CALD       DPHI       DRHO         GRD      RHOB   
# ...
   62.5000     7.8379    14.1052    -9.3961     8.1579     0.1037     0.0194   101.4479     2.4741
   63.0000     7.8288    14.0882    -9.4077     8.1573     0.1055     0.0202   102.0696     2.4711
   63.5000     7.8180    13.9693   -11.2374     8.1567     0.1076     0.0187   102.3938     2.4651
   64.0000     7.8661    13.1945    -9.7338     8.1261     0.1079     0.0195   103.0155     2.4622
   64.5000     7.8550    12.9959    -9.5938     8.1405     0.1066     0.0226   103.9349     2.4605
   65.0000     7.8461    12.8900    -9.9113     8.1591     0.1018     0.0241   104.8543     2.4593
   65.5000     7.8370    12.8746   -10.0744     8.1452     0.0976     0.0219   105.7737     2.4702
   66.0000     7.8262    12.7658   -10.2374     8.1317     0.1012     0.0235   106.0978     2.4751
   66.5000     7.8173    12.7505   -10.2490     8.1032     0.0991     0.0243   106.4153     2.4714
   67.0000     7.7542    12.7353    -9.9545     8.1051     0.0973     0.0235   102.8770     2.4744
   67.5000     7.7454    12.6315    -9.6689     8.0766     0.1012     0.0198   103.2012     2.4797
   68.0000     7.7365    12.6164    -9.6805     8.0481     0.1018     0.0183   102.3348     2.4752
   68.5000     7.7821    12.6007    -9.8436     8.0346     0.1003     0.0176   100.8733     2.4722
   69.0000     7.7711    12.5824    -9.8551     8.0360     0.0994     0.0154    99.1141     2.4768
   69.5000     8.0379    12.6591    -9.8667     8.0225     0.0987     0.0109    99.1406     2.4738
   70.0000     8.1986    12.6402   -10.0326     8.0240     0.0987     0.0094   100.0600     2.4594
   70.5000     8.3044    12.7138    -9.8898     8.0255     0.0987     0.0140   103.3603     2.4536
   71.0000     8.3531    12.8769    -9.9042     8.0270     0.0999     0.0208   105.7679     2.4561
   71.5000     8.4021    12.7681   -10.0673     8.0135     0.1014     0.0329   105.7943     2.4638
   72.0000     8.4514    12.7528   -10.2303     8.0150     0.0966     0.0315   104.5754     2.4838
   72.5000     8.4395    12.8268   -10.3963     8.0165     0.0993     0.0277   104.3592     2.4792
   73.0000     8.4299    12.8114   -10.8624     8.0182     0.0977     0.0285   106.5734     2.4762
   73.5000     8.3595    12.7957   -11.3285     8.0202     0.0938     0.0308   107.0909     2.4793
   74.0000     8.2343    12.7769   -11.4916     8.0223     0.0892     0.0316   103.2550     2.4876
   74.5000     8.1110    12.7616   -11.5031     8.0244     0.0872     0.0301   102.3820     2.4958
   75.0000     8.1019    12.8395   -11.3632     8.0265     0.0900     0.0279   101.5223     2.4989
   75.5000     8.0926    12.8202   -11.3776     8.0286     0.0935     0.0219   100.9469     2.4914
   76.0000     8.0813    12.7999   -11.3891     8.0307     0.1106     0.0159   101.8729     2.4832
   76.5000     8.0160    12.6967   -11.5522     8.0328     0.1067     0.0144   103.0899     2.4697
   77.0000     7.8960    12.5056   -11.8668     8.0349     0.1034     0.0167   102.5212     2.4645
   77.5000     7.8322    12.4906   -12.0530     8.0369     0.0998     0.0213    99.8692     2.4668
   78.0000     7.7690    12.5669   -12.1958     8.0390     0.0965     0.0266    99.2938     2.4751
   78.5000     7.7580    12.6360   -11.7528     8.0411     0.0992     0.0267   102.0055     2.4856
   79.0000     7.7493    12.7093   -11.4585     8.0432     0.0998     0.0267   102.0321     2.4849
   79.5000     7.7405    12.6902   -11.3212     8.0453     0.0995     0.0283   103.2491     2.4781
   80.0000     7.7318    12.5868   -11.3535     8.0474     0.0979     0.0336   104.1684     2.4752
   80.5000     7.6693    12.6636   -11.6504     8.0495     0.0952     0.0390   103.3021     2.4729
   81.0000     7.6585    12.7333   -11.9650     8.0516     0.0915     0.0451   102.7321     2.4835
   81.5000     7.7056    12.7142   -11.6735     8.0536     0.0883     0.0480   101.8661     2.4888
   82.0000     7.6947    12.6990   -11.0788     8.0557     0.0885     0.0418   102.1912     2.4933
   82.5000     7.6860    12.6838   -11.0909     8.0578     0.0977     0.0357   103.7058     2.4918
   83.0000     7.7311    12.5804   -11.1050     8.0599     0.1057     0.0300   103.4345     2.4871
   83.5000     7.7202    12.5653   -11.4196     8.0620     0.1087     0.0187   103.1636     2.4781
   84.0000     7.7114    12.6506   -11.7342     8.0641     0.1120     0.0105   104.3968     2.4640
   84.5000     7.8679    13.0677   -12.0488     8.0662     0.1153     0.0090   105.3006     2.4498
   85.0000     8.0791    13.1474   -12.2121     8.0683     0.1153     0.0098   105.6250     2.4470
   85.5000     8.0700    13.2197   -11.9232     8.0703     0.1135     0.0129   105.3530     2.4485
   86.0000     8.2898    13.2039   -11.7804     8.0703     0.1069     0.0212   102.4100     2.4545
   86.5000     8.5140    13.1876   -11.7948     8.0697     0.1002     0.0220   100.5327     2.4688
   87.0000     8.5020    13.1683   -11.8064     8.0691     0.1038     0.0182    99.4802     2.4756
   87.5000     8.4924    13.2487   -11.8182     8.0685     0.1026     0.0175    98.9181     2.4726
   88.0000     8.4828    13.2288   -12.1354     8.0679     0.0999     0.0191    98.9446     2.4682
   88.5000     8.4732    13.2130   -12.2985     8.0673     0.1011     0.0229    98.6735     2.4607
   89.0000     8.5826    13.2967   -12.4615     8.0666     0.1002     0.0199    97.5096     2.4720
   89.5000     8.7517    13.0857   -12.6246     8.0660     0.0990     0.0154    96.9342     2.4757
   90.0000     8.8055    13.0700   -12.4747     8.0654     0.1065     0.0139    97.8602     2.4540
   90.5000     8.6110    13.1497   -11.5900     8.0648     0.1071     0.0200   100.2677     2.4615
   91.0000     8.6009    13.2226   -11.6016     8.0642     0.1023     0.0231   101.7823     2.4691
   91.5000     8.7098    13.2060   -11.9161     8.0636     0.0999     0.0216   102.4041     2.4744
   92.0000     8.6999    13.2828   -11.9277     8.0630     0.1062     0.0194   101.5377     2.4699
   92.5000     8.8122    13.2629   -11.9392     8.0624     0.1025     0.0187    99.4809     2.4677
   93.0000     8.8023    13.2470   -11.7993     8.0618     0.1025     0.0202    98.6080     2.4730
   93.5000     8.7921    13.2312   -11.6593     8.0612     0.1040     0.0187    98.0446     2.4737
   94.0000     8.7799    13.3066   -11.6738     8.0606     0.1070     0.0173    97.7738     2.4670
   94.5000     8.7700    13.3843   -11.5309     8.0600     0.1079     0.0173    97.5030     2.4640
   95.0000     8.8239    13.3675   -11.8485     8.0594     0.1085     0.0158    97.5302     2.4641
   95.5000     8.8115    13.5395   -11.8628     8.0587     0.1091     0.0144    97.2589     2.4633
   96.0000     8.8631    13.6180   -11.7200     8.0581     0.1094     0.0106    97.5833     2.4626
   96.5000     8.9151    13.5976   -11.5800     8.0575     0.1097     0.0069    97.2966     2.4597
   97.0000     8.9674    13.7723   -11.4429     8.0569     0.1106     0.0032    96.1210     2.4507
   97.5000     9.0200    13.9493   -11.4545     8.0563     0.1112     0.0077    95.5407     2.4440
   98.0000     9.1978    14.2233   -11.4689     8.0557     0.1120     0.0055    95.0108     2.4492
   98.5000     9.3865    14.4103   -11.4805     8.0551     0.1144     0.0048    94.7397     2.4564
   99.0000     9.5693    14.4939   -11.4920     8.0545     0.1102     0.0101    96.5585     2.4531
   99.5000     9.7580    14.3758   -11.5036     8.0539     0.1084     0.0109    97.1803     2.4568
  100.0000     9.7469    14.9685   -11.5152     8.0240     0.1063     0.0102    97.2063     2.4704
  100.5000     9.9529    14.8477   -11.5296     8.0243     0.1063     0.0102    96.9262     2.4688
  101.0000    10.0722    14.9362   -11.5411     8.0246     0.1069     0.0118    96.0627     2.4629
  101.5000    10.2000    15.1259   -11.0982     8.0249     0.1041     0.0163    94.3004     2.4655
  102.0000    10.2631    15.3221   -10.1977     8.0252     0.0957     0.0209    93.1275     2.4780
  102.5000    10.4661    15.5250   -10.7076     8.0255     0.0930     0.0224    94.9425     2.4885
