~VERSION INFORMATION
 VERS.                2.0:   CWLS LOG ASCII STANDARD - VERSION 2.0
 WRAP.                 NO:   ONE LINE PER DEPTH STEP
~WELL INFORMATION
#MNEM.UNIT      DATA TYPE    INFORMATION
#----------   ------------   ------------------------------
 STRT.F           80.0000:   START DEPTH
 STOP.F          740.0000:   STOP DEPTH
 STEP.F            0.5000:   STEP LENGTH
 NULL.          -999.2500:   NO VALUE
 COMP. U S NAVY/INTEX OIL CO:   COMPANY
 WELL. NPR 3 TEAPOT DOME #73-S-34:   WELL
 FLD .             TEAPOT:   FIELD
 LOC .      S34 T39N R78W:   LOCATION
 CNTY.            NATRONA:   COUNTY
 STAT.            WYOMING:   STATE
 CTRY. UNITED STATES OF AMERICA:   COUNTRY
 SRVC. Schlumberger Well Surveying Corp:   SERVICE COMPANY
 DATE.        19-FEB-1961:   LOGDATE
 API .       490250655200:   API NUMBER
~CURVE INFORMATION
#MNEM.UNIT       API CODE    CURVE DESCRIPTION
#----------   ------------   ------------------------------
 DEPT.F                  :   
 GR  .CPS    99 310 30 00:   GAMMA RAY FROM PERFORATING FORMATION COLLAR CHART
 SPR .MV     05 010 01 00:   SPONTANEOUS POTENTIAL
 ILD .OHMM   05 120 46 00:   INDUCTION LOG DEEP
 CILD.MMHO   05 110 46 00:   CONDUCTIVITY INDUCTION LOG DEEP
 ASN .OHMM   05 041 16 00:   AMPLIFIED SHORT NORMAL 16"
~PARAMETER INFORMATION
#MNEM.UNIT          VALUE    DESCRIPTION
#----------   ------------   ------------------------------
 LMF .                 KB:   LOG MEASURED FROM
 DMF .                 KB:   DRILLING MEASURED FROM
 EKB .F              5044:   KELLING BUSHING
 EGL .F              5040:   GROUND LEVEL
 DATE.          2-19-1961:   RUN DATE
 RUN .                  1:   RUN NUMBER
 DD  .F               740:   DEPTH DRILLER
 DL  .F               741:   DEPTH LOGGER
 BLI .F               740:   BOTTOM LOG INTERVAL
 TLI .F                80:   TOP LOG INTERVAL
 CBD .F               740:   CASING BOTTOM DRILLER
 CBL .F               741:   CASING BOTTOM LOGGER
 BS  .IN            7.875:   BIT SIZE
 BSD .F               740:   BIT SIZE AT DEPTH
 DFT .       GEL-OIL EMUL:   DRILLING FLUID TYPE
 DFD .                9.2:   DRILLING FLUID DENSITY
 DFV .                 49:   DRILLING FLUID VISCOSITY
 DFPH.                  8:   DRILLING FLUID PH
 DFL .               11.4:   DRILLING FLUID LOSS
 MSS .           FLOWLINE:   MUD SAMPLE SOURCE
 RMS .OHMM            .84:   RESISTIVITY MUD SAMPLE
 MST .F                74:   MUD SAMPLE TEMPERATURE
 RMF .OHMM            .83:   RESISTIVITY MUD FILTRATE SAMPLE
 MFST.F                75:   MUD FILTRATE SAMPLE TEMPERATURE
 RMC .OHMM            .52:   RESISTIVITY MUD CAKE
 MCST.F                74:   MUD CAKE SAMPLE TEMPERATURE
 RMB .OHMM           1.98:   RESISTIVITY MUD AT BHT
 BHT .F                70:   BOTTOM HOLE TEMPERATURE
 TCS .HRS               1:   TIME CURCULATED STOPPED
 MRT .F                70:   MAXIMUM RECORDED TEMPERATURE
 LUN .               2523:   LOGGING UNIT NUMBER
 LUL .               CSPR:   LOGGING UNIT LOCATION
 ENGI.             KNOBEL:   RECORDING ENGINEER
 WITN.          JORGENSEN:   WITNESSED BY
 CLNT.            A2DTECH:   CLIENT CODE
 ORIG.        2" 5" PRINT:   ORIGIN OF DATA
 UWI .       490250655200:   UNIQUE WELL ID
 DICO. A2D Technologies, Inc.:   DIGITIZING COMPANY
~OTHER INFORMATION
~A   DEPT       GR        SPR          ILD      CILD         ASN 
# ...
  629.0000    55.1265   -17.4286    14.4268    68.2827    17.0056
  629.5000    49.1087   -17.3336    14.1798    69.5982    16.8854
  630.0000    43.5570   -17.5083    14.2297    70.8982    17.1000
  630.5000    45.7508   -17.7339    14.3015    70.4753    17.1538
  631.0000    42.5237   -17.9614    14.3740    69.6749    17.1746
  631.5000    43.7081   -18.1862    14.4696    69.1617    16.8663
  632.0000    41.7311   -18.3261    14.3471    69.6347    16.5674
  632.5000    38.1688   -18.1235    14.3039    70.0935    16.6653
  633.0000    39.8856   -17.9296    14.4378    69.3829    16.7927
  633.5000    42.0720   -17.6909    14.5666    68.6811    16.9195
  634.0000    39.0964   -17.5382    14.7197    68.0198    17.0458
  634.5000    37.6038   -17.6394    14.6032    68.6578    17.1723
  635.0000    39.0499   -17.8955    14.3119    69.2865    17.2976
  635.5000    41.3452   -18.1488    14.0049    69.9138    17.3714
  636.0000    41.8667   -18.4025    14.1096    70.5443    17.2505
  636.5000    39.2578   -18.6560    14.1765    71.1237    17.1345
  637.0000    40.3852   -18.9097    14.2526    69.8800    17.0186
  637.5000    38.9883   -19.1641    14.3288    68.6756    16.9017
  638.0000    41.7145   -19.4159    14.3692    69.0550    16.7936
  638.5000    43.9988   -19.5643    14.0354    70.7652    16.6696
  639.0000    43.6743   -19.3456    13.6984    72.3910    16.7240
  639.5000    44.1375   -19.1376    13.7261    74.0167    16.7686
  640.0000    38.8090   -18.9804    13.6230    74.4822    16.8130
  640.5000    42.4885   -18.9802    13.5206    74.7560    16.8600
  641.0000    39.0477   -19.1583    13.4589    75.0298    16.9418
  641.5000    34.5980   -19.4152    13.7516    75.2856    17.2404
  642.0000    36.1769   -19.6744    13.9766    71.5888    17.8321
  642.5000    38.3466   -19.8159    14.4131    68.1205    18.6474
  643.0000    36.4685   -19.6969    15.4576    63.7682    19.5279
  643.5000    36.7253   -19.5286    16.9143    58.9819    21.4260
  644.0000    34.9242   -19.3577    18.3368    54.1956    23.2979
  644.5000    30.3152   -19.1869    19.7638    49.4094    25.1658
  645.0000    31.6019   -19.0162    21.2028    44.6231    27.2586
  645.5000    32.4711   -18.8456    22.3351    43.5598    26.2974
  646.0000    30.8883   -18.6749    19.6392    48.9029    24.5349
  646.5000    31.0033   -18.5043    17.3975    54.2460    21.8863
  647.0000    28.5252   -18.3336    16.2802    59.5891    19.4548
  647.5000    26.1823   -18.1630    15.2558    64.9322    18.3370
  648.0000    25.1427   -17.9921    14.2843    70.2753    17.2973
  648.5000    28.6685   -17.8206    13.3093    75.6184    16.2616
  649.0000    31.3198   -17.6522    12.6062    80.9615    15.9035
  649.5000    34.1217   -17.5941    12.6783    82.2965    15.6316
  650.0000    31.5834   -17.8663    12.7235    81.9261    15.3594
  650.5000    33.5885   -18.1252    12.7678    81.5556    15.0853
  651.0000    36.4732   -18.3838    12.8113    81.1852    15.0853
  651.5000    39.6536   -18.6424    12.7902    80.8148    15.2455
  652.0000    35.8317   -18.9014    12.7211    80.4444    15.4086
  652.5000    37.0826   -19.1603    12.6522    80.0739    15.2208
  653.0000    38.6513   -19.3973    12.6165    79.7035    14.9953
  653.5000    36.0285   -19.3064    12.6168    79.5630    14.7685
  654.0000    33.6982   -19.1711    12.6191    79.9948    14.5434
  654.5000    35.2284   -19.0348    12.7423    80.4262    14.3844
  655.0000    37.5684   -18.8988    13.0041    80.8584    14.5028
  655.5000    39.3562   -18.7628    13.2281    81.2902    14.6166
  656.0000    41.0251   -18.6266    13.0432    81.7221    14.7295
  656.5000    42.2815   -18.4891    12.8557    82.1539    14.8425
  657.0000    40.4654   -18.3553    12.6701    82.5857    14.8972
  657.5000    42.0980   -18.6585    12.4852    83.0175    14.8033
  658.0000    42.9182   -19.0129    12.3004    83.4493    14.7106
  658.5000    39.1497   -19.3681    12.1955    83.8811    14.6183
  659.0000    37.7202   -19.7225    12.1717    84.3129    14.5262
  659.5000    40.1896   -20.0769    12.1479    84.7447    14.4341
  660.0000    37.3859   -20.4317    12.1244    85.1765    14.3420
  660.5000    35.8658   -20.7925    12.1013    85.6083    14.2497
  661.0000    38.1163   -20.7374    12.1228    85.2163    14.1570
  661.5000    36.0725   -20.5561    12.1786    84.6875    14.0700
  662.0000    37.7154   -20.3741    12.2340    84.1588    14.1458
  662.5000    40.2509   -20.2780    12.2895    83.6300    14.2349
  663.0000    42.8207   -20.5819    12.3450    83.1013    14.3241
  663.5000    43.7823   -20.8748    12.4012    82.5725    14.4129
  664.0000    40.5174   -20.9946    12.4277    82.0438    14.5018
  664.5000    42.7554   -20.8184    12.5171    81.5150    14.5911
  665.0000    41.0465   -20.6464    12.6058    80.9863    14.6803
  665.5000    39.6914   -20.4701    12.5469    80.4777    14.6784
  666.0000    44.0746   -20.4043    12.4635    81.3303    14.6023
  666.5000    40.0056   -20.3496    12.3795    82.3481    14.5280
  667.0000    42.1538   -20.2953    12.2960    83.3656    14.4539
  667.5000    39.6589   -20.2395    12.2125    84.3838    14.3799
  668.0000    37.7006   -20.2473    12.1271    85.4016    14.3059
  668.5000    40.4507   -20.3770    12.0406    86.4195    14.2319
  669.0000    38.2610   -20.5069    11.9027    87.4373    14.1578
  669.5000    35.4998   -20.6363    11.7668    88.4552    14.0838
  670.0000    31.7440   -20.7630    11.6290    89.4737    14.0098
  670.5000    27.2160   -20.7926    11.5666    90.4931    13.9358
  671.0000    25.1260   -20.6063    11.5350    91.5067    13.8617
  671.5000    26.6229   -20.4224    11.5047    91.9045    13.7874
  672.0000    27.4800   -20.2383    11.4778    91.9003    13.7137
  672.5000    26.3149   -20.3354    11.3811    92.2280    13.6655
  673.0000    31.6012   -20.4548    11.2665    92.7640    13.7302
  673.5000    34.8224   -20.5734    11.1473    93.3000    13.7927
  674.0000    37.6809   -20.6915    10.9758    93.8361    13.8546
  674.5000    36.6269   -20.8097    11.0756    94.3721    13.9133
  675.0000    39.3822   -20.9295    11.2287    94.9081    13.9865
  675.5000    41.5115   -21.0532    11.3815    94.4444    14.2128
  676.0000    42.9287   -20.7942    11.5255    91.5657    14.2931
  676.5000    40.6963   -20.4972    11.8110    88.7850    14.3662
  677.0000    42.3816   -20.2395    12.1006    86.5056    14.6149
  677.5000    43.4883   -20.4129    12.5252    83.3460    15.0012
  678.0000    36.4211   -20.5924    12.9576    80.1864    15.3896
  678.5000    37.5508   -20.6201    13.3891    77.0268    15.7781
  679.0000    38.5498   -20.1396    13.8322    73.8672    16.1657
  679.5000    32.3749   -19.6620    14.2928    70.7076    16.6979
  680.0000    33.7278   -19.1864    14.7549    67.5481    17.2682
  680.5000    35.1139   -18.7164    15.2244    64.3885    17.8351
  681.0000    34.5388   -18.4240    15.5363    61.7599    18.4259
  681.5000    36.0895   -18.7467    15.9102    62.1607    18.4829
  682.0000    38.6357   -18.8027    16.1464    62.5422    18.2575
  682.5000    36.3216   -18.0055    15.9639    62.9283    18.0973
  683.0000    32.0568   -17.2679    15.7700    63.3122    17.9399
  683.5000    33.4722   -16.7318    15.7638    63.6960    17.8471
  684.0000    35.6341   -16.9648    16.0290    63.0878    18.1229
  684.5000    37.4801   -17.1817    16.5935    61.7161    18.3944
  685.0000    36.7152   -17.3971    17.1717    60.3445    18.6648
  685.5000    38.6505   -17.6124    17.3818    58.9729    18.9347
  686.0000    42.7088   -17.8276    17.4220    57.5999    19.3123
  686.5000    44.1425   -18.0429    17.3608    56.2291    19.7852
  687.0000    39.2164   -18.2584    17.3303    54.8442    19.8837
  687.5000    36.6425   -18.4727    17.3023    55.0859    19.3832
  688.0000    38.0138   -18.6929    17.0468    56.1169    19.0099
  688.5000    40.2263   -18.5190    16.6974    58.0088    18.6371
  689.0000    40.9813   -18.0960    16.2288    60.6023    18.2644
  689.5000    40.2180   -17.6721    15.7550    63.1931    17.8897
