~VERSION INFORMATION
 VERS.                2.0:   CWLS LOG ASCII STANDARD - VERSION 2.0
 WRAP.                 NO:   ONE LINE PER DEPTH STEP
~WELL INFORMATION
#MNEM.UNIT      DATA TYPE    INFORMATION
#----------   ------------   ------------------------------
 STRT.F           25.0000:   START DEPTH
 STOP.F          439.0000:   STOP DEPTH
 STEP.F            0.5000:   STEP LENGTH
 NULL.          -999.2500:   NO VALUE
 COMP. LAWRENCE/ALLISON INC:   COMPANY
 WELL.    63-31 SX #10-10:   WELL
 FLD .             TEAPOT:   FIELD
 LOC .      S10 T38N R78W:   LOCATION
 CNTY.            NATRONA:   COUNTY
 STAT.            WYOMING:   STATE
 CTRY. UNITED STATES OF AMERICA:   COUNTRY
 SRVC.           Gearhart:   SERVICE COMPANY
 DATE.        29-SEP-1988:   LOGDATE
 API .       490251125000:   API NUMBER
~CURVE INFORMATION
#MNEM.UNIT       API CODE    CURVE DESCRIPTION
#----------   ------------   ------------------------------
 DEPT.F                  :   
 GRR .GAPI   07 310 01 00:   GAMMA RAY
 RILD.OHMM   07 120 46 00:   INDUCTION LOG DEEP RESISTIVITY
 RILM.OHMM   07 120 44 00:   INDUCTION LOG MEDIUM RESISTIVITY
~PARAMETER INFORMATION
#MNEM.UNIT          VALUE    DESCRIPTION
#----------   ------------   ------------------------------
 PD  .                 GL:   PERMANENT DATUM
 EPD .F              5165:   ELEVATION PERMANENT DATUM
 LMF .                 KB:   LOG MEASURED FROM
 DAPD.F                10:   FEET ABOVE PERMANENT DATUM
 DMF .                 KB:   DRILLING MEASURED FROM
 EKB .F              5175:   KELLING BUSHING
 EGL .F              5165:   GROUND LEVEL
 DATE.        29-SEP-1988:   RUN DATE
 RUN .                  1:   RUN NUMBER
 DD  .F               440:   DEPTH DRILLER
 DL  .F               440:   DEPTH LOGGER
 BLI .F               439:   BOTTOM LOG INTERVAL
 TLI .F                40:   TOP LOG INTERVAL
 CS  .IN            9.625:   CASING SIZE
 CBD .F                45:   CASING BOTTOM DRILLER
 CBL .F                46:   CASING BOTTOM LOGGER
 BS  .IN             8.75:   BIT SIZE
 BSD .F               440:   BIT SIZE AT DEPTH
 TLAB.HRS            2126:   TIME LOGGER AT BOTTOM
 MRT .F                70:   MAXIMUM RECORDED TEMPERATURE
 LUN .               7597:   LOGGING UNIT NUMBER
 LUL .           GILLETTE:   LOGGING UNIT LOCATION
 ENGI.         WEATHERMON:   RECORDING ENGINEER
 WITN.             STRONG:   WITNESSED BY
 CLNT.            A2DTECH:   CLIENT CODE
 ORIG.        2" 5" PRINT:   ORIGIN OF DATA
 UWI .       490251125000:   UNIQUE WELL ID
 DICO. A2D Technologies, Inc.:   DIGITIZING COMPANY
~OTHER INFORMATION
~A   DEPT       GRR      RILD       RILM   
# ...
  207.0000   134.3892     6.1136     5.4926
  207.5000   131.0487     6.3210     5.9135
  208.0000   127.1004     6.5442     6.0454
  208.5000   126.4954     6.9187     6.3564
  209.0000   127.7144     7.3660     6.8474
  209.5000   129.2372     7.7333     7.2505
  210.0000   129.5643     7.8958     7.6460
  210.5000   128.3313     7.7301     7.8622
  211.0000   128.9423     7.4633     7.9722
  211.5000   131.3769     7.0073     7.9160
  212.0000   134.7234     6.5791     7.6974
  212.5000   136.8541     6.3965     7.0782
  213.0000   136.2492     6.2626     6.3296
  213.5000   135.0285     6.1745     5.6997
  214.0000   135.0639     5.9614     5.3149
  214.5000   138.7552     5.8775     5.1322
  215.0000   139.6048     6.0006     5.3142
  215.5000   136.2157     6.2125     5.7381
  216.0000   130.0187     6.3872     5.9415
  216.5000   128.9756     6.7057     6.2824
  217.0000   130.1945     7.0402     6.6429
  217.5000   130.1976     7.3399     7.0241
  218.0000   130.2006     7.6523     7.2732
  218.5000   130.2522     7.9226     7.6370
  219.0000   130.2066     8.1453     8.0752
  219.5000   129.9056     8.4329     8.3035
  220.0000   129.9094     8.7919     8.7797
  220.5000   130.2164     8.9761     8.9651
  221.0000   131.4352     9.1005     9.0273
  221.5000   131.7422     9.0986     9.1535
  222.0000   131.4413     9.1604     9.0892
  222.5000   128.4048     9.2232     9.1524
  223.0000   126.5834     9.2859     9.2159
  223.5000   126.5872     9.2834     9.2151
  224.0000   126.5902     9.2815     9.2144
  224.5000   126.5932     9.2796     9.2138
  225.0000   126.2923     9.2776     9.2131
  225.5000   125.3835     9.2757     9.2125
  226.0000   123.8667     9.2737     9.2119
  226.5000   121.1335     9.2718     9.2112
  227.0000   120.8325     9.2699     9.2106
  227.5000   124.1798     9.3329     9.2099
  228.0000   132.0855     9.3309     9.2740
  228.5000   132.6957     9.3948     9.2732
  229.0000   129.9639     9.5917     9.2725
  229.5000   128.1433     9.7922     9.0797
  230.0000   126.9305     9.8593     8.7065
  230.5000   125.4138     9.6524     8.2906
  231.0000   124.2010     9.3192     7.8396
  231.5000   122.3803     8.0465     7.2090
  232.0000   123.9031     7.0946     6.6291
  232.5000   127.5535     6.8497     5.9279
  233.0000   132.4198     6.8007     5.5664
  233.5000   137.5900     6.8469     5.7638
  234.0000   137.8962     6.9904     6.3111
  234.5000   133.9486     7.4422     6.9587
  235.0000   131.5201     8.0347     7.3580
  235.5000   126.3559     8.9826     8.2272
  236.0000   123.9273     9.8341     9.2635
  236.5000   123.3225    10.6170    10.2141
  237.0000   122.7176    11.2247    11.0288
  237.5000   121.5048    11.3801    11.2615
  238.0000   119.3802    11.5388    11.2607
  238.5000   118.4706    11.9519    11.2599
  239.0000   118.1697    12.7246    11.3383
  239.5000   117.8688    13.5495    11.6584
  240.0000   116.3528    14.3277    12.1564
  240.5000   114.5321    15.6977    12.9440
  241.0000   109.9759    16.8341    13.9764
  241.5000   106.0275    18.1935    16.0701
  242.0000    96.3041    20.4898    19.2679
  242.5000    80.5017    22.8939    21.3941
  243.0000    75.6415    25.2735    23.7548
  243.5000    71.9971    28.4310    29.2887
  244.0000    68.9606    30.2403    33.2091
  244.5000    66.8360    31.4921    37.3922
  245.0000    65.3193    32.5602    37.9421
  245.5000    65.2856    33.2426    36.3571
  246.0000    67.1490    34.1770    34.6203
  246.5000    68.3679    33.9321    34.3770
  247.0000    68.9788    33.6890    34.8581
  247.5000    69.2858    33.6819    36.0941
  248.0000    68.3769    33.6749    37.6358
  248.5000    63.8207    33.4336    38.6992
  249.0000    58.0487    33.6626    38.4272
  249.5000    57.4438    34.1289    37.3661
  250.0000    59.8784    34.4654    36.3343
  250.5000    62.4029    35.0852    35.7890
  251.0000    65.0643    35.0827    35.0681
  251.5000    68.1128    35.3656    35.3044
  252.0000    72.0732    36.3237    36.2919
  252.5000    69.3466    37.3500    37.0500
  253.0000    66.0082    37.0875    37.3019
  253.5000    63.8744    36.5707    38.3453
  254.0000    63.5985    36.3137    39.1490
  254.5000    65.4853    36.0585    38.8632
  255.0000    66.3543    36.0560    38.3137
  255.5000    67.5791    36.0536    38.0366
  256.0000    70.0197    36.0511    38.0262
  256.5000    70.6344    36.3018    38.5504
  257.0000    70.0354    36.8092    38.5398
  257.5000    70.9585    37.3249    38.2611
  258.0000    77.9584    37.8467    38.2505
  258.5000    80.3990    38.3763    38.2398
  259.0000    79.1922    39.1859    38.8048
  259.5000    75.8577    39.1832    39.3016
  260.0000    75.2566    39.1805    39.2881
  260.5000    76.4836    39.1777    39.2773
  261.0000    78.3163    39.1750    39.2665
  261.5000    79.5411    38.8991    39.2557
  262.0000    79.2380    38.0901    38.7006
  262.5000    77.7102    37.2979    37.8879
  263.0000    76.1824    36.5222    37.0923
  263.5000    74.7161    36.0132    36.3133
  264.0000    73.2053    35.2642    35.5508
  264.5000    72.3002    34.2905    34.5620
  265.0000    72.6154    33.3437    33.6008
  265.5000    74.1442    31.5299    31.9891
  266.0000    76.5848    29.4013    30.2260
  266.5000    81.7609    27.8020    27.3841
  267.0000    86.9371    26.8462    26.4703
  267.5000    89.3777    26.6576    26.2773
  268.0000    89.0827    25.9215    25.5465
  268.5000    87.2680    25.3824    25.0100
  269.0000    86.6691    24.6769    24.4848
  269.5000    85.7659    24.3240    24.3078
  270.0000    85.1672    23.8313    24.1320
  270.5000    84.8724    23.8296    23.9575
  271.0000    85.4894    23.8277    24.1187
  271.5000    86.7770    23.9934    24.2827
  272.0000    90.3101    24.3292    24.9619
  272.5000    92.2054    24.6696    24.9551
  273.0000    90.3907    24.4959    25.4765
  273.5000    87.9681    24.3237    25.6478
  274.0000    87.0630    24.4929    25.6407
  274.5000    88.2900    24.8352    25.6335
  275.0000    88.9069    24.8335    25.6264
  275.5000    87.7001    24.8318    25.6179
  276.0000    87.0989    24.4857    25.6108
  276.5000    88.0220    24.3137    25.4256
  277.0000    88.0310    23.8080    25.0661
  277.5000    88.0400    23.8064    24.8848
  278.0000    88.3529    23.6391    24.7049
  278.5000    89.5777    23.6374    24.3556
  279.0000    90.4986    23.6204    24.1794
  279.5000    90.8115    23.2826    23.8376
  280.0000    89.3008    23.1422    23.5005
  280.5000    89.0058    22.8197    23.1682
  281.0000    89.7325    22.5017    23.0007
  281.5000    91.4576    22.3436    22.8343
  282.0000    87.8192    22.4990    22.6691
  282.5000    88.1322    22.1850    22.6444
  283.0000    89.3570    21.7236    22.3143
  283.5000    90.8857    21.1238    22.0251
  284.0000    92.4145    20.9757    22.0190
  284.5000    92.1195    21.4183    22.0130
  285.0000    91.5206    21.8698    22.0069
  285.5000    90.3138    22.0219    22.1566
  286.0000    88.8030    22.4862    22.1490
  286.5000    86.6843    22.4846    22.2996
  287.0000    84.2617    22.6406    22.2919
  287.5000    84.5747    22.6391    22.4435
  288.0000    88.5350    22.6375    22.4358
  288.5000    89.1611    22.6360    22.2735
  289.0000    89.4651    22.7930    22.1125
  289.5000    89.4741    22.9511    22.1064
  290.0000    89.4851    23.1100    22.2655
  290.5000    89.4941    23.1084    22.5619
  291.0000    88.5890    22.9460    22.7138
  291.5000    87.6883    22.4688    22.2353
  292.0000    87.3911    21.8484    21.4665
  292.5000    86.4905    21.2451    20.8694
  293.0000    84.9798    20.6585    20.2890
  293.5000    82.2532    20.0881    19.7247
  294.0000    81.0441    19.2625    19.1761
  294.5000    81.3593    18.6003    18.6428
  295.0000    84.4078    18.2134    18.1243
  295.5000    87.7603    17.8346    17.9932
  296.0000    89.2890    17.7093    17.8631
  296.5000    90.2099    17.7081    17.7339
  297.0000    91.4347    17.5836    17.6057
  297.5000    92.3556    17.4601    17.4784
