~VERSION INFORMATION
 VERS.                2.0:   CWLS LOG ASCII STANDARD - VERSION 2.0
 WRAP.                 NO:   ONE LINE PER DEPTH STEP
~WELL INFORMATION
#MNEM.UNIT      DATA TYPE    INFORMATION
#----------   ------------   ------------------------------
 STRT.F           22.0000:   START DEPTH
 STOP.F          630.5000:   STOP DEPTH
 STEP.F            0.5000:   STEP LENGTH
 NULL.          -999.2500:   NO VALUE
 COMP. LAWRENCE/ALLISON INC:   COMPANY
 WELL.   16-61 SHX #11-11:   WELL
 FLD .             TEAPOT:   FIELD
 LOC .      S11 T38N R78W:   LOCATION
 CNTY.            NATRONA:   COUNTY
 STAT.            WYOMING:   STATE
 CTRY. UNITED STATES OF AMERICA:   COUNTRY
 SRVC.           Gearhart:   SERVICE COMPANY
 DATE.        13-JUN-1986:   LOGDATE
 API .       490251108900:   API NUMBER
~CURVE INFORMATION
#MNEM.UNIT       API CODE    CURVE DESCRIPTION
#----------   ------------   ------------------------------
 DEPT.F                  :   
 GRR .GAPI   07 310 01 00:   GAMMA RAY FROM RES. LOG.
 RILD.OHMM   07 120 46 00:   INDUCTION LOG DEEP RESISTIVITY
 RILM.OHMM   07 120 44 00:   INDUCTION LOG MEDIUM RESISTIVITY
~PARAMETER INFORMATION
#MNEM.UNIT          VALUE    DESCRIPTION
#----------   ------------   ------------------------------
 PD  .                 GL:   PERMANENT DATUM
 EPD .F              5185:   ELEVATION PERMANENT DATUM
 LMF .                 KB:   LOG MEASURED FROM
 DAPD.F                 5:   FEET ABOVE PERMANENT DATUM
 DMF .                 KB:   DRILLING MEASURED FROM
 EKB .F              5190:   KELLING BUSHING
 EGL .F              5185:   GROUND LEVEL
 DATE.            6-13-86:   RUN DATE
 RUN .                  1:   RUN NUMBER
 DD  .F               648:   DEPTH DRILLER
 DL  .F               640:   DEPTH LOGGER
 BLI .F               631:   BOTTOM LOG INTERVAL
 TLI .F                22:   TOP LOG INTERVAL
 CS  .IN            8.625:   CASING SIZE
 CBD .F                42:   CASING BOTTOM DRILLER
 CBL .F                47:   CASING BOTTOM LOGGER
 BS  .IN            7.875:   BIT SIZE
 BSD .F               648:   BIT SIZE AT DEPTH
 DFT .               FOAM:   DRILLING FLUID TYPE
 MSS .               TANK:   MUD SAMPLE SOURCE
 RMS .OHMM           1.85:   RESISTIVITY MUD SAMPLE
 MST .F                70:   MUD SAMPLE TEMPERATURE
 RMB .OHMM           1.55:   RESISTIVITY MUD AT BHT
 BHT .F                85:   BOTTOM HOLE TEMPERATURE
 TCS .HRS            1330:   TIME CURCULATED STOPPED
 TLAB.HRS            1600:   TIME LOGGER AT BOTTOM
 MRT .F                85:   MAXIMUM RECORDED TEMPERATURE
 LUN .               7609:   LOGGING UNIT NUMBER
 LUL .           GILLETTE:   LOGGING UNIT LOCATION
 ENGI.              BAUER:   RECORDING ENGINEER
 WITN.           JENNINGS:   WITNESSED BY
 CLNT.            A2DTECH:   CLIENT CODE
 ORIG.       2", 5" PRINT:   ORIGIN OF DATA
 UWI .       490251108900:   UNIQUE WELL ID
 DICO. A2D Technologies, Inc.:   DIGITIZING COMPANY
~OTHER INFORMATION
~A   DEPT       GRR      RILD       RILM   
# ...
  477.0000    86.6649    13.2449    13.0901
  477.5000    88.3283    13.2691    13.2014
  478.0000    90.0832    13.2932    13.3130
  478.5000    90.1646    13.3174    13.4256
  479.0000    87.5614    13.3430    13.5392
  479.5000    84.9424    13.2718    13.5942
  480.0000    82.7298    13.1505    13.2993
  480.5000    82.5274    12.9454    13.0804
  481.0000    82.0153    12.7434    12.8651
  481.5000    81.1146    12.5446    12.6533
  482.0000    82.3352    12.3489    12.4451
  482.5000    85.8997    12.1563    12.2402
  483.0000    89.4721    11.9659    12.0388
  483.5000    93.1511    11.8952    11.8406
  484.0000    94.2298    11.8483    11.6458
  484.5000    93.6789    11.8232    11.3916
  485.0000    90.9652    11.8958    11.5002
  485.5000    88.2965    12.0595    11.6641
  486.0000    85.6199    12.5293    11.8303
  486.5000    82.9289    13.0665    11.9990
  487.0000    80.0870    13.7515    12.4630
  487.5000    82.0344    14.5090    13.0658
  488.0000    85.3060    15.8365    13.6940
  488.5000    83.7470    17.3641    15.2654
  489.0000    77.7178    19.0391    17.3303
  489.5000    71.7311    20.8757    19.6744
  490.0000    70.8286    23.3090    22.3357
  490.5000    70.2246    26.1380    25.3569
  491.0000    69.0899    29.1519    28.6145
  491.5000    67.0119    31.3081    30.8661
  492.0000    64.9378    32.8997    33.1812
  492.5000    63.0321    32.8090    35.4417
  493.0000    63.8764    32.7060    36.1773
  493.5000    64.8071    32.5950    36.7855
  494.0000    65.7611    31.6141    35.4417
  494.5000    68.0799    30.5784    33.7442
  495.0000    71.4675    29.5762    32.0148
  495.5000    74.9049    28.6076    30.3740
  496.0000    78.4487    27.6708    28.8173
  496.5000    79.4474    26.7646    27.3404
  497.0000    75.5508    25.9581    26.6413
  497.5000    73.4965    25.4279    26.1289
  498.0000    72.7430    24.9085    25.6263
  498.5000    73.8066    24.4274    25.2859
  499.0000    75.1963    24.2147    25.0170
  499.5000    76.8205    24.0145    24.7509
  500.0000    78.7487    23.8161    24.4876
  500.5000    80.6421    23.6191    24.2271
  501.0000    82.0011    23.4237    23.9694
  501.5000    80.6562    23.2285    23.7145
  502.0000    80.5248    23.0548    23.4622
  502.5000    81.2992    22.6939    23.1024
  503.0000    81.5135    22.3414    23.1358
  503.5000    78.1060    21.9943    23.1963
  504.0000    74.3255    21.6525    23.2591
  504.5000    72.2982    21.4327    23.3171
  505.0000    72.7179    21.3657    22.8153
  505.5000    76.0755    21.2989    22.3145
  506.0000    79.6748    21.2323    21.8266
  506.5000    80.7877    21.1661    21.6170
  507.0000    78.5471    21.0991    21.5709
  507.5000    76.2950    20.9974    21.5248
  508.0000    74.0537    20.7796    21.4789
  508.5000    72.2146    20.4973    21.3076
  509.0000    72.4464    20.1545    20.7741
  509.5000    76.4047    19.8142    20.2590
  510.0000    81.0247    19.4803    19.8298
  510.5000    85.7107    19.1521    19.5636
  511.0000    85.7926    18.8294    19.3027
  511.5000    84.7930    18.5121    19.0453
  512.0000    84.1916    18.2002    18.7914
  512.5000    85.1722    17.8935    18.5408
  513.0000    85.9557    17.5854    18.1403
  513.5000    84.3779    17.2485    17.6993
  514.0000    82.5897    16.9181    17.2691
  514.5000    79.9638    16.5939    16.6831
  515.0000    77.4214    16.4761    16.7452
  515.5000    77.3467    16.3743    16.8608
  516.0000    77.4861    16.4757    16.9744
  516.5000    76.6840    16.6425    17.0891
  517.0000    75.8912    16.8109    17.3599
  517.5000    76.4337    17.2357    17.8423
  518.0000    78.3331    17.7209    18.3378
  518.5000    77.4968    18.2198    18.8476
  519.0000    75.7887    18.7352    19.3715
  519.5000    74.1421    19.0027    19.9101
  520.0000    73.4584    18.8283    20.4702
  520.5000    73.4806    18.6261    20.8527
  521.0000    73.4887    18.2303    19.8682
  521.5000    73.4500    17.7439    19.1448
  522.0000    72.1832    17.0554    18.4477
  522.5000    71.2291    16.3964    17.6805
  523.0000    72.5852    15.7628    16.8690
  523.5000    73.9125    15.1538    16.0948
  524.0000    75.2540    14.5683    15.3562
  524.5000    75.7345    14.1096    14.6514
  525.0000    75.8377    13.9923    14.3024
  525.5000    75.6182    13.8748    14.1818
  526.0000    74.9004    13.7583    14.0621
  526.5000    73.3934    13.6427    13.9435
  527.0000    71.9218    13.5282    13.8259
  527.5000    71.7629    13.4146    13.7092
  528.0000    75.0137    13.3020    13.5936
  528.5000    80.3619    13.1979    13.4789
  529.0000    85.1375    13.1155    13.3652
  529.5000    88.0999    13.0336    13.2524
  530.0000    90.1310    12.9522    13.1406
  530.5000    88.7540    12.8713    12.9769
  531.0000    85.5478    12.7909    13.0157
  531.5000    82.3771    12.7371    13.0959
  532.0000    80.8899    12.8567    13.1757
  532.5000    83.5060    12.9477    13.2558
  533.0000    86.1133    13.0392    13.3364
  533.5000    86.4255    13.2200    13.4185
  534.0000    85.5402    12.9763    13.4679
  534.5000    83.8441    13.0137    13.3340
  535.0000    82.1439    13.0520    13.2364
  535.5000    80.4305    13.0971    13.1400
  536.0000    80.6908    12.9932    13.0444
  536.5000    84.3032    12.8665    12.9494
  537.0000    88.7357    12.7405    12.8551
  537.5000    93.1787    12.6157    12.7614
  538.0000    95.8354    12.4923    12.6685
  538.5000    97.0591    12.3701    12.5885
  539.0000    96.5111    12.2490    12.5230
  539.5000    95.0238    12.1291    12.4578
  540.0000    93.5162    12.0403    12.3929
  540.5000    91.9635    12.0227    12.3284
  541.0000    92.5067    12.0050    12.2642
  541.5000    93.5445    11.9874    12.2003
  542.0000    94.3931    11.9698    12.1368
  542.5000    90.8687    11.9522    12.0456
  543.0000    87.3256    11.9348    12.0805
  543.5000    86.5648    12.0151    12.1437
  544.0000    85.2802    12.1001    12.2073
  544.5000    85.0741    12.1856    12.2712
  545.0000    85.6239    12.2718    12.3354
  545.5000    84.9579    12.1446    12.3865
  546.0000    83.9603    12.0796    12.2947
  546.5000    83.7041    12.0149    12.2192
  547.0000    86.1476    11.9506    12.1442
  547.5000    88.5229    11.8865    12.0696
  548.0000    89.5693    11.8229    11.9955
  548.5000    89.9998    11.7596    11.9219
  549.0000    91.1618    11.6665    11.8487
  549.5000    92.3750    11.4965    11.7759
  550.0000    92.5132    11.3300    11.7036
  550.5000    93.3154    11.1698    11.6319
  551.0000    94.9770    11.0767    11.5608
  551.5000    94.9336    10.9755    11.4766
  552.0000    92.7540    10.8679    11.3051
  552.5000    90.3490    10.7527    11.1360
  553.0000    89.2523    10.6387    10.9694
  553.5000    91.0198    10.5259    10.8054
  554.0000    93.4654    10.3708    10.6437
  554.5000    95.9370    10.1842    10.4845
  555.0000    96.7459    10.0011    10.3277
  555.5000    96.4288     9.8212    10.1732
  556.0000    96.3876     9.6447    10.0212
  556.5000    97.7782     9.4721     9.8722
  557.0000    99.1447     9.2792     9.7252
  557.5000   100.2726     8.9685     9.3630
  558.0000    98.5322     8.3391     9.0277
  558.5000    96.4689     7.7539     8.4942
  559.0000    95.9974     7.2096     7.9237
  559.5000    98.3953     6.7033     7.2848
  560.0000   101.8680     6.2334     6.6940
  560.5000   106.3046     5.9153     6.1539
  561.0000   114.1847     5.7471     5.7300
  561.5000   122.2504     5.5651     5.4236
  562.0000   127.3571     5.6671     5.2143
  562.5000   121.7033     5.7845     5.2995
  563.0000   114.8445     5.9044     5.6818
  563.5000   107.8009     6.3286     6.0918
  564.0000   104.6388     6.9198     6.5313
  564.5000   101.6121     7.5663     7.0025
  565.0000    98.5849     8.2732     7.5077
  565.5000    96.2668     8.7479     8.0493
  566.0000    96.1952     9.1371     8.5997
  566.5000    97.5100     9.5438     9.0126
  567.0000    98.6047     9.8020     9.3448
  567.5000    98.1157     9.9387     9.5139
