~VERSION INFORMATION
 VERS.                2.0:   CWLS LOG ASCII STANDARD - VERSION 2.0
 WRAP.                 NO:   ONE LINE PER DEPTH STEP
~WELL INFORMATION
#MNEM.UNIT      DATA TYPE    INFORMATION
#----------   ------------   ------------------------------
 STRT.F           22.5000:   START DEPTH
 STOP.F          644.0000:   STOP DEPTH
 STEP.F            0.5000:   STEP LENGTH
 NULL.          -999.2500:   NO VALUE
 COMP.    FELIX & SCISION:   COMPANY
 WELL.     NPR #3 #14-S-2:   WELL
 FLD .             TEAPOT:   FIELD
 LOC .       S2 T38N R78W:   LOCATION
 CNTY.            NATRONA:   COUNTY
 STAT.            WYOMING:   STATE
 CTRY. UNITED STATES OF AMERICA:   COUNTRY
 SRVC.           BIRDWELL:   SERVICE COMPANY
 DATE.        18-JAN-1978:   LOGDATE
 API .       490251055600:   API NUMBER
~CURVE INFORMATION
#MNEM.UNIT       API CODE    CURVE DESCRIPTION
#----------   ------------   ------------------------------
 DEPT.F                  :   
 CALD.IN     45 280 60 00:   CALIPER FROM DENSITY LOG
 CORR.G/C3   45 356 01 00:   DENSITY CORRECTION
 DPHI.DEC    45 890 12 00:   DENSITY POROSITY SANDSTONE
 GRD .GAPI   45 310 01 00:   GAMMA RAY FROM DENSITY LOG
 RHOB.G/C3   45 350 01 00:   BULK DENSITY
 ILD .OHMM   05 120 46 00:   INDUCTION LOG DEEP
 SPR .MV     05 010 01 00:   SPONTANEOUS POTENTIAL FROM RES.
 SN  .OHMM   05 040 16 00:   SHORT NORMAL 16"
~PARAMETER INFORMATION
#MNEM.UNIT          VALUE    DESCRIPTION
#----------   ------------   ------------------------------
 PD  .                 GL:   PERMANENT DATUM
 EPD .F              5121:   ELEVATION PERMANENT DATUM
 LMF .                 KB:   LOG MEASURED FROM
 DAPD.F                 4:   FEET ABOVE PERMANENT DATUM
 DMF .                 KB:   DRILLING MEASURED FROM
 EKB .F              5126:   KELLING BUSHING
 EGL .F              5121:   GROUND LEVEL
 DATE.          1-18-1978:   RUN DATE
 RUN .                  1:   RUN NUMBER
 DD  .F               645:   DEPTH DRILLER
 DL  .F               648:   DEPTH LOGGER
 BLI .F               642:   BOTTOM LOG INTERVAL
 TLI .F                39:   TOP LOG INTERVAL
 CS  .IN            8.625:   CASING SIZE
 CBD .F                39:   CASING BOTTOM DRILLER
 BS  .IN            7.875:   BIT SIZE
 BSD .F               645:   BIT SIZE AT DEPTH
 DFT .                KCL:   DRILLING FLUID TYPE
 DFD .                8.8:   DRILLING FLUID DENSITY
 DFV .                 34:   DRILLING FLUID VISCOSITY
 DFPH.                9.5:   DRILLING FLUID PH
 DFL .                6.4:   DRILLING FLUID LOSS
 MSS .                PIT:   MUD SAMPLE SOURCE
 RMS .OHMM            .38:   RESISTIVITY MUD SAMPLE
 MST .F                43:   MUD SAMPLE TEMPERATURE
 RMF .OHMM            .26:   RESISTIVITY MUD FILTRATE SAMPLE
 MFST.F                70:   MUD FILTRATE SAMPLE TEMPERATURE
 RMC .OHMM            .42:   RESISTIVITY MUD CAKE
 MCST.F                70:   MUD CAKE SAMPLE TEMPERATURE
 MFSS.           MEASURED:   MUD FILTRATE SAMPLE SOURCE
 MCSS.           MEASURED:   MUD CAKE SAMPLE SOURCE
 RMB .OHMM            .24:   RESISTIVITY MUD AT BHT
 BHT .F                69:   BOTTOM HOLE TEMPERATURE
 TCS .HRS               2:   TIME CURCULATED STOPPED
 MRT .F                69:   MAXIMUM RECORDED TEMPERATURE
 LUN .               2958:   LOGGING UNIT NUMBER
 LUL .             CASPER:   LOGGING UNIT LOCATION
 ENGI.           REYNOLDS:   RECORDING ENGINEER
 WITN.         HARRINGTON:   WITNESSED BY
 CLNT.            A2DTECH:   CLIENT CODE
 ORIG.      2" , 5" PRINT:   ORIGIN OF DATA
 UWI .       490251055600:   UNIQUE WELL ID
 DICO. A2D Technologies, Inc.:   DIGITIZING COMPANY
~OTHER INFORMATION
~A   DEPT     CALD       CORR       DPHI         GRD      RHOB        ILD        SPR         SN   
# ...
  225.0000     7.9810     0.0920     0.1235    88.3373     2.4507     8.5041   -24.0315     8.2220
  225.5000     7.9807     0.0913     0.1235    86.2658     2.4508     8.3911   -24.1700     8.2251
  226.0000     7.9805     0.0897     0.1231    86.4232     2.4500     8.3951   -24.0109     8.2282
  226.5000     7.9802     0.0876     0.1231    89.4038     2.4493     8.3991   -24.0006     8.2313
  227.0000     7.9800     0.0854     0.1237    93.4245     2.4471     8.3451   -24.1417     8.2344
  227.5000     7.9797     0.0847     0.1240    94.7706     2.4464     8.3491   -24.2803     8.2375
  228.0000     7.9795     0.0847     0.1236    94.0364     2.4511     8.3531   -24.2674     8.1839
  228.5000     7.9792     0.0840     0.1213    94.0452     2.4556     8.3571   -24.2572     8.1871
  229.0000     7.9789     0.0833     0.1197    94.6484     2.4571     8.3611   -24.2469     8.1337
  229.5000     7.9787     0.0825     0.1203    95.1029     2.4571     8.3651   -24.2366     8.1375
  230.0000     7.9784     0.0833     0.1206    95.7061     2.4557     8.3700   -24.3752     8.1405
  230.5000     7.9782     0.0871     0.1215    95.5663     2.4512     8.3740   -24.3646     8.1436
  231.0000     7.9779     0.0910     0.1224    93.7920     2.4505     8.3780   -24.2054     8.1466
  231.5000     7.9777     0.0948     0.1221    91.4036     2.4521     8.3241   -24.3418     8.1497
  232.0000     7.9774     0.0978     0.1209    88.2883     2.4536     8.3281   -24.3315     8.1527
  232.5000     7.9772     0.1024     0.1202    87.5777     2.4552     8.3321   -24.3212     8.1558
  233.0000     7.9769     0.1032     0.1196    87.8841     2.4559     8.3360   -24.3110     8.1589
  233.5000     7.9767     0.1055     0.1196    88.7862     2.4530     8.3400   -24.3007     8.2185
  234.0000     7.9764     0.1054     0.1199    91.6182     2.4530     8.4020   -24.1416     8.2216
  234.5000     7.9761     0.1033     0.1199    92.3699     2.4531     8.4644   -24.1314     8.2816
  235.0000     7.9759     0.1026     0.1241    91.9330     2.4441     8.5865   -23.8235     8.3421
  235.5000     7.9756     0.1019     0.1289    90.9016     2.4396     8.6503   -23.6644     8.4031
  236.0000     7.9754     0.1042     0.1304    89.8703     2.4374     8.7146   -23.6541     8.5231
  236.5000     7.9751     0.1095     0.1303    89.5819     2.4382     8.7188   -23.6438     8.6449
  237.0000     7.9749     0.1103     0.1276    88.2534     2.4435     8.7231   -23.7827     8.7683
  237.5000     7.9746     0.1103     0.1246    85.7340     2.4511     8.7281   -24.0699     8.7113
  238.0000     7.9744     0.1096     0.1228    86.7852     2.4534     8.7322   -24.0595     8.7147
  238.5000     7.9741     0.1096     0.1222    92.7375     2.4519     8.7364   -24.1980     8.7180
  239.0000     7.9739     0.1089     0.1221    96.6096     2.4505     8.7406   -24.0389     8.7219
  239.5000     7.9736     0.1104     0.1224    97.3789     2.4475     8.7447   -24.1775     8.7252
  240.0000     7.9733     0.1112     0.1233    95.8842     2.4603     8.6885   -24.3160     8.6676
  240.5000     7.9445     0.1090     0.1119    90.6925     2.4680     8.6316   -24.4520     8.6112
  241.0000     7.9005     0.1068     0.1113    91.3076     2.4725     8.5170   -24.4417     8.5551
  241.5000     7.8865     0.1016     0.1103    92.8044     2.4733     8.4622   -24.2826     8.3837
  242.0000     7.8876     0.0910     0.1106    93.2449     2.4703     8.4087   -24.4237     8.3283
  242.5000     7.8885     0.0858     0.1121    90.1355     2.4681     8.3547   -24.4109     8.3322
  243.0000     7.8743     0.0843     0.1127    89.5477     2.4681     8.2438   -24.4006     8.2772
  243.5000     7.8754     0.0806     0.1124    90.0045     2.4704     8.1858   -24.5391     8.2234
  244.0000     7.8762     0.0769     0.1100    90.7562     2.4765     8.0820   -24.5289     8.1706
  244.5000     7.8771     0.0731     0.1075    92.1023     2.4826     8.0300   -24.5186     8.1167
  245.0000     7.8631     0.0701     0.1066    92.5569     2.4819     7.9784   -24.5083     8.0090
  245.5000     7.8640     0.0702     0.1066    92.8629     2.4804     7.9281   -24.4981     7.9022
  246.0000     7.8649     0.0762     0.1072    92.8717     2.4850     7.9867   -24.4702     7.6372
  246.5000     7.8658     0.0779     0.1024    93.4748     2.4978     8.0460   -24.4777     7.4835
  247.0000     7.8517     0.0733     0.1014    94.6723     2.5024     8.1058   -24.4672     7.4348
  247.5000     7.8377     0.0703     0.1026    95.2755     2.5032     8.1096   -24.4568     7.3857
  248.0000     7.8388     0.0695     0.1029    94.2442     2.5032     8.2267   -24.4464     7.3891
  248.5000     7.8246     0.0633     0.1026    94.4015     2.5017     8.2307   -24.4360     7.3919
  249.0000     7.8257     0.0561     0.1029    95.1533     2.4973     8.2355   -24.5750     7.3437
  249.5000     7.8266     0.0546     0.1050    95.1621     2.4906     8.2966   -24.4133     7.4487
  250.0000     7.8124     0.0554     0.1083    94.8744     2.4801     8.3576   -24.1054     7.6602
  250.5000     7.7982     0.0539     0.1095    94.5860     2.4770     8.3611   -23.9464     7.8804
  251.0000     7.7839     0.0532     0.1161    93.2575     2.4678     8.3700   -23.7946     7.8786
  251.5000     7.7846     0.0533     0.1188    91.1860     2.4561     8.6031   -23.6384     7.9359
  252.0000     7.8001     0.0556     0.1208    90.4517     2.4539     8.7987   -23.7783     8.0484
  252.5000     7.8007     0.0571     0.1208    90.3120     2.4532     8.9762   -23.9216     8.1626
  253.0000     7.8013     0.0579     0.1208    89.5793     2.4547     8.9799   -24.2119     8.2214
  253.5000     7.8019     0.0579     0.1211    87.2106     2.4555     8.9836   -24.3533     8.2806
  254.0000     7.8024     0.0587     0.1211    84.2476     2.4555     8.9873   -24.1953     8.2867
  254.5000     7.8030     0.0587     0.1211    84.1056     2.4548     8.9910   -24.1880     8.3493
  255.0000     7.8036     0.0588     0.1213    85.4539     2.4534     8.9947   -24.0318     8.4026
  255.5000     7.8042     0.0588     0.1216    87.2457     2.4504     8.9984   -24.0245     8.2896
  256.0000     7.8048     0.0588     0.1222    92.1579     2.4482     8.9400   -23.8683     8.2924
  256.5000     7.8054     0.0596     0.1231    94.4086     2.4474     9.0049   -23.8610     8.2371
  257.0000     7.8060     0.0619     0.1231    93.5127     2.4475     8.9464   -23.8536     8.2399
  257.5000     7.8065     0.0642     0.1231    92.6299     2.4476     8.8883   -23.8463     8.2421
  258.0000     7.8071     0.0657     0.1221    92.4901     2.4513     8.8929   -23.8389     8.3015
  258.5000     7.8078     0.0688     0.1200    92.3503     2.4559     8.8965   -23.8316     8.3038
  259.0000     7.8084     0.0687     0.1188    92.0640     2.4589     8.9002   -23.8242     8.3636
  259.5000     7.8090     0.0681     0.1185    91.3298     2.4597     8.9038   -23.8169     8.4238
  260.0000     7.8096     0.0673     0.1191    87.3267     2.4575     8.9075   -23.8095     8.4261
  260.5000     7.7952     0.0681     0.1196    87.6327     2.4553     8.9111   -23.8021     8.4284
  261.0000     7.7959     0.0704     0.1202    88.2358     2.4553     8.9148   -23.8095     8.4307
  261.5000     7.7814     0.0697     0.1202    87.9474     2.4546     9.0429   -23.9363     8.4330
  262.0000     7.7822     0.0675     0.1202    87.0646     2.4554     9.1171   -24.0777     8.4938
  262.5000     7.7828     0.0645     0.1244    85.2903     2.4456     9.3154   -23.9198     8.5549
  263.0000     7.7833     0.0668     0.1298    82.0301     2.4381     9.5707   -23.7636     8.6763
  263.5000     7.7839     0.0721     0.1337    81.7432     2.4337     9.7082   -23.6074     8.8003
  264.0000     7.7845     0.0736     0.1340    79.3745     2.4355     9.8476   -23.4513     8.9282
  264.5000     7.7851     0.0797     0.1243    78.6381     2.4443     9.9891   -23.2951     9.1134
  265.0000     7.7858     0.0812     0.1225    79.9864     2.4511    10.1325   -23.2878     9.2533
