~VERSION INFORMATION
 VERS.                2.0:   CWLS LOG ASCII STANDARD - VERSION 2.0
 WRAP.                 NO:   ONE LINE PER DEPTH STEP
~WELL INFORMATION
#MNEM.UNIT      DATA TYPE    INFORMATION
#----------   ------------   ------------------------------
 STRT.F           29.0000:   START DEPTH
 STOP.F          882.0000:   STOP DEPTH
 STEP.F            0.5000:   STEP LENGTH
 NULL.          -999.2500:   NO VALUE
 COMP. FENIX & SCISSON INC:   COMPANY
 WELL. NAVAL PETROLEUM RESERVE 3 S-14 #42-14:   WELL
 FLD .             TEAPOT:   FIELD
 LOC .      S14 T38N R78W:   LOCATION
 CNTY.            NATRONA:   COUNTY
 STAT.            WYOMING:   STATE
 CTRY. UNITED STATES OF AMERICA:   COUNTRY
 SRVC.              Welex:   SERVICE COMPANY
 DATE.        03-MAY-1977:   LOGDATE
 API .       490251035400:   API NUMBER
~CURVE INFORMATION
#MNEM.UNIT       API CODE    CURVE DESCRIPTION
#----------   ------------   ------------------------------
 DEPT.F                  :   
 CALD.IN     45 280 60 00:   CALIPER FROM DENSITY LOG
 GRD .GAPI   45 310 01 00:   GAMMA RAY FROM DENSITY LOG
 CORR.G/C3   45 356 01 00:   DENSITY CORRECTION
 DPHI.DEC    45 890 12 00:   DENSITY POROSITY SANDSTONE
 RHOB.G/C3   45 350 01 00:   BULK DENSITY
 SPR .MV     07 010 01 00:   SPONTANEOUS POTENTIAL
 ILD .OHMM   07 120 46 00:   INDUCTION LOG DEEP
 ILM .OHMM   07 120 44 00:   INDUCTION LOG MEDIUM
 SGRD.OHMM   07 221 05 00:   SHALLOW SHORT GUARD RESISTIVITY
~PARAMETER INFORMATION
#MNEM.UNIT          VALUE    DESCRIPTION
#----------   ------------   ------------------------------
 PD  .                 GL:   PERMANENT DATUM
 EPD .F              5206:   ELEVATION PERMANENT DATUM
 LMF .                 GL:   LOG MEASURED FROM
 DMF .                 GL:   DRILLING MEASURED FROM
 EGL .F              5206:   GROUND LEVEL
 DATE.        03-MAY-1977:   RUN DATE
 RUN .                  1:   RUN NUMBER
 DD  .F               855:   DEPTH DRILLER
 DL  .F               884:   DEPTH LOGGER
 BLI .F               882:   BOTTOM LOG INTERVAL
 TLI .F                28:   TOP LOG INTERVAL
 CS  .IN            8.625:   CASING SIZE
 BS  .IN               12:   BIT SIZE
 BSD .F               855:   BIT SIZE AT DEPTH
 DFT .            KCL MUD:   DRILLING FLUID TYPE
 DFD .                8.7:   DRILLING FLUID DENSITY
 BHT .F                75:   BOTTOM HOLE TEMPERATURE
 TCS .HRS            0130:   TIME CURCULATED STOPPED
 MRT .F                75:   MAXIMUM RECORDED TEMPERATURE
 ENGI.            C. DOAK:   RECORDING ENGINEER
 WITN.            R. LYON:   WITNESSED BY
 CLNT.            A2DTECH:   CLIENT CODE
 ORIG.           5" PRINT:   ORIGIN OF DATA
 UWI .       490251035400:   UNIQUE WELL ID
 DICO. A2D Technologies, Inc.:   DIGITIZING COMPANY
~OTHER INFORMATION
~A   DEPT       CALD      GRD       CORR       DPHI         RHOB      SPR        ILD        ILM       SGRD   
# ...
  686.0000     7.9324    89.0471     0.0539     0.1385     2.4381   -19.3284     9.8112    12.4976    16.2470
  686.5000     7.9323    91.8871     0.0477     0.1409     2.4388   -19.4723    10.3692    11.9897    17.8814
  687.0000     7.9471    92.3329     0.0404     0.1454     2.4328   -19.3286     9.6764    11.6626    19.9643
  687.5000     7.9469    87.8365     0.0374     0.1472     2.4238   -19.3376     9.4124    11.6626    21.6930
  688.0000     7.9468    86.7842     0.0389     0.1501     2.4267   -19.3447     9.3476    11.5822    20.2450
  688.5000     7.9466    89.7739     0.0434     0.1505     2.4237   -19.2028     9.2774    11.3445    17.3893
  689.0000     7.9465    92.6338     0.0509     0.1532     2.4184   -19.0610     9.1557    10.7977    16.2286
  689.5000     7.9613    93.2083     0.0569     0.1511     2.4244   -18.9191     9.0926    10.5865    16.1178
  690.0000     7.9611    89.9095     0.0539     0.1487     2.4281   -18.9280     9.1557    11.0350    16.1191
  690.5000     7.9760    87.6596     0.0494     0.1517     2.4228   -18.7844     9.2192    11.1116    16.1202
  691.0000     7.9908    85.8588     0.0449     0.1571     2.4032   -18.6425     9.5435    10.8084    15.6815
  691.5000     7.9906    85.1060     0.0389     0.1647     2.3966   -18.2044     9.9630    10.3692    15.1496
  692.0000     7.9904    87.1975     0.0329     0.1694     2.3869   -17.9056    10.3692    10.4411    16.0123
  692.5000     7.9903    90.0374     0.0284     0.1715     2.3854   -17.6244    10.5865    10.5981    16.4625
  693.0000     7.9752    91.8693     0.0299     0.1691     2.3898   -17.4807    10.9589    11.0350    16.4636
  693.5000     7.9750    93.7702     0.0344     0.1721     2.3838   -17.1898    11.3445    11.4232    16.4650
  694.0000     7.9599    95.8616     0.0407     0.1739     2.3890   -16.9007    11.6626    11.7435    16.4661
  694.5000     7.9449    98.5519     0.0494     0.1656     2.4012   -16.6098    11.8250    11.9897    16.4671
  695.0000     7.9597   100.4936     0.0494     0.1563     2.4136   -16.4679    11.7435    12.0729    16.4682
  695.5000     7.9595   101.5372     0.0434     0.1596     2.4053   -16.3260    11.5024    11.9873    16.3558
  696.0000     7.9593   100.9341     0.0404     0.1653     2.3926   -16.1842    11.1887    11.5822    16.3570
  696.5000     7.9592    98.0552     0.0374     0.1677     2.3963   -16.4912    10.9589    11.0350    16.3583
  697.0000     7.9590    97.0321     0.0404     0.1626     2.4015   -16.6474    10.9574    10.2977    16.3594
  697.5000     7.9589    96.5786     0.0434     0.1641     2.4016   -16.8035    11.8622    10.1563    16.3605
  698.0000     7.9587    89.6880     0.0434     0.1677     2.3902   -16.8107    12.9372    10.4411    16.3616
  698.5000     7.9586    87.1388     0.0419     0.1687     2.3910   -16.9687    11.9071    10.4411    16.4762
  699.0000     7.9584    89.2303     0.0374     0.1699     2.3857   -17.1249    11.8250    10.2946    16.4773
  699.5000     7.9583    89.0564     0.0464     0.1690     2.3946   -17.1320    12.4976    10.1563    16.4194
  700.0000     7.9880    91.3174     0.0559     0.1615     2.4047   -17.1384    12.6716    10.1672    16.3434
  700.5000     7.9879    92.8452     0.0584     0.1582     2.4066   -17.1444    12.6725    10.3084    16.2673
  701.0000     7.9877    94.6087     0.0553     0.1645     2.4043   -17.1504    12.7613    10.9589    14.8119
  701.5000     7.9876    98.7880     0.0508     0.1654     2.3976   -17.1565    12.7622    11.4232     9.6743
  702.0000     7.9874   103.1250     0.0493     0.1717     2.3857   -17.1625    12.7632    11.5024    11.3361
  702.5000     7.9873   102.8213     0.0403     0.1756     2.3767   -17.3174    12.4159    11.5024    16.2607
  703.0000     7.9871   101.1703     0.0313     0.1807     2.3692   -17.6224    11.6675    11.5024    16.3593
  703.5000     7.9870    98.9205     0.0297     0.1750     2.3767   -17.7772    11.6683    11.5024    16.4717
  704.0000     7.9868    96.9582     0.0312     0.1753     2.3789   -18.0810    11.9137    11.5024    16.5849
  704.5000     7.9867    95.1683     0.0357     0.1786     2.3700   -18.2358    12.0804    11.5024    16.6989
  705.0000     7.9716   100.2538     0.0416     0.1822     2.3640   -18.3905    12.1652    11.5024    16.8134
  705.5000     7.9864    99.2016     0.0491     0.1805     2.3714   -18.3964    12.1660    11.5024    16.8122
  706.0000     7.9713    96.5027     0.0505     0.1726     2.3858   -18.4034    11.8349    11.4232    16.6950
  706.5000     7.9711    95.7499     0.0460     0.1700     2.3864   -18.4091    11.5925    11.1887    16.3511
  707.0000     7.9710    95.2824     0.0385     0.1760     2.3819   -18.4149    11.5136    11.0199    16.1255
  707.5000     7.9709    92.2971     0.0295     0.1844     2.3647   -18.4206    11.5197    10.5136    15.9030
  708.0000     7.9707    89.7478     0.0235     0.1916     2.3490   -18.4263    11.6757    10.1563    15.6835
  708.5000     7.9855    88.6967     0.0219     0.1910     2.3483   -18.5813    11.7575    10.0863    15.4671
  709.0000     7.9853    92.4338     0.0295     0.1928     2.3484   -18.7373    11.7582    10.1563    15.4660
  709.5000     7.9852    93.1781     0.0354     0.1874     2.3587   -18.8920    11.8406    10.2977    15.4648
  710.0000     7.9850    91.7864     0.0368     0.1830     2.3670   -19.0468    11.9236    10.2977    15.3572
  710.5000     7.9849    89.1264     0.0368     0.1812     2.3692   -19.2015    11.9244    10.1458    15.1453
  711.0000     7.9848    88.2239     0.0353     0.1806     2.3744   -19.2073    11.6805    10.0168    15.0399
  711.5000     7.9996    89.7166     0.0337     0.1785     2.3729   -19.5111    11.2843    10.0863    15.0389
  712.0000     7.9994    93.0057     0.0322     0.1792     2.3707   -19.6672    10.8265    10.2268    14.8218
  712.5000     8.0142    96.4445     0.0322     0.1803     2.3737   -19.6730    10.5317    10.2977    14.5257
  713.0000     8.0140    97.3384     0.0322     0.1762     2.3819   -19.6787    10.6792    10.4411    14.2265
  713.5000     8.0139    96.8839     0.0351     0.1714     2.3871   -19.6844    10.8286    10.4411    13.8375
  714.0000     8.0138    96.2808     0.0366     0.1738     2.3797   -19.8392    10.9156    10.5136    13.9326
  714.5000     7.9986    96.1268     0.0381     0.1741     2.3864   -20.1535    10.9811    10.5136    14.5218
  715.0000     7.9985    96.8710     0.0382     0.1687     2.3954   -20.5972    10.9059    10.5136    14.9281
  715.5000     7.9983   100.6092     0.0395     0.1636     2.3991   -20.9010    10.6829    10.3692    15.1347
  716.0000     7.9982   101.5031     0.0380     0.1607     2.3991   -21.2048    10.4643    10.2268    15.0294
  716.5000     7.9981    99.4019     0.0364     0.1649     2.3991   -21.2105    10.3929    10.0863    14.5177
  717.0000     7.9979    98.2000     0.0334     0.1640     2.3991   -21.3653    10.5383    10.0168    14.2187
  717.5000     7.9978    95.3514     0.0289     0.1694     2.3907   -21.5201    10.6123    10.1563    14.0225
  718.0000     7.9976    94.1495     0.0259     0.1733     2.3827   -21.5272    10.6867    10.1563    13.9249
  718.5000     7.9974    95.6422     0.0273     0.1754     2.3782   -21.6820    10.6137    10.0863    13.8280
  719.0000     7.9973    96.2367     0.0333     0.1736     2.3834   -21.8367    10.4687     9.9478    13.7316
  719.5000     7.9972    93.8361     0.0392     0.1661     2.3961   -21.9915    10.3972     9.7436    13.7307
  720.0000     7.9970    91.1372     0.0407     0.1557     2.4133   -22.1462    10.4027     9.6764    13.7298
  720.5000     7.9969    89.0370     0.0422     0.1536     2.4185   -22.3055    10.4709     9.6764    13.7289
  721.0000     7.9967    88.7333     0.0422     0.1554     2.4178   -22.7553    10.5443     9.7436    13.6334
  721.5000     7.9965    90.3757     0.0421     0.1521     2.4178   -23.2081    10.5450     9.8112    13.4452
  722.0000     7.9964    92.0618     0.0421     0.1530     2.4215   -23.3628    10.4728     9.9478    13.4441
