~VERSION INFORMATION
 VERS.                2.0:   CWLS LOG ASCII STANDARD - VERSION 2.0
 WRAP.                 NO:   ONE LINE PER DEPTH STEP
~WELL INFORMATION
#MNEM.UNIT      DATA TYPE    INFORMATION
#----------   ------------   ------------------------------
 STRT.F            0.0000:   START DEPTH
 STOP.F          533.0000:   STOP DEPTH
 STEP.F            0.5000:   STEP LENGTH
 NULL.          -999.2500:   NO VALUE
 COMP. LAWRENCE/ALLISON INC:   COMPANY
 WELL. NAVAL PETROLEUM RESERVE 3 SX-1 #56-66-SX-10:   WELL
 FLD .             TEAPOT:   FIELD
 LOC .      S10 T38N R78W:   LOCATION
 CNTY.            NATRONA:   COUNTY
 STAT.            WYOMING:   STATE
 CTRY. UNITED STATES OF AMERICA:   COUNTRY
 SRVC.           Gearhart:   SERVICE COMPANY
 DATE.        28-JUN-1987:   LOGDATE
 API .       490251114300:   API NUMBER
~CURVE INFORMATION
#MNEM.UNIT       API CODE    CURVE DESCRIPTION
#----------   ------------   ------------------------------
 DEPT.F                  :   
 RLL .OHMM   07 220 00 00:   LATEROLOG RESISTIVITY
 RILM.OHMM   07 120 44 00:   INDUCTION LOG MEDIUM RESISTIVITY
 RILD.OHMM   07 120 46 00:   INDUCTION LOG DEEP RESISTIVITY
 GRR .GAPI   07 310 01 00:   GAMMA RAY FROM RES. LOG.
 SPR .MV     07 010 01 00:   SPONTANEOUS POTENTIAL
~PARAMETER INFORMATION
#MNEM.UNIT          VALUE    DESCRIPTION
#----------   ------------   ------------------------------
 PD  .                 GL:   PERMANENT DATUM
 EPD .F              5198:   ELEVATION PERMANENT DATUM
 LMF .                 KB:   LOG MEASURED FROM
 DAPD.F                 8:   FEET ABOVE PERMANENT DATUM
 DMF .                 KB:   DRILLING MEASURED FROM
 EKB .F              5206:   KELLING BUSHING
 EDF .F              5204:   DRILLING FLOOR
 EGL .F              5198:   GROUND LEVEL
 DATE.            6-28-87:   RUN DATE
 RUN .                  1:   RUN NUMBER
 DD  .F               535:   DEPTH DRILLER
 DL  .F               536:   DEPTH LOGGER
 BLI .F               533:   BOTTOM LOG INTERVAL
 BS  .IN             7.87:   BIT SIZE
 BSD .F               535:   BIT SIZE AT DEPTH
 DFT .                MUD:   DRILLING FLUID TYPE
 RMS .OHMM            .84:   RESISTIVITY MUD SAMPLE
 MST .F                57:   MUD SAMPLE TEMPERATURE
 RMF .OHMM            .63:   RESISTIVITY MUD FILTRATE SAMPLE
 MFST.F                57:   MUD FILTRATE SAMPLE TEMPERATURE
 RMC .OHMM           1.05:   RESISTIVITY MUD CAKE
 MCST.F                57:   MUD CAKE SAMPLE TEMPERATURE
 MFSS.               CALC:   MUD FILTRATE SAMPLE SOURCE
 MCSS.               CALC:   MUD CAKE SAMPLE SOURCE
 RMB .OHMM            .59:   RESISTIVITY MUD AT BHT
 BHT .F                80:   BOTTOM HOLE TEMPERATURE
 TCS .HRS            1200:   TIME CURCULATED STOPPED
 TLAB.HRS            1322:   TIME LOGGER AT BOTTOM
 MRT .F                80:   MAXIMUM RECORDED TEMPERATURE
 LUN .               7650:   LOGGING UNIT NUMBER
 LUL .           GILLETTE:   LOGGING UNIT LOCATION
 ENGI. JOHNSTON/HUCKFELDT:   RECORDING ENGINEER
 WITN.             STRONG:   WITNESSED BY
 CLNT.            A2DTECH:   CLIENT CODE
 ORIG.       2", 5" PRINT:   ORIGIN OF DATA
 UWI .       490251114300:   UNIQUE WELL ID
 DICO. A2D Technologies, Inc.:   DIGITIZING COMPANY
~OTHER INFORMATION
~A    DEPT     RLL         RILM       RILD       GRR       SPR   
# ...
  366.0000    16.5663    17.6492    19.8518    69.6016   -34.6230
  366.5000    19.2174    20.3768    21.8140    65.5300   -34.0274
  367.0000    22.1620    22.0093    23.9725    62.0753   -33.4297
  367.5000    23.1611    23.7198    26.3282    61.6917   -32.8490
  368.0000    24.1037    25.5632    27.8717    63.7654   -32.8722
  368.5000    24.2509    26.7676    29.3148    66.3472   -33.0038
  369.0000    24.4229    27.6239    30.7223    68.9703   -33.1317
  369.5000    24.5962    28.5063    31.1856    68.8424   -33.2591
  370.0000    24.7880    29.4042    31.8040    67.3615   -33.3869
  370.5000    25.3626    30.1927    32.4348    65.8803   -33.5112
  371.0000    28.7322    31.2544    33.0801    64.3933   -33.6194
  371.5000    32.5495    32.3533    33.7303    64.1653   -33.8376
  372.0000    36.8739    33.1036    34.0509    64.3075   -33.5031
  372.5000    38.4342    32.7961    33.9740    64.5237   -33.0003
  373.0000    35.9306    32.1897    33.7744    64.7374   -32.4898
  373.5000    30.5326    31.4956    33.2442    64.9667   -32.0299
  374.0000    26.4613    30.8075    32.3169    64.2199   -31.8658
  374.5000    26.2155    30.1344    31.3990    63.1339   -31.6940
  375.0000    26.2155    29.4761    30.5111    62.1514   -31.5201
  375.5000    26.2155    28.8321    29.6483    62.7550   -31.3462
  376.0000    25.9922    28.2022    29.3218    63.9865   -31.1724
  376.5000    24.9912    27.7251    29.1462    64.4896   -30.9982
  377.0000    24.0288    27.0636    28.7635    64.2711   -30.8231
  377.5000    23.1035    26.4305    28.0213    64.4512   -30.6503
  378.0000    22.7912    25.8112    27.2980    66.4891   -30.7596
  378.5000    22.7912    25.3533    26.5993    68.2897   -30.8916
  379.0000    22.6048    24.8418    25.9720    67.5877   -30.9743
  379.5000    22.1612    24.3407    25.5625    66.8679   -31.0588
  380.0000    21.4499    23.8497    25.1888    66.2923   -31.1427
  380.5000    20.5658    23.3687    24.8206    69.1756   -31.2171
  381.0000    20.5694    22.8968    24.4577    72.2596   -30.8793
  381.5000    20.0499    22.4354    24.1002    73.8272   -30.3266
  382.0000    19.7616    21.9562    23.7479    71.6389   -30.0392
  382.5000    19.6269    22.0368    23.6580    69.3777   -31.0393
  383.0000    19.6301    22.1850    23.7338    68.5870   -30.3072
  383.5000    19.7416    22.3355    23.8139    68.7892   -31.2027
  384.0000    19.8582    22.4866    23.8941    69.0831   -31.8176
  384.5000    19.9755    22.6383    23.9747    70.5808   -31.7115
  385.0000    20.0935    22.7912    24.0555    72.0915   -31.6151
  385.5000    20.1875    22.7494    24.1367    73.5791   -31.5399
  386.0000    19.9317    22.6805    24.2180    72.7863   -31.2736
  386.5000    19.6302    22.6115    24.2997    71.2821   -28.0755
  387.0000    19.5828    22.5431    24.3297    69.7820   -21.6396
  387.5000    19.4746    22.4744    23.8933    69.0129   -24.9709
  388.0000    19.3669    22.4062    23.5464    69.7484   -31.3472
  388.5000    19.2672    22.2060    23.2045    70.8052   -31.4168
  389.0000    18.8157    21.6039    22.8677    70.9239   -31.3289
  389.5000    18.4030    21.0181    22.5385    70.5575   -31.2533
  390.0000    17.9994    20.7606    22.3655    71.2641   -31.2379
  390.5000    17.8813    20.7606    21.7604    73.1156   -30.3437
  391.0000    17.8889    20.7606    21.2203    74.7368   -31.3890
  391.5000    17.8915    20.0554    20.6936    74.6992   -30.6559
  392.0000    17.1885    19.3674    20.1800    74.7119   -17.6827
  392.5000    16.5012    18.7030    19.6791    75.7294   -22.2233
  393.0000    15.8380    18.0614    19.1907    78.5324   -28.2683
  393.5000    15.2067    17.4418    18.7144    80.8211   -27.2688
  394.0000    14.5507    16.8656    18.2499    80.4381   -26.6345
  394.5000    14.5699    16.5950    17.8813    79.5665   -31.7256
  395.0000    14.7898    16.7571    17.8813    78.7045   -30.6511
  395.5000    15.0239    16.9224    17.8813    77.8604   -29.6419
  396.0000    15.1164    17.0893    18.2576    75.9912   -28.1208
  396.5000    15.1893    17.2579    18.8877    73.6006   -31.1775
  397.0000    15.2582    17.5834    19.5396    71.7844   -24.3202
  397.5000    15.9959    18.4319    20.2139    70.7949   -19.9443
  398.0000    17.6436    19.3212    20.9115    69.7719   -20.9238
  398.5000    19.4023    20.2542    21.5108    68.6320   -24.9868
  399.0000    20.1875    21.2337    22.0636    66.9381   -26.0158
  399.5000    20.1875    21.7670    22.7912    65.3609   -24.6224
  400.0000    20.1875    20.4869    21.8167    64.5186   -24.5104
  400.5000    18.0473    19.3559    20.4222    67.3491   -25.1846
  401.0000    16.2976    18.2873    19.0748    71.2642   -25.0133
  401.5000    14.7176    17.3876    18.0473    75.3337   -27.9757
  402.0000    14.0131    16.8467    17.5085    76.0554   -21.1556
  402.5000    13.8756    16.3287    16.9857    74.3569   -14.7398
  403.0000    13.7394    15.8266    16.4441    72.6115   -18.4445
  403.5000    13.6045    15.5456    16.3041    71.0392   -24.8241
  404.0000    13.4710    15.4709    16.1625    71.1923   -18.4449
  404.5000    13.3388    15.3309    16.0202    72.9605   -18.8004
  405.0000    13.2079    15.1922    15.8788    74.6679   -18.1280
  405.5000    13.0783    15.0548    15.7388    76.3940   -24.7517
  406.0000    12.9806    14.9185    15.5999    77.1152   -23.2034
  406.5000    12.8681    14.7836    15.4622    77.1344   -19.8752
  407.0000    12.7563    14.6498    15.2582    77.0964   -16.6005
  407.5000    12.6456    14.5172    15.1344    75.9282   -15.0882
  408.0000    12.5359    14.3859    15.0061    74.7018   -18.1600
  408.5000    12.4271    14.2557    14.8788    73.5444   -17.3521
  409.0000    12.3192    14.1267    14.7526    73.0802   -19.8449
  409.5000    12.2124    13.9989    14.6925    73.2444   -22.0787
  410.0000    12.0837    13.8722    14.6551    73.5166   -17.8654
  410.5000    12.1151    13.7696    14.6177    73.7606   -16.9888
  411.0000    12.1553    13.7893    14.5803    75.8839   -20.1104
  411.5000    12.1962    13.8057    14.5431    79.0016   -18.0067
  412.0000    12.2371    13.8224    14.5060    81.9122   -16.5941
  412.5000    12.2781    13.8390    14.4690    81.2479   -15.2723
  413.0000    12.3193    13.8557    14.4321    79.5287   -15.1945
  413.5000    12.3606    13.8735    14.3952    77.8558   -15.6083
  414.0000    12.4020    13.8890    14.3585    77.5491   -16.9367
  414.5000    12.4263    14.0290    14.3216    76.6172   -18.1336
  415.0000    12.2857    13.9458    14.2919    75.6018   -18.8687
  415.5000    12.1711    13.8644    14.2432    77.0624   -18.5249
  416.0000    12.0833    13.7835    14.1942    79.2721   -18.9129
  416.5000    12.0976    13.7030    14.1454    80.3941   -23.1147
  417.0000    12.1202    13.6230    14.0968    79.6513   -20.8161
  417.5000    12.1429    13.5434    14.0483    78.6242   -16.0093
  418.0000    12.1653    13.4456    14.0000    78.7451   -14.7468
  418.5000    12.1965    13.3381    13.9519    80.0658   -18.6874
  419.0000    12.0491    13.2314    13.9039    81.3824   -14.6222
  419.5000    11.8254    13.1255    13.8561    82.7892   -16.0944
  420.0000    11.6059    13.0206    13.8084    86.3222   -16.4603
  420.5000    11.3904    12.9164    13.7610    88.9472   -16.8761
  421.0000    11.1790    12.8131    13.7136    86.8969   -18.2115
  421.5000    11.1099    12.7791    13.6665    84.2796   -19.6427
  422.0000    11.2059    12.8050    13.6314    81.6721   -21.1084
  422.5000    11.3500    12.8227    13.5939    82.3668   -21.3221
  423.0000    11.4959    12.8404    13.5565    83.8002   -20.6738
  423.5000    11.6437    12.8581    13.5192    85.1778   -23.8732
  424.0000    11.7497    12.8758    13.4820    84.7160   -27.2583
  424.5000    11.6139    12.8977    13.4449    81.6092   -23.0051
  425.0000    11.5097    12.8756    13.4079    78.3832   -26.5388
  425.5000    11.4065    12.8420    13.3710    76.7808   -24.1426
  426.0000    11.3042    12.8087    13.3342    78.4522   -24.8225
  426.5000    11.2141    12.7754    13.2975    80.1531   -19.2425
