~VERSION INFORMATION
 VERS.                2.0:   CWLS LOG ASCII STANDARD - VERSION 2.0
 WRAP.                 NO:   ONE LINE PER DEPTH STEP
~WELL INFORMATION
#MNEM.UNIT      DATA TYPE    INFORMATION
#----------   ------------   ------------------------------
 STRT.F           36.0000:   START DEPTH
 STOP.F          557.0000:   STOP DEPTH
 STEP.F            0.5000:   STEP LENGTH
 NULL.          -999.2500:   NO VALUE
 COMP. FENIX & SCISSON U.S. NAVY:   COMPANY
 WELL.        NPR #62-S-3:   WELL
 FLD .             TEAPOT:   FIELD
 LOC .       S3 T38N R78W:   LOCATION
 CNTY.            NATRONA:   COUNTY
 STAT.            WYOMING:   STATE
 CTRY. UNITED STATES OF AMERICA:   COUNTRY
 SRVC.              Welex:   SERVICE COMPANY
 DATE.        07-MAY-1977:   LOGDATE
 API .       490251035000:   API NUMBER
~CURVE INFORMATION
#MNEM.UNIT       API CODE    CURVE DESCRIPTION
#----------   ------------   ------------------------------
 DEPT.F                  :   
 SPR .MV     07 010 01 00:   SPONTANEOUS POTENTIAL
 ILD .OHMM   07 120 46 00:   INDUCTION LOG DEEP
 ILM .OHMM   07 120 44 00:   INDUCTION LOG MEDIUM
 SGRD.OHMM   07 221 05 00:   SHALLOW SHORT GUARD RESISTIVITY
 GRD .GAPI   45 310 01 00:   GAMMA RAY FROM DENSITY LOG
 CALD.IN     45 280 60 00:   CALIPER FROM DENSITY LOG
 CORR.G/C3   45 356 01 00:   DENSITY CORRECTION
 RHOB.G/C3   45 350 01 00:   BULK DENSITY
 DPHI.DEC    45 890 12 00:   DENSITY POROSITY SANDSTONE
 NEUT.NAPI   35 330 01 00:   NEUTRON
~PARAMETER INFORMATION
#MNEM.UNIT          VALUE    DESCRIPTION
#----------   ------------   ------------------------------
 PD  .                 GL:   PERMANENT DATUM
 EPD .F              5136:   ELEVATION PERMANENT DATUM
 LMF .                 GL:   LOG MEASURED FROM
 DMF .                 GL:   DRILLING MEASURED FROM
 EGL .F              5136:   GROUND LEVEL
 DATE.        07-MAY-1977:   RUN DATE
 RUN .                  1:   RUN NUMBER
 DD  .F               560:   DEPTH DRILLER
 DL  .F               560:   DEPTH LOGGER
 BLI .F               558:   BOTTOM LOG INTERVAL
 TLI .F                35:   TOP LOG INTERVAL
 CS  .IN            8.625:   CASING SIZE
 CBD .F                40:   CASING BOTTOM DRILLER
 CBL .F                42:   CASING BOTTOM LOGGER
 BS  .IN            7.875:   BIT SIZE
 BSD .F               560:   BIT SIZE AT DEPTH
 DFT .             KCLMUD:   DRILLING FLUID TYPE
 DFD .                8.8:   DRILLING FLUID DENSITY
 MSS .           FLOWLINE:   MUD SAMPLE SOURCE
 RMS .OHMM           0.24:   RESISTIVITY MUD SAMPLE
 MST .F                60:   MUD SAMPLE TEMPERATURE
 RMF .OHMM           0.20:   RESISTIVITY MUD FILTRATE SAMPLE
 MFST.F                60:   MUD FILTRATE SAMPLE TEMPERATURE
 RMC .OHMM           0.29:   RESISTIVITY MUD CAKE
 MCST.F                60:   MUD CAKE SAMPLE TEMPERATURE
 MFSS.               MEAS:   MUD FILTRATE SAMPLE SOURCE
 MCSS.               MEAS:   MUD CAKE SAMPLE SOURCE
 RMB .OHMM             17:   RESISTIVITY MUD AT BHT
 BHT .F                71:   BOTTOM HOLE TEMPERATURE
 TCS .HRS            0230:   TIME CURCULATED STOPPED
 MRT .F                71:   MAXIMUM RECORDED TEMPERATURE
 LUN .               8611:   LOGGING UNIT NUMBER
 LUL .           GILLETTE:   LOGGING UNIT LOCATION
 ENGI.            C. DOCK:   RECORDING ENGINEER
 WITN.           ROB LYON:   WITNESSED BY
 CLNT.            A2DTECH:   CLIENT CODE
 ORIG.           5" PRINT:   ORIGIN OF DATA
 UWI .       490251035000:   UNIQUE WELL ID
 DICO. A2D Technologies, Inc.:   DIGITIZING COMPANY
~OTHER INFORMATION
~A   DEPT      SPR        ILD        ILM       SGRD        GRD       CALD       CORR       RHOB       DPHI       NEUT   
# ...
  203.5000   -43.3159     8.2045    10.4253    10.0159   101.7584     7.8751     0.0002     2.4694     0.1222  1304.8917
  204.0000   -43.3085     8.2085     9.8038    12.5082   101.3230     7.8764     0.0002     2.4679     0.1224  1326.5784
  204.5000   -43.3010     8.2701    10.2978    13.3176   104.9256     7.8628     0.0003     2.4658     0.1218  1375.2555
  205.0000   -43.2936     8.2741    11.1201    13.9840   109.5689     7.8492     0.0004     2.4726     0.1197  1418.5312
  205.5000   -43.2861     8.3362    11.7615    13.2329   113.6153     7.8207     0.0002     2.4764     0.1197  1428.0487
  206.0000   -43.2772     8.3988    12.1845    11.6024   117.0646     7.8071     0.0001     2.4682     0.1211  1391.6707
  206.5000   -43.2698     8.4618    12.2761    12.4391   119.9168     7.7936     0.0000     2.4653     0.1232  1387.6685
  207.0000   -43.2624     8.5253    11.1540    12.9712   122.6199     7.7949    -0.0002     2.4646     0.1232  1393.1509
  207.5000   -43.2549     8.5893    10.4890    13.1551   124.2781     7.8112    -0.0003     2.4654     0.1210  1401.3180
  208.0000   -43.2475     8.6546    10.1403    12.7996   124.8875     7.8125    -0.0005     2.4722     0.1183  1412.1857
  208.5000   -43.2098     8.7799    10.0068    12.3668   117.2961     7.8139    -0.0006     2.4798     0.1153  1420.3527
  209.0000   -42.9359     8.8458    10.0163    12.1155   113.7305     7.8153    -0.0007     2.4859     0.1125  1427.5848
  209.5000   -42.7794     9.0376    10.0239    12.2882   111.3589     7.8315    -0.0009     2.4882     0.1113  1428.5847
  210.0000   -42.7720     9.1055    10.0316    12.6720   111.0727     7.8478    -0.0010     2.4890     0.1158  1421.9142
  210.5000   -42.7645     9.2382    10.0392    13.1038   111.9888     7.8640    -0.0012     2.4808     0.1206  1413.8771
  211.0000   -42.7571     9.3076    10.0469    13.2725   112.7515     7.8804    -0.0013     2.4689     0.1244  1403.1393
  211.5000   -42.9061     9.3774    10.1945    13.1844   116.2008     7.8816    -0.0014     2.4622     0.1283  1396.4526
  212.0000   -43.1894     9.3820    10.3444    13.4981   119.3516     7.8830    -0.0016     2.4563     0.1306  1395.1672
  212.5000   -43.1818     9.3867    10.5693    13.9607   120.4128     7.8843    -0.0017     2.4504     0.1331  1397.9491
  213.0000   -43.1744     9.3913    10.6507    14.0453   120.5786     7.8857    -0.0019     2.4534     0.1306  1399.3645
  213.5000   -43.3162     9.3293    11.0338    13.2770   120.7443     7.8870    -0.0020     2.4573     0.1282  1398.0629
  214.0000   -43.3284     9.2055    11.3519    13.4147   120.7607     7.8884    -0.0021     2.4596     0.1212  1394.0930
  214.5000   -43.4724     9.0811    11.5986    13.8770   120.0309     7.8747    -0.0023     2.4739     0.1176  1390.1071
  215.0000   -43.5920     8.8362    11.7691    13.7462   117.9578     7.8611    -0.0024     2.4799     0.1155  1383.3761
  215.5000   -43.5842     8.7790    11.7781    13.0996   116.7761     7.8479    -0.0026     2.4837     0.1130  1375.3995
  216.0000   -43.7243     8.6603    11.4655    12.9346   118.8863     7.8492    -0.0027     2.4831     0.1124  1367.3624
  216.5000   -43.7169     8.6656    10.9321    12.8594   120.8430     7.8506    -0.0028     2.4786     0.1217  1360.6757
  217.0000   -43.7095     8.6085    10.4215    12.6765   122.0535     7.8519    -0.0030     2.4720     0.1268  1356.6897
  217.5000   -43.8529     8.6137    10.2153    12.4110   121.7715     7.8532    -0.0031     2.4660     0.1313  1355.3881
  218.0000   -43.8436     8.6180    10.7322    12.3455   118.9521     7.8546    -0.0033     2.4541     0.1363  1355.4692
  218.5000   -43.8362     8.6222    11.3512    12.6239   114.3417     7.8708    -0.0034     2.4444     0.1384  1356.8866
  219.0000   -43.9797     8.6265    11.7595    13.1627   110.0298     7.8722    -0.0035     2.4423     0.1380  1359.6665
  219.5000   -44.1194     8.6307    11.6873    13.5286   108.1060     7.8735    -0.0037     2.4453     0.1358  1362.4321
  220.0000   -44.1120     8.5748    11.1436    13.0584   107.3762     7.8749    -0.0038     2.4544     0.1313  1365.1978
  220.5000   -44.2555     8.5790    11.0731    12.5302   109.6314     7.8610    -0.0040     2.4567     0.1299  1366.6130
  221.0000   -44.2462     8.5833    11.6334    12.2806   111.1404     7.8776    -0.0041     2.4575     0.1311  1368.0284
  221.5000   -44.3897     8.5277    12.0495    12.6297   112.7987     7.8789    -0.0042     2.4516     0.1332  1368.0945
  222.0000   -44.6803     8.5319    10.7957    12.8988   110.5763     7.8952    -0.0044     2.4487     0.1346  1366.8242
  222.5000   -44.8219     8.4756    11.2638    12.9951   106.2644     7.8963    -0.0045     2.4502     0.1318  1361.4878
  223.0000   -44.8127     8.4207    11.5086    13.0862   107.6242     7.9128    -0.0044     2.4578     0.1273  1354.8011
  223.5000   -44.8052     8.4259    11.7588    12.8167   109.0393     7.9141    -0.0036     2.4646     0.1240  1350.7990
  224.0000   -44.9487     8.3703    11.7678    12.3000   110.0696     7.9002    -0.0035     2.4699     0.1224  1346.8267
  224.5000   -45.2375     8.2017    11.4555    11.8846   110.9801     7.9019    -0.0035     2.4610     0.1248  1349.6084
  225.0000   -45.3791     8.1476    11.1493    11.9712   112.2388     7.9032    -0.0034     2.4558     0.1302  1362.2666
  225.5000   -45.3717     7.9834    11.0809    12.3114   113.7433     7.9045    -0.0033     2.4514     0.1341  1371.3463
  226.0000   -45.5133     7.8217    11.0915    12.4868   115.3970     7.9059    -0.0055     2.4417     0.1371  1364.6595
  226.5000   -45.5059     7.7169    10.5755    11.9812   116.7318     7.9072    -0.0077     2.4410     0.1391  1356.6226
  227.0000   -45.7984     7.5596    10.0835    11.5761   117.7711     7.8933    -0.0099     2.4418     0.1409  1348.5856
  227.5000   -45.9400     7.3557     9.6811    11.6599   117.5672     7.8950    -0.0106     2.4404     0.1421  1340.5485
  228.0000   -46.0816     7.1556     9.2947    11.5024   114.7204     7.8811    -0.0097     2.4344     0.1435  1332.3694
  228.5000   -46.3704     6.9618     8.9857    11.1908   112.5343     7.8827    -0.0096     2.4293     0.1453  1321.7899
  229.0000   -46.3630     6.7732     8.7472    11.2719   111.6982     7.8688    -0.0088     2.4316     0.1453  1313.7529
  229.5000   -46.3555     6.5897     8.5151    10.7407   112.6219     7.8552    -0.0080     2.4287     0.1444  1309.7506
  230.0000   -46.1991     6.5015     7.4210    10.0238   113.2239     7.8417    -0.0064     2.4313     0.1395  1312.5325
  230.5000   -46.0426     6.4594     6.5111     8.9735   112.4687     7.8281    -0.0056     2.4447     0.1338  1319.3491
  231.0000   -45.8862     6.5536     6.4711     7.9777   111.4655     7.8297    -0.0050     2.4506     0.1313  1320.7651
  231.5000   -45.7297     6.6061     6.5222     8.7328   113.2951     7.8311    -0.0042     2.4539     0.1289  1316.7946
  232.0000   -45.4242     6.7932     7.2406    12.0179   115.5403     7.8324    -0.0035     2.4622     0.1253  1308.7576
  232.5000   -45.2678     6.8938     8.2634    11.9381   117.3357     7.8338    -0.0027     2.4674     0.1231  1302.0709
  233.0000   -45.2604     6.9933     9.0475    11.3756   116.1582     7.8199    -0.0018     2.4689     0.1228  1294.0338
  233.5000   -45.1039     7.1944     9.1805    11.2219   117.9657     7.8213    -0.0004     2.4690     0.1204  1287.3470
  234.0000   -45.0965     7.3504    10.2623    11.3819   119.7732     7.8227     0.0012     2.4744     0.1158  1282.0106
  234.5000   -45.0891     7.4056    10.4131    11.7053   117.8493     7.8240     0.0028     2.4846     0.1095  1277.8337
  235.0000   -45.0817     7.5662    10.4195    12.2910   113.2389     7.8256     0.0044     2.5015     0.1047  1272.7046
  235.5000   -45.0742     7.6230    10.3552    12.4782   109.6733     7.8269     0.0037     2.5044     0.1052  1271.4030
  236.0000   -45.0668     7.6803    10.2788    12.2979   107.7333     7.8282     0.0022     2.4957     0.1118  1271.4843
  236.5000   -45.0594     7.7922    10.4563    12.0480   108.2137     7.8296     0.0001     2.4822     0.1189  1270.1989
