~VERSION INFORMATION
 VERS.                2.0:   CWLS LOG ASCII STANDARD - VERSION 2.0
 WRAP.                 NO:   ONE LINE PER DEPTH STEP
~WELL INFORMATION
#MNEM.UNIT      DATA TYPE    INFORMATION
#----------   ------------   ------------------------------
 STRT.F           50.0000:   START DEPTH
 STOP.F         1561.5000:   STOP DEPTH
 STEP.F            0.5000:   STEP LENGTH
 NULL.          -999.2500:   NO VALUE
 COMP. FENIX & SCISSON INC:   COMPANY
 WELL.  72 SH 3 STX #72-3:   WELL
 FLD .             TEAPOT:   FIELD
 LOC .       S3 T38N R78W:   LOCATION
 CNTY.            NATRONA:   COUNTY
 STAT.            WYOMING:   STATE
 CTRY. UNITED STATES OF AMERICA:   COUNTRY
 SRVC.           BIRDWELL:   SERVICE COMPANY
 DATE.        31-JUL-1979:   LOGDATE
 API .       490251078600:   API NUMBER
~CURVE INFORMATION
#MNEM.UNIT       API CODE    CURVE DESCRIPTION
#----------   ------------   ------------------------------
 DEPT.F                  :   
 CALD.IN     45 280 60 00:   CALIPER FROM DENSITY LOG
 GRD .GAPI   45 310 01 00:   GAMMA RAY FROM DENSITY LOG
 RHOB.G/C3   45 350 01 00:   BULK DENSITY
 CORR.G/C3   45 356 01 00:   DENSITY CORRECTION
 DPHI.DEC    45 890 12 00:   DENSITY POROSITY SANDSTONE
 GR  .GAPI   81 310 01 00:   GAMMA RAY
~PARAMETER INFORMATION
#MNEM.UNIT          VALUE    DESCRIPTION
#----------   ------------   ------------------------------
 PD  .                 GL:   PERMANENT DATUM
 EPD .F              5165:   ELEVATION PERMANENT DATUM
 LMF .                 KB:   LOG MEASURED FROM
 DAPD.F                10:   FEET ABOVE PERMANENT DATUM
 DMF .                 KB:   DRILLING MEASURED FROM
 EKB .F              5175:   KELLING BUSHING
 EGL .F              5165:   GROUND LEVEL
 DATE.            7-31-79:   RUN DATE
 RUN .                  1:   RUN NUMBER
 DD  .F              1564:   DEPTH DRILLER
 DL  .F              1560:   DEPTH LOGGER
 BLI .F              1560:   BOTTOM LOG INTERVAL
 TLI .F               700:   TOP LOG INTERVAL
 CS  .IN            9.625:   CASING SIZE
 CBD .F               691:   CASING BOTTOM DRILLER
 CBL .F               680:   CASING BOTTOM LOGGER
 BS  .IN            7.875:   BIT SIZE
 BSD .F              1564:   BIT SIZE AT DEPTH
 DFT .                OIL:   DRILLING FLUID TYPE
 BHT .F                92:   BOTTOM HOLE TEMPERATURE
 TCS .HRS               2:   TIME CURCULATED STOPPED
 MRT .F                92:   MAXIMUM RECORDED TEMPERATURE
 LUN .               3029:   LOGGING UNIT NUMBER
 LUL .                CPR:   LOGGING UNIT LOCATION
 ENGI.             MILLER:   RECORDING ENGINEER
 WITN.           DINSMORE:   WITNESSED BY
 CLNT.            A2DTECH:   CLIENT CODE
 ORIG.       2", 5" PRINT:   ORIGIN OF DATA
 UWI .       490251078600:   UNIQUE WELL ID
 DICO. A2D Technologies, Inc.:   DIGITIZING COMPANY
~OTHER INFORMATION
~A   DEPT     CALD        GRD       RHOB       CORR       DPHI          GR  
# ...
 1246.0000     9.1209    86.4744     2.5364     0.0041     0.0089    92.4410
 1246.5000     9.1199    86.5446     2.5248     0.0034     0.0171    90.6401
 1247.0000     9.1189    87.6256     2.5089     0.0002     0.0229    86.4524
 1247.5000     9.1144    88.3934     2.5011    -0.0029     0.0238    82.1445
 1248.0000     9.1009    86.5407     2.5086    -0.0063     0.0225    80.2307
 1248.5000     9.0875    86.7684     2.5086    -0.0050     0.0227    78.9517
 1249.0000     9.0741    88.6886     2.5030    -0.0021     0.0246    78.8843
 1249.5000     9.0607    89.8243     2.4973     0.0007     0.0260    79.7789
 1250.0000     9.0476    88.1127     2.5003     0.0036     0.0236    82.1369
 1250.5000     9.0408    85.9129     2.5093     0.0072     0.0212    83.3366
 1251.0000     9.0514    85.7109     2.5175     0.0117     0.0188    82.0357
 1251.5000     9.0617    88.6085     2.5154     0.0162     0.0162    80.6136
 1252.0000     9.0719    91.6704     2.5203     0.0207     0.0122    82.1033
 1252.5000     9.0821    92.0196     2.5319     0.0177     0.0074    83.8384
 1253.0000     9.0924    90.7457     2.5317     0.0065     0.0099    84.8158
 1253.5000     9.1026    89.4636     2.5299    -0.0042     0.0112    83.4852
 1254.0000     9.1129    88.1836     2.5419     0.0104     0.0036    82.2399
 1254.5000     9.1231    86.9063     2.5540     0.0260    -0.0022    82.4980
 1255.0000     9.1334    85.7663     2.5595     0.0345    -0.0022    85.3181
 1255.5000     9.1353    85.7861     2.5453     0.0077     0.0057    89.0148
 1256.0000     9.1299    89.0575     2.5191    -0.0141     0.0165    90.2882
 1256.5000     9.1244    93.2803     2.5060    -0.0150     0.0234    91.1832
 1257.0000     9.1188    91.5583     2.5128    -0.0055     0.0183    92.0798
 1257.5000     9.1133    89.9529     2.5204     0.0048     0.0136    92.9003
 1258.0000     9.1078    87.9938     2.5218     0.0039     0.0139    92.5747
 1258.5000     9.1023    91.7916     2.5109    -0.0048     0.0217    89.6576
 1259.0000     9.0968    91.1918     2.5003    -0.0135     0.0270    86.7538
 1259.5000     9.0913    89.8079     2.4932    -0.0192     0.0261    83.8701
 1260.0000     9.0857    88.4993     2.5028    -0.0135     0.0245    83.2461
 1260.5000     9.0802    88.2444     2.5146    -0.0064     0.0192    86.3647
 1261.0000     9.0747    90.2873     2.5266     0.0008     0.0140    89.2462
 1261.5000     9.0692    92.2982     2.5382     0.0079     0.0088    89.0741
 1262.0000     9.0637    93.8852     2.5388     0.0147     0.0046    87.8982
 1262.5000     9.0582    95.1545     2.5292     0.0133     0.0097    86.7042
 1263.0000     9.0527    96.1984     2.5175     0.0115     0.0140    84.1646
 1263.5000     9.0471    95.7907     2.5102     0.0097     0.0182    79.7583
 1264.0000     9.0417    95.4712     2.5210     0.0088     0.0194    78.2885
 1264.5000     9.0373    95.0711     2.5339     0.0130     0.0105    82.2254
 1265.0000     9.0352    94.1764     2.5459     0.0164     0.0041    84.9477
 1265.5000     9.0331    93.2898     2.5389     0.0178     0.0030    85.9438
 1266.0000     9.0310    92.3677     2.5312     0.0111     0.0057    86.8913
 1266.5000     9.0290    94.6286     2.5285     0.0046     0.0083    86.3865
 1267.0000     9.0269    99.2921     2.5305     0.0014     0.0081    86.0741
 1267.5000     9.0248   100.1050     2.5336     0.0053     0.0052    86.9999
 1268.0000     9.0227    95.9629     2.5367     0.0080     0.0061    87.8974
 1268.5000     9.0206    92.3090     2.5398     0.0131     0.0047    88.7949
 1269.0000     9.0184    89.4888     2.5400     0.0091     0.0030    89.6888
 1269.5000     9.0215    89.0616     2.5354     0.0053     0.0111    90.5580
 1270.0000     9.0260    91.0762     2.5259     0.0015     0.0142    89.9531
 1270.5000     9.0306    93.2265     2.5167    -0.0022     0.0166    87.1214
 1271.0000     9.0351    95.3726     2.5155    -0.0051     0.0178    85.4437
 1271.5000     9.0396    97.4849     2.5176    -0.0046     0.0157    89.2180
 1272.0000     9.0441    98.8550     2.5269     0.0045     0.0127    93.8025
 1272.5000     9.0486    95.3162     2.5335     0.0112     0.0096    98.2043
 1273.0000     9.0531    90.4997     2.5254     0.0106     0.0102    98.4317
 1273.5000     9.0576    91.6827     2.5085     0.0023     0.0175    93.6787
 1274.0000     9.0622    94.5604     2.4958    -0.0058     0.0257    89.6884
 1274.5000     9.0667    97.4245     2.4949    -0.0129     0.0266    86.3658
 1275.0000     9.0712    99.6377     2.5018    -0.0099     0.0232    86.2617
 1275.5000     9.0757    96.7031     2.5087    -0.0056     0.0201    87.3701
 1276.0000     9.0802    93.1323     2.5155    -0.0014     0.0170    90.7300
 1276.5000     9.0847    91.0343     2.5197     0.0027     0.0150    94.5799
 1277.0000     9.0892    92.8024     2.5017    -0.0041     0.0217    95.3485
 1277.5000     9.0938    94.5952     2.5005    -0.0112     0.0250    94.1038
 1278.0000     9.0978    96.0787     2.5045    -0.0110     0.0241    91.2599
 1278.5000     9.0910    94.3817     2.5045    -0.0088     0.0229    81.0951
 1279.0000     9.0838    92.0696     2.5010    -0.0046     0.0243    83.2553
 1279.5000     9.0766    89.8999     2.5013    -0.0004     0.0262    85.7769
 1280.0000     9.0694    91.8492     2.5104     0.0037     0.0204    88.2686
 1280.5000     9.0623    95.0969     2.5195     0.0080     0.0142    88.8729
 1281.0000     9.0551    96.6872     2.5249     0.0095     0.0114    87.7744
 1281.5000     9.0479    94.9083     2.5295     0.0097     0.0099    87.9116
 1282.0000     9.0407    93.2212     2.5337     0.0075     0.0086    89.5517
 1282.5000     9.0336    92.6943     2.5279     0.0052     0.0105    91.2030
 1283.0000     9.0264    95.0822     2.5179     0.0030     0.0159    91.0754
 1283.5000     9.0192    94.1777     2.5078     0.0007     0.0212    89.4484
 1284.0000     9.0120    97.2171     2.4977    -0.0016     0.0266    88.6423
 1284.5000     9.0049   100.1448     2.4879    -0.0049     0.0319    89.6699
 1285.0000     8.9977    94.4471     2.4874    -0.0100     0.0342    90.6800
 1285.5000     8.9905    91.4486     2.4941    -0.0111     0.0291    91.6306
 1286.0000     8.9834    89.7404     2.5053    -0.0107     0.0225    91.2414
 1286.5000     8.9819    88.2384     2.5165     0.0002     0.0160    89.5942
 1287.0000     9.0019    87.0088     2.5264     0.0117     0.0094    91.2160
 1287.5000     9.0211    85.8229     2.5299     0.0229     0.0096    91.4318
 1288.0000     9.0403    88.6241     2.5336     0.0122     0.0098    87.2275
 1288.5000     9.0596    92.2560     2.5374    -0.0006     0.0042    88.7153
 1289.0000     9.0788    91.4437     2.5352     0.0003     0.0078    89.0331
 1289.5000     9.0980    91.7512     2.5315     0.0082     0.0100    86.9806
 1290.0000     9.1173    93.2582     2.5175     0.0109     0.0118    87.2721
 1290.5000     9.1366    94.7270     2.5018     0.0095     0.0211    90.7550
 1291.0000     9.1562    95.8334     2.4902     0.0060     0.0282    91.6066
 1291.5000     9.1421    95.5585     2.4953     0.0025     0.0282    87.8603
 1292.0000     9.1233    94.4006     2.5001    -0.0010     0.0275    86.0171
 1292.5000     9.1044    93.2788     2.5048    -0.0045     0.0267    87.9724
 1293.0000     9.0856    92.1608     2.5088    -0.0050     0.0226    90.1398
 1293.5000     9.0667    92.2303     2.5132    -0.0051     0.0179    88.8785
 1294.0000     9.0479    94.0631     2.5177    -0.0004     0.0150    87.5255
 1294.5000     9.0291    94.7496     2.5244     0.0052     0.0124    86.1624
 1295.0000     9.0102    93.6433     2.5305     0.0063     0.0098    86.5472
 1295.5000     8.9915    95.8648     2.5252     0.0047     0.0114    86.8441
 1296.0000     8.9778    97.4806     2.5215     0.0032     0.0117    84.6445
 1296.5000     8.9788    94.8770     2.5264     0.0016     0.0097    82.8719
 1297.0000     8.9794    92.3037     2.5312     0.0000     0.0086    84.2160
 1297.5000     8.9801    90.5651     2.5227    -0.0016     0.0116    85.6632
