~VERSION INFORMATION
 VERS.                2.0:   CWLS LOG ASCII STANDARD - VERSION 2.0
 WRAP.                 NO:   ONE LINE PER DEPTH STEP
~WELL INFORMATION
#MNEM.UNIT      DATA TYPE    INFORMATION
#----------   ------------   ------------------------------
 STRT.F           16.0000:   START DEPTH
 STOP.F          661.0000:   STOP DEPTH
 STEP.F            0.5000:   STEP LENGTH
 NULL.          -999.2500:   NO VALUE
 COMP. FENIX & SCISSON INC:   COMPANY
 WELL.  26-66 SX 11 #I-11:   WELL
 FLD .             TEAPOT:   FIELD
 LOC .      S11 T38N R78W:   LOCATION
 CNTY.            NATRONA:   COUNTY
 STAT.            WYOMING:   STATE
 CTRY. UNITED STATES OF AMERICA:   COUNTRY
 SRVC.      Dresser Atlas:   SERVICE COMPANY
 DATE.        22-JUL-1980:   LOGDATE
 API .       490251083200:   API NUMBER
~CURVE INFORMATION
#MNEM.UNIT       API CODE    CURVE DESCRIPTION
#----------   ------------   ------------------------------
 DEPT.F                  :   
 SFL .OHMM   07 220 01 00:   SHALLOW FOCUSED LOG RESISTIVITY
 ILD .OHMM   07 120 46 00:   INDUCTION LOG DEEP
 ILM .OHMM   07 120 44 00:   INDUCTION LOG MEDIUM
 SPR .MV     07 010 01 00:   SPONTANEOUS POTENTIAL
 CALD.IN     45 280 60 00:   CALIPER
 GRD .GAPI   45 310 01 00:   GAMMA RAY FROM DENSITY LOG
 RHOB.G/C3   45 350 01 00:   BULK DENSITY
 CORR.G/C3   45 356 01 00:   DENSITY CORRECTION
 DPHI.DEC    45 890 12 00:   DENSITY POROSITY SANDSTONE
 NPHI.DEC    42 890 03 00:   NEUTRON POROSITY SANDSTONE
~PARAMETER INFORMATION
#MNEM.UNIT          VALUE    DESCRIPTION
#----------   ------------   ------------------------------
 PD  .                 GL:   PERMANENT DATUM
 EPD .F              5193:   ELEVATION PERMANENT DATUM
 LMF .                 KB:   LOG MEASURED FROM
 DAPD.F                 5:   FEET ABOVE PERMANENT DATUM
 DMF .                 KB:   DRILLING MEASURED FROM
 EKB .F              5198:   KELLING BUSHING
 EDF .F              5196:   DRILLING FLOOR
 EGL .F              5193:   GROUND LEVEL
 DATE.            7-22-80:   RUN DATE
 RUN .                  1:   RUN NUMBER
 DD  .F               655:   DEPTH DRILLER
 DL  .F               655:   DEPTH LOGGER
 BLI .F               653:   BOTTOM LOG INTERVAL
 TLI .F                20:   TOP LOG INTERVAL
 BS  .IN            7.875:   BIT SIZE
 BSD .F               655:   BIT SIZE AT DEPTH
 DFT .                KCL:   DRILLING FLUID TYPE
 DFD .                9.1:   DRILLING FLUID DENSITY
 DFV .                 46:   DRILLING FLUID VISCOSITY
 DFPH.                 11:   DRILLING FLUID PH
 DFL .                  6:   DRILLING FLUID LOSS
 MSS .           FLOWLINE:   MUD SAMPLE SOURCE
 RMS .OHMM            .17:   RESISTIVITY MUD SAMPLE
 MST .F                75:   MUD SAMPLE TEMPERATURE
 RMF .OHMM            .13:   RESISTIVITY MUD FILTRATE SAMPLE
 MFST.F                75:   MUD FILTRATE SAMPLE TEMPERATURE
 RMC .OHMM            .26:   RESISTIVITY MUD CAKE
 MCST.F                75:   MUD CAKE SAMPLE TEMPERATURE
 MFSS.                  C:   MUD FILTRATE SAMPLE SOURCE
 MCSS.                  C:   MUD CAKE SAMPLE SOURCE
 TCS .HRS               1:   TIME CURCULATED STOPPED
 LUN .               6240:   LOGGING UNIT NUMBER
 LUL .               RVTN:   LOGGING UNIT LOCATION
 ENGI.   K. RALL/J. GETTY:   RECORDING ENGINEER
 WITN.            RHOADES:   WITNESSED BY
 CLNT.            A2DTECH:   CLIENT CODE
 ORIG.        2" 5" PRINT:   ORIGIN OF DATA
 UWI .       490251083200:   UNIQUE WELL ID
 DICO. A2D Technologies, Inc.:   DIGITIZING COMPANY
~OTHER INFORMATION
~A   DEPT      SFL        ILD        ILM        SPR       CALD        GRD       RHOB       CORR         DPHI     NPHI   
# ...
  183.5000     7.7809     7.4373     6.8923   -60.8573     8.0370   102.5840     2.5074     0.0592     0.1024     0.2779
  184.0000     7.4431     7.1972     6.7234   -61.1354     8.0342    98.9638     2.4969     0.0417     0.1185     0.2740
  184.5000     7.1933     6.9649     6.5586   -61.3888     8.0314    99.6208     2.4449     0.0221     0.1422     0.2781
  185.0000     6.9519     6.7400     6.3978   -61.3799     8.0286   103.0014     2.4378     0.0088     0.1455     0.2907
  185.5000     6.7769     6.5922     6.2378   -61.0822     8.0258   102.6310     2.4331     0.0201     0.1463     0.3185
  186.0000     6.7147     6.5700     6.1743   -61.0222     8.0230   102.2077     2.4370     0.0309     0.1438     0.3248
  186.5000     6.6622     6.5396     6.1268   -61.0681     8.0205   103.4822     2.4426     0.0337     0.1408     0.3208
  187.0000     6.5914     6.5094     6.0668   -61.1167     8.0182   106.1299     2.4482     0.0319     0.1379     0.3178
  187.5000     6.5913     6.4790     6.0680   -61.1649     8.0160   108.7552     2.4541     0.0301     0.1357     0.3258
  188.0000     6.5912     6.4712     6.1948   -61.2911     8.0137   110.5425     2.4667     0.0285     0.1293     0.3240
  188.5000     6.7427     6.5786     6.3321   -61.5890     8.0114   109.1398     2.4884     0.0392     0.1169     0.3245
  189.0000     6.9181     6.7225     6.4723   -61.9808     8.0091   106.7841     2.5101     0.0550     0.1044     0.3316
  189.5000     7.0988     6.8694     6.6155   -62.3950     8.0068   105.1775     2.5175     0.0565     0.0961     0.3373
  190.0000     7.2839     7.0196     6.7618   -63.2425     8.0045   103.1496     2.5033     0.0393     0.1032     0.3327
  190.5000     7.4738     7.1729     6.9119   -64.0333     8.0022   101.5309     2.4858     0.0225     0.1129     0.3039
  191.0000     7.7096     7.3619     7.1004   -64.0157     8.0020   101.5579     2.4683     0.0071     0.1226     0.2933
  191.5000     7.7096     7.2903     7.0365   -64.0097     8.0020   101.5581     2.4599     0.0033     0.1311     0.2975
  192.0000     7.5541     7.2016     6.9089   -63.8280     8.0020   101.5578     2.4608     0.0121     0.1323     0.3190
  192.5000     7.3470     7.0966     6.8135   -63.3031     8.0020   101.5583     2.4578     0.0188     0.1319     0.3166
  193.0000     7.2282     7.1410     6.7769   -63.2253     8.0020   101.7701     2.4650     0.0223     0.1307     0.3231
  193.5000     7.2951     7.1960     6.9016   -63.2484     8.0020   102.7123     2.4740     0.0263     0.1245     0.3393
  194.0000     7.4291     7.2519     6.9798   -63.2744     8.0020   105.0771     2.4641     0.0189     0.1207     0.3311
  194.5000     7.5627     7.3082     7.0585   -63.2994     8.0020   107.2277     2.4466    -0.0059     0.1427     0.2947
  195.0000     7.6389     7.3648     7.1380   -63.3242     8.0020   110.1309     2.4154    -0.0299     0.1584     0.2644
  195.5000     7.6389     7.4219     7.2198   -63.3488     8.0020   114.7277     2.3879    -0.0314     0.1740     0.2550
  196.0000     7.6389     7.4398     7.2918   -63.3741     8.0020   116.4697     2.4127    -0.0043     0.1596     0.2691
  196.5000     8.2670     7.4601     7.2252   -63.3963     8.0020   112.6445     2.4561     0.0233     0.1361     0.2945
  197.0000     8.6902     7.4812     7.2309   -63.5658     8.0020   105.6779     2.4597     0.0276     0.1316     0.3068
  197.5000     8.1466     7.5020     7.1640   -63.8057     8.0020   103.1657     2.4492     0.0124     0.1365     0.3223
  198.0000     7.7396     7.3474     7.0034   -64.0475     8.0020   103.0650     2.4496     0.0003     0.1391     0.3358
  198.5000     7.3562     7.1220     6.8809   -64.2882     8.0020   101.4726     2.4673     0.0164     0.1295     0.3282
  199.0000     7.0890     6.9054     6.7605   -64.3482     8.0020   101.2384     2.4843     0.0338     0.1184     0.3135
  199.5000     7.0312     6.8396     6.6532   -64.2060     8.0020   104.3261     2.4958     0.0459     0.1120     0.3134
  200.0000     7.1208     6.8692     6.5922   -64.0654     8.0020   110.9254     2.5001     0.0504     0.1076     0.3290
  200.5000     7.1619     6.8891     6.5922   -63.9240     8.0020   114.1451     2.4848     0.0409     0.1157     0.3397
  201.0000     7.0765     6.9091     6.5921   -63.7828     8.0020   111.3767     2.4625     0.0218     0.1308     0.3388
  201.5000     7.0312     6.9291     6.5922   -63.6416     8.0020   108.1074     2.4407     0.0030     0.1432     0.3243
  202.0000     7.0835     6.9492     6.5922   -63.5003     8.0020   107.5432     2.4400     0.0010     0.1311     0.3086
  202.5000     7.2282     7.0312     6.5922   -63.3578     8.0020   106.8850     2.4915     0.0358     0.1088     0.3004
  203.0000     7.1399     6.9719     6.5921   -63.2105     8.0020   106.4194     2.5247     0.0508     0.0923     0.2893
  203.5000     7.0986     6.8761     6.5927   -63.3251     8.0020   107.5490     2.5331     0.0599     0.0863     0.2880
  204.0000     7.0577     6.7762     6.5940   -63.4914     8.0020   109.4855     2.5375     0.0642     0.0838     0.2907
  204.5000     7.0312     6.7929     6.5922   -63.6139     8.0020   111.2231     2.5306     0.0538     0.0934     0.2948
  205.0000     7.1392     6.8986     6.6808   -63.6374     8.0024   110.4577     2.5158     0.0418     0.1016     0.3014
  205.5000     7.2601     7.0060     6.7586   -63.6638     8.0059   108.9020     2.5060     0.0378     0.1036     0.3049
  206.0000     7.3643     7.1619     6.8374   -63.6896     8.0094   106.6372     2.4993     0.0367     0.1126     0.3022
  206.5000     7.3641     7.0963     6.9029   -63.7155     8.0129   103.9746     2.4782     0.0257     0.1260     0.2961
  207.0000     7.1939     7.0234     6.9029   -63.7415     8.0163   103.3702     2.4574     0.0136     0.1340     0.3252
  207.5000     7.0939     6.9029     6.9029   -63.7675     8.0198   104.7999     2.4553     0.0092     0.1254     0.3386
  208.0000     7.0899     6.9029     6.8918   -63.7926     8.0222   107.5378     2.4965     0.0170     0.1052     0.3467
  208.5000     7.7110     7.2295     6.8728   -63.7837     8.0221   108.8327     2.5037     0.0165     0.1215     0.3295
  209.0000     8.1476     8.0729     6.8537   -63.6982     8.0221   107.4754     2.4654     0.0042     0.1461     0.3153
  209.5000     8.2230     7.7759     6.8374   -63.6140     8.0221   106.3056     2.4308    -0.0069     0.1510     0.3117
  210.0000     7.7341     7.4239     6.9189   -63.5300     8.0221   105.5596     2.4264    -0.0151     0.1597     0.3260
  210.5000     7.3626     7.1619     6.9666   -63.4458     8.0221   105.8519     2.4027    -0.0241     0.1737     0.3380
  211.0000     7.3626     7.2924     7.0112   -63.4320     8.0221   106.1966     2.3886    -0.0308     0.1729     0.3391
  211.5000     7.5851     7.4007     7.0564   -63.5040     8.0221   106.9526     2.4086    -0.0268     0.1599     0.3171
  212.0000     7.8351     7.5106     7.1019   -63.5768     8.0221   107.7348     2.4476    -0.0054     0.1336     0.3039
  212.5000     7.9256     7.6227     7.1477   -63.5553     8.0208   108.5300     2.4866     0.0250     0.1045     0.3116
  213.0000     7.8925     7.6389     7.1939   -63.4600     8.0184   108.1591     2.5063     0.0469     0.1044     0.3164
  213.5000     7.8691     7.6371     7.2856   -63.3638     8.0159   105.6914     2.4810     0.0326     0.1215     0.3217
  214.0000     7.8514     7.6345     7.4388   -63.2677     8.0135   105.1271     2.4610     0.0155     0.1315     0.3256
  214.5000     7.9676     7.7726     7.5775   -63.1569     8.0111   107.6310     2.4775     0.0164     0.1177     0.3036
  215.0000     8.1460     7.8968     7.7210   -63.0188     8.0086   110.8858     2.4997     0.0352     0.1085     0.2879
  215.5000     8.3268     8.0275     7.8531   -62.8808     8.0062   114.1337     2.5137     0.0487     0.1001     0.2708
  216.0000     8.5312     8.1476     7.8208   -62.7422     8.0038   115.1668     2.5015     0.0435     0.1033     0.2914
  216.5000     8.4338     8.1476     7.7808   -62.6059     8.0014   115.0213     2.4929     0.0336     0.1140     0.3136
