~VERSION INFORMATION
 VERS.                2.0:   CWLS LOG ASCII STANDARD - VERSION 2.0
 WRAP.                 NO:   ONE LINE PER DEPTH STEP
~WELL INFORMATION
#MNEM.UNIT      DATA TYPE    INFORMATION
#----------   ------------   ------------------------------
 STRT.F           20.0000:   START DEPTH
 STOP.F          478.0000:   STOP DEPTH
 STEP.F            0.5000:   STEP LENGTH
 NULL.          -999.2500:   NO VALUE
 COMP. FENIX & SCISSON INC:   COMPANY
 WELL.   56 31 SX #56-3FP:   WELL
 FLD .             TEAPOT:   FIELD
 LOC .       S3 T38N R78W:   LOCATION
 CNTY.            NATRONA:   COUNTY
 STAT.            WYOMING:   STATE
 CTRY. UNITED STATES OF AMERICA:   COUNTRY
 SRVC.              Welex:   SERVICE COMPANY
 DATE.        06-JUN-1980:   LOGDATE
 API .       490251082300:   API NUMBER
~CURVE INFORMATION
#MNEM.UNIT       API CODE    CURVE DESCRIPTION
#----------   ------------   ------------------------------
 DEPT.F                  :   
 RHOB.G/C3   45 350 01 00:   BULK DENSITY
 CORR.G/C3   45 356 01 00:   DENSITY CORRECTION
 GRD .GAPI   45 310 01 00:   GAMMA RAY FROM DENSITY LOG
 CALD.IN     45 280 60 00:   CALIPER
 DPHI.DEC    45 890 12 00:   DENSITY POROSITY SANDSTONE
 NPHI.DEC    42 890 03 00:   NEUTRON POROSITY SANDSTONE
 SPR .MV     07 010 01 00:   SPONTANEOUS POTENTIAL
 ILD .OHMM   07 120 46 00:   INDUCTION LOG DEEP
 ILM .OHMM   07 120 44 00:   INDUCTION LOG MEDIUM
 SGRD.OHMM   07 220 05 00:   SHALLOW GUARD RESISTIVITY
~PARAMETER INFORMATION
#MNEM.UNIT          VALUE    DESCRIPTION
#----------   ------------   ------------------------------
 PD  .                 GL:   PERMANENT DATUM
 EPD .F              5173:   ELEVATION PERMANENT DATUM
 LMF .                 KB:   LOG MEASURED FROM
 DAPD.F                 5:   FEET ABOVE PERMANENT DATUM
 DMF .                 KB:   DRILLING MEASURED FROM
 EKB .F              5178:   KELLING BUSHING
 EGL .F              5173:   GROUND LEVEL
 DATE.             6-6-80:   RUN DATE
 RUN .                  1:   RUN NUMBER
 DD  .F               450:   DEPTH DRILLER
 DL  .F               476:   DEPTH LOGGER
 BLI .F               474:   BOTTOM LOG INTERVAL
 TLI .F                30:   TOP LOG INTERVAL
 BS  .IN            9.875:   BIT SIZE
 BSD .F               450:   BIT SIZE AT DEPTH
 DFT .            KCL MUD:   DRILLING FLUID TYPE
 DFD .                9.5:   DRILLING FLUID DENSITY
 DFV .                 48:   DRILLING FLUID VISCOSITY
 DFPH.                7.5:   DRILLING FLUID PH
 DFL .                  7:   DRILLING FLUID LOSS
 MSS .           FLOWLINE:   MUD SAMPLE SOURCE
 RMS .OHMM           1.56:   RESISTIVITY MUD SAMPLE
 MST .F                62:   MUD SAMPLE TEMPERATURE
 RMF .OHMM           1.24:   RESISTIVITY MUD FILTRATE SAMPLE
 MFST.F                62:   MUD FILTRATE SAMPLE TEMPERATURE
 RMC .OHMM           1.87:   RESISTIVITY MUD CAKE
 MCST.F                62:   MUD CAKE SAMPLE TEMPERATURE
 MFSS.           MEASURED:   MUD FILTRATE SAMPLE SOURCE
 MCSS.           MEASURED:   MUD CAKE SAMPLE SOURCE
 RMB .OHMM           1.32:   RESISTIVITY MUD AT BHT
 BHT .F                73:   BOTTOM HOLE TEMPERATURE
 TCS .HRS               6:   TIME CURCULATED STOPPED
 MRT .F                73:   MAXIMUM RECORDED TEMPERATURE
 LUN .               1892:   LOGGING UNIT NUMBER
 LUL .             CASPER:   LOGGING UNIT LOCATION
 ENGI.               REIN:   RECORDING ENGINEER
 WITN.              AMEND:   WITNESSED BY
 CLNT.            A2DTECH:   CLIENT CODE
 ORIG.        2" 5" PRINT:   ORIGIN OF DATA
 UWI .       490251082300:   UNIQUE WELL ID
 DICO. A2D Technologies, Inc.:   DIGITIZING COMPANY
~OTHER INFORMATION
~A   DEPT     RHOB       CORR        GRD       CALD       DPHI       NPHI        SPR          ILD        ILM     SGRD   
# ...
   87.0000     2.4389     0.0624    80.2104     9.8515     0.1463     0.3014   -40.7074     5.2990     5.8392     7.4232
   87.5000     2.4394     0.0683    79.6538     9.8515     0.1507     0.2987   -40.6643     5.2636     5.7957     7.4056
   88.0000     2.4350     0.0697    79.0990     9.8515     0.1553     0.2954   -40.5545     5.2285     5.7637     7.3881
   88.5000     2.4271     0.0619    78.5292     9.8515     0.1611     0.2942   -40.3113     5.1936     5.7320     7.2901
   89.0000     2.4190     0.0542    78.4729     9.8515     0.1640     0.2930   -40.0707     5.1590     5.7004     7.0459
   89.5000     2.4169     0.0466    78.5444     9.8515     0.1617     0.2903   -39.8296     5.1246     5.6690     7.1110
   90.0000     2.4193     0.0423    78.6197     9.8515     0.1586     0.2864   -39.5885     5.0904     5.6508     6.7297
   90.5000     2.4270     0.0551    78.6937     9.8515     0.1555     0.2826   -39.3474     5.0593     5.6511     6.8436
   91.0000     2.4346     0.0626    78.7654     9.8515     0.1543     0.2815   -39.1058     5.0476     5.6510     6.9715
   91.5000     2.4312     0.0667    78.7203     9.8515     0.1526     0.2844   -38.8656     5.0360     5.6511     7.1070
   92.0000     2.4432     0.0717    78.4805     9.8515     0.1487     0.2860   -38.6857     5.0243     5.6509     6.9244
   92.5000     2.4293     0.0609    78.2432     9.8515     0.1599     0.2854   -38.7344     5.0127     5.6524     6.7915
   93.0000     2.4118     0.0468    78.0061     9.8515     0.1698     0.2855   -38.7785     5.0011     5.6156     7.0355
   93.5000     2.4003     0.0326    77.8207     9.8515     0.1737     0.2862   -38.8221     4.9896     5.5481     7.1766
   94.0000     2.3932     0.0234    77.9199     9.8515     0.1757     0.2850   -38.8657     4.9781     5.5786     6.9655
   94.5000     2.3912     0.0212    78.0181     9.8515     0.1778     0.2838   -38.9093     4.9589     5.6246     6.7915
   95.0000     2.3900     0.0189    78.1154     9.8515     0.1799     0.2825   -38.9529     4.9059     5.6528     7.1368
   95.5000     2.3914     0.0166    78.2126     9.8515     0.1821     0.2864   -38.9965     4.8534     5.4196     7.5108
   96.0000     2.3823     0.0147    78.3098     9.8515     0.1822     0.2915   -39.0401     4.8015     5.2433     6.6160
   96.5000     2.3875     0.0200    78.4070     9.8515     0.1786     0.2919   -39.0837     4.7501     5.1547     6.1886
   97.0000     2.3949     0.0253    78.5053     9.8515     0.1742     0.2894   -39.1273     4.6993     5.2315     6.2970
   97.5000     2.4006     0.0306    78.6065     9.8515     0.1662     0.2870   -39.1710     4.6491     5.2838     6.3933
   98.0000     2.4136     0.0347    78.4409     9.8515     0.1673     0.2894   -39.2141     4.6155     5.3478     6.4899
   98.5000     2.4123     0.0354    78.2396     9.8515     0.1682     0.2923   -39.2616     4.6127     5.3205     6.5464
   99.0000     2.4090     0.0357    78.0329     9.8515     0.1639     0.2926   -39.1113     4.6100     5.2756     6.4233
   99.5000     2.4188     0.0567    78.3422     9.8515     0.1602     0.2916   -38.8859     4.6073     5.2311     6.3380
  100.0000     2.4264     0.0662    78.7069     9.8515     0.1666     0.2896   -38.6570     4.6046     5.1870     6.2534
  100.5000     2.4146     0.0622    79.0729     9.8515     0.1648     0.2874   -38.4282     4.6019     5.1432     6.1387
  101.0000     2.4226     0.0581    79.4377     9.8515     0.1623     0.2874   -38.1995     4.5992     5.1038     6.1587
  101.5000     2.4259     0.0541    79.8023     9.8515     0.1634     0.2912   -37.9706     4.5964     5.0826     6.1939
  102.0000     2.4237     0.0496    80.1669     9.8515     0.1682     0.2946   -37.7401     4.5937     5.0615     6.2288
  102.5000     2.4126     0.0384    80.5317     9.8515     0.1706     0.2970   -37.5109     4.5910     5.0406     6.2637
  103.0000     2.4066     0.0320    80.8961     9.8515     0.1656     0.2943   -37.5529     4.5883     5.0197     6.3100
  103.5000     2.4138     0.0391    81.2638     9.8515     0.1700     0.2912   -37.6128     4.5856     4.9988     6.2182
  104.0000     2.4128     0.0461    81.3390     9.8515     0.1785     0.2882   -37.6716     4.5829     4.9687     6.0862
  104.5000     2.3978     0.0441    81.2395     9.8515     0.1678     0.2854   -37.7300     4.5802     4.9815     5.9714
  105.0000     2.3926     0.0418    81.1386     9.8515     0.1520     0.2856   -37.7883     4.5775     5.0053     6.0219
  105.5000     2.4319     0.0617    81.0374     9.8515     0.1355     0.2857   -37.8467     4.5749     5.0293     6.1556
  106.0000     2.4565     0.0830    80.9365     9.8515     0.1229     0.2858   -37.9050     4.5556     5.0609     6.9903
  106.5000     2.4819     0.1023    80.8357     9.8515     0.1258     0.2858   -37.9634     4.5312     5.0494     8.1505
  107.0000     2.4867     0.0968    80.7343     9.8515     0.1290     0.2815   -38.0213     4.5070     5.0327     6.6040
  107.5000     2.4771     0.0906    80.6357     9.8515     0.1327     0.2771   -38.0763     4.4829     5.0161     5.9112
  108.0000     2.4705     0.0846    80.3675     9.8515     0.1256     0.2783   -38.2675     4.4589     4.9996     5.9374
  108.5000     2.4710     0.0805    80.0004     9.8515     0.1359     0.2778   -38.4832     4.4350     4.9831     5.9694
  109.0000     2.4795     0.0883    79.6361     9.8515     0.1510     0.2751   -38.7004     4.4113     4.9604     5.9180
  109.5000     2.4586     0.0724    79.5132     9.8515     0.1661     0.2806   -38.9141     4.3876     4.8920     6.0319
  110.0000     2.4269     0.0480    79.8088     9.8515     0.1798     0.2867   -39.0092     4.3543     4.8246     6.0815
  110.5000     2.3952     0.0250    80.0991     9.8515     0.1893     0.2922   -38.6856     4.2785     4.7580     5.8895
  111.0000     2.3730     0.0303    80.3850     9.8515     0.1877     0.2926   -38.3748     4.2044     4.6923     5.7562
  111.5000     2.3772     0.0318    80.3982     9.8515     0.1929     0.2926   -38.0648     4.1315     4.6276     5.5973
  112.0000     2.3677     0.0226    80.3953     9.8515     0.1827     0.2970   -37.7543     4.0598     4.5638     5.3293
  112.5000     2.3832     0.0313    80.5603     9.8515     0.1766     0.3002   -37.4407     3.9894     4.4908     5.2024
  113.0000     2.3954     0.0400    80.8548     9.8515     0.1814     0.3026   -37.1239     3.9486     4.5001     5.2989
  113.5000     2.3980     0.0378    81.1489     9.8515     0.1861     0.3031   -37.3214     3.9592     4.5111     4.7893
  114.0000     2.3792     0.0286    81.4463     9.8515     0.1865     0.3027   -37.5644     3.9668     4.5222     5.2174
  114.5000     2.3805     0.0202    81.4772     9.8515     0.1832     0.3032   -37.8059     3.9743     4.5333     5.7559
  115.0000     2.3772     0.0202    81.2832     9.8515     0.1732     0.3035   -38.0466     3.9819     4.5445     5.6355
  115.5000     2.3965     0.0341    81.0867     9.8515     0.1562     0.3038   -38.2873     3.9895     4.5556     5.5158
  116.0000     2.4230     0.0527    80.8891     9.8515     0.1505     0.2982   -38.5250     3.9972     4.5668     5.4762
  116.5000     2.4366     0.0685    80.6937     9.8515     0.1530     0.2974   -38.6543     4.0048     4.5780     5.4423
  117.0000     2.4382     0.0686    80.4988     9.8515     0.1575     0.2982   -38.5682     4.0124     4.5893     5.3975
  117.5000     2.4289     0.0621    80.6279     9.8515     0.1608     0.3022   -38.4860     4.0201     4.6006     5.4455
  118.0000     2.4183     0.0558    81.0313     9.8515     0.1642     0.3066   -38.4032     4.0321     4.6118     5.5247
  118.5000     2.4154     0.0496    81.4316     9.8515     0.1586     0.3048   -38.3204     4.0455     4.6232     5.6043
  119.0000     2.4135     0.0508    81.8334     9.8515     0.1524     0.3028   -38.2370     4.0588     4.6345     5.6510
  119.5000     2.4093     0.0595    82.2345     9.8515     0.1460     0.3035   -38.1552     4.0723     4.6459     5.4814
  120.0000     2.4447     0.0680    82.6371     9.8515     0.1407     0.3105   -38.1370     4.0857     4.6573     5.3972
