~VERSION INFORMATION
 VERS.                2.0:   CWLS LOG ASCII STANDARD - VERSION 2.0
 WRAP.                 NO:   ONE LINE PER DEPTH STEP
~WELL INFORMATION
#MNEM.UNIT      DATA TYPE    INFORMATION
#----------   ------------   ------------------------------
 STRT.F            0.0000:   START DEPTH
 STOP.F         3030.0000:   STOP DEPTH
 STEP.F            0.5000:   STEP LENGTH
 NULL.          -999.2500:   NO VALUE
 COMP. LAWRENCE/ALLISON INC:   COMPANY
 WELL. NAVAL PETROLEUM RESERVE 3 AX-3 #36  X 34-34:   WELL
 FLD .         N. P. R #3:   FIELD
 LOC .      S34 T39N R78W:   LOCATION
 CNTY.            NATRONA:   COUNTY
 STAT.            WYOMING:   STATE
 CTRY. UNITED STATES OF AMERICA:   COUNTRY
 SRVC.      Dresser Atlas:   SERVICE COMPANY
 DATE.        29-JUN-1985:   LOGDATE
 API .       490251103200:   API NUMBER
~CURVE INFORMATION
#MNEM.UNIT       API CODE    CURVE DESCRIPTION
#----------   ------------   ------------------------------
 DEPT.F                  :   
 RFOC.OHMM   07 220 01 00:   RESISTIVITY FOCUSED LOG
 RILM.OHMM   07 120 44 00:   RESITIVITY LONG MEDIUM
 SPR .MV     07 010 01 00:   SPONTANEOUS POTENTIAL
 RILD.OHMM   07 120 46 00:   INDUCTION LOG DEEP RESITIVITY
 GRR .GAPI   07 310 01 00:   GAMMA RAY
 DT  .US/F   60 520 00 00:   INTERVAL TRANSIT TIME
 CALD.IN     45 280 60 00:   CALIPER FROM DENSITY LOG
 CORR.G/C3   45 356 01 00:   DENSITY CORRECTION
 CNC .DEC    42 890 03 00:   NEUTRON POROSITY SANDSTONE
 DEN .G/C3   45 350 01 00:   COMPENSATED BULK DENSTIY
 PORD.DEC    45 890 12 00:   POROSITY DENSITY SANDSTONE
~PARAMETER INFORMATION
#MNEM.UNIT          VALUE    DESCRIPTION
#----------   ------------   ------------------------------
 PD  .                 GL:   PERMANENT DATUM
 EPD .F              5108:   ELEVATION PERMANENT DATUM
 LMF .                 KB:   LOG MEASURED FROM
 DAPD.F                12:   FEET ABOVE PERMANENT DATUM
 DMF .                 KB:   DRILLING MEASURED FROM
 EKB .F              5120:   KELLING BUSHING
 EGL .F              5108:   GROUND LEVEL
 DATE.       29-JUNE-1985:   RUN DATE
 RUN .                  1:   RUN NUMBER
 DD  .F              3033:   DEPTH DRILLER
 DL  .F              3033:   DEPTH LOGGER
 BLI .F              3030:   BOTTOM LOG INTERVAL
 CS  .IN            8.625:   CASING SIZE
 CBD .F               601:   CASING BOTTOM DRILLER
 CBL .F               601:   CASING BOTTOM LOGGER
 BS  .IN            7.875:   BIT SIZE
 BSD .F              3033:   BIT SIZE AT DEPTH
 DFT .   FOAM & KCL WATER:   DRILLING FLUID TYPE
 MSS .           FLOWLINE:   MUD SAMPLE SOURCE
 RMS .OHMM           0.44:   RESISTIVITY MUD SAMPLE
 MST .F                82:   MUD SAMPLE TEMPERATURE
 RMF .OHMM           0.44:   RESISTIVITY MUD FILTRATE SAMPLE
 MFST.F                82:   MUD FILTRATE SAMPLE TEMPERATURE
 MFSS.               MEAS:   MUD FILTRATE SAMPLE SOURCE
 RMB .OHMM           0.31:   RESISTIVITY MUD AT BHT
 BHT .F               116:   BOTTOM HOLE TEMPERATURE
 TCS .HRS               3:   TIME CURCULATED STOPPED
 MRT .F               116:   MAXIMUM RECORDED TEMPERATURE
 LUN .               6274:   LOGGING UNIT NUMBER
 LUL .               GLTE:   LOGGING UNIT LOCATION
 ENGI.             RAUTIO:   RECORDING ENGINEER
 WITN.       MR. JENNINGS:   WITNESSED BY
 CLNT.            A2DTECH:   CLIENT CODE
 ORIG.        2" 5" PRINT:   ORIGIN OF DATA
 UWI .       490251103200:   UNIQUE WELL ID
 DICO. A2D Technologies, Inc.:   DIGITIZING COMPANY
~OTHER INFORMATION
~A    DEPT    RFOC       RILM        SPR       RILD         GRR        DT       CALD       CORR        CNC        DEN       PORD   
# ...
 2867.0000     2.3795     1.9660    47.6788     1.8810   205.1582   107.5675     7.6614     0.0999     0.3558     2.2985     0.1909
 2867.5000     1.9587     2.0085    48.4400     1.8818   205.5196   110.6470     7.6611     0.0789     0.3380     2.3542     0.2119
 2868.0000     1.9890     2.1543    48.7459     1.9362   181.0898   111.4759     7.6608    -0.0307     0.3159     2.4549     0.2137
 2868.5000     2.4836     2.4261    49.0518     2.1798   131.8529   104.9955     7.6605    -0.0367     0.2687     2.4767     0.1910
 2869.0000     3.6182     2.8612    49.2062     2.4719   116.7100    97.6877     7.6602     0.0115     0.2480     2.4812     0.1475
 2869.5000     4.6828     3.3224    49.0575     2.7643   112.4762    89.6269     7.6522     0.0236     0.2411     2.4828     0.1154
 2870.0000     5.1999     3.7416    48.7581     3.2685   108.2424    85.1052     7.6445     0.0297     0.2447     2.4828     0.1012
 2870.5000     5.0946     4.0695    48.0033     3.7670   104.9177    84.1227     7.6292     0.0042     0.2586     2.4836     0.1009
 2871.0000     4.9909     4.2182    47.5509     4.2034   108.5649    84.8231     7.6289    -0.0167     0.2652     2.4767     0.1003
 2871.5000     4.9575     4.3066    47.4030     4.3236   111.6038    85.9218     7.6135    -0.0437     0.2683     2.4581     0.0994
 2872.0000     4.9596     4.3384    47.2544     4.3250   115.5518    86.6712     7.6283    -0.0452     0.2685     2.4499     0.0990
 2872.5000     4.8570     4.3096    47.4095     4.2964   118.9451    87.4959     7.6280    -0.0436     0.2652     2.4529     0.1023
 2873.0000     4.7268     4.2225    47.4123     4.2341   120.7227    88.3959     7.6428    -0.0435     0.2612     2.4582     0.1156
 2873.5000     4.5989     4.1372    47.5667     4.1524   120.2725    88.9194     7.6424    -0.0374     0.2603     2.4627     0.1183
 2874.0000     4.6004     4.1097    48.1763     4.1246   119.5149    89.2279     7.6421    -0.0245     0.2609     2.4680     0.1198
 2874.5000     4.6019     4.0828    48.7853     4.0973   118.6274    89.2887     7.6419    -0.0012     0.2609     2.4741     0.1171
 2875.0000     4.6360     4.0848    49.0911     4.0706   116.5169    89.2842     7.6415     0.0049     0.2593     2.4778     0.1131
 2875.5000     4.7684     4.0865    49.2455     4.0440   115.9195    89.2053     7.6413     0.0080     0.2578     2.4764     0.1095
 2876.0000     4.7700     4.0885    49.2485     4.0453   118.9584    89.1264     7.6407     0.0020     0.2585     2.4734     0.1062
 2876.5000     4.7381     4.0901    49.2520     4.0466   122.3004    89.3530     7.6256     0.0006     0.2647     2.4719     0.1040
 2877.0000     4.6899     4.0917    49.1026     4.0763   124.7533    89.9466     7.6253     0.0097     0.2765     2.4727     0.1037
 2877.5000     4.6118     4.0933    49.1062     4.0795   126.2592    90.4701     7.6250     0.0128     0.2825     2.4765     0.1049
 2878.0000     4.5809     4.0953    49.1091     4.1078   126.8717    90.9183     7.6247     0.0068     0.2795     2.4803     0.1064
 2878.5000     4.6472     4.0970    49.2641     4.1668   126.5773    90.9147     7.6395     0.0024     0.2746     2.4826     0.1070
 2879.0000     4.6812     4.1272    48.9640     4.1682   126.2851    90.8358     7.6391     0.0010     0.2734     2.4826     0.1049
 2879.5000     4.7154     4.1289    48.6638     4.1696   125.9907    90.4488     7.6389    -0.0005     0.2746     2.4826     0.1021
 2880.0000     4.7876     4.1000    48.5152     4.1672   125.6963    89.8487     7.6386    -0.0034     0.2764     2.4819     0.1003
 2880.5000     5.0592     3.9634    48.6702     4.0019   126.6161    89.4686     7.6383    -0.0138     0.2776     2.4774     0.0994
 2881.0000     5.1318     3.8825    48.8246     3.9201   127.8369    89.3144     7.6530    -0.0334     0.2793     2.4624     0.0994
 2881.5000     4.9925     3.8307    48.9790     3.8674   129.0576    90.2897     7.6527    -0.0422     0.2866     2.4426     0.1006
 2882.0000     4.7898     3.7530    49.2849     3.7887   129.3714    91.7168     7.6675    -0.0166     0.2952     2.4354     0.1063
 2882.5000     4.5008     3.6516    49.4400     3.6861   129.9861    94.2349     7.6671     0.0015     0.3014     2.4347     0.1135
 2883.0000     4.0842     3.5772    49.2913     3.5611   131.8129    96.3021     7.6668     0.0136     0.3076     2.4347     0.1286
 2883.5000     3.9184     3.4564    49.1427     3.4403   133.3367    97.2021     7.6666     0.0107     0.3119     2.4340     0.1295
 2884.0000     3.9471     3.3862    49.2971     3.3702   134.2544    97.3491     7.6663     0.0017     0.3082     2.4341     0.1283
 2884.5000     4.0643     3.3407    49.3000     3.3247   133.3561    97.4208     7.6659    -0.0087     0.3016     2.4356     0.1292
 2885.0000     4.0899     3.3424    48.5459     3.3027   133.9708    97.4925     7.6657    -0.0191     0.2982     2.4418     0.1298
 2885.5000     4.0343     3.3671    48.2450     3.3272   135.4945    97.5642     7.6654    -0.0296     0.2931     2.4567     0.1288
 2886.0000     3.9526     3.4396    48.0964     3.3986   134.8971    97.2585     7.6650    -0.0400     0.2770     2.4717     0.1246
 2886.5000     3.8992     3.5878    48.2515     3.4958   131.1331    96.4266     7.6648    -0.0351     0.2661     2.4778     0.1152
 2887.0000     4.0672     3.8219    48.1028     3.7069   124.6135    94.6157     7.6645    -0.0158     0.2579     2.4733     0.1055
 2887.5000     4.4231     4.1279    48.1064     4.1351   120.9857    91.0730     7.6642     0.0023     0.2500     2.4591     0.1037
 2888.0000     4.8775     4.7140    48.2608     4.6242   115.8428    87.8289     7.6488     0.0144     0.2436     2.4516     0.1070
 2888.5000     5.4540     5.0915    48.7182     5.1353   114.6394    83.9112     7.6485     0.0189     0.2409     2.4470     0.1139
 2889.0000     6.9170     5.3922    49.1763     5.5077   114.9532    82.7028     7.6482     0.0055     0.2469     2.4464     0.1200
 2889.5000     7.0616     5.6181    49.3307     5.7452   114.9618    83.2263     7.6479    -0.0140     0.2487     2.4517     0.1224
 2890.0000     6.4527     5.7792    49.4844     5.8277   115.5765    84.9546     7.6476    -0.0351     0.2496     2.4562     0.1211
 2890.5000     6.0207     5.8219    49.3364     5.8704   117.1003    85.9299     7.6473    -0.0499     0.2500     2.4577     0.1154
 2891.0000     5.8982     5.8242    49.1878     5.8724   119.8364    86.1523     7.6470    -0.0498     0.2514     2.4555     0.1148
 2891.5000     6.2386     5.7465    48.8883     5.8743   119.2409    86.1477     7.6467    -0.0332     0.2535     2.4503     0.1169
 2892.0000     6.4617     5.4751    48.7390     5.5970   119.2495    86.2194     7.6464    -0.0091     0.2592     2.4542     0.1181
 2892.5000     6.2863     5.2166    49.0456     5.3324   118.9529    86.7429     7.6461     0.0030     0.2687     2.4609     0.1156
 2893.0000     6.0733     4.9702    50.4522     5.0802   118.9637    87.6429     7.6458     0.0106     0.2782     2.4616     0.1132
 2893.5000     5.9045     4.8323    52.5369     4.8738   119.6343    89.0002     7.6455    -0.0015     0.2861     2.4542     0.1129
 2894.0000     5.7085     4.6718    53.9034     4.7052   120.8013    90.4210     7.6452    -0.0178     0.2891     2.4332     0.1147
 2894.5000     5.4010     4.5457    54.8153     4.5492   122.0220    91.8481     7.6448     0.0138     0.2887     2.4144     0.1307
 2895.0000     5.0325     4.4534    55.2727     4.4257   123.5458    93.1999     7.6144     0.0575     0.2846     2.3866     0.1506
 2895.5000     4.7354     4.3935    55.2763     4.3659   121.7363    95.9072     7.5539     0.0801     0.2757     2.3869     0.1606
 2896.0000     4.4803     4.3957    55.5822     4.3673   120.8358    98.2379     7.6952     0.0381     0.2618     2.4175     0.1485
 2896.5000     4.3285     4.4592    55.4328     4.3997   120.8466    98.6108     7.6135    -0.0069     0.2518     2.4528     0.1188
 2897.0000     4.2404     4.5870    54.9819     4.4941   120.8552    97.1108     7.5380    -0.0354     0.2454     2.4604     0.1146
