~VERSION INFORMATION
 VERS.                2.0:   CWLS LOG ASCII STANDARD - VERSION 2.0
 WRAP.                 NO:   ONE LINE PER DEPTH STEP
~WELL INFORMATION
#MNEM.UNIT      DATA TYPE    INFORMATION
#----------   ------------   ------------------------------
 STRT.F           11.0000:   START DEPTH
 STOP.F          685.0000:   STOP DEPTH
 STEP.F            0.5000:   STEP LENGTH
 NULL.          -999.2500:   NO VALUE
 COMP. BROWN JOHN E&C INC:   COMPANY
 WELL. 78-1 STX-34 #78-34:   WELL
 FLD .             TEAPOT:   FIELD
 LOC .      S34 T39N R78W:   LOCATION
 CNTY.            NATRONA:   COUNTY
 STAT.            WYOMING:   STATE
 CTRY. UNITED STATES OF AMERICA:   COUNTRY
 SRVC.     Atlas Wireline:   SERVICE COMPANY
 DATE.        28-JAN-1992:   LOGDATE
 API .       490252250300:   API NUMBER
~CURVE INFORMATION
#MNEM.UNIT       API CODE    CURVE DESCRIPTION
#----------   ------------   ------------------------------
 DEPT.F                  :   
 GRR .GAPI   07 310 01 00:   GAMMA RAY
 RILD.OHMM   07 120 46 00:   INDUCTION LOG DEEP RESISTIVITY
 RILM.OHMM   07 120 44 00:   INDUCTION LOG MEDIUM RESISTIVITY
~PARAMETER INFORMATION
#MNEM.UNIT          VALUE    DESCRIPTION
#----------   ------------   ------------------------------
 PD  .                 GL:   PERMANENT DATUM
 EPD .F              5077:   ELEVATION PERMANENT DATUM
 LMF .                 KB:   LOG MEASURED FROM
 DAPD.F                10:   FEET ABOVE PERMANENT DATUM
 DMF .                 KB:   DRILLING MEASURED FROM
 EKB .F              5087:   KELLING BUSHING
 EDF .F              5086:   DRILLING FLOOR
 EGL .F              5077:   GROUND LEVEL
 DATE.        28-JAN-1992:   RUN DATE
 RUN .                  1:   RUN NUMBER
 DD  .F               693:   DEPTH DRILLER
 DL  .F               693:   DEPTH LOGGER
 BLI .F               691:   BOTTOM LOG INTERVAL
 CS  .IN            9.625:   CASING SIZE
 CBD .F                50:   CASING BOTTOM DRILLER
 CBL .F                60:   CASING BOTTOM LOGGER
 BS  .IN             8.75:   BIT SIZE
 BSD .F               693:   BIT SIZE AT DEPTH
 DFT .                AIR:   DRILLING FLUID TYPE
 MRT .F                90:   MAXIMUM RECORDED TEMPERATURE
 LUN .           HL- 6274:   LOGGING UNIT NUMBER
 LUL .             CASPER:   LOGGING UNIT LOCATION
 ENGI.             RAUTIO:   RECORDING ENGINEER
 WITN.        GARY STRONG:   WITNESSED BY
 CLNT.            A2DTECH:   CLIENT CODE
 ORIG.           5" PRINT:   ORIGIN OF DATA
 UWI .       490252250300:   UNIQUE WELL ID
 DICO. A2D Technologies, Inc.:   DIGITIZING COMPANY
~OTHER INFORMATION
~A   DEPT       GRR      RILD       RILM   
# ...
  284.0000   140.0556     8.1686     8.1190
  284.5000   137.9292     8.0531     8.0033
  285.0000   137.6157     7.9396     8.0006
  285.5000   140.0172     7.8278     7.9423
  286.0000   142.4186     7.7714     7.8297
  286.5000   142.4068     7.7693     7.7727
  287.0000   140.5850     7.7133     7.7701
  287.5000   138.4615     7.7112     7.7674
  288.0000   139.7284     7.7635     7.7648
  288.5000   142.7571     7.7608     7.8164
  289.0000   143.8559     7.8674     7.9233
  289.5000   142.6345     7.9754     7.9760
  290.0000   138.0978     8.0887     8.1455
  290.5000   127.2262     8.2043     8.3108
  291.0000   126.6140     8.4250     8.4246
  291.5000   130.2191     8.6003     8.4806
  292.0000   133.5256     8.7184     8.5959
  292.5000   135.6254     8.7769     8.6538
  293.0000   137.1218     8.8357     8.7722
  293.5000   137.7134     8.8327     8.8305
  294.0000   137.7014     8.8303     8.8892
  294.5000   137.3876     8.8901     8.8854
  295.0000   138.5798     8.8871     8.8824
  295.5000   140.3780     8.8847     8.8177
  296.0000   140.6707     8.8207     8.8147
  296.5000   137.6394     8.7506     8.7439
  297.0000   136.1192     8.5734     8.6257
  297.5000   136.7107     8.4526     8.5629
  298.0000   137.3052     8.3917     8.5600
  298.5000   137.2904     8.3894     8.4977
  299.0000   137.2785     8.3871     8.4358
  299.5000   136.9651     8.3848     8.4329
  300.0000   137.2534     8.3825     8.4303
  300.5000   135.7363     8.4986     8.4279
  301.0000   136.0291     8.6155     8.4948
  301.5000   136.9252     8.6738     8.6608
  302.0000   137.2202     8.7940     8.8413
  302.5000   136.9074     8.8536     9.0256
  303.0000   134.4853     9.0381     9.0868
  303.5000   131.1582     9.2267     9.2762
  304.0000   128.7360     9.3558     9.4689
  304.5000   128.1237     9.6160     9.5998
  305.0000   128.1146     9.8848     9.8678
  305.5000   128.1039    10.0218    10.0734
  306.0000   129.3017    10.1601    10.2148
  306.5000   132.3094    10.3004    10.3615
  307.0000   134.4122    10.4425    10.6414
  307.5000   133.8000    10.6600    10.8632
  308.0000   131.9812    10.8826    11.0896
  308.5000   126.2408    11.1874    11.3215
  309.0000   123.2153    11.4210    11.6375
  309.5000   124.7148    11.7409    11.8808
  310.0000   127.4208    11.9860    12.2124
  310.5000   128.6186    12.2363    12.4669
  311.0000   128.5591    12.4046    12.6384
  311.5000   126.1854    12.4892    12.7233
  312.0000   122.5566    12.4860    12.7127
  312.5000   117.7212    12.3970    12.5258
  313.0000   115.2990    12.2232    12.1916
  313.5000   114.6869    11.9683    11.9362
  314.0000   114.9797    11.8005    11.7678
  314.5000   115.8758    11.5544    11.6829
  315.0000   117.3752    11.3925    11.5986
  315.5000   118.2715    11.3096    11.5150
  316.0000   117.9608    11.2222    11.3525
  316.5000   117.3233    11.0725    11.2706
  317.0000   117.6912    11.0702    11.1893
  317.5000   121.2502    11.0680    11.1837
  318.0000   124.8613    11.0657    11.1055
  318.5000   125.1563    11.0634    11.1018
  319.0000   122.4303    11.0612    11.0988
  319.5000   116.3882    11.1367    11.0958
  320.0000   116.0777    11.1338    11.0927
  320.5000   114.8622    11.2094    11.1680
  321.0000   113.9483    11.2070    11.2430
  321.5000   115.1461    11.2047    11.2392
  322.0000   119.3605    11.2023    11.2361
  322.5000   121.1616    11.1219    11.2330
  323.0000   122.1075    10.9660    11.1520
  323.5000   124.1582    10.8123    10.9890
  324.0000   126.8643    10.5868    10.7523
  324.5000   127.1593    10.3660    10.3923
  325.0000   122.6233    10.2207    10.2457
  325.5000   118.3912    10.0775    10.1718
  326.0000   118.6840    10.0754    10.0984
  326.5000   119.8818    10.0733    10.0256
  327.0000   118.0630    10.0713    10.0228
  327.5000   117.1491     9.9994     9.9505
  328.0000   118.6486     9.9276     9.8787
  328.5000   120.1729     9.7884     9.8075
  329.0000   120.7424     9.6512     9.7367
  329.5000   119.5247     9.5823     9.7340
  330.0000   119.8175     9.5804     9.6632
  330.5000   119.8087     9.5784     9.5935
  331.0000   119.7998     9.5765     9.6586
  331.5000   120.3965     9.7086     9.6553
  332.0000   120.3854     9.7745     9.7208
  332.5000   119.7732     9.9093     9.9234
  333.0000   118.5577    10.0461    10.0599
  333.5000   114.0239    10.1142    10.1983
  334.0000   114.9201    10.1827    10.1948
  334.5000   116.1178    10.1100    10.1920
  335.0000   114.2484    10.1785    10.1893
  335.5000   113.6846    10.0353    10.1157
  336.0000   116.3907     9.9637     9.9724
  336.5000   119.3984     9.6212     9.6957
  337.0000   122.7078     9.3552     9.4266
  337.5000   125.7155     8.9710     9.1014
  338.0000   128.4216     8.6625     8.6658
  338.5000   129.6216     8.2484     8.3088
  339.0000   129.3088     7.9001     8.0221
  339.5000   127.1883     7.7452     7.9090
  340.0000   125.9728     7.7434     7.7974
  340.5000   124.7320     7.7962     7.8498
  341.0000   122.8377     7.7942     7.9025
  341.5000   120.8158     7.8474     7.9556
  342.0000   120.8070     7.9557     8.0650
  342.5000   120.4987     8.1215     8.1760
  343.0000   122.9009     8.1769     8.2309
  343.5000   124.4025     8.2893     8.2862
  344.0000   125.5981     8.3455     8.3418
  344.5000   125.8908     8.4047     8.3978
  345.0000   126.1840     8.4590     8.4542
  345.5000   127.9847     8.5163     8.5700
  346.0000   130.3891     8.5740     8.6878
  346.5000   130.3550     8.6919     8.8073
  347.0000   128.4606     8.7508     8.8665
  347.5000   126.7404     8.8715     8.8635
  348.0000   126.1282     8.9321     8.9236
  348.5000   125.2144     8.9922     9.0457
  349.0000   124.6022     9.0532     9.0433
  349.5000   124.2917     9.0512     9.1046
  350.0000   125.7904     9.1121     8.9758
  350.5000   128.8659     9.0465     8.9129
  351.0000   130.3108     8.9191     8.8504
  351.5000   130.0054     8.8548     8.7882
  352.0000   127.2875     8.7301     8.7876
  352.5000   123.9663     8.6672     8.6654
  353.0000   122.4551     8.6648     8.6648
  353.5000   122.7537     8.7230     8.7249
  354.0000   124.2591     8.7205     8.7852
  354.5000   126.0661     8.7182     8.7846
  355.0000   126.6672     8.7766     8.7230
  355.5000   123.9485     8.7741     8.7224
  356.0000   123.3422     8.7717     8.7218
  356.5000   124.5459     8.7080     8.7212
  357.0000   128.1628     8.7056     8.7206
  357.5000   129.3665     8.6429     8.7200
  358.0000   126.2865     8.6406     8.6589
  358.5000   123.9307     8.6382     8.5980
  359.0000   126.3403     8.5760     8.5974
  359.5000   127.8464     8.4552     8.5372
  360.0000   126.9377     8.3943     8.4773
  360.5000   125.1247     8.3920     8.4179
  361.0000   124.8209     8.3315     8.3008
  361.5000   125.4212     8.2715     8.1854
  362.0000   123.6076     8.1550     8.1280
  362.5000   122.6996     8.0962     8.0150
  363.0000   124.2049     8.0293     7.9588
  363.5000   126.6152     7.9241     7.9583
  364.0000   126.6928     7.8671     7.9547
  364.5000   126.3076     7.6491     7.6780
  365.0000   126.6063     7.3344     7.3183
  365.5000   127.2067     7.0326     6.9695
  366.0000   125.8763     6.6040     6.7305
  366.5000   119.9602     6.4659     6.5450
  367.0000   117.5439     6.4641     6.4992
  367.5000   120.5576     6.5079     6.5443
  368.0000   127.4928     6.6892     6.6819
  368.5000   130.5064     6.8284     6.8226
  369.0000   129.5984     7.0192     7.0149
  369.5000   127.1822     7.2720     7.2126
  370.0000   128.9892     7.6331     7.4678
  370.5000   131.0979     7.8391     7.6786
  371.0000   132.3023     7.8917     7.8948
  371.5000   131.9969     7.8890     7.8942
  372.0000   131.3906     7.8869     7.8935
  372.5000   131.3876     7.8847     7.9483
  373.0000   135.0851     7.8279     7.9476
  373.5000   137.4952     7.7715     7.9471
  374.0000   136.2045     7.6620     7.8914
  374.5000   131.0734     7.6599     7.8361
