~VERSION INFORMATION
 VERS.                2.0:   CWLS LOG ASCII STANDARD - VERSION 2.0
 WRAP.                 NO:   ONE LINE PER DEPTH STEP
~WELL INFORMATION
#MNEM.UNIT      DATA TYPE    INFORMATION
#----------   ------------   ------------------------------
 STRT.F           42.0000:   START DEPTH
 STOP.F          612.0000:   STOP DEPTH
 STEP.F            0.5000:   STEP LENGTH
 NULL.          -999.2500:   NO VALUE
 COMP. FENIX AND SCISSON INCORPORATED:   COMPANY
 WELL. RES 3 TEAPOT DOM #25SX11-11:   WELL
 FLD .             TEAPOT:   FIELD
 LOC .      S11 T38N R78W:   LOCATION
 CNTY.            NATRONA:   COUNTY
 STAT.            WYOMING:   STATE
 CTRY. UNITED STATES OF AMERICA:   COUNTRY
 SRVC.            Unknown:   SERVICE COMPANY
 DATE.        16-FEB-1978:   LOGDATE
 API .       490251058000:   API NUMBER
~CURVE INFORMATION
#MNEM.UNIT       API CODE    CURVE DESCRIPTION
#----------   ------------   ------------------------------
 DEPT.F                  :   
 ILD .OHMM   05 120 46 00:   INDUCTION LOG DEEP
 SN  .OHMM   05 040 16 00:   SHORT NORMAL 16"
 SPR .MV     05 010 01 00:   SPONTANEOUS POTENTIAL FROM RES.
 CALD.IN     45 280 60 00:   CALIPER FROM DENSITY LOG
 CORR.G/C3   45 356 01 00:   DENSITY CORRECTION
 DPHI.DEC    45 890 12 00:   DENSITY POROSITY SANDSTONE
 GRD .GAPI   45 310 01 00:   GAMMA RAY FROM DENSITY LOG
 RHOB.G/C3   45 350 01 00:   BULK DENSITY
~PARAMETER INFORMATION
#MNEM.UNIT          VALUE    DESCRIPTION
#----------   ------------   ------------------------------
 PD  .                 GL:   PERMANENT DATUM
 EPD .F              5167:   ELEVATION PERMANENT DATUM
 LMF .                 KB:   LOG MEASURED FROM
 DAPD.F                 3:   FEET ABOVE PERMANENT DATUM
 DMF .                 KB:   DRILLING MEASURED FROM
 EKB .F              5170:   KELLING BUSHING
 EGL .F              5167:   GROUND LEVEL
 DATE.        16-FEB-1978:   RUN DATE
 RUN .                  1:   RUN NUMBER
 DD  .F               610:   DEPTH DRILLER
 DL  .F               615:   DEPTH LOGGER
 BLI .F               610:   BOTTOM LOG INTERVAL
 TLI .F                40:   TOP LOG INTERVAL
 CS  .IN            8.625:   CASING SIZE
 CBD .F                40:   CASING BOTTOM DRILLER
 CBL .F                40:   CASING BOTTOM LOGGER
 BS  .IN            7.875:   BIT SIZE
 BSD .F               610:   BIT SIZE AT DEPTH
 DFT .        LIGNO/ SULF:   DRILLING FLUID TYPE
 DFD .                8.7:   DRILLING FLUID DENSITY
 DFV .                 30:   DRILLING FLUID VISCOSITY
 DFPH.                 10:   DRILLING FLUID PH
 DFL .                4.6:   DRILLING FLUID LOSS
 MSS .           FLOWLINE:   MUD SAMPLE SOURCE
 RMS .OHMM            1.7:   RESISTIVITY MUD SAMPLE
 MST .F                69:   MUD SAMPLE TEMPERATURE
 RMF .OHMM            1.5:   RESISTIVITY MUD FILTRATE SAMPLE
 MFST.F                70:   MUD FILTRATE SAMPLE TEMPERATURE
 RMC .OHMM            2.5:   RESISTIVITY MUD CAKE
 MCST.F                70:   MUD CAKE SAMPLE TEMPERATURE
 MFSS.               MEAS:   MUD FILTRATE SAMPLE SOURCE
 RMB .OHMM            1.6:   RESISTIVITY MUD AT BHT
 BHT .F                70:   BOTTOM HOLE TEMPERATURE
 TCS .HRS               3:   TIME CURCULATED STOPPED
 MRT .F                70:   MAXIMUM RECORDED TEMPERATURE
 LUN .               2958:   LOGGING UNIT NUMBER
 LUL .             CASPER:   LOGGING UNIT LOCATION
 ENGI.            POINTER:   RECORDING ENGINEER
 WITN.           MCGINLEY:   WITNESSED BY
 CLNT.            A2DTECH:   CLIENT CODE
 ORIG.           5" PRINT:   ORIGIN OF DATA
 UWI .       490251058000:   UNIQUE WELL ID
 DICO. A2D Technologies, Inc.:   DIGITIZING COMPANY
~OTHER INFORMATION
~A   DEPT      ILD         SN         SPR      CALD       CORR       DPHI        GRD       RHOB   
   42.0000  -999.2500  -999.2500    -3.6439  -999.2500  -999.2500  -999.2500  -999.2500  -999.2500
   42.5000  -999.2500  -999.2500    -3.6527  -999.2500  -999.2500  -999.2500  -999.2500  -999.2500
   43.0000  -999.2500  -999.2500    -3.6615  -999.2500  -999.2500  -999.2500  -999.2500  -999.2500
   43.5000  -999.2500  -999.2500    -4.1248  -999.2500  -999.2500  -999.2500  -999.2500  -999.2500
   44.0000     7.8883  -999.2500    -4.5881  -999.2500  -999.2500  -999.2500  -999.2500  -999.2500
   44.5000     9.5031    10.6620    -4.7485  -999.2500  -999.2500  -999.2500  -999.2500  -999.2500
   45.0000    10.7629    11.2683    -4.6078  -999.2500  -999.2500  -999.2500  -999.2500  -999.2500
   45.5000    11.5309    12.0828    -4.3136  -999.2500  -999.2500  -999.2500  -999.2500  -999.2500
   46.0000    12.0151    12.6729    -3.5647  -999.2500  -999.2500  -999.2500  -999.2500  -999.2500
   46.5000    12.4331    13.2087    -2.9653  -999.2500  -999.2500  -999.2500  -999.2500  -999.2500
   47.0000    12.8638    13.7671    -2.6710  -999.2500  -999.2500  -999.2500  -999.2500  -999.2500
   47.5000    13.3112    14.3491    -2.9850  -999.2500  -999.2500  -999.2500  -999.2500  -999.2500
   48.0000    13.7743    14.8522    -3.3091  -999.2500  -999.2500  -999.2500  -999.2500  -999.2500
   48.5000    14.0567    15.2667    -3.6108  -999.2500  -999.2500  -999.2500  -999.2500  -999.2500
   49.0000    14.6471    16.1451    -3.7711  -999.2500  -999.2500  -999.2500  -999.2500  -999.2500
   49.5000    15.1565    17.0520    -3.9314  -999.2500  -999.2500  -999.2500  -999.2500  -999.2500
   50.0000    15.4674    17.6487    -3.9401  -999.2500  -999.2500  -999.2500    69.3359  -999.2500
   50.5000    15.8946    18.1410    -3.7952  -999.2500  -999.2500  -999.2500    69.1823  -999.2500
   51.0000    15.7739    18.5180    -4.2607  -999.2500  -999.2500  -999.2500    69.3295  -999.2500
   51.5000    15.7655    18.7721    -4.1179  -999.2500  -999.2500  -999.2500    69.6266  -999.2500
   52.0000    15.9796    19.0297    -4.1289  -999.2500  -999.2500  -999.2500    70.2564  -999.2500
   52.5000    16.0823    19.1637    -3.9840  -999.2500  -999.2500  -999.2500    73.2383  -999.2500
   53.0000    16.0715    19.5539    -4.2980  -999.2500  -999.2500  -999.2500    77.1563  -999.2500
   53.5000    16.1750    19.5486    -4.9128  -999.2500  -999.2500  -999.2500    78.9626  -999.2500
   54.0000    16.3997    19.5434    -4.9455  -999.2500  -999.2500  -999.2500    78.8081  -999.2500
   54.5000    16.4976    19.8128    -4.6273  -999.2500  -999.2500  -999.2500    78.2012  -999.2500
   55.0000    16.4866    20.0846    -4.3330     7.4075  -999.2500  -999.2500    77.8959  -999.2500
   55.5000    16.4777    20.2179    -4.4955     7.4984  -999.2500  -999.2500    78.0518  -999.2500
   56.0000    16.5836    20.3532    -4.5043     7.5574  -999.2500  -999.2500    78.4919  -999.2500
   56.5000    16.6902    20.4896    -4.5131     7.5416  -999.2500  -999.2500    77.7332  -999.2500
   57.0000    16.9146    20.6269    -4.6733     7.5260  -999.2500  -999.2500    77.4279  -999.2500
   57.5000    17.1420    20.7637    -4.9851     7.5302  -999.2500  -999.2500    78.0276  -999.2500
   58.0000    17.3725    20.9042    -5.2970     7.5702  -999.2500  -999.2500    79.0797  -999.2500
   58.5000    17.6036    21.0443    -5.1542     7.6150  -999.2500  -999.2500    79.2270  -999.2500
   59.0000    17.9647    20.8916    -5.6197     7.6454  -999.2500  -999.2500    79.3741  -999.2500
   59.5000    18.2062    20.8777    -5.6285     7.6894  -999.2500  -999.2500    78.7662  -999.2500
   60.0000    18.4534    19.8881    -5.7888     7.6434  -999.2500  -999.2500    75.4443  -999.2500
   60.5000    18.4410    19.7451    -6.2521     7.5673  -999.2500  -999.2500    76.7982  -999.2500
   61.0000    18.4311    19.7399    -6.8669     7.6272  -999.2500  -999.2500    79.6603  -999.2500
   61.5000    18.1669    19.7346    -7.7970     7.6871  -999.2500  -999.2500    82.0699  -999.2500
   62.0000    18.0292    19.4571    -8.4018     7.7017  -999.2500  -999.2500    83.2730  -999.2500
   62.5000    17.8947    19.1835    -8.2590     7.7011  -999.2500  -999.2500    82.8042  -999.2500
   63.0000    17.3951    18.6450    -7.8133     7.6853  -999.2500  -999.2500    80.5498  -999.2500
   63.5000    16.6760    18.1357    -7.5168     7.6697  -999.2500  -999.2500    76.3229  -999.2500
   64.0000    16.0982    17.6340    -7.5278     7.6844  -999.2500  -999.2500    73.7552  -999.2500
   64.5000    15.8675    17.3860    -7.2333     7.7441  -999.2500  -999.2500    74.6565  -999.2500
   65.0000    15.4244    16.9051    -6.9392     7.8040  -999.2500  -999.2500    77.6695  -999.2500
   65.5000    14.7730    16.5520    -6.3420     7.8639  -999.2500  -999.2500    80.5316  -999.2500
   66.0000    14.2725    16.2064    -5.7469     7.9086  -999.2500  -999.2500    82.6395  -999.2500
   66.5000    14.0681    15.8609    -5.6041     7.9232  -999.2500  -999.2500    82.4842  -999.2500
   67.0000    13.8665    15.3211    -5.6129     7.9225     0.0214     0.1850    80.0673     2.0110
   67.5000    13.5733    15.0011    -5.7732     7.9219     0.0243     0.1797    74.0304     2.3645
   68.0000    13.3788    14.6878    -6.2365     7.9063     0.0242     0.1729    77.1942     2.3607
   68.5000    13.1872    14.6839    -6.4111     7.8755     0.0212     0.1735    80.0563     2.3688
   69.0000    13.0887    14.3772    -6.8623     7.8599     0.0196     0.1715    80.5052     2.3748
   69.5000    13.0800    14.0770    -7.0226     7.8140     0.0150     0.1715    84.0308     2.3739
   70.0000    12.9825    13.6749    -7.3344     7.8185     0.0060     0.1721    94.0975     2.3769
   70.5000    12.3597    12.9434    -7.1916     7.9185    -0.0255     0.1821    94.6722     2.3791
   71.0000    10.5292    12.4982    -7.2004     7.6914    -0.0946     0.2155    95.1211     2.3737
   71.5000     9.8858    12.1525    -7.3607     7.8117    -0.1799     0.2523    95.4191     2.3203
   72.0000     8.8412    11.5726    -7.3697     7.8415    -0.3087     0.2834    94.0571     2.2631
   72.5000     8.1865     9.8613    -7.3804     7.8408    -0.3177     0.2932    92.2435     2.1881
   73.0000     7.6720     8.2298    -7.5407     7.8249     0.0010     0.2736    92.8532     2.0761
   73.5000     7.0668     7.6149    -7.5494     7.8095     0.0055     0.1802    94.2446     2.3726
   74.0000     6.6350     7.3087    -7.5582     7.7786     0.0039     0.1791    94.7967     2.3883
   74.5000     6.3167     7.1066    -7.5670     7.7327    -0.0052     0.1833    94.6413     2.3732
   75.0000     6.0978     7.0555    -7.7273     7.6718    -0.0472     0.2272    94.7885     2.3664
   75.5000     5.9688     7.0052    -7.7364     7.6108    -0.1371     0.2524    97.1981     2.3306
   76.0000     5.8426     7.0522    -7.7470     7.5498    -0.2674     0.2937   100.5329     2.2048
   76.5000     5.8394     6.9044    -7.7558     7.5342    -0.4127     0.2945    99.7536     2.0523
   77.0000     5.8770     6.8513    -7.6108     7.5706    -0.7735     0.2953    98.8009     2.0000
   77.5000     5.9148     6.7112    -7.3188     7.7142    -1.1089     0.2961    97.0318     2.0000
   78.0000     5.9528     6.6168    -7.3275     7.4419    -0.5192     0.2969    94.7657     2.0000
   78.5000     5.9488     6.5693    -7.1848     7.6678     0.0736     0.2978    91.2930     2.0000
   79.0000     6.0288     6.7058    -7.3473     7.8485     0.0825     0.2299    82.9937     2.3357
   79.5000     6.1098     6.8451    -7.3560     7.8631     0.0824     0.1389    82.3655     2.4085
   80.0000     6.1920     6.8910    -7.6678     7.8021     0.0853     0.1387    85.0980     2.4114
   80.5000     6.2318     6.8891    -7.8281     7.7714     0.0883     0.1396    89.8530     2.4188
   81.0000     6.2710     6.8869    -7.8369     7.8462     0.0777     0.1328    94.2904     2.4375
   81.5000     6.2676     6.9335    -7.6939     7.8792     0.0626     0.1319    91.5719     2.4480
   82.0000     6.3088     6.9311    -7.7111     7.9099     0.0491     0.1292    90.2108     2.4495
