~VERSION INFORMATION
 VERS.                2.0:   CWLS LOG ASCII STANDARD - VERSION 2.0
 WRAP.                 NO:   ONE LINE PER DEPTH STEP
~WELL INFORMATION
#MNEM.UNIT      DATA TYPE    INFORMATION
#----------   ------------   ------------------------------
 STRT.F            0.0000:   START DEPTH
 STOP.F         3030.0000:   STOP DEPTH
 STEP.F            0.5000:   STEP LENGTH
 NULL.          -999.2500:   NO VALUE
 COMP. LAWRENCE/ALLISON INC:   COMPANY
 WELL. NAVAL PETROLEUM RESERVE 3 AX-3 #36  X 34-34:   WELL
 FLD .         N. P. R #3:   FIELD
 LOC .      S34 T39N R78W:   LOCATION
 CNTY.            NATRONA:   COUNTY
 STAT.            WYOMING:   STATE
 CTRY. UNITED STATES OF AMERICA:   COUNTRY
 SRVC.      Dresser Atlas:   SERVICE COMPANY
 DATE.        29-JUN-1985:   LOGDATE
 API .       490251103200:   API NUMBER
~CURVE INFORMATION
#MNEM.UNIT       API CODE    CURVE DESCRIPTION
#----------   ------------   ------------------------------
 DEPT.F                  :   
 RFOC.OHMM   07 220 01 00:   RESISTIVITY FOCUSED LOG
 RILM.OHMM   07 120 44 00:   RESITIVITY LONG MEDIUM
 SPR .MV     07 010 01 00:   SPONTANEOUS POTENTIAL
 RILD.OHMM   07 120 46 00:   INDUCTION LOG DEEP RESITIVITY
 GRR .GAPI   07 310 01 00:   GAMMA RAY
 DT  .US/F   60 520 00 00:   INTERVAL TRANSIT TIME
 CALD.IN     45 280 60 00:   CALIPER FROM DENSITY LOG
 CORR.G/C3   45 356 01 00:   DENSITY CORRECTION
 CNC .DEC    42 890 03 00:   NEUTRON POROSITY SANDSTONE
 DEN .G/C3   45 350 01 00:   COMPENSATED BULK DENSTIY
 PORD.DEC    45 890 12 00:   POROSITY DENSITY SANDSTONE
~PARAMETER INFORMATION
#MNEM.UNIT          VALUE    DESCRIPTION
#----------   ------------   ------------------------------
 PD  .                 GL:   PERMANENT DATUM
 EPD .F              5108:   ELEVATION PERMANENT DATUM
 LMF .                 KB:   LOG MEASURED FROM
 DAPD.F                12:   FEET ABOVE PERMANENT DATUM
 DMF .                 KB:   DRILLING MEASURED FROM
 EKB .F              5120:   KELLING BUSHING
 EGL .F              5108:   GROUND LEVEL
 DATE.       29-JUNE-1985:   RUN DATE
 RUN .                  1:   RUN NUMBER
 DD  .F              3033:   DEPTH DRILLER
 DL  .F              3033:   DEPTH LOGGER
 BLI .F              3030:   BOTTOM LOG INTERVAL
 CS  .IN            8.625:   CASING SIZE
 CBD .F               601:   CASING BOTTOM DRILLER
 CBL .F               601:   CASING BOTTOM LOGGER
 BS  .IN            7.875:   BIT SIZE
 BSD .F              3033:   BIT SIZE AT DEPTH
 DFT .   FOAM & KCL WATER:   DRILLING FLUID TYPE
 MSS .           FLOWLINE:   MUD SAMPLE SOURCE
 RMS .OHMM           0.44:   RESISTIVITY MUD SAMPLE
 MST .F                82:   MUD SAMPLE TEMPERATURE
 RMF .OHMM           0.44:   RESISTIVITY MUD FILTRATE SAMPLE
 MFST.F                82:   MUD FILTRATE SAMPLE TEMPERATURE
 MFSS.               MEAS:   MUD FILTRATE SAMPLE SOURCE
 RMB .OHMM           0.31:   RESISTIVITY MUD AT BHT
 BHT .F               116:   BOTTOM HOLE TEMPERATURE
 TCS .HRS               3:   TIME CURCULATED STOPPED
 MRT .F               116:   MAXIMUM RECORDED TEMPERATURE
 LUN .               6274:   LOGGING UNIT NUMBER
 LUL .               GLTE:   LOGGING UNIT LOCATION
 ENGI.             RAUTIO:   RECORDING ENGINEER
 WITN.       MR. JENNINGS:   WITNESSED BY
 CLNT.            A2DTECH:   CLIENT CODE
 ORIG.        2" 5" PRINT:   ORIGIN OF DATA
 UWI .       490251103200:   UNIQUE WELL ID
 DICO. A2D Technologies, Inc.:   DIGITIZING COMPANY
~OTHER INFORMATION
~A    DEPT    RFOC       RILM        SPR       RILD         GRR        DT       CALD       CORR        CNC        DEN       PORD   
# ...
 2348.5000     5.2631     4.0750    28.0212     4.1032   117.8163    95.7384     7.5050     0.0069     0.3126     2.4898     0.0871
 2349.0000     5.2663     4.0782    27.8732     4.1065   116.6244    93.8500     7.5053    -0.0051     0.3059     2.5206     0.0762
 2349.5000     5.4292     4.0815    27.5731     4.1429   115.9479    91.5816     7.4906    -0.0066     0.3011     2.5259     0.0746
 2350.0000     5.5745     4.1133    26.9699     4.1716   114.5488    88.3426     7.4910    -0.0080     0.3037     2.5162     0.0825
 2350.5000     5.3134     4.1752    26.6697     4.2335   113.9580    89.2416     7.4914    -0.0110     0.3170     2.5004     0.0903
 2351.0000     5.2067     4.2372    26.6727     4.2963   114.2864    90.7429     7.4918    -0.0049     0.3197     2.4944     0.0936
 2351.5000     5.1021     4.3301    26.8278     4.3906   115.2157    91.9621     7.4921     0.0012     0.3061     2.4900     0.0949
 2352.0000     5.0689     4.4251    26.9823     4.4579   117.7003    93.0781     7.4925     0.0027     0.2964     2.4839     0.1014
 2352.5000     5.4016     4.4596    27.1367     4.5544   121.0190    93.4528     7.4929     0.0043     0.2901     2.4735     0.1035
 2353.0000     5.6354     4.5900    27.1396     4.5899   122.8574    92.9230     7.4928     0.0014     0.2931     2.4811     0.0987
 2353.5000     5.8792     4.7235    27.1425     4.6906   122.5747    91.8666     7.5082     0.0014     0.3106     2.4841     0.0971
 2354.0000     6.0911     4.7913    27.1455     4.7548   122.8980    90.8043     7.5085    -0.0001     0.3066     2.4849     0.0968
 2354.5000     6.1374     4.7615    27.1490     4.7919   120.4562    90.1124     7.5087    -0.0030     0.3024     2.4932     0.0944
 2355.0000     6.2279     4.7649    27.1519     4.7951   115.0648    89.8268     7.5091    -0.0060     0.3002     2.4962     0.0919
 2355.5000     6.3190     4.7027    27.3063     4.7641   114.4737    90.2759     7.5094    -0.0074     0.3147     2.4903     0.0916
 2356.0000     6.4114     4.5134    27.4607     4.6694   116.0138    90.8762     7.5096    -0.0134     0.3455     2.4881     0.0970
 2356.5000     6.1431     4.2387    27.4636     4.4199   118.1550    91.0999     7.5100     0.0020     0.3479     2.4973     0.0976
 2357.0000     5.1378     4.1006    27.6184     4.2417   119.3920    91.5495     7.5103     0.0138     0.3488     2.5026     0.0921
 2357.5000     4.6960     4.0187    27.6212     4.0992   120.3211    92.2607     7.4804     0.0063     0.3446     2.5087     0.0860
 2358.0000     4.6988     3.9384    27.7763     3.9892   119.4320    92.5241     7.4653     0.0094     0.3264     2.5147     0.0824
 2358.5000     4.8344     3.8309    27.7792     3.8290   117.6337    92.0696     7.4485     0.0202     0.3176     2.5178     0.0799
 2359.0000     4.9058     3.6285    27.7820     3.7262   117.0526    91.8415     7.4361     0.0231     0.3194     2.5186     0.0799
 2359.5000     4.9422     3.4824    27.4818     3.6010   117.0726    91.9145     7.4515     0.0186     0.3339     2.5149     0.0805
 2360.0000     4.7767     3.3191    27.0309     3.4800   116.7846    92.0629     7.4217     0.0187     0.3463     2.5082     0.0835
 2360.5000     4.6807     3.1396    26.8815     3.2712   119.5368    92.6632     7.4070     0.0232     0.3308     2.5013     0.0901
 2361.0000     4.6842     2.9531    26.7328     3.0744   121.9860    94.6941     7.3922     0.0233     0.3160     2.4813     0.0995
 2361.5000     4.1929     2.8343    26.5848     2.8894   123.2181    96.8757     7.3925     0.0203     0.3003     2.4745     0.1046
 2362.0000     3.5996     2.8161    26.2847     2.8315   125.0562    98.2350     7.3928     0.0174     0.2997     2.4911     0.1058
 2362.5000     3.2901     2.7797    25.9846     2.8137   124.1687    97.6991     7.3931     0.0129     0.3012     2.5062     0.0900
 2363.0000     3.3620     2.7624    25.6844     2.7766   120.5523    96.1909     7.4084     0.0009     0.3027     2.5077     0.0861
 2363.5000     3.6827     2.7649    25.3848     2.7404   118.7294    93.4779     7.4088    -0.0066     0.3056     2.4995     0.0854
 2364.0000     4.0905     2.8057    25.2141     2.7614   119.9912    91.8944     7.4091     0.0247     0.3114     2.4928     0.0890
 2364.5000     4.3273     2.8471    25.0876     2.7830   120.6172    91.6664     7.4093     0.0522     0.3147     2.4959     0.0954
 2365.0000     4.2346     2.8696    25.2427     2.8239   120.3342    93.0572     7.4096     0.0613     0.3153     2.5087     0.0941
 2365.5000     3.9200     2.8717    26.0031     2.8455   118.7891    94.2217     7.4100     0.0523     0.3131     2.5170     0.0887
 2366.0000     3.6685     2.8738    26.6485     2.8873   117.6468    93.9184     7.3951     0.0208     0.3122     2.5193     0.0835
 2366.5000     3.6707     2.8960    27.2217     2.8893   119.4900    93.5397     7.3802     0.0073     0.3234     2.5081     0.0777
 2367.0000     3.8589     2.8986    27.6791     2.8710   121.3281    93.3116     7.3656     0.0104     0.3279     2.5007     0.0798
 2367.5000     4.0795     2.9007    27.5304     2.8734   124.4292    93.3848     7.3509     0.0135     0.3276     2.5052     0.0868
 2368.0000     3.9155     2.9028    27.5333     2.8954   121.3730    94.0783     7.3663     0.0150     0.3269     2.5045     0.0886
 2368.5000     3.9452     2.9049    27.5368     2.9176   119.8728    94.5847     7.3666     0.0075     0.3209     2.5031     0.0846
 2369.0000     4.0029     2.9095    27.3875     2.9403   119.5898    94.6584     7.3669    -0.0030     0.3157     2.5001     0.0870
 2369.5000     3.9775     2.9299    27.5425     2.9628   121.1555    94.6557     7.3672    -0.0183     0.3121     2.4979     0.0891
 2370.0000     3.8982     2.9526    27.7070     2.9441   123.2761    94.5783     7.3675    -0.0147     0.3072     2.4950     0.0897
 2370.5000     3.8199     2.9547    28.1550     2.9461   121.7809    94.5760     7.3829     0.0077     0.3032     2.4950     0.0900
 2371.0000     3.8221     2.9363    28.4609     2.9276   119.9827    94.5844     7.3832     0.0213     0.3017     2.5003     0.0926
 2371.5000     3.9057     2.8782    28.7668     2.9092   119.6996    94.8724     7.3834     0.0276     0.3071     2.5056     0.0929
 2372.0000     3.9353     2.8803    29.2242     2.8913   121.8457    94.9460     7.3838     0.0084     0.3144     2.5042     0.0905
 2372.5000     3.8029     2.8823    29.3793     2.8954   124.5950    95.0192     7.3840    -0.0131     0.3219     2.4997     0.0877
 2373.0000     3.7007     2.8844    29.0791     2.9159   125.8251    94.8659     7.3692    -0.0040     0.3267     2.4960     0.0871
 2373.5000     3.6486     2.8870    29.0820     2.9382   124.0788    94.4872     7.3696     0.0126     0.3264     2.4893     0.0886
 2374.0000     3.7575     2.9297    29.0848     2.9607   119.8044    94.1716     7.3549     0.0217     0.3156     2.4886     0.0901
 2374.5000     4.0029     2.9937    29.3914     3.0042   119.8294    93.8046     7.3551     0.0097     0.3064     2.4902     0.0919
 2375.0000     3.7883     3.0379    29.5458     3.0488   117.7281    93.6518     7.3630    -0.0038     0.3013     2.4962     0.0946
 2375.5000     3.6016     3.0833    29.3972     3.0936   114.7178    93.5744     7.3708    -0.0038     0.2982     2.5038     0.0973
 2376.0000     3.3003     3.1288    29.2485     3.1391   115.0457    93.1957     7.3711    -0.0293     0.2951     2.4956     0.0978
 2376.5000     3.7956     3.1311    28.9483     3.1194   116.5809    91.9111     7.3714    -0.0473     0.2963     2.4754     0.0933
 2377.0000     4.6799     3.0261    28.7997     3.0361   117.8130    90.7059     7.3717    -0.0442     0.3094     2.4633     0.0887
 2377.5000     4.8824     2.8847    28.8032     2.9137   118.7676    90.3272     7.3720    -0.0281     0.3232     2.4582     0.0878
 2378.0000     4.8184     2.8074    28.8061     2.8355   126.0397    90.7016     7.3723    -0.0005     0.3266     2.4778     0.0941
 2378.5000     3.9126     2.7508    28.6469     2.7380   129.0900    92.9584     7.3726     0.0101     0.3153     2.4779     0.1119
