~VERSION INFORMATION
 VERS.                2.0:   CWLS LOG ASCII STANDARD - VERSION 2.0
 WRAP.                 NO:   ONE LINE PER DEPTH STEP
~WELL INFORMATION
#MNEM.UNIT      DATA TYPE    INFORMATION
#----------   ------------   ------------------------------
 STRT.F           30.0000:   START DEPTH
 STOP.F          480.0000:   STOP DEPTH
 STEP.F            0.5000:   STEP LENGTH
 NULL.          -999.2500:   NO VALUE
 COMP. FENIX & SCISSON INC:   COMPANY
 WELL.   51-SX-10 #NPR-10:   WELL
 FLD .             TEAPOT:   FIELD
 LOC .      S10 T38N R78W:   LOCATION
 CNTY.            NATRONA:   COUNTY
 STAT.            WYOMING:   STATE
 CTRY. UNITED STATES OF AMERICA:   COUNTRY
 SRVC.              Welex:   SERVICE COMPANY
 DATE.        13-MAR-1977:   LOGDATE
 API .       490251031000:   API NUMBER
~CURVE INFORMATION
#MNEM.UNIT       API CODE    CURVE DESCRIPTION
#----------   ------------   ------------------------------
 DEPT.F                  :   
 SGRD.OHMM   07 220 05 00:   SHALLOW GUARD RESISTIVITY
 ILD .OHMM   07 120 46 00:   INDUCTION LOG DEEP
 ILM .OHMM   07 120 44 00:   INDUCTION LOG MEDIUM
 SPR .MV     07 010 01 00:   SPONTANEOUS POTENTIAL
 RHOB.G/C3   45 350 01 00:   BULK DENSITY
 DPOR.DEC    45 890 12 00:   DENSITY POROSITY SANDSTONE
 CORR.G/C3   45 356 01 00:   DENSITY CORRECTION
 GRD .GAPI   45 310 01 00:   GAMMA RAY FROM DENSITY LOG
 CALD.IN     45 280 60 00:   CALIPER FROM DENSITY LOG
~PARAMETER INFORMATION
#MNEM.UNIT          VALUE    DESCRIPTION
#----------   ------------   ------------------------------
 PD  .                 GL:   PERMANENT DATUM
 EPD .F              5216:   ELEVATION PERMANENT DATUM
 LMF .                 GL:   LOG MEASURED FROM
 DMF .                 GL:   DRILLING MEASURED FROM
 EGL .F              5216:   GROUND LEVEL
 DATE.            3-13-77:   RUN DATE
 RUN .                  1:   RUN NUMBER
 DD  .F               490:   DEPTH DRILLER
 DL  .F               485:   DEPTH LOGGER
 BLI .F               483:   BOTTOM LOG INTERVAL
 TLI .F                35:   TOP LOG INTERVAL
 CS  .IN            8.625:   CASING SIZE
 CBD .F                40:   CASING BOTTOM DRILLER
 CBL .F                36:   CASING BOTTOM LOGGER
 BS  .IN            7.875:   BIT SIZE
 BSD .F               490:   BIT SIZE AT DEPTH
 DFT .            KCL MUD:   DRILLING FLUID TYPE
 DFD .                8.9:   DRILLING FLUID DENSITY
 DFV .                 34:   DRILLING FLUID VISCOSITY
 MSS .            MUD PIT:   MUD SAMPLE SOURCE
 RMS .OHMM            .43:   RESISTIVITY MUD SAMPLE
 MST .F                60:   MUD SAMPLE TEMPERATURE
 RMF .OHMM            .37:   RESISTIVITY MUD FILTRATE SAMPLE
 MFST.F                60:   MUD FILTRATE SAMPLE TEMPERATURE
 RMC .OHMM            .47:   RESISTIVITY MUD CAKE
 MCST.F                60:   MUD CAKE SAMPLE TEMPERATURE
 MFSS.           FANN KIT:   MUD FILTRATE SAMPLE SOURCE
 MCSS.           FANN KIT:   MUD CAKE SAMPLE SOURCE
 RMB .OHMM            .40:   RESISTIVITY MUD AT BHT
 BHT .F                63:   BOTTOM HOLE TEMPERATURE
 TCS .HRS             1.5:   TIME CURCULATED STOPPED
 MRT .F                63:   MAXIMUM RECORDED TEMPERATURE
 LUN .               8611:   LOGGING UNIT NUMBER
 LUL .             CASPER:   LOGGING UNIT LOCATION
 ENGI.               DOAK:   RECORDING ENGINEER
 WITN.         STUEBINGER:   WITNESSED BY
 CLNT.            A2DTECH:   CLIENT CODE
 ORIG.       2", 5" PRINT:   ORIGIN OF DATA
 UWI .       490251031000:   UNIQUE WELL ID
 DICO. A2D Technologies, Inc.:   DIGITIZING COMPANY
~OTHER INFORMATION
~A   DEPT     SGRD        ILD        ILM        SPR       RHOB       DPOR        CORR       GRD       CALD   
# ...
  395.0000    25.7834    18.2492    20.7041   -25.8180     2.3865     0.1552     0.0755    92.9650     7.9084
  395.5000    25.9015    18.2022    20.6196   -25.9696     2.3922     0.1542     0.0764    93.3968     7.9097
  396.0000    26.0435    18.1523    20.5356   -26.1212     2.3926     0.1551     0.0773    93.1152     7.9110
  396.5000    26.1839    18.3412    20.4519   -26.2728     2.3949     0.1510     0.0783    92.4271     7.9123
  397.0000    26.3223    18.6027    20.3685   -26.4244     2.4045     0.1447     0.0792    91.7368     7.9136
  397.5000    26.5018    19.0102    20.2788   -26.5759     2.4149     0.1366     0.0802    91.7028     7.9149
  398.0000    25.8013    18.8125    20.2482   -26.7277     2.4078     0.1421     0.0809    92.1390     7.9163
  398.5000    24.5011    18.5410    20.2150   -26.8798     2.3972     0.1499     0.0786    93.0243     7.9176
  399.0000    23.2665    18.2733    20.1821   -27.0327     2.3882     0.1570     0.0764    93.9024     7.9189
  399.5000    22.4456    18.0096    20.1498   -27.2102     2.3834     0.1595     0.0743    94.7840     7.9202
  400.0000    23.4359    17.7496    20.1156   -27.3911     2.3786     0.1623     0.0721    95.6651     7.9215
  400.5000    24.3895    17.4934    20.0925   -27.5732     2.3750     0.1626     0.0718    96.5489     7.9229
  401.0000    23.7339    17.2409    21.0200   -27.7551     2.3832     0.1572     0.0734    97.4526     7.9242
  401.5000    22.8312    16.9921    21.7617   -27.9369     2.3914     0.1519     0.0751    97.9314     7.9255
  402.0000    21.9627    16.7468    22.5296   -28.1188     2.3955     0.1506     0.0767    97.5650     7.9268
  402.5000    21.1274    16.5051    23.3246   -28.3006     2.3955     0.1593     0.0783    93.8300     7.9281
  403.0000    20.3237    16.2668    24.3895   -28.4824     2.3992     0.1497     0.0800    90.5716     7.9295
  403.5000    19.5507    16.0320    23.8344   -28.6643     2.4048     0.1461     0.0816    91.2747     7.9308
  404.0000    19.1864    15.8006    22.7885   -28.8461     2.4104     0.1426     0.0832    93.3734     7.9321
  404.5000    19.3388    15.5725    21.7884   -29.0280     2.4152     0.1391     0.0848    94.9598     7.9334
  405.0000    19.6396    15.3364    20.8322   -29.2098     2.4125     0.1408     0.0865    93.8629     7.9347
  405.5000    19.9453    15.0218    19.9180   -29.3916     2.4095     0.1441     0.0881    92.6561     7.9360
  406.0000    20.2551    14.7137    19.0439   -29.5735     2.4111     0.1420     0.0887    93.3235     7.9374
  406.5000    20.5697    14.4118    18.2082   -29.7553     2.4180     0.1390     0.0870    95.2535     7.9387
  407.0000    20.8481    14.1162    17.9108   -29.9372     2.4244     0.1360     0.0854    96.5370     7.9400
  407.5000    20.5446    13.8266    17.8078   -30.1190     2.4253     0.1329     0.0838    95.6670     7.9413
  408.0000    20.2791    13.5984    17.7055   -30.3008     2.4321     0.1299     0.0822    95.2650     7.9426
  408.5000    20.0171    13.4846    17.2291   -30.4827     2.4422     0.1263     0.0810    97.1510     7.9440
  409.0000    19.7585    13.3715    16.4490   -30.6645     2.4524     0.1221     0.0814    98.8483     7.9453
  409.5000    19.5033    13.2595    15.7058   -30.8464     2.4627     0.1162     0.0818    98.2944     7.9466
  410.0000    19.2513    13.1428    14.9962   -31.0282     2.4629     0.1186     0.0821    96.1618     7.9479
  410.5000    18.9853    13.0023    14.6201   -31.2100     2.4545     0.1223     0.0825    94.0673     7.9492
  411.0000    18.7180    12.8558    14.2624   -31.3919     2.4495     0.1234     0.0828    93.8295     7.9495
  411.5000    18.4782    12.7106    13.9135   -31.5737     2.4495     0.1227     0.0813    94.6290     7.9483
  412.0000    18.4082    12.5670    13.5731   -31.7556     2.4496     0.1236     0.0771    95.6499     7.9470
  412.5000    18.3356    12.4251    13.2392   -31.9374     2.4426     0.1304     0.0730    97.0101     7.9458
  413.0000    18.2636    12.2848    12.9011   -32.1192     2.4316     0.1318     0.0689    98.0622     7.9446
  413.5000    18.1919    12.1461    12.9158   -32.3011     2.4298     0.1318     0.0647    97.6656     7.9434
  414.0000    18.1204    12.0089    12.9338   -32.4829     2.4290     0.1378     0.0651    97.3261     7.9421
  414.5000    18.0492    11.8733    12.9508   -32.6648     2.4306     0.1335     0.0707    97.8120     7.9409
  415.0000    17.9784    11.7393    12.9674   -32.8466     2.4369     0.1262     0.0760    98.3370     7.9397
  415.5000    17.9078    11.6067    12.9840   -33.0284     2.4432     0.1216     0.0813    98.8647     7.9385
  416.0000    17.8209    11.4557    13.0007   -33.2103     2.4495     0.1177     0.0865    99.6903     7.9372
  416.5000    17.9394    11.2914    13.0217   -33.3921     2.4558     0.1138     0.0919   102.0800     7.9360
  417.0000    18.0964    11.1294    12.9727   -33.5740     2.4621     0.1099     0.0920   104.4761     7.9348
  417.5000    18.3203    11.0284    12.8873   -33.7558     2.4684     0.1057     0.0907   106.2751     7.9336
  418.0000    18.1630    11.0411    12.8025   -33.9376     2.4748     0.1014     0.0894   106.0075     7.9323
  418.5000    17.8830    11.0504    12.7182   -34.1195     2.4735     0.0978     0.0854   103.9391     7.9311
  419.0000    17.6095    11.0597    12.6345   -34.3013     2.4664     0.1101     0.0825   101.8820     7.9299
  419.5000    17.4950    11.0690    12.5513   -34.4832     2.4592     0.1131     0.0796    99.8232     7.9286
  420.0000    17.4950    11.0783    12.4686   -34.6650     2.4521     0.1161     0.0767    98.9337     7.9274
  420.5000    17.4950    11.0876    12.3866   -34.8468     2.4446     0.1192     0.0737   103.2615     7.9262
  421.0000    17.4950    11.0969    12.3050   -35.0287     2.4470     0.1200     0.0738   107.1014     7.9250
  421.5000    17.4961    11.1063    12.2240   -35.2104     2.4555     0.1137     0.0749   106.1126     7.9237
  422.0000    17.3991    11.1159    12.1434   -35.3927     2.4641     0.1092     0.0760   104.7547     7.9225
  422.5000    17.2345    11.1251    12.0629   -35.5811     2.4656     0.1068     0.0771   104.7393     7.9213
  423.0000    17.0722    11.1833    11.9835   -35.6968     2.4667     0.1086     0.0782   108.5382     7.9201
  423.5000    16.9115    11.3190    12.0653   -35.7927     2.4701     0.1091     0.0793   111.1276     7.9188
  424.0000    16.7523    11.4564    12.1482   -35.8885     2.4789     0.1032     0.0805   108.8291     7.9176
  424.5000    16.5946    11.5954    12.2317   -35.9847     2.4860     0.0960     0.0799   105.9032     7.9164
  425.0000    16.4383    11.7644    12.3158   -36.0808     2.4788     0.0993     0.0777   102.9741     7.9152
  425.5000    16.2837    11.7269    12.4004   -36.1770     2.4690     0.1049     0.0756   101.8406     7.9139
  426.0000    16.1006    11.6649    12.5456   -36.2732     2.4593     0.1104     0.0734   103.2539     7.9127
  426.5000    16.1626    11.6032    12.7326   -36.3694     2.4520     0.1166     0.0712   104.5997     7.9115
  427.0000    16.2401    11.5417    12.9224   -36.4656     2.4603     0.1122     0.0737   105.2806     7.9103
  427.5000    16.3180    11.4807    13.1150   -36.5618     2.4686     0.1072     0.0767   105.0527     7.9090
  428.0000    16.3962    11.4199    13.3105   -36.6580     2.4769     0.1022     0.0798   104.1363     7.9078
  428.5000    16.4748    11.3595    13.3869   -36.7542     2.4843     0.0972     0.0829   103.3143     7.9066
  429.0000    16.5526    11.2994    13.3207   -36.8504     2.4902     0.0940     0.0859   103.6092     7.9054
  429.5000    16.5522    11.2396    13.1628   -36.9466     2.4927     0.0928     0.0890   105.0164     7.9041
  430.0000    16.5525    11.1801    13.0060   -37.0427     2.4953     0.0915     0.0920   106.3744     7.9029
  430.5000    16.5526    11.1209    12.8513   -37.1374     2.4986     0.0896     0.0951   107.7308     7.9017
  431.0000    16.5525    11.0621    12.6985   -37.2406     2.5018     0.0859     0.0981   109.0822     7.9005
