~VERSION INFORMATION
 VERS.                2.0:   CWLS LOG ASCII STANDARD - VERSION 2.0
 WRAP.                 NO:   ONE LINE PER DEPTH STEP
~WELL INFORMATION
#MNEM.UNIT      DATA TYPE    INFORMATION
#----------   ------------   ------------------------------
 STRT.F           30.0000:   START DEPTH
 STOP.F          750.0000:   STOP DEPTH
 STEP.F            0.5000:   STEP LENGTH
 NULL.          -999.2500:   NO VALUE
 COMP. FENIX & SCISSON INC:   COMPANY
 WELL. TEAPOT DOME SX #38-11:   WELL
 FLD .             TEAPOT:   FIELD
 LOC .      S11 T38N R78W:   LOCATION
 CNTY.            NATRONA:   COUNTY
 STAT.            WYOMING:   STATE
 CTRY. UNITED STATES OF AMERICA:   COUNTRY
 SRVC.            Unknown:   SERVICE COMPANY
 DATE.        23-FEB-1978:   LOGDATE
 API .       490251058200:   API NUMBER
~CURVE INFORMATION
#MNEM.UNIT       API CODE    CURVE DESCRIPTION
#----------   ------------   ------------------------------
 DEPT.F                  :   
 CALD.IN     45 280 60 00:   CALIPER FROM DENSITY LOG
 GRD .GAPI   45 310 01 00:   GAMMA RAY FROM DENSITY LOG
 RHOB.G/C3   45 350 01 00:   BULK DENSITY
 DPHI.DEC    45 890 12 00:   DENSITY POROSITY SANDSTONE
 CORR.G/C3   45 356 01 00:   DENSITY CORRECTION
 SPR .MV     07 010 01 00:   SPONTANEOUS POTENTIAL FROM RES. LOG
 SN  .OHMM   07 040 16 00:   SHORT NORMAL 16'
 ILD .OHMM   07 120 46 00:   INDUCTION LOG DEEP
~PARAMETER INFORMATION
#MNEM.UNIT          VALUE    DESCRIPTION
#----------   ------------   ------------------------------
 PD  .                 GL:   PERMANENT DATUM
 EPD .F              5204:   ELEVATION PERMANENT DATUM
 LMF .                 KB:   LOG MEASURED FROM
 DAPD.F                 4:   FEET ABOVE PERMANENT DATUM
 DMF .                 KB:   DRILLING MEASURED FROM
 EKB .F              5208:   KELLING BUSHING
 EGL .F              5204:   GROUND LEVEL
 DATE.            2-23-78:   RUN DATE
 RUN .                  1:   RUN NUMBER
 DD  .F               755:   DEPTH DRILLER
 DL  .F               751:   DEPTH LOGGER
 BLI .F               745:   BOTTOM LOG INTERVAL
 TLI .F                45:   TOP LOG INTERVAL
 CS  .IN            8.625:   CASING SIZE
 CBD .F                40:   CASING BOTTOM DRILLER
 CBL .F                40:   CASING BOTTOM LOGGER
 BS  .IN            7.875:   BIT SIZE
 BSD .F               755:   BIT SIZE AT DEPTH
 DFT .         LIGNO SULF:   DRILLING FLUID TYPE
 DFD .                8.7:   DRILLING FLUID DENSITY
 DFV .                 33:   DRILLING FLUID VISCOSITY
 DFPH.                 10:   DRILLING FLUID PH
 DFL .                  4:   DRILLING FLUID LOSS
 MSS .          FLOW LINE:   MUD SAMPLE SOURCE
 RMS .OHMM              2:   RESISTIVITY MUD SAMPLE
 MST .F                60:   MUD SAMPLE TEMPERATURE
 RMF .OHMM            1.9:   RESISTIVITY MUD FILTRATE SAMPLE
 MFST.F                62:   MUD FILTRATE SAMPLE TEMPERATURE
 RMC .OHMM            3.5:   RESISTIVITY MUD CAKE
 MCST.F                60:   MUD CAKE SAMPLE TEMPERATURE
 MFSS.               MEAS:   MUD FILTRATE SAMPLE SOURCE
 MCSS.               MEAS:   MUD CAKE SAMPLE SOURCE
 RMB .OHMM           1.69:   RESISTIVITY MUD AT BHT
 BHT .F                71:   BOTTOM HOLE TEMPERATURE
 TCS .HRS               3:   TIME CURCULATED STOPPED
 MRT .F                71:   MAXIMUM RECORDED TEMPERATURE
 LUN .               2958:   LOGGING UNIT NUMBER
 LUL .               CASP:   LOGGING UNIT LOCATION
 ENGI.            POINTER:   RECORDING ENGINEER
 WITN.           MCGINLEY:   WITNESSED BY
 CLNT.            A2DTECH:   CLIENT CODE
 ORIG.       2", 5" PRINT:   ORIGIN OF DATA
 UWI .       490251058200:   UNIQUE WELL ID
 DICO. A2D Technologies, Inc.:   DIGITIZING COMPANY
~OTHER INFORMATION
~A   DEPT     CALD         GRD      RHOB       DPHI       CORR        SPR         SN        ILD   
# ...
  111.0000     7.8382   105.3192     2.4156     0.1455     0.0183   -36.1459     6.8882     6.0757
  111.5000     7.8027   105.3258     2.4109     0.1490     0.0171   -35.9316     6.8882     6.0693
  112.0000     7.8702   105.9282     2.4098     0.1538     0.0160   -35.7267     6.8882     6.0629
  112.5000     7.8731   108.1815     2.4002     0.1585     0.0151   -35.5272     6.8882     6.0565
  113.0000     7.8724   109.5262     2.3890     0.1636     0.0131   -35.4398     6.8882     6.0501
  113.5000     7.8210   108.5209     2.3793     0.1415     0.0211   -35.6486     6.8882     6.0437
  114.0000     7.7104   104.0083     2.3843     0.1114     0.0298   -35.8514     6.8882     6.0373
  114.5000     7.7057    99.6010     2.3946     0.0813     0.0383   -36.0550     6.8882     6.0309
  115.0000     7.7326    96.5544     2.4049     0.0472     0.0418   -36.2585     6.8882     6.0245
  115.5000     7.7147    98.0773     2.4167     0.0918     0.0290   -36.4596     6.8882     6.0182
  116.0000     7.7659   104.8083     2.4081     0.1320     0.0168   -36.5870     6.8882     6.0118
  116.5000     7.8992   111.6462     2.3925     0.1389     0.0177   -36.5311     6.8882     6.0055
  117.0000     8.0161   115.6927     2.3793     0.1456     0.0238   -36.4779     6.8881     5.9972
  117.5000     8.0133   114.4373     2.3808     0.1456     0.0299   -36.4227     6.8882     6.0276
  118.0000     7.9668   112.7563     2.3959     0.1273     0.0350   -36.2708     6.8882     6.0806
  118.5000     7.9061   109.5617     2.4129     0.1234     0.0334   -35.9499     6.9314     6.1339
  119.0000     7.8602   103.1387     2.4302     0.1109     0.0296   -35.6338     7.0050     6.1877
  119.5000     8.0191    99.7766     2.4384     0.0984     0.0262   -35.4176     7.0795     6.2419
  120.0000     8.1747   100.2406     2.4398     0.0859     0.0228   -35.6455     7.1547     6.2965
  120.5000     8.3284   102.1675     2.4469     0.0775     0.0193   -35.8641     7.2137     6.3392
  121.0000     8.4792   104.9032     2.4487     0.1125     0.0158   -35.9939     7.2304     6.3689
  121.5000     8.5478   107.1649     2.4413     0.1186     0.0151   -35.8090     7.2691     6.4049
  122.0000     8.5314   107.2288     2.4306     0.1248     0.0178   -35.5950     7.3083     6.4411
  122.5000     8.4986   102.4430     2.4269     0.1305     0.0204   -35.3789     7.3476     6.4775
  123.0000     8.3936    97.3553     2.4310     0.1305     0.0228   -35.1908     7.3871     6.5141
  123.5000     8.2723    96.9865     2.4365     0.1305     0.0214   -35.3345     7.4160     6.5512
  124.0000     8.1497    95.9131     2.4221     0.1377     0.0134   -35.4804     7.2471     6.5948
  124.5000     8.0241    94.8300     2.4178     0.1490     0.0016   -35.5904     7.1171     6.6564
  125.0000     7.9791    95.7519     2.4032     0.1605    -0.0051   -35.3891     6.9520     6.7187
  125.5000     7.9592    96.7305     2.3821     0.1779    -0.0267   -35.1153     7.0282     6.7622
  126.0000     7.9404    95.4319     2.3499     0.1866    -0.0482   -34.8372     7.1472     6.5775
  126.5000     7.9215    92.6643     2.2988     0.1952    -0.0549   -34.5649     6.5830     5.7639
  127.0000     7.9024    90.6377     2.2476     0.2048    -0.0717   -34.4727     6.0182     4.7960
  127.5000     7.8833    94.9364     2.1969     0.2312    -0.0824   -34.7985     5.4269     3.9906
  128.0000     7.8645   103.9144     2.1416     0.2575    -0.0490   -35.1154     4.4945     3.3205
  128.5000     7.8533   112.1407     2.0743     0.2824    -0.0126   -35.3894     3.7224     2.8763
  129.0000     7.8892   117.1479     2.0146     0.2942     0.0237   -35.2948     3.0829     2.5487
  129.5000     7.9879   118.0855     2.0159     0.2844     0.0446   -35.0373     2.6906     2.2583
  130.0000     8.0133   116.0883     2.0606     0.2734     0.0557   -34.7832     2.5663     2.0152
  130.5000     7.8863   114.0335     2.0833     0.2623     0.0587   -34.5295     2.4949     1.8923
  131.0000     7.7584   110.3874     2.1151     0.2516     0.0604   -34.2731     2.4491     1.9097
  131.5000     7.6310   105.3413     2.1277     0.2046     0.1323   -34.2072     2.4486     1.9395
  132.0000     7.5040    99.2177     2.1653     0.1591     0.1791   -34.2586     2.6338     2.3287
  132.5000     7.4406    91.9501     2.3579     0.1168     0.1206   -34.3119     2.8790     2.6921
  133.0000     7.5274    85.1273     2.4388     0.1175     0.0678   -34.3635     3.1410     2.9469
  133.5000     7.6871    83.9884     2.4016     0.1301     0.0221   -34.4872     4.0459     3.3249
  134.0000     7.8172    83.4385     2.3754     0.1425     0.0285   -34.6226     5.5968     3.7808
  134.5000     7.8136    83.5745     2.3781     0.1621     0.0302   -34.7583     7.1178     5.8930
  135.0000     7.8132    84.3058     2.3806     0.1682     0.0275   -34.8940     8.1457     7.1778
  135.5000     7.7707    83.8073     2.3648     0.1744     0.0289   -35.0312     9.0934     8.0162
  136.0000     7.4476    83.0090     2.3459     0.1767     0.0586   -35.1743     9.8645     8.6016
  136.5000     7.6970    82.6361     2.3644     0.1640     0.0881   -34.8681    10.6287     9.1697
  137.0000     7.4922    83.2566     2.4033     0.1541     0.0879   -34.5105    10.6287     9.1697
  137.5000     7.9554    84.9513     2.4300     0.1456     0.0587   -34.1499    10.3863     8.8102
  138.0000     8.2463    88.1147     2.4139     0.1567     0.0352   -34.0025    10.2435     8.1864
  138.5000     8.2945    91.7319     2.3752     0.1817     0.0160   -34.0930     9.3735     6.9650
  139.0000     8.3155    99.8016     2.3373     0.1989     0.0191   -34.1815     8.4388     5.9191
  139.5000     8.3392   111.6102     2.3083     0.2144     0.0269   -33.8027     7.3684     5.3067
  140.0000     8.3622   124.5630     2.2799     0.2333     0.0727   -33.3541     6.3631     5.2088
  140.5000     8.3855   123.1233     2.2619     0.1755     0.1747   -33.5738     5.7272     5.1128
  141.0000     8.3889   110.3413     2.3034     0.1229     0.1937   -33.9557     5.5676     5.0316
  141.5000     8.3617    97.6033     2.4126     0.0930     0.1657   -34.3311     5.5171     5.0857
  142.0000     8.3330    92.0549     2.4849     0.1130     0.0737   -34.4872     5.8859     5.1585
  142.5000     8.3044    93.5603     2.4480     0.1398     0.0274   -34.2258     6.7639     5.4152
  143.0000     8.2758    92.8623     2.4147     0.1421     0.0219   -34.4477     7.8009     5.8608
  143.5000     8.2507    91.8653     2.4049     0.1452     0.0162   -35.1785     9.0020     6.9935
  144.0000     8.2504    90.0988     2.3962     0.1485     0.0105   -35.9127     9.4018     8.9193
  144.5000     8.2505    87.5970     2.3898     0.1519     0.0092   -36.1692     9.8142     9.3145
  145.0000     8.2505    86.4516     2.3897     0.1547     0.0133   -35.6790    10.2428     9.7256
  145.5000     8.2511    87.3456     2.3812     0.1574     0.0175   -35.1679    10.5541    10.0562
  146.0000     8.2331    88.0982     2.3765     0.1602     0.0216   -34.6634    10.8677     9.8668
  146.5000     8.2125    90.9330     2.3740     0.1621     0.0250   -34.5205    11.1907     9.6917
  147.0000     8.1921    95.4691     2.3716     0.1612     0.0249   -34.8640    11.5233     9.9333
  147.5000     8.1737    94.4205     2.3723     0.1620     0.0247   -35.2048    11.8658    10.3186
  148.0000     8.1578    92.8533     2.3737     0.1610     0.0300   -35.5574    12.0918    10.6095
  148.5000     8.1699    94.0178     2.3721     0.1582     0.0353   -35.0250    12.2569    10.9251
  149.0000     8.1813    95.5605     2.3762     0.1555     0.0408   -34.3730    12.4243    11.0230
  149.5000     8.1930    97.0505     2.3807     0.1528     0.0461   -34.3129    12.5940    11.1093
  150.0000     8.2047    95.9100     2.3866     0.1495     0.0510   -34.5929    12.7855    11.1978
  150.5000     8.2108    94.5454     2.3932     0.1454     0.0489   -34.8773    12.7304    11.2872
  151.0000     8.2140    95.8475     2.3988     0.1424     0.0551   -35.1728    12.6216    11.3774
