~VERSION INFORMATION
 VERS.                2.0:   CWLS LOG ASCII STANDARD - VERSION 2.0
 WRAP.                 NO:   ONE LINE PER DEPTH STEP
~WELL INFORMATION
#MNEM.UNIT      DATA TYPE    INFORMATION
#----------   ------------   ------------------------------
 STRT.F         1179.0000:   START DEPTH
 STOP.F         2186.0000:   STOP DEPTH
 STEP.F            0.5000:   STEP LENGTH
 NULL.          -999.2500:   NO VALUE
 COMP. FENIX & SCISSON INC:   COMPANY
 WELL.  404 SH 33 #404-33:   WELL
 FLD .             TEAPOT:   FIELD
 LOC .      S33 T39N R78W:   LOCATION
 CNTY.            NATRONA:   COUNTY
 STAT.            WYOMING:   STATE
 CTRY. UNITED STATES OF AMERICA:   COUNTRY
 SRVC.            Unknown:   SERVICE COMPANY
 DATE.        19-NOV-1992:   LOGDATE
 API .       490251071100:   API NUMBER
~CURVE INFORMATION
#MNEM.UNIT       API CODE    CURVE DESCRIPTION
#----------   ------------   ------------------------------
 DEPT.F                  :   
 TGAS.UNITS  91 830 01 00:   TOTAL GAS FROM HOTWIRE
 ROP .MIN/FT 91 810 01 00:   RATE OF DRILLING PENETRATION
~PARAMETER INFORMATION
#MNEM.UNIT          VALUE    DESCRIPTION
#----------   ------------   ------------------------------
 EKB .F              5170:   KELLING BUSHING
 EGL .F              5160:   GROUND LEVEL
 DATE.        19-NOV-1992:   RUN DATE
 RUN .                  1:   RUN NUMBER
 DD  .F              2186:   DEPTH DRILLER
 TLI .F              1186:   TOP LOG INTERVAL
 CS  .IN             8.25:   CASING SIZE
 CBD .F              1080:   CASING BOTTOM DRILLER
 WITN.   C. TOWER/R. HUSK:   WITNESSED BY
 CLNT.            A2DTECH:   CLIENT CODE
 ORIG.           5" PRINT:   ORIGIN OF DATA
 UWI .       490251071100:   UNIQUE WELL ID
 DICO. A2D Technologies, Inc.:   DIGITIZING COMPANY
~OTHER INFORMATION
~A  DEPT       TGAS       ROP   
# ...
 2029.5000   166.7415     0.4267
 2030.0000   167.9052     0.4267
 2030.5000   167.9740     0.4267
 2031.0000   168.0375     0.4376
 2031.5000   169.2066     0.4376
 2032.0000   169.2701     0.4486
 2032.5000   169.3389     0.4595
 2033.0000   170.5026     0.4705
 2033.5000   170.5661     0.4705
 2034.0000   170.6296     0.4705
 2034.5000   170.6984     0.4814
 2035.0000   170.7672     0.4814
 2035.5000   170.8307     0.4814
 2036.0000   170.8995     0.5033
 2036.5000   170.9683     0.5033
 2037.0000   171.0318     0.5142
 2037.5000   171.1006     0.5142
 2038.0000   171.1641     0.5142
 2038.5000   171.1916     0.5033
 2039.0000   171.1583     0.5033
 2039.5000   171.1251     0.5142
 2040.0000   171.0918     0.5142
 2040.5000   171.0585     0.5033
 2041.0000   171.0253     0.5142
 2041.5000   170.9920     0.5142
 2042.0000   170.9587     0.5033
 2042.5000   170.9254     0.5033
 2043.0000   170.8922     0.4923
 2043.5000   170.8589     0.4814
 2044.0000   170.8256     0.4814
 2044.5000   170.7924     0.4814
 2045.0000   170.7591     0.4814
 2045.5000   170.7258     0.4705
 2046.0000   170.6926     0.4705
 2046.5000   170.6593     0.4814
 2047.0000   170.6260     0.4814
 2047.5000   170.5927     0.4814
 2048.0000   170.5595     0.4814
 2048.5000   170.5262     0.4814
 2049.0000   170.4929     0.4814
 2049.5000   170.4597     0.4814
 2050.0000   170.4264     0.4923
 2050.5000   170.3931     0.4923
 2051.0000   170.3598     0.4923
 2051.5000   170.3266     0.5033
 2052.0000   170.2933     0.5033
 2052.5000   170.2600     0.5142
 2053.0000   170.2268     0.5142
 2053.5000   170.1935     0.5142
 2054.0000   170.1602     0.5142
 2054.5000   170.1270     0.5142
 2055.0000   170.0937     0.5142
 2055.5000   170.0604     0.5142
 2056.0000   170.0272     0.5142
 2056.5000   169.9939     0.5142
 2057.0000   169.9606     0.5142
 2057.5000   169.9274     0.5142
 2058.0000   169.8941     0.5142
 2058.5000   169.8608     0.5142
 2059.0000   169.8275     0.5142
 2059.5000   169.7943     0.5142
 2060.0000   169.7610     0.5033
 2060.5000   169.7277     0.5033
 2061.0000   169.6945     0.5033
 2061.5000   169.6612     0.5033
 2062.0000   169.6279     0.5142
 2062.5000   169.5947     0.5142
 2063.0000   169.5614     0.5142
 2063.5000   169.5281     0.5033
 2064.0000   169.4948     0.4923
 2064.5000   169.4616     0.4814
 2065.0000   167.2372     0.4814
 2065.5000   167.2372     0.4814
 2066.0000   167.2372     0.4705
 2066.5000   166.1369     0.4705
 2067.0000   165.0367     0.4705
 2067.5000   162.8362     0.4705
 2068.0000   161.7359     0.4705
 2068.5000   161.7359     0.4705
 2069.0000   161.7359     0.4705
 2069.5000   160.6357     0.4267
 2070.0000   160.6357     0.4267
 2070.5000   160.6357     0.4158
 2071.0000   160.6357     0.3939
 2071.5000   158.4352     0.3939
 2072.0000   158.4352     0.3939
 2072.5000   157.3350     0.3939
 2073.0000   156.2347     0.3939
 2073.5000   154.0342     0.4048
 2074.0000   154.0342     0.4158
 2074.5000   152.9340     0.4158
 2075.0000   152.9340     0.4267
 2075.5000   152.9340     0.4267
 2076.0000   151.8337     0.4267
 2076.5000   150.7335     0.4267
 2077.0000   149.6333     0.4376
 2077.5000   150.7335     0.4595
 2078.0000   150.7335     0.4705
 2078.5000   149.6333     0.4705
 2079.0000   149.6333     0.4705
 2079.5000   149.6333     0.4705
 2080.0000   148.5330     0.4705
 2080.5000   148.5330     0.4705
 2081.0000   147.4328     0.4705
 2081.5000   145.2323     0.4814
 2082.0000   144.1320     0.4814
 2082.5000   144.1320     0.4814
 2083.0000   144.1320     0.4814
 2083.5000   143.0318     0.4814
 2084.0000   143.0318     0.4814
 2084.5000   143.0318     0.4923
 2085.0000   140.8313     0.5033
 2085.5000   140.8313     0.5033
 2086.0000   139.7310     0.5033
 2086.5000   138.6308     0.5142
 2087.0000   138.6308     0.5142
 2087.5000   136.4303     0.5142
 2088.0000   136.4303     0.5142
 2088.5000   135.3301     0.5142
 2089.0000   135.3301     0.5142
 2089.5000   135.3301     0.5142
 2090.0000   135.3301     0.5142
 2090.5000   134.2298     0.5142
 2091.0000   134.2298     0.5142
 2091.5000   134.2298     0.5252
 2092.0000   133.1296     0.5252
 2092.5000   132.0293     0.5580
 2093.0000   132.0293     0.5689
 2093.5000   132.0293     0.6127
 2094.0000   132.0293     0.6565
 2094.5000   132.0293     0.6893
 2095.0000   132.0293     0.7002
 2095.5000   132.0293     0.7330
 2096.0000   132.0293     0.7440
 2096.5000   132.0293     0.7440
 2097.0000   132.0293     0.7440
 2097.5000   132.0293     0.7549
 2098.0000   130.9291     0.7440
 2098.5000   130.9291     0.7330
 2099.0000   130.9291     0.7002
 2099.5000   130.9291     0.6455
 2100.0000   130.9291     0.6018
 2100.5000   130.9291     0.5580
 2101.0000   130.9291     0.5142
 2101.5000   130.9291     0.4705
 2102.0000   130.9291     0.4595
 2102.5000   130.9291     0.4376
 2103.0000   130.9291     0.4267
 2103.5000   130.9291     0.4267
 2104.0000   130.9291     0.4158
 2104.5000   130.9291     0.4139
 2105.0000   130.9291     0.4267
 2105.5000   130.9291     0.4267
 2106.0000   130.9291     0.4267
 2106.5000   130.9291     0.4158
 2107.0000   130.9291     0.4267
 2107.5000   130.9291     0.4705
 2108.0000   130.9291     0.4814
 2108.5000   130.9291     0.5033
 2109.0000   130.9291     0.5142
 2109.5000   130.9291     0.5142
 2110.0000   130.9291     0.5252
 2110.5000   130.9291     0.5252
 2111.0000   130.9291     0.5142
 2111.5000   130.9291     0.5142
 2112.0000   130.9291     0.5142
 2112.5000   130.9291     0.5142
 2113.0000   130.9291     0.5142
 2113.5000   130.9291     0.5142
 2114.0000   130.9291     0.5033
 2114.5000   130.9291     0.4923
 2115.0000   129.8289     0.4814
 2115.5000   129.8289     0.4814
 2116.0000   129.8289     0.4814
 2116.5000   129.8289     0.4814
 2117.0000   130.9291     0.4814
 2117.5000   129.8289     0.4814
 2118.0000   129.8289     0.4923
 2118.5000   129.8289     0.4923
 2119.0000   130.9291     0.4923
 2119.5000   130.9291     0.4923
 2120.0000   130.9291     0.4923
 2120.5000   130.9291     0.5033
 2121.0000   130.9291     0.5033
 2121.5000   129.8289     0.5033
 2122.0000   129.8289     0.4923
 2122.5000   127.6284     0.4814
 2123.0000   127.6284     0.4814
 2123.5000   126.5281     0.4814
 2124.0000   121.0269     0.4814
 2124.5000   113.3252     0.4814
 2125.0000   105.6235     0.4814
 2125.5000    96.8215     0.4814
 2126.0000    89.1198     0.4814
 2126.5000    79.2176     0.4814
 2127.0000    72.6161     0.4814
 2127.5000    64.9144     0.4705
 2128.0000    57.2127     0.4705
 2128.5000    51.7115     0.4705
 2129.0000    47.3105     0.4705
 2129.5000    41.8093     0.4814
 2130.0000    38.5086     0.4923
 2130.5000    35.2078     0.5142
 2131.0000    34.1076     0.5580
 2131.5000    30.8068     0.5908
 2132.0000    30.8068     0.6236
 2132.5000    30.7676     0.6455
 2133.0000    30.7084     0.6455
 2133.5000    30.6492     0.6455
 2134.0000    30.5900     0.6455
 2134.5000    30.5308     0.6455
 2135.0000    30.4716     0.6455
 2135.5000    30.4124     0.6455
 2136.0000    30.3532     0.6455
 2136.5000    30.2941     0.6455
 2137.0000    30.2349     0.6455
 2137.5000    30.1757     0.6455
 2138.0000    30.1165     0.6455
 2138.5000    30.0573     0.6455
 2139.0000    29.9981     0.6127
 2139.5000    29.9389     0.6018
 2140.0000    29.8797     0.5689
 2140.5000    29.8205     0.5689
 2141.0000    29.7613     0.5580
 2141.5000    29.7021     0.5580
 2142.0000    29.6429     0.5580
 2142.5000    29.5837     0.5580
 2143.0000    29.5245     0.5580
 2143.5000    29.4653     0.5580
 2144.0000    29.4061     0.5580
 2144.5000    29.3469     0.5580
 2145.0000    29.2877     0.5580
 2145.5000    29.2285     0.5580
 2146.0000    29.1693     0.5470
 2146.5000    29.1101     0.5361
 2147.0000    29.0509     0.5252
 2147.5000    28.9917     0.5252
 2148.0000    28.9325     0.5252
 2148.5000    28.8733     0.5142
 2149.0000    28.8141     0.5142
 2149.5000    28.7549     0.5142
 2150.0000    28.6957     0.5142
 2150.5000    28.6366     0.5142
