~VERSION INFORMATION
 VERS.                2.0:   CWLS LOG ASCII STANDARD - VERSION 2.0
 WRAP.                 NO:   ONE LINE PER DEPTH STEP
~WELL INFORMATION
#MNEM.UNIT      DATA TYPE    INFORMATION
#----------   ------------   ------------------------------
 STRT.F           57.5000:   START DEPTH
 STOP.F         4049.0000:   STOP DEPTH
 STEP.F            0.5000:   STEP LENGTH
 NULL.          -999.2500:   NO VALUE
 COMP. LAWRENCE/ALLISON INC:   COMPANY
 WELL.     NPR #3` #13-11:   WELL
 FLD .             NPR #3:   FIELD
 LOC .      S11 T38N R78W:   LOCATION
 CNTY.            NATRONA:   COUNTY
 STAT.            WYOMING:   STATE
 CTRY. UNITED STATES OF AMERICA:   COUNTRY
 SRVC.      Dresser Atlas:   SERVICE COMPANY
 DATE.        13-MAR-1986:   LOGDATE
 API .       490251106500:   API NUMBER
~CURVE INFORMATION
#MNEM.UNIT       API CODE    CURVE DESCRIPTION
#----------   ------------   ------------------------------
 DEPT.F                  :   
 CALR.IN     07 280 01 00:   CALIPER FROM RESISTIVITY
 GRR .GAPI   07 310 01 00:   GAMMA RAY FROM RESISTIVITY
 RILD.OHMM   07 120 46 00:   RESISTIVITY INDUCTION LOG DEEP
 RILM.OHMM   07 120 44 00:   RESISTIVITY INDUCTION LOG MEDIUM
 RFOC.OHMM   07 220 04 00:   RESISTIVITY FOCUSED LOG
 SPR .MV     07 010 01 00:   SPONTANEOUS POTENTIAL FROM RES.
 PORD.DEC    45 890 12 00:   POROSITY DENSITY SANDSTONE
 CNC .DEC    42 890 03 00:   COMPENSATED NEUTRON POROSITY SANDSTONE
 CORR.G/C3   45 356 01 00:   DENSITY CORRECTION
 DEN .G/C3   45 350 01 00:   COMPENSATED BULK DENSTIY
 DT  .US/F   60 520 00 00:   INTERVAL TRANSIT TIME
~PARAMETER INFORMATION
#MNEM.UNIT          VALUE    DESCRIPTION
#----------   ------------   ------------------------------
 PD  .                 GL:   PERMANENT DATUM
 EPD .F              5176:   ELEVATION PERMANENT DATUM
 LMF .                 KB:   LOG MEASURED FROM
 DAPD.F              11.8:   FEET ABOVE PERMANENT DATUM
 DMF .                 KB:   DRILLING MEASURED FROM
 EKB .F            5187.8:   KELLING BUSHING
 EGL .F              5176:   GROUND LEVEL
 DATE.        13-MAR-1986:   RUN DATE
 RUN .                  1:   RUN NUMBER
 DD  .F              4051:   DEPTH DRILLER
 DL  .F              4051:   DEPTH LOGGER
 BLI .F              4049:   BOTTOM LOG INTERVAL
 TLI .F               564:   TOP LOG INTERVAL
 CS  .IN            8.625:   CASING SIZE
 CBD .F               564:   CASING BOTTOM DRILLER
 CBL .F               564:   CASING BOTTOM LOGGER
 BS  .IN            7.875:   BIT SIZE
 BSD .F              4051:   BIT SIZE AT DEPTH
 DFT .          POLY- KCL:   DRILLING FLUID TYPE
 DFD .                8.9:   DRILLING FLUID DENSITY
 DFV .                 36:   DRILLING FLUID VISCOSITY
 DFPH.                8.5:   DRILLING FLUID PH
 DFL .               13.5:   DRILLING FLUID LOSS
 MSS .           FLOWLINE:   MUD SAMPLE SOURCE
 RMS .OHMM           .275:   RESISTIVITY MUD SAMPLE
 MST .F                55:   MUD SAMPLE TEMPERATURE
 RMF .OHMM           .206:   RESISTIVITY MUD FILTRATE SAMPLE
 MFST.F                55:   MUD FILTRATE SAMPLE TEMPERATURE
 RMC .OHMM           .344:   RESISTIVITY MUD CAKE
 MCST.F                55:   MUD CAKE SAMPLE TEMPERATURE
 MFSS.               CALC:   MUD FILTRATE SAMPLE SOURCE
 MCSS.               CALC:   MUD CAKE SAMPLE SOURCE
 RMB .OHMM           .092:   RESISTIVITY MUD AT BHT
 BHT .F               164:   BOTTOM HOLE TEMPERATURE
 TCS .HRS            0400:   TIME CURCULATED STOPPED
 MRT .F               164:   MAXIMUM RECORDED TEMPERATURE
 LUN .               6274:   LOGGING UNIT NUMBER
 LUL .           GILLETTE:   LOGGING UNIT LOCATION
 ENGI.             MILLER:   RECORDING ENGINEER
 WITN.             STRONG:   WITNESSED BY
 CLNT.            A2DTECH:   CLIENT CODE
 ORIG.         2.5" PRINT:   ORIGIN OF DATA
 UWI .       490251106500:   UNIQUE WELL ID
 DICO. A2D Technologies, Inc.:   DIGITIZING COMPANY
~OTHER INFORMATION
~A   DEPT     CALR         GRR      RILD       RILM       RFOC        SPR       PORD        CNC       CORR        DEN         DT   
# ...
 3565.0000     7.7844   100.8282     3.7508     4.6662     8.6095   -29.9698     0.1449     0.2610    -0.0053     2.4094    88.7491
 3565.5000     7.7842   102.6656     4.0769     4.9318     7.1835   -31.4973     0.1458     0.2681    -0.0040     2.4062    86.4171
 3566.0000     7.7841   115.5460     4.4312     5.1411     5.3769   -33.3296     0.1523     0.2662     0.0091     2.4013    85.7288
 3566.5000     7.7839   127.8129     4.9521     5.4353     5.0188   -34.5522     0.1653     0.2636     0.0260     2.3886    89.5795
 3567.0000     7.7838   132.1043     5.0672     5.7468     5.0196   -35.7747     0.1691     0.2637     0.0246     2.3726    91.0915
 3567.5000     7.7836   132.1012     5.0676     6.0762     5.3808   -36.3876     0.1691     0.2592     0.0189     2.3670    92.2492
 3568.0000     7.7835   122.8957     5.0991     6.1615     6.5350   -37.0004     0.1711     0.2564    -0.0096     2.3667    92.0120
 3568.5000     7.7833   116.1442     5.2430     6.1615     8.3896   -37.0034     0.1753     0.2569    -0.0239     2.3609    91.1100
 3569.0000     7.7832   111.2331     5.4578     6.1615     9.2464   -37.0065     0.1775     0.2579    -0.0228     2.3594    89.8688
 3569.5000     7.7830   108.1626     5.7343     6.1615     9.1203   -37.0095     0.1727     0.2558    -0.0198     2.3641    88.2319
 3570.0000     7.7829   107.5460     5.9421     6.1615     8.5103   -36.7077     0.1721     0.2545    -0.0169     2.3669    87.7106
 3570.5000     7.7827   109.3834     6.1098     6.1615     7.4091   -36.4055     0.1721     0.2545    -0.0032     2.3686    88.3781
 3571.0000     7.7826   116.7423     6.0860     6.1615     6.8184   -36.1037     0.1721     0.2600     0.0359     2.3747    89.1147
 3571.5000     7.7824   127.1687     5.8043     5.8274     6.6327   -35.8023     0.1620     0.2765     0.0595     2.3807    89.8929
 3572.0000     7.7823   136.3681     5.2644     5.1406     6.9156   -35.1956     0.1429     0.2786     0.0601     2.3936    90.6285
 3572.5000     7.7821   129.6166     4.6113     4.3491     7.7282   -34.5889     0.1382     0.2756     0.0672     2.4157    90.1508
 3573.0000     7.8125   121.6380     4.3879     4.2889     9.1291   -33.3724     0.1364     0.2771     0.0742     2.4242    88.5401
 3573.5000     7.8124   119.1810     4.2930     4.3491     7.7304   -31.8511     0.1379     0.2811     0.0944     2.4224    87.3600
 3574.0000     7.8122   124.6994     4.5023     4.6629     4.0284   -30.9395     0.1606     0.2764     0.1621     2.4064    87.6019
 3574.5000     7.8426   141.2607     4.6294     4.9302     3.7072   -30.0274     0.1672     0.2685     0.1957     2.3758    89.5914
 3575.0000     7.8731   162.1166     4.7325     5.3601     3.6524   -29.7256     0.1563     0.2837     0.1724     2.3909    92.0079
 3575.5000     7.8729   161.5000     4.7328     5.6673     4.8938   -30.9487     0.1781     0.2909     0.0821     2.3783    93.6175
 3576.0000     7.8422   154.1350     4.7605     6.0762     6.2826   -31.8664     0.1890     0.2675    -0.0149     2.3364    92.9600
 3576.5000     7.8115   118.5491     4.9921     6.5146     8.4083   -32.4792     0.1726     0.2600    -0.0112     2.3542    90.6022
 3577.0000     7.7807   103.8221     5.4144     6.8880    10.2119   -33.0920     0.1606     0.2621     0.0038     2.3775    88.6717
 3577.5000     7.7806    95.2301     6.0863     7.1821    10.0726   -33.4000     0.1606     0.2834     0.0128     2.3832    87.7284
 3578.0000     7.7804    94.6135     6.7772     7.2828     9.3990   -33.4030     0.1605     0.2993     0.0187     2.3817    87.6082
 3578.5000     7.7803   103.1994     6.9860     7.2828     8.1828   -33.4061     0.1606     0.2982     0.0229     2.3816    88.7152
 3579.0000     7.7801   109.3313     6.9865     7.2828     6.6466   -33.1043     0.1605     0.2828     0.0228     2.3817    90.7139
 3579.5000     7.7800   113.6227     6.9870     7.1821     6.1167   -32.8024     0.1587     0.2730     0.0227     2.3847    92.0120
 3580.0000     7.7492   130.1841     6.9874     7.1821     6.5569   -32.8049     0.1557     0.2731     0.0235     2.3924    92.7410
 3580.5000     7.7491   123.4325     6.9879     7.0827     7.8536   -32.5030     0.1533     0.2760     0.0302     2.3936    92.6521
 3581.0000     7.7426   111.7730     6.9884     6.9847     8.8991   -32.3273     0.1769     0.2772     0.0611     2.3808    91.6306
 3581.5000     7.7488   112.9969     6.9508     6.7927     8.4200   -32.2043     0.1859     0.2778     0.1206     2.3461    91.3630
 3582.0000     7.7486   121.5828     6.7610     6.5146     7.2295   -32.0326     0.1895     0.2795     0.1281     2.3392    91.1506
 3582.5000     7.7485   127.1012     6.4509     6.1615     7.1000   -31.9055     0.1563     0.2825     0.0550     2.3715    90.2484
 3583.0000     7.7483   128.9386     6.1554     5.8274     9.4121   -32.0792     0.1448     0.2853     0.0464     2.4001    89.3132
 3583.5000     7.7787   130.1626     5.8857     5.6673    10.0894   -32.2165     0.1436     0.2880     0.0573     2.4101    87.8419
 3584.0000     7.7786   152.8589     5.8361     5.7468     7.4370   -32.5244     0.1466     0.2903     0.0855     2.3861    86.7068
 3584.5000     7.7784   176.1687     5.8680     6.1615     4.9746   -32.6920     0.1829     0.2879     0.0811     2.3461    88.8975
 3585.0000     7.7477   176.1656     5.9504     7.0827     5.0448   -33.3029     0.1931     0.2794     0.0690     2.3300    91.4058
 3585.5000     7.7475   154.6902     6.0018     7.8083     6.8459   -33.6088     0.1962     0.2623     0.0468     2.3363    92.1713
 3586.0000     7.6862   133.8282     6.1185     8.7291     9.1622   -34.2195     0.1871     0.2450    -0.0085     2.3764    91.0544
 3586.5000     7.6861   124.0092     6.4132    10.0342    11.9266   -34.6738     0.1502     0.2380     0.0052     2.4072    88.9860
 3587.0000     7.6859   112.9632     6.9490    11.2175    15.1004   -34.9817     0.1454     0.2386     0.0226     2.4084    86.2353
 3587.5000     7.6858   105.5982     7.6584    12.0269    14.8944   -34.9848     0.1446     0.2423     0.0311     2.3960    85.1052
 3588.0000     7.6856   101.9141     8.8692    12.7162    14.0925   -35.5934     0.1538     0.2482     0.0340     2.3857    84.3550
 3588.5000     7.6855   111.1135    11.3889    13.2591    13.7086   -36.3588     0.1593     0.2497     0.0409     2.3950    85.5671
 3589.0000     7.6853   119.6994    13.3937    13.6338    13.9022   -37.2746     0.1526     0.2470     0.0576     2.4009    86.5483
 3589.5000     7.6851   124.6043    13.3058    13.6774    14.9027   -38.3506     0.1502     0.2461     0.0566     2.4008    87.0753
 3590.0000     7.6850   127.0552    13.0080    13.6338    18.8681   -38.6585     0.1490     0.2557     0.0240     2.3976    86.9979
 3590.5000     7.7154   130.7331    12.8297    13.8251    18.8459   -39.1069     0.1599     0.2609    -0.0107     2.3883    86.3976
 3591.0000     7.7459   134.4110    12.8956    14.0190    18.0379   -39.2744     0.1641     0.2657    -0.0281     2.3749    85.8383
 3591.5000     7.7763   139.3159    12.8965    14.2157    15.7249   -38.8364     0.1701     0.2679    -0.0365     2.3674    86.0489
 3592.0000     7.8067   142.3804    12.8974    14.2157    15.1210   -38.5365     0.1726     0.2677    -0.0242     2.3613    87.1605
 3592.5000     7.8066   138.6963    12.8983    14.4152    15.1391   -37.6269     0.1750     0.2650    -0.0185     2.3599    87.6664
 3593.0000     7.8370   130.1043    12.8356    14.0190    15.3366   -36.8924     0.1768     0.2565    -0.0189     2.3599    88.0000
 3593.5000     7.8062   123.3528    12.3129    12.7162    15.5815   -36.1129     0.1701     0.2470    -0.0247     2.3660    87.6144
 3594.0000     7.8061   117.2147    11.4281    11.3749    16.7445   -34.3410     0.1659     0.2408    -0.0248     2.3779    86.7750
 3594.5000     7.8059   116.5982     9.9940     9.6234    18.9212   -33.1311     0.1657     0.2504    -0.0218     2.3763    85.3315
 3595.0000     7.8364   117.2086     7.5078     5.9092    19.1582   -32.0428     0.1683     0.2830    -0.0215     2.3688    83.9158
