~VERSION INFORMATION
 VERS.                2.0:   CWLS LOG ASCII STANDARD - VERSION 2.0
 WRAP.                 NO:   ONE LINE PER DEPTH STEP
~WELL INFORMATION
#MNEM.UNIT      DATA TYPE    INFORMATION
#----------   ------------   ------------------------------
 STRT.F           30.0000:   START DEPTH
 STOP.F          500.0000:   STOP DEPTH
 STEP.F            0.5000:   STEP LENGTH
 NULL.          -999.2500:   NO VALUE
 COMP. FENIX & SCISSON INC:   COMPANY
 WELL.     3-FI #55-45 SX:   WELL
 FLD .             TEAPOT:   FIELD
 LOC .       S3 T38N R78W:   LOCATION
 CNTY.            NATRONA:   COUNTY
 STAT.            WYOMING:   STATE
 CTRY. UNITED STATES OF AMERICA:   COUNTRY
 SRVC.              Welex:   SERVICE COMPANY
 DATE.        16-MAY-1980:   LOGDATE
 API .       490251082700:   API NUMBER
~CURVE INFORMATION
#MNEM.UNIT       API CODE    CURVE DESCRIPTION
#----------   ------------   ------------------------------
 DEPT.F                  :   
 SPR .MV     07 010 01 00:   SPONTANEOUS POTENTIAL
 GURD.OHMM   07 220 05 00:   GUARD RESISTIVITY
 CALD.IN     45 280 60 00:   CALIPER
 GRD .GAPI   45 310 01 00:   GAMMA RAY FROM DENSITY LOG
 RHOB.G/C3   45 350 01 00:   BULK DENSITY
 CORR.G/C3   45 356 01 00:   DENSITY CORRECTION
 NPHI.DEC    42 890 03 00:   NEUTRON POROSITY SANDSTONE
 DPHI.DEC    45 890 12 00:   DENSITY POROSITY SANDSTONE
 ILD .OHMM   07 120 46 00:   INDUCTION LOG DEEP
 ILM .OHMM   07 120 44 00:   INDUCTION LOG MEDIUM
~PARAMETER INFORMATION
#MNEM.UNIT          VALUE    DESCRIPTION
#----------   ------------   ------------------------------
 PD  .                 GL:   PERMANENT DATUM
 EPD .F              5167:   ELEVATION PERMANENT DATUM
 LMF .                 KB:   LOG MEASURED FROM
 DAPD.F                 5:   FEET ABOVE PERMANENT DATUM
 DMF .                 KB:   DRILLING MEASURED FROM
 EKB .F              5172:   KELLING BUSHING
 EGL .F              5167:   GROUND LEVEL
 DATE.            5-16-80:   RUN DATE
 RUN .                  1:   RUN NUMBER
 DD  .F               483:   DEPTH DRILLER
 DL  .F               496:   DEPTH LOGGER
 BLI .F               494:   BOTTOM LOG INTERVAL
 TLI .F                35:   TOP LOG INTERVAL
 BS  .IN             9.75:   BIT SIZE
 BSD .F               483:   BIT SIZE AT DEPTH
 DFT .            KCL MUD:   DRILLING FLUID TYPE
 DFD .                9.5:   DRILLING FLUID DENSITY
 DFV .                 45:   DRILLING FLUID VISCOSITY
 DFL .                7.5:   DRILLING FLUID LOSS
 MSS .            MUD PIT:   MUD SAMPLE SOURCE
 RMS .OHMM            .29:   RESISTIVITY MUD SAMPLE
 MST .F                75:   MUD SAMPLE TEMPERATURE
 RMF .OHMM            .23:   RESISTIVITY MUD FILTRATE SAMPLE
 MFST.F                75:   MUD FILTRATE SAMPLE TEMPERATURE
 RMC .OHMM            .35:   RESISTIVITY MUD CAKE
 MCST.F                75:   MUD CAKE SAMPLE TEMPERATURE
 MFSS.           MEASURED:   MUD FILTRATE SAMPLE SOURCE
 MCSS.           MEASURED:   MUD CAKE SAMPLE SOURCE
 TCS .HRS               2:   TIME CURCULATED STOPPED
 LUN .               9685:   LOGGING UNIT NUMBER
 LUL .             CASPER:   LOGGING UNIT LOCATION
 ENGI.            TOTHILL:   RECORDING ENGINEER
 WITN.              AMEND:   WITNESSED BY
 CLNT.            A2DTECH:   CLIENT CODE
 ORIG.           5" PRINT:   ORIGIN OF DATA
 UWI .       490251082700:   UNIQUE WELL ID
 DICO. A2D Technologies, Inc.:   DIGITIZING COMPANY
~OTHER INFORMATION
~A   DEPT      SPR         GURD     CALD        GRD       RHOB       CORR         NPHI       DPHI        ILD        ILM 
# ...
  432.0000   -39.5495     8.8007     9.7747    95.5736     2.4780     0.0381     0.2795     0.1146     6.3033     7.8244
  432.5000   -39.4929     9.0056     9.7600    94.9170     2.4657     0.0203     0.2755     0.1076     6.4201     8.0427
  433.0000   -39.4248     9.2153     9.7457    94.5361     2.4771     0.0222     0.2709     0.1121     6.5397     8.0970
  433.5000   -39.3838     9.4298     9.7374    94.5263     2.4950     0.0330     0.2680     0.1172     6.6608     8.0974
  434.0000   -39.2002     9.6490     9.7374    95.1004     2.5017     0.0381     0.2658     0.1141     6.7841     8.0975
  434.5000   -39.0333     9.7594     9.7353    95.5602     2.4531     0.0217     0.2635     0.1106     6.9097     8.0974
  435.0000   -38.8546     9.7849     9.7304    95.9666     2.4619     0.0298     0.2679     0.0972     7.0376     8.0973
  435.5000   -38.6837     9.8078     9.7255    96.3718     2.4577     0.0315     0.2737     0.1000     7.1062     8.0972
  436.0000   -38.5093     9.8308     9.7206    96.7757     2.4938     0.0370     0.2759     0.0979     7.1090     8.0971
  436.5000   -38.3326     9.8538     9.7157    97.1985     2.5153     0.0605     0.2732     0.1027     7.1203     8.1455
  437.0000   -38.2030     9.8772     9.7108    96.5168     2.5007     0.0578     0.2687     0.1051     7.1322     8.2028
  437.5000   -38.2013     9.9011     9.7059    95.6133     2.4896     0.0524     0.2655     0.1049     7.1432     8.2608
  438.0000   -38.1967     9.9250     9.7011    94.6875     2.4797     0.0454     0.2623     0.1000     7.1543     8.3196
  438.5000   -38.2094     9.9400     9.6973    93.7606     2.4896     0.0465     0.2621     0.1117     7.1655     8.3793
  439.0000   -38.0765    10.0133     9.6974    93.7050     2.5054     0.0576     0.2643     0.1260     7.1768     8.4048
  439.5000   -37.8158    10.1454     9.6974    94.2807     2.5101     0.0606     0.2699     0.1287     7.1882     8.3844
  440.0000   -37.5467    10.3176     9.6974    94.8181     2.4753     0.0514     0.2739     0.1243     7.1996     8.3680
  440.5000   -37.4405    10.2933     9.6974    95.3612     2.4640     0.0193     0.2723     0.1382     7.2110     8.3521
  441.0000   -37.6386    10.2149     9.6974    95.9858     2.4645     0.0300     0.2774     0.1438     7.2224     8.3355
  441.5000   -37.8154    10.1371     9.6974    96.3632     2.4492     0.0177     0.2799     0.1479     7.2341     8.3188
  442.0000   -37.9856    10.0599     9.6974    96.2225     2.4368     0.0040     0.2797     0.1263     7.2410     8.3022
  442.5000   -38.1876     9.9833     9.6974    96.0935     2.4309    -0.0083     0.2791     0.1247     7.2420     8.2858
  443.0000   -38.1755     9.7564     9.6974    95.9729     2.4581     0.0107     0.2832     0.1227     7.2376     8.2696
  443.5000   -38.1242     9.6967     9.6974    95.8533     2.4680     0.0265     0.2874     0.1218     7.1972     8.2499
  444.0000   -38.0656     9.6009     9.6974    95.7363     2.4725     0.0295     0.2866     0.1211     7.1568     8.2119
  444.5000   -38.0126     9.5061     9.6974    96.1061     2.4728     0.0244     0.2895     0.1223     7.1155     8.1654
  445.0000   -37.9592     9.4122     9.6976    96.6290     2.4724     0.0259     0.2925     0.1191     7.0748     8.1188
  445.5000   -37.9003     9.3192     9.6961    97.1658     2.4721     0.0309     0.2949     0.1155     7.0344     8.0411
  446.0000   -37.8500     9.2271     9.7731    97.8703     2.4759     0.0359     0.2938     0.1172     6.9941     7.9390
  446.5000   -37.8140     9.1360     9.8801    99.2250     2.4822     0.0392     0.2974     0.1155     6.9253     7.8382
  447.0000   -37.9871     9.0457     9.9593   100.5362     2.4780     0.0299     0.2946     0.1059     6.8310     7.7386
  447.5000   -38.1429     8.9564     9.9481   101.8467     2.4864     0.0283     0.2940     0.0965     6.7379     7.6404
  448.0000   -38.3122     8.8679     9.9061   103.1657     2.5015     0.0437     0.2942     0.0912     6.6461     7.5436
  448.5000   -38.4768     8.7803     9.8661   103.8818     2.5165     0.0590     0.2904     0.1000     6.5556     7.4483
  449.0000   -38.5983     8.6935     9.8374   104.3483     2.5117     0.0596     0.2881     0.0928     6.4662     7.3851
  449.5000   -38.5986     8.6076     9.8642   104.8140     2.5044     0.0517     0.2850     0.0892     6.3781     7.4232
  450.0000   -38.6010     8.5226     9.8863   105.2802     2.5247     0.0629     0.2855     0.0945     6.2912     7.4614
  450.5000   -38.6001     8.4384     9.9044   105.7519     2.5221     0.0596     0.2864     0.0952     6.2055     7.4999
  451.0000   -38.6001     8.4045     9.9220   106.1921     2.5149     0.0477     0.2870     0.1020     6.1210     7.5385
  451.5000   -38.6004     8.4824     9.9378   107.3249     2.5111     0.0456     0.2855     0.1101     6.0376     7.5774
  452.0000   -38.6006     8.5611     9.9380   108.8032     2.4942     0.0375     0.2871     0.1152     5.9553     7.6164
  452.5000   -38.5989     8.4806     9.9376   110.3028     2.4841     0.0247     0.2901     0.1195     5.8742     7.6564
  453.0000   -38.6026     8.2644     9.9366   111.8093     2.4796     0.0121     0.2948     0.1160     5.7941     7.5688
  453.5000   -38.5986     8.0537     9.9356   113.2901     2.4778     0.0184     0.2990     0.1210     5.7152     7.4197
  454.0000   -38.5866     7.8483     9.9347   115.5697     2.4834     0.0216     0.3034     0.1259     5.6816     7.2736
  454.5000   -38.4122     7.8011     9.9337   118.1197     2.4657     0.0063     0.2948     0.1179     5.6356     7.2399
  455.0000   -38.2621     7.8712     9.9327   120.6718     2.4701     0.0068     0.2855     0.1176     5.5964     7.2631
  455.5000   -38.1010     7.9447     9.9318   123.3741     2.4815     0.0185     0.2802     0.1187     5.5576     7.2872
  456.0000   -37.9438     8.0182     9.9308   129.7334     2.4755     0.0200     0.2750     0.1154     5.5191     7.3114
  456.5000   -37.7887     8.0969     9.9298   135.9162     2.4820     0.0238     0.2695     0.1284     5.4808     7.3357
  457.0000   -37.6292     8.0239     9.9289   140.9753     2.4705     0.0200     0.2661     0.1371     5.4427     7.3601
  457.5000   -37.4688     7.8919     9.9279   152.1904     2.4480    -0.0093     0.2608     0.1315     5.4049     7.3762
  458.0000   -37.4061     7.7622     9.9269   160.2095     2.4436    -0.0053     0.2571     0.1235     5.3725     7.3121
  458.5000   -37.5787     7.6345     9.9260   169.7086     2.4659     0.0183     0.2619     0.1343     5.3551     7.2445
  459.0000   -37.7230     7.5090     9.9250   179.2781     2.4573     0.0168     0.2760     0.1327     5.3315     7.1776
  459.5000   -37.8828     7.3762     9.9240   184.7801     2.4503     0.0073     0.2884     0.1399     5.3080     7.1062
  460.0000   -38.0309     7.3762     9.9230   172.5899     2.4548     0.0113     0.2958     0.1401     5.2846     7.1061
  460.5000   -38.1868     7.4189     9.9221   158.6395     2.4425    -0.0101     0.3026     0.1295     5.2612     7.1049
  461.0000   -38.2198     7.4573     9.9211   147.9453     2.4432    -0.0121     0.3100     0.1351     5.2380     7.1035
  461.5000   -38.2710     7.4959     9.9201   141.0318     2.4554    -0.0029     0.3181     0.1427     5.2149     7.1023
  462.0000   -38.3127     7.5150     9.9190   129.8353     2.4442    -0.0052     0.3225     0.1371     5.1919     7.1111
  462.5000   -38.3598     7.3025     9.9178   116.2800     2.4421    -0.0210     0.3191     0.1351     5.1759     6.8859
  463.0000   -38.4038     7.1989     9.9225   103.3531     2.4490    -0.0163     0.3158     0.1335     5.0942     6.7680
  463.5000   -38.4507     7.0968     9.9515    99.0605     2.4517    -0.0180     0.3169     0.1483     5.0049     6.6525
  464.0000   -38.4957     6.9962     9.9685    98.7011     2.4388    -0.0269     0.3200     0.1459     4.9172     6.5395
  464.5000   -38.5355     6.8969     9.9617    99.2900     2.4269    -0.0361     0.3088     0.1513     4.8310     6.4266
  465.0000   -38.6007     6.8461     9.8809    99.8242     2.4252    -0.0324     0.3122     0.1538     4.7463     6.3157
