~VERSION INFORMATION
 VERS.                2.0:   CWLS LOG ASCII STANDARD - VERSION 2.0
 WRAP.                 NO:   ONE LINE PER DEPTH STEP
~WELL INFORMATION
#MNEM.UNIT      DATA TYPE    INFORMATION
#----------   ------------   ------------------------------
 STRT.F            0.0000:   START DEPTH
 STOP.F          820.0000:   STOP DEPTH
 STEP.F            0.5000:   STEP LENGTH
 NULL.          -999.2500:   NO VALUE
 COMP. LAWRENCE/ALLISON INC:   COMPANY
 WELL.       44 SX #16-11:   WELL
 FLD .             TEAPOT:   FIELD
 LOC .      S11 T38N R78W:   LOCATION
 CNTY.            NATRONA:   COUNTY
 STAT.            WYOMING:   STATE
 CTRY. UNITED STATES OF AMERICA:   COUNTRY
 SRVC.           Gearhart:   SERVICE COMPANY
 DATE.        26-AUG-1988:   LOGDATE
 API .       490251124600:   API NUMBER
~CURVE INFORMATION
#MNEM.UNIT       API CODE    CURVE DESCRIPTION
#----------   ------------   ------------------------------
 DEPT.F                  :   
 GRR .GAPI   07 310 01 00:   GAMMA RAY FROM RES. LOG.
 RILD.OHMM   07 120 46 00:   INDUCTION LOG DEEP RESISTIVITY
 RILM.OHMM   07 120 44 00:   INDUCTION LOG MEDIUM RESISTIVITY
~PARAMETER INFORMATION
#MNEM.UNIT          VALUE    DESCRIPTION
#----------   ------------   ------------------------------
 PD  .                 GL:   PERMANENT DATUM
 EPD .F              5197:   ELEVATION PERMANENT DATUM
 LMF .                 KB:   LOG MEASURED FROM
 DAPD.F                10:   FEET ABOVE PERMANENT DATUM
 DMF .                 KB:   DRILLING MEASURED FROM
 EKB .F              5207:   KELLING BUSHING
 EDF .F              5206:   DRILLING FLOOR
 EGL .F              5197:   GROUND LEVEL
 DATE.            8-26-88:   RUN DATE
 RUN .                  1:   RUN NUMBER
 DD  .F               820:   DEPTH DRILLER
 DL  .F               819:   DEPTH LOGGER
 BLI .F               811:   BOTTOM LOG INTERVAL
 TLI .F                50:   TOP LOG INTERVAL
 CS  .IN            9.625:   CASING SIZE
 CBD .F                50:   CASING BOTTOM DRILLER
 CBL .F                50:   CASING BOTTOM LOGGER
 BS  .IN             8.75:   BIT SIZE
 BSD .F               820:   BIT SIZE AT DEPTH
 DFT .                AIR:   DRILLING FLUID TYPE
 BHT .F                70:   BOTTOM HOLE TEMPERATURE
 TCS .HRS            0200:   TIME CURCULATED STOPPED
 TLAB.HRS            0342:   TIME LOGGER AT BOTTOM
 MRT .F                70:   MAXIMUM RECORDED TEMPERATURE
 LUN .               7609:   LOGGING UNIT NUMBER
 LUL .           GILLETTE:   LOGGING UNIT LOCATION
 ENGI.           JOHNSTON:   RECORDING ENGINEER
 WITN.             STRONG:   WITNESSED BY
 CLNT.            A2DTECH:   CLIENT CODE
 ORIG.        2" 5" PRINT:   ORIGIN OF DATA
 UWI .       490251124600:   UNIQUE WELL ID
 DICO. A2D Technologies, Inc.:   DIGITIZING COMPANY
~OTHER INFORMATION
~A    DEPT      GRR      RILD       RILM   
# ...
  273.0000   133.7595     7.7267     7.0201
  273.5000   131.4788     7.8671     7.2063
  274.0000   127.2426     7.9503     7.3974
  274.5000   122.3286     8.0344     7.5936
  275.0000   118.7153     8.1365     7.8351
  275.5000   120.4140     8.1118     7.8024
  276.0000   122.7649     8.0811     7.7618
  276.5000   123.0524     8.0506     7.7210
  277.0000   121.0289     8.0201     7.6895
  277.5000   119.6243     7.9848     7.7373
  278.0000   120.6857     7.9968     7.7767
  278.5000   123.8570     8.0114     7.8163
  279.0000   127.0056     8.0259     7.8564
  279.5000   130.1443     8.0404     7.9094
  280.0000   132.7891     8.0598     7.8546
  280.5000   132.7259     8.0050     7.7689
  281.0000   132.7305     7.9205     7.6850
  281.5000   132.9982     7.8375     7.6020
  282.0000   134.3913     7.7554     7.5200
  282.5000   136.4396     7.6742     7.4388
  283.0000   138.5032     7.5894     7.3585
  283.5000   140.5657     7.4908     7.2790
  284.0000   142.6235     7.3947     7.2004
  284.5000   143.7604     7.2988     7.1286
  285.0000   143.8290     7.1946     7.1036
  285.5000   139.6085     7.2706     7.0788
  286.0000   134.1714     7.2648     7.0540
  286.5000   130.1709     7.2670     7.0293
  287.0000   129.2392     7.2725     6.9985
  287.5000   133.0243     7.3109     7.0153
  288.0000   136.6957     7.3495     7.0379
  288.5000   139.3752     7.3883     7.0607
  289.0000   136.0999     7.4430     7.0835
  289.5000   131.6611     7.5105     7.1065
  290.0000   128.6550     7.5786     7.1295
  290.5000   127.4870     7.6479     7.1525
  291.0000   130.6461     7.6892     7.1757
  291.5000   133.7167     7.6523     7.1990
  292.0000   135.0208     7.6253     7.2557
  292.5000   133.8078     7.5986     7.3133
  293.0000   132.6164     7.5719     7.3713
  293.5000   131.4292     7.5460     7.4298
  294.0000   130.3052     7.6687     7.4887
  294.5000   130.5797     7.7908     7.5480
  295.0000   131.1618     7.9148     7.6079
  295.5000   133.8719     8.0408     7.7192
  296.0000   136.6405     8.1687     7.8421
  296.5000   139.4062     8.2987     7.9669
  297.0000   140.7448     8.4491     8.0937
  297.5000   136.7724     8.4160     8.2225
  298.0000   132.8072     8.3659     8.3534
  298.5000   132.3850     8.3165     8.4863
  299.0000   135.4274     8.2912     8.5496
  299.5000   138.7971     8.3288     8.5801
  300.0000   140.1935     8.3582     8.6107
  300.5000   137.3558     8.3876     8.6414
  301.0000   134.4689     8.4172     8.6723
  301.5000   133.4444     8.4469     8.7032
  302.0000   135.6696     8.4767     8.7343
  302.5000   137.9808     8.5066     8.7654
  303.0000   138.0099     8.5366     8.8315
  303.5000   135.0561     8.5667     8.9096
  304.0000   133.1039     8.5969     8.9885
  304.5000   134.0928     8.6872     9.0680
  305.0000   135.4916     8.8232     9.1482
  305.5000   133.9762     8.9609     9.2612
  306.0000   129.8444     9.1008     9.4223
  306.5000   127.3854     9.2428     9.5868
  307.0000   126.1946     9.3870     9.7541
  307.5000   125.4433     9.5335     9.9243
  308.0000   126.2774     9.6823    10.0974
  308.5000   129.0135     9.8228    10.2735
  309.0000   131.5618     9.8541    10.4528
  309.5000   131.0169     9.8834    10.6351
  310.0000   129.3889     9.9129    10.6917
  310.5000   128.8705     9.9424    10.6061
  311.0000   128.6229     9.9720    10.5287
  311.5000   128.1853    10.0090    10.4520
  312.0000   127.8697     9.9944    10.3758
  312.5000   128.2998     9.9738    10.3001
  313.0000   128.8737     9.9532    10.2250
  313.5000   130.1740     9.9326    10.1500
  314.0000   131.4210     9.9121    10.1020
  314.5000   134.6056     9.8916    10.0873
  315.0000   137.5368     9.8712    10.0726
  315.5000   139.3409     9.8508    10.0581
  316.0000   137.9209     9.8305    10.0437
  316.5000   136.3625     9.8114    10.0292
  317.0000   135.1835     9.7931    10.0100
  317.5000   134.3420     9.7749    10.0144
  318.0000   132.9738     9.7567    10.0218
  318.5000   131.1088     9.7385    10.0293
  319.0000   128.8111     9.7203    10.0367
  319.5000   126.1352     9.7022    10.0442
  320.0000   123.4196     9.6842    10.0517
  320.5000   122.8762     9.6661    10.0591
  321.0000   125.3966     9.6483    10.0666
  321.5000   129.5221     9.6397    10.0741
  322.0000   132.3080     9.6395    10.0816
  322.5000   133.8323     9.6396    10.0890
  323.0000   135.7052     9.6396    10.0965
  323.5000   137.7567     9.6399    10.1047
  324.0000   139.8180     9.6387     9.9501
  324.5000   139.4540     9.6426     9.7936
  325.0000   138.1206     9.4597     9.6396
  325.5000   139.8447     9.3109     9.4879
  326.0000   143.3834     9.1645     9.3387
  326.5000   145.8799     9.0203     9.1917
  327.0000   144.2695     8.8785     9.0473
  327.5000   142.2088     8.7388     8.9475
  328.0000   140.1412     8.6095     8.8568
  328.5000   138.3190     8.3689     8.7732
  329.0000   139.4092     8.1480     8.5219
  329.5000   142.9739     7.9329     8.2934
  330.0000   146.5219     7.7235     8.0711
  330.5000   146.2807     7.5196     7.8357
  331.0000   142.5448     7.3211     7.7513
  331.5000   141.3475     7.2393     7.6595
  332.0000   144.6513     7.1989     7.5444
  332.5000   148.1342     7.1989     7.5465
  333.0000   150.0358     7.3873     7.7119
  333.5000   145.5256     7.5908     7.8916
  334.0000   140.6027     7.7999     8.0749
  334.5000   135.5218     8.0148     8.2624
  335.0000   134.1602     8.2356     8.4543
  335.5000   135.8729     8.3708     8.6095
  336.0000   136.7920     8.3358     8.5763
  336.5000   133.4880     8.2935     8.5356
  337.0000   130.7054     8.2514     8.4951
  337.5000   133.0516     8.2098     8.4548
  338.0000   136.4839     8.1683     8.4147
  338.5000   140.0169     8.1271     8.3748
  339.0000   140.4298     8.0861     8.3350
  339.5000   138.3379     8.0451     8.2955
  340.0000   136.2725     7.9847     8.2561
  340.5000   136.2679     7.9994     8.2135
  341.0000   137.5065     8.0288     8.2765
  341.5000   136.9481     8.0602     8.3463
  342.0000   136.1723     8.1926     8.4166
  342.5000   135.3848     8.3376     8.5011
  343.0000   133.5894     8.4846     8.5979
  343.5000   130.7616     8.6150     8.6958
  344.0000   130.0421     8.6478     8.7948
  344.5000   133.9356     8.6808     8.8562
  345.0000   137.4839     8.7139     8.8562
  345.5000   139.2362     8.7471     8.8561
  346.0000   137.6156     8.7732     8.8567
  346.5000   136.0382     8.6721     8.8238
  347.0000   136.2566     8.5900     8.7845
  347.5000   137.6678     8.5087     8.7455
  348.0000   138.1695     8.4282     8.7066
  348.5000   137.5538     8.3484     8.6678
  349.0000   137.7092     8.2912     8.6293
  349.5000   139.8437     8.3244     8.6010
  350.0000   138.0626     8.3623     8.5841
  350.5000   134.9051     8.4003     8.5670
  351.0000   132.2170     8.4488     8.5500
  351.5000   133.8543     8.3987     8.5330
  352.0000   135.9269     8.3056     8.5161
  352.5000   135.1631     8.2137     8.4992
  353.0000   133.8702     8.1225     8.4823
  353.5000   132.6053     8.0323     8.4655
  354.0000   131.3459     7.9098     8.4488
  354.5000   130.0826     7.9310     8.3857
  355.0000   128.8034     7.9655     8.3238
  355.5000   128.5407     7.9847     8.2624
  356.0000   131.6677     7.9840     8.2014
  356.5000   135.2312     8.0878     8.1409
  357.0000   138.4132     8.1594     8.0808
  357.5000   138.1783     8.2315     8.0211
  358.0000   138.7760     8.3042     7.9619
  358.5000   140.1886     8.3776     7.9031
  359.0000   141.6104     8.4516     7.8448
  359.5000   143.0793     8.5288     7.7869
  360.0000   142.8218     8.4908     7.7622
  360.5000   142.1364     8.4516     7.7864
  361.0000   141.4387     8.4127     7.8278
  361.5000   140.7406     8.3739     7.8695
  362.0000   140.1142     8.3353     7.9113
  362.5000   140.6063     8.2912     7.9537
  363.0000   141.1260     8.3696     8.0055
  363.5000   142.5415     8.4309     8.0894
