~VERSION INFORMATION
 VERS.                2.0:   CWLS LOG ASCII STANDARD - VERSION 2.0
 WRAP.                 NO:   ONE LINE PER DEPTH STEP
~WELL INFORMATION
#MNEM.UNIT      DATA TYPE    INFORMATION
#----------   ------------   ------------------------------
 STRT.F           20.0000:   START DEPTH
 STOP.F          478.0000:   STOP DEPTH
 STEP.F            0.5000:   STEP LENGTH
 NULL.          -999.2500:   NO VALUE
 COMP. FENIX & SCISSON INC:   COMPANY
 WELL.   56 31 SX #56-3FP:   WELL
 FLD .             TEAPOT:   FIELD
 LOC .       S3 T38N R78W:   LOCATION
 CNTY.            NATRONA:   COUNTY
 STAT.            WYOMING:   STATE
 CTRY. UNITED STATES OF AMERICA:   COUNTRY
 SRVC.              Welex:   SERVICE COMPANY
 DATE.        06-JUN-1980:   LOGDATE
 API .       490251082300:   API NUMBER
~CURVE INFORMATION
#MNEM.UNIT       API CODE    CURVE DESCRIPTION
#----------   ------------   ------------------------------
 DEPT.F                  :   
 RHOB.G/C3   45 350 01 00:   BULK DENSITY
 CORR.G/C3   45 356 01 00:   DENSITY CORRECTION
 GRD .GAPI   45 310 01 00:   GAMMA RAY FROM DENSITY LOG
 CALD.IN     45 280 60 00:   CALIPER
 DPHI.DEC    45 890 12 00:   DENSITY POROSITY SANDSTONE
 NPHI.DEC    42 890 03 00:   NEUTRON POROSITY SANDSTONE
 SPR .MV     07 010 01 00:   SPONTANEOUS POTENTIAL
 ILD .OHMM   07 120 46 00:   INDUCTION LOG DEEP
 ILM .OHMM   07 120 44 00:   INDUCTION LOG MEDIUM
 SGRD.OHMM   07 220 05 00:   SHALLOW GUARD RESISTIVITY
~PARAMETER INFORMATION
#MNEM.UNIT          VALUE    DESCRIPTION
#----------   ------------   ------------------------------
 PD  .                 GL:   PERMANENT DATUM
 EPD .F              5173:   ELEVATION PERMANENT DATUM
 LMF .                 KB:   LOG MEASURED FROM
 DAPD.F                 5:   FEET ABOVE PERMANENT DATUM
 DMF .                 KB:   DRILLING MEASURED FROM
 EKB .F              5178:   KELLING BUSHING
 EGL .F              5173:   GROUND LEVEL
 DATE.             6-6-80:   RUN DATE
 RUN .                  1:   RUN NUMBER
 DD  .F               450:   DEPTH DRILLER
 DL  .F               476:   DEPTH LOGGER
 BLI .F               474:   BOTTOM LOG INTERVAL
 TLI .F                30:   TOP LOG INTERVAL
 BS  .IN            9.875:   BIT SIZE
 BSD .F               450:   BIT SIZE AT DEPTH
 DFT .            KCL MUD:   DRILLING FLUID TYPE
 DFD .                9.5:   DRILLING FLUID DENSITY
 DFV .                 48:   DRILLING FLUID VISCOSITY
 DFPH.                7.5:   DRILLING FLUID PH
 DFL .                  7:   DRILLING FLUID LOSS
 MSS .           FLOWLINE:   MUD SAMPLE SOURCE
 RMS .OHMM           1.56:   RESISTIVITY MUD SAMPLE
 MST .F                62:   MUD SAMPLE TEMPERATURE
 RMF .OHMM           1.24:   RESISTIVITY MUD FILTRATE SAMPLE
 MFST.F                62:   MUD FILTRATE SAMPLE TEMPERATURE
 RMC .OHMM           1.87:   RESISTIVITY MUD CAKE
 MCST.F                62:   MUD CAKE SAMPLE TEMPERATURE
 MFSS.           MEASURED:   MUD FILTRATE SAMPLE SOURCE
 MCSS.           MEASURED:   MUD CAKE SAMPLE SOURCE
 RMB .OHMM           1.32:   RESISTIVITY MUD AT BHT
 BHT .F                73:   BOTTOM HOLE TEMPERATURE
 TCS .HRS               6:   TIME CURCULATED STOPPED
 MRT .F                73:   MAXIMUM RECORDED TEMPERATURE
 LUN .               1892:   LOGGING UNIT NUMBER
 LUL .             CASPER:   LOGGING UNIT LOCATION
 ENGI.               REIN:   RECORDING ENGINEER
 WITN.              AMEND:   WITNESSED BY
 CLNT.            A2DTECH:   CLIENT CODE
 ORIG.        2" 5" PRINT:   ORIGIN OF DATA
 UWI .       490251082300:   UNIQUE WELL ID
 DICO. A2D Technologies, Inc.:   DIGITIZING COMPANY
~OTHER INFORMATION
~A   DEPT     RHOB       CORR        GRD       CALD       DPHI       NPHI        SPR          ILD        ILM     SGRD   
# ...
  254.5000     2.4160     0.0371    86.7078     9.8801     0.1694     0.2918   -31.9803     4.1141     5.9890     5.2491
  255.0000     2.4082     0.0396    86.5291     9.8923     0.1703     0.2947   -31.9246     4.1226     6.1075     5.4229
  255.5000     2.4084     0.0425    86.3439     9.9047     0.1634     0.2978   -31.8462     4.1343     6.1686     5.6432
  256.0000     2.4010     0.0499    86.4159     9.9173     0.1694     0.2995   -31.7672     4.0568     6.2523     5.8728
  256.5000     2.4175     0.0676    86.5070     9.9305     0.1803     0.3060   -31.6886     3.9381     6.0849     6.1951
  257.0000     2.4146     0.0604    86.5976     9.9156     0.1917     0.3129   -31.6100     3.8228     5.8355     6.1530
  257.5000     2.3796     0.0489    86.6885     9.8985     0.1983     0.3209   -31.5314     3.7108     5.6666     6.0871
  258.0000     2.3588     0.0499    86.7822     9.8815     0.2052     0.3226   -31.4526     3.6022     5.5481     6.3605
  258.5000     2.3509     0.0545    86.8619     9.8645     0.1926     0.3215   -31.3558     3.4967     4.8133     5.6128
  259.0000     2.3521     0.0594    86.5469     9.8475     0.1794     0.3175   -31.2056     3.3943     4.2499     4.0853
  259.5000     2.3708     0.0639    84.9666     9.8303     0.1662     0.3135   -30.9469     3.3374     4.2110     2.4583
  260.0000     2.4012     0.0509    83.4587     9.8121     0.1568     0.3095   -30.6704     3.3158     4.8003     2.4320
  260.5000     2.4359     0.0475    81.9397     9.8355     0.1503     0.3072   -30.3955     3.3775     5.3360     5.4049
  261.0000     2.4445     0.0529    81.0240     9.8623     0.1438     0.3076   -30.1703     3.4623     5.5901     6.7294
  261.5000     2.4513     0.0585    80.6527     9.8901     0.1426     0.3063   -30.0476     3.5493     5.8627     6.7727
  262.0000     2.4571     0.0639    80.2963     9.8747     0.1455     0.3026   -29.9227     3.6742     6.1350     6.8625
  262.5000     2.4493     0.0580    79.9449     9.8559     0.1485     0.2982   -29.7982     3.8630     6.4271     7.0514
  263.0000     2.4398     0.0529    79.5806     9.8365     0.1475     0.2948   -29.6737     4.0614     6.7294     7.2427
  263.5000     2.4458     0.0580    79.1253     9.8287     0.1499     0.2914   -29.5493     4.2700     6.8573     7.3056
  264.0000     2.4401     0.0590    77.9590     9.8243     0.1529     0.2871   -29.4248     4.4893     6.9814     7.3773
  264.5000     2.4327     0.0624    76.8566     9.8201     0.1508     0.2815   -29.2985     4.6682     6.9814     7.2956
  265.0000     2.4537     0.0807    75.6981     9.8158     0.1459     0.2760   -29.1206     4.7873     6.9814     7.2362
  265.5000     2.4432     0.0766    73.5689     9.8115     0.1522     0.2691   -28.8757     4.9094     6.9814     7.2104
  266.0000     2.4297     0.0684    71.4767     9.8071     0.1537     0.2605   -28.6003     5.0347     6.9814     7.1846
  266.5000     2.4409     0.0809    69.3953     9.8028     0.1506     0.2520   -27.6969     5.1624     7.1253     7.1766
  267.0000     2.4428     0.0934    67.3106     9.7985     0.1513     0.2460   -26.8113     5.4935     7.8716     8.5078
  267.5000     2.4270     0.0817    65.2343     9.7942     0.1644     0.2449   -25.9072     5.9397     8.9572    10.7382
  268.0000     2.4019     0.0687    63.2890     9.7899     0.1775     0.2488   -25.2194     6.4219    10.1925    14.4613
  268.5000     2.3728     0.0640    62.9546     9.7856     0.1987     0.2526   -24.5680     6.9433    11.6815    18.7761
  269.0000     2.3402     0.0758    63.1197     9.7813     0.2242     0.2559   -23.9185     7.5075    11.7893    19.9083
  269.5000     2.2913     0.0655    63.2837     9.7770     0.2498     0.2614   -23.2697     8.1156    11.4429    18.0910
  270.0000     2.2428     0.0515    63.4463     9.7727     0.2691     0.2789   -22.6933     8.5865    10.3182    15.2545
  270.5000     2.2042     0.0374    63.5351     9.7673     0.2658     0.2810   -22.5278     8.9397     9.1141    14.6993
  271.0000     2.1818     0.0232    63.4032     9.7618     0.2619     0.2632   -22.3539     9.4554     9.3689    16.0708
  271.5000     2.1617     0.0185    63.2794     9.7563     0.2580     0.2591   -22.1827     9.4143     9.9001    17.1380
  272.0000     2.1621     0.0272    63.1552     9.7508     0.2579     0.2588   -21.8495     9.3472    10.6010    18.2761
  272.5000     2.1874     0.0362    63.0332     9.7453     0.2566     0.2579   -21.4876     9.2806    11.3514    19.4897
  273.0000     2.2096     0.0451    63.0651     9.7398     0.2588     0.2610   -21.1249     9.2144    12.0925    20.7935
  273.5000     2.2386     0.0548    63.4481     9.7342     0.2613     0.2662   -20.7617     9.1487    12.7998    22.6139
  274.0000     2.2685     0.0679    63.8162     9.7247     0.2490     0.2713   -20.4812     9.0835    13.1017    20.5699
  274.5000     2.2784     0.0804    64.1839     9.7135     0.2448     0.2739   -20.2917     9.0181    13.1896    18.5212
  275.0000     2.2673     0.0859    64.5516     9.7023     0.2519     0.2703   -20.1024     8.9484    13.2844    21.4274
  275.5000     2.2728     0.0902    64.9194     9.6910     0.2487     0.2667   -19.9132     9.0103    13.6173    21.0371
  276.0000     2.2755     0.0865    65.2871     9.6798     0.2474     0.2671   -19.6558     9.0809    13.9951    22.0265
  276.5000     2.2721     0.0819    65.6549     9.6685     0.2470     0.2675   -19.2460     9.1516    14.3833    20.8485
  277.0000     2.2786     0.0773    66.0226     9.6573     0.2489     0.2645   -18.8380     9.2228    14.9363    19.5456
  277.5000     2.2686     0.0665    66.3904     9.6459     0.2556     0.2660   -18.4291     9.2946    15.6474    21.6165
  278.0000     2.2586     0.0542    66.7581     9.6341     0.2576     0.2695   -18.0209     9.3669    16.9772    22.8515
  278.5000     2.2671     0.0600    67.1262     9.6382     0.2468     0.2729   -17.7682     9.4398    19.3668    21.4274
  279.0000     2.2815     0.0695    67.4940     9.6434     0.2368     0.2741   -17.5205     9.5133    17.3538    21.6253
  279.5000     2.2987     0.0791    67.8559     9.6486     0.2265     0.2736   -17.2717     9.5873    15.0937    17.6570
  280.0000     2.3160     0.0890    68.1289     9.6538     0.2335     0.2687   -17.0225     9.6619    12.8061    17.6597
  280.5000     2.3004     0.0797    68.2200     9.6589     0.2411     0.2638   -16.7738     9.7537    12.9244    19.0000
  281.0000     2.2811     0.0669    68.3150     9.6641     0.2484     0.2621   -16.5210     9.9074    17.8291    19.5456
  281.5000     2.2721     0.0540    68.4084     9.6692     0.2544     0.2639   -16.5089    10.0610    14.8228    17.6660
  282.0000     2.2561     0.0409    68.5018     9.6744     0.2595     0.2643   -16.6140    10.1756    11.3618    18.4968
  282.5000     2.2590     0.0456    68.5952     9.6796     0.2529     0.2667   -16.7219     9.8645    10.4646    17.5854
  283.0000     2.2734     0.0596    68.6886     9.6847     0.2441     0.2711   -16.8299     9.6237    10.0147    16.2844
  283.5000     2.2882     0.0742    68.7820     9.6899     0.2363     0.2747   -16.9375     9.3689     9.8866    15.6691
  284.0000     2.3015     0.0673    68.8754     9.6950     0.2380     0.2702   -17.0451     9.2522     9.7198    17.3442
  284.5000     2.2806     0.0550    68.9686     9.7002     0.2357     0.2623   -17.1526     9.0897    10.5090    16.6828
  285.0000     2.2941     0.0623    69.0632     9.7053     0.2303     0.2544   -17.2904     8.9301    11.7137    16.4135
  285.5000     2.3038     0.0684    69.1575     9.7105     0.2250     0.2521   -17.4906     8.7047    13.4084    17.1855
  286.0000     2.3096     0.0693    69.2577     9.7157     0.2196     0.2530   -17.6882     8.7440    12.8265    15.1103
  286.5000     2.3292     0.0707    69.3565     9.7208     0.2101     0.2515   -17.8168     8.8150    11.3096    15.3272
  287.0000     2.3503     0.0797    69.4555     9.7260     0.1994     0.2527   -17.8153     8.8866    10.6846    15.7160
  287.5000     2.3654     0.0883    69.5545     9.7313     0.1977     0.2531   -17.8182     8.9588    10.4295    16.2633
