~VERSION INFORMATION
 VERS.                2.0:   CWLS LOG ASCII STANDARD - VERSION 2.0
 WRAP.                 NO:   ONE LINE PER DEPTH STEP
~WELL INFORMATION
#MNEM.UNIT      DATA TYPE    INFORMATION
#----------   ------------   ------------------------------
 STRT.F           25.0000:   START DEPTH
 STOP.F          832.0000:   STOP DEPTH
 STEP.F            0.5000:   STEP LENGTH
 NULL.          -999.2500:   NO VALUE
 COMP.          U.S. NAVY:   COMPANY
 WELL. RES 3 TEAPOT DOM #32-S-2:   WELL
 FLD .        TEAPOT DOME:   FIELD
 LOC .       S2 T38N R78W:   LOCATION
 CNTY.            NATRONA:   COUNTY
 STAT.            WYOMING:   STATE
 CTRY. UNITED STATES OF AMERICA:   COUNTRY
 SRVC. Schlumberger Well Surveying Corp:   SERVICE COMPANY
 DATE.        03-AUG-1959:   LOGDATE
 API .       490250646800:   API NUMBER
~CURVE INFORMATION
#MNEM.UNIT       API CODE    CURVE DESCRIPTION
#----------   ------------   ------------------------------
 DEPT.F                  :   
 SPR .MV     05 010 01 00:   SPONTANEOUS POTENTIAL FROM RES.
 ILD .OHMM   05 120 46 00:   INDUCTION LOG DEEP
 CILD.MMHO   05 110 46 00:   CONDUCTIVITY INDUCTION LOG DEEP
 ASN .OHMM   05 041 16 00:   AMPLIFIED SHORT NORMAL 16"
~PARAMETER INFORMATION
#MNEM.UNIT          VALUE    DESCRIPTION
#----------   ------------   ------------------------------
 LMF .                 KB:   LOG MEASURED FROM
 DMF .                 KB:   DRILLING MEASURED FROM
 EKB .F              5126:   KELLING BUSHING
 EGL .F              5122:   GROUND LEVEL
 DATE.           8-3-1959:   RUN DATE
 RUN .                  1:   RUN NUMBER
 DD  .F               840:   DEPTH DRILLER
 DL  .F               841:   DEPTH LOGGER
 BLI .F               835:   BOTTOM LOG INTERVAL
 TLI .F                17:   TOP LOG INTERVAL
 CBD .F                17:   CASING BOTTOM DRILLER
 CBL .F                17:   CASING BOTTOM LOGGER
 BS  .IN             6.75:   BIT SIZE
 BSD .F               840:   BIT SIZE AT DEPTH
 DFT .                GEL:   DRILLING FLUID TYPE
 DFD .                9.5:   DRILLING FLUID DENSITY
 DFV .                100:   DRILLING FLUID VISCOSITY
 DFPH.                9.5:   DRILLING FLUID PH
 DFL .                  4:   DRILLING FLUID LOSS
 RMS .OHMM              4:   RESISTIVITY MUD SAMPLE
 MST .F                73:   MUD SAMPLE TEMPERATURE
 RMF .OHMM            3.9:   RESISTIVITY MUD FILTRATE SAMPLE
 MFST.F                73:   MUD FILTRATE SAMPLE TEMPERATURE
 RMC .OHMM            4.1:   RESISTIVITY MUD CAKE
 MCST.F                73:   MUD CAKE SAMPLE TEMPERATURE
 RMB .OHMM              4:   RESISTIVITY MUD AT BHT
 BHT .F                73:   BOTTOM HOLE TEMPERATURE
 TCS .HRS               1:   TIME CURCULATED STOPPED
 LUN .               2523:   LOGGING UNIT NUMBER
 LUL .              CSPR.:   LOGGING UNIT LOCATION
 ENGI.             ATWOOD:   RECORDING ENGINEER
 WITN.             MARTIN:   WITNESSED BY
 CLNT.            A2DTECH:   CLIENT CODE
 ORIG.           5" PRINT:   ORIGIN OF DATA
 UWI .       490250646800:   UNIQUE WELL ID
 DICO. A2D Technologies, Inc.:   DIGITIZING COMPANY
~OTHER INFORMATION
~A   DEPT      SPR        ILD       CILD        ASN   
   25.0000  -140.9695  -999.2500  -999.2500  -999.2500
   25.5000  -135.8864  -999.2500    23.7169  -999.2500
   26.0000  -130.2012  -999.2500    21.7588  -999.2500
   26.5000  -128.1124     6.9064    19.8006  -999.2500
   27.0000  -127.3038     7.2910    17.8424  -999.2500
   27.5000  -130.7985     7.6757    15.6670  -999.2500
   28.0000  -134.7405     8.1021    15.9142  -999.2500
   28.5000  -136.9382     7.9728    16.5477  -999.2500
   29.0000  -140.7232     7.6437    16.8645  -999.2500
   29.5000  -142.9577     7.3146    17.4980  -999.2500
   30.0000  -144.1922     7.1604    18.1315  -999.2500
   30.5000  -144.4668     6.8216    18.7651  -999.2500
   31.0000  -144.8422     6.4888    19.3986  -999.2500
   31.5000  -145.2705     6.1624    20.0321  -999.2500
   32.0000  -144.7976     6.1395    20.6656  -999.2500
   32.5000  -142.6936     6.3662    20.6282  -999.2500
   33.0000  -141.8093     6.6349    19.6310  -999.2500
   33.5000  -142.1252     6.8900    18.6337  -999.2500
   34.0000  -142.3005     7.1648    17.6365  -999.2500
   34.5000  -142.5256     7.4036    16.5622  -999.2500
   35.0000  -142.7764     7.7158    16.5622  -999.2500
   35.5000  -142.3601     7.7178    16.5622  -999.2500
   36.0000  -140.6298     7.4308    17.1611  -999.2500
   36.5000  -140.4934     7.0859    18.5571  -999.2500
   37.0000  -142.2355     7.3890    19.9533  -999.2500
   37.5000  -144.1831     8.3887    21.3493  -999.2500
   38.0000  -146.6429     9.2963    22.8290  -999.2500
   38.5000  -148.6178    10.2501    29.0167  -999.2500
   39.0000  -151.5848    11.1890    35.5983  -999.2500
   39.5000  -149.8304    12.1146    42.1800  -999.2500
   40.0000  -143.0297    13.0864    48.7616  -999.2500
   40.5000  -137.4186    13.9637    55.3432  -999.2500
   41.0000  -137.4625    15.3040    61.9248  -999.2500
   41.5000  -138.6485    15.0843    68.5064  -999.2500
   42.0000  -139.7342    13.9956    75.0880  -999.2500
   42.5000  -143.7141    13.0707    81.9158  -999.2500
   43.0000  -149.7164    12.0882    85.8035  -999.2500
   43.5000  -156.4091    11.6120    89.8422  -999.2500
   44.0000  -162.4898    11.1675    93.8809  -999.2500
   44.5000  -169.0365    10.7200    98.0304  -999.2500
   45.0000  -163.8357    10.2744   102.2701  -999.2500
   45.5000  -151.2483     9.8278   106.6294  -999.2500
   46.0000  -138.0710     9.3836   110.9886     1.4772
   46.5000  -133.5159     8.9380   116.5975     1.4951
   47.0000  -137.5790     8.4933   123.5530     2.2787
   47.5000  -141.8271     8.0469   130.5086     3.8941
   48.0000  -147.4605     7.6030   137.4642     5.5096
   48.5000  -159.9810     7.1541   146.0152     7.1251
   49.0000  -172.4098     6.7144   156.2182     8.7466
   49.5000  -184.5017     6.2565   166.4213     7.9568
   50.0000  -199.2556     5.8998   176.6244     5.8844
   50.5000  -198.3716     5.6404   186.8275     3.9714
   51.0000  -174.2116     5.3688   197.0306     2.0680
   51.5000  -149.8362     5.0961   207.2337     2.4551
   52.0000  -143.6559     4.8835   217.4367     2.8402
   52.5000  -141.1031     4.7378   227.6398     3.2253
   53.0000  -141.7546     4.5791   237.6902     3.6104
   53.5000  -143.0149     4.4346   246.4351     4.1808
   54.0000  -139.1653     4.3380   255.0510     3.3056
   54.5000  -135.7303     4.2485   260.8136     2.4799
   55.0000  -132.2245     4.1595   263.9548  -999.2500
   55.5000  -128.5662     4.0735   264.0264  -999.2500
   56.0000  -126.0921     4.1260   261.3339  -999.2500
   56.5000  -124.7537     4.2606   256.6392  -999.2500
   57.0000  -123.2254     4.3659   250.1773  -999.2500
   57.5000  -121.9226     4.5498   243.9570  -999.2500
   58.0000  -121.2666     4.7953   232.3852  -999.2500
   58.5000  -120.7307     5.0270   221.2307  -999.2500
   59.0000  -120.1661     5.2664   210.0761  -999.2500
   59.5000  -119.6142     5.4993   198.9215  -999.2500
   60.0000  -119.0547     5.7396   187.7847  -999.2500
   60.5000  -118.4974     5.9688   176.6541  -999.2500
   61.0000  -117.9391     6.2168   166.1205  -999.2500
   61.5000  -117.3800     6.3177   165.6452  -999.2500
   62.0000  -116.8226     6.2315   165.1987  -999.2500
   62.5000  -116.2609     6.1726   168.1469  -999.2500
   63.0000  -115.7069     6.0569   170.9220  -999.2500
   63.5000  -115.1371     5.9078   173.7097  -999.2500
   64.0000  -114.6505     5.7642   178.5215  -999.2500
   64.5000  -114.5172     5.6223   184.6758  -999.2500
   65.0000  -114.4244     5.4729   190.8300  -999.2500
   65.5000  -114.3253     5.4099   196.5085  -999.2500
   66.0000  -114.2289     5.4171   196.5085  -999.2500
   66.5000  -114.1309     5.4150   196.5085  -999.2500
   67.0000  -114.0339     5.4124   196.5085  -999.2500
   67.5000  -113.9363     5.4395   195.4566  -999.2500
   68.0000  -113.8389     5.4839   193.6616  -999.2500
   68.5000  -113.7412     5.5362   192.0322  -999.2500
   69.0000  -113.6434     5.5624   187.4575  -999.2500
   69.5000  -113.5457     5.7485   181.3791  -999.2500
   70.0000  -113.4479     6.0650   174.0197  -999.2500
   70.5000  -113.3502     6.3436   166.6602  -999.2500
   71.0000  -113.2524     6.6422   159.3008  -999.2500
   71.5000  -113.1547     6.9259   151.9306  -999.2500
   72.0000  -113.0569     7.2267   147.0756  -999.2500
   72.5000  -112.9592     7.4618   143.8339  -999.2500
   73.0000  -112.8614     7.4675   140.9493  -999.2500
   73.5000  -112.7636     7.4205   142.9261  -999.2500
   74.0000  -112.6659     7.4174   144.6960  -999.2500
   74.5000  -112.5681     7.2057   148.8154  -999.2500
   75.0000  -112.4704     6.8459   154.3817  -999.2500
   75.5000  -112.3725     6.5301   159.9708  -999.2500
   76.0000  -112.2750     6.3228   165.5605     0.8510
   76.5000  -112.1766     6.2181   171.1391     0.8234
   77.0000  -112.0882     6.0968   175.9493     0.7958
   77.5000  -112.0051     5.9880   177.9682     0.7682
   78.0000  -111.9283     5.8663   179.7276     0.7406
   78.5000  -111.8515     5.7887   181.4877     0.7130
   79.0000  -111.7746     5.8763   183.0020     0.6894
   79.5000  -111.6977     5.9655   178.0573     0.6894
   80.0000  -111.6208     6.0585   173.6696     0.6894
   80.5000  -111.5440     6.1431   169.2818     2.9262
   81.0000  -111.4671     6.2447   164.8941     5.5416
   81.5000  -111.3902     6.2778   165.1746     4.9083
   82.0000  -111.3133     6.0234   172.4440     3.9426
   82.5000  -111.2364     5.7713   178.7265     2.9769
   83.0000  -111.1596     5.6516   185.0090     2.0111
   83.5000  -111.0827     5.6163   190.2417     0.7252
   84.0000  -111.0058     5.5696   190.6607     0.7610
   84.5000  -110.9289     5.5288   191.0197     0.7610
   85.0000  -110.8520     5.4848   191.3787     1.8004
   85.5000  -110.7751     5.4426   191.7377     3.3440
   86.0000  -110.6982     5.3998   192.0322     4.8877
   86.5000  -110.6213     5.3573   190.5199     6.1414
   87.0000  -110.5445     5.3147   189.2377     5.9874
   87.5000  -110.4676     5.2717   187.9556     5.8524
   88.0000  -110.3907     5.2340   189.0385     5.7558
   88.5000  -110.3138     5.1948   191.1925     5.6756
   89.0000  -110.2369     5.1586   193.3465     5.5932
   89.5000  -110.1600     5.1238   195.5004     5.5278
   90.0000  -110.0831     5.0859   197.6544     3.7694
   90.5000  -110.0062     5.0540   197.4986     1.9298
   91.0000  -109.9294     5.0109   196.3563     2.1066
   91.5000  -109.8525     4.9906   195.2141     2.4450
   92.0000  -109.7756     4.8580   194.0718     2.7814
   92.5000  -109.6987     4.6570   192.9295     2.8543
   93.0000  -109.6218     4.4844   192.0322     2.4323
   93.5000  -109.5449     4.3074   194.2122     2.0980
   94.0000  -109.4680     4.1983   196.0072     1.7453
   94.5000  -109.3911     4.1134   197.4038     1.3902
   95.0000  -109.3141     4.0363   203.5851     1.0375
   95.5000  -109.2372     3.9523   208.6437     0.9379
   96.0000  -109.1602     3.8972   213.7023     0.9396
   96.5000  -109.0835     3.9097   218.7609     0.9434
   97.0000  -109.0061     3.9222   223.8195     0.9434
   97.5000  -108.9298     3.9355   225.1567     0.9770
