~VERSION INFORMATION
 VERS.                2.0:   CWLS LOG ASCII STANDARD - VERSION 2.0
 WRAP.                 NO:   ONE LINE PER DEPTH STEP
~WELL INFORMATION
#MNEM.UNIT      DATA TYPE    INFORMATION
#----------   ------------   ------------------------------
 STRT.F           70.0000:   START DEPTH
 STOP.F         1043.0000:   STOP DEPTH
 STEP.F            0.5000:   STEP LENGTH
 NULL.          -999.2500:   NO VALUE
 COMP. U S NAVY/INTEX OIL CO:   COMPANY
 WELL.       NPR 3 #54S-2:   WELL
 FLD .             TEAPOT:   FIELD
 LOC .       S2 T38N R78W:   LOCATION
 CNTY.            NATRONA:   COUNTY
 STAT.            WYOMING:   STATE
 CTRY. UNITED STATES OF AMERICA:   COUNTRY
 SRVC.         Lane Wells:   SERVICE COMPANY
 DATE.        14-JUN-1960:   LOGDATE
 API .       490250643300:   API NUMBER
~CURVE INFORMATION
#MNEM.UNIT       API CODE    CURVE DESCRIPTION
#----------   ------------   ------------------------------
 DEPT.F                  :   
 CILD.MMHO   05 110 46 00:   CONDUCTIVITY INDUCTION LOG DEEP
 ILD .OHMM   05 120 46 00:   INDUCTION LOG DEEP
 ASN .OHMM   05 041 16 00:   AMPLIFIED SHORT NORMAL 16"
 SPR .MV     05 010 01 00:   SPONTANEOUS POTENTIAL FROM RES.
~PARAMETER INFORMATION
#MNEM.UNIT          VALUE    DESCRIPTION
#----------   ------------   ------------------------------
 PD  .                 GL:   PERMANENT DATUM
 EPD .F              6164:   ELEVATION PERMANENT DATUM
 LMF .                 KB:   LOG MEASURED FROM
 DAPD.F                 5:   FEET ABOVE PERMANENT DATUM
 DMF .                 KB:   DRILLING MEASURED FROM
 EKB .F              6169:   KELLING BUSHING
 EGL .F              6164:   GROUND LEVEL
 DATE.            6-14-60:   RUN DATE
 RUN .                  1:   RUN NUMBER
 DD  .F              1045:   DEPTH DRILLER
 DL  .F              1045:   DEPTH LOGGER
 BLI .F              1043:   BOTTOM LOG INTERVAL
 TLI .F                70:   TOP LOG INTERVAL
 CS  .IN            8.625:   CASING SIZE
 CBD .F                12:   CASING BOTTOM DRILLER
 BS  .IN            7.875:   BIT SIZE
 BSD .F              1045:   BIT SIZE AT DEPTH
 DFT .   GEL/OIL EMULSION:   DRILLING FLUID TYPE
 DFD .                9.7:   DRILLING FLUID DENSITY
 DFV .                 45:   DRILLING FLUID VISCOSITY
 DFPH.                  8:   DRILLING FLUID PH
 DFL .               11.6:   DRILLING FLUID LOSS
 MSS .          FLOW LINE:   MUD SAMPLE SOURCE
 RMS .OHMM            1.6:   RESISTIVITY MUD SAMPLE
 MST .F                62:   MUD SAMPLE TEMPERATURE
 RMF .OHMM            1.4:   RESISTIVITY MUD FILTRATE SAMPLE
 MFST.F                60:   MUD FILTRATE SAMPLE TEMPERATURE
 RMC .OHMM           1.75:   RESISTIVITY MUD CAKE
 MCST.F                60:   MUD CAKE SAMPLE TEMPERATURE
 MFSS.                MUD:   MUD FILTRATE SAMPLE SOURCE
 MCSS.              PRESS:   MUD CAKE SAMPLE SOURCE
 RMB .OHMM            1.4:   RESISTIVITY MUD AT BHT
 BHT .F                72:   BOTTOM HOLE TEMPERATURE
 MRT .F                72:   MAXIMUM RECORDED TEMPERATURE
 LUN .             C-4474:   LOGGING UNIT NUMBER
 LUL .             CASPER:   LOGGING UNIT LOCATION
 ENGI.      NELSON/GRIGGS:   RECORDING ENGINEER
 WITN.   JORGENSEN/HUDSON:   WITNESSED BY
 CLNT.            A2DTECH:   CLIENT CODE
 ORIG.       2", 5" PRINT:   ORIGIN OF DATA
 UWI .       490250643300:   UNIQUE WELL ID
 DICO. A2D Technologies, Inc.:   DIGITIZING COMPANY
~OTHER INFORMATION
~A   DEPT     CILD          ILD        ASN      SPR   
# ...
  581.0000   156.6225     7.0525     6.9352   -39.2772
  581.5000   157.2948     6.9759     6.9023   -39.4495
  582.0000   158.0102     6.9989     6.9012   -39.6407
  582.5000   158.0381     7.0054     6.8827   -39.7654
  583.0000   157.1438     7.0204     6.8689   -39.8157
  583.5000   156.6225     7.0308     6.8548   -39.8771
  584.0000   156.4408     7.0437     6.8767   -39.9387
  584.5000   156.2420     7.0553     6.9055   -39.9904
  585.0000   156.0433     7.0675     6.9325   -40.0678
  585.5000   155.8446     7.0795     6.9609   -39.9655
  586.0000   155.6458     7.0914     6.9872   -39.8393
  586.5000   155.4471     7.1033     7.0177   -39.6956
  587.0000   155.2484     7.1153     7.0341   -39.5309
  587.5000   155.0497     7.1272     7.0319   -39.3758
  588.0000   154.8250     7.1392     7.0327   -39.2114
  588.5000   154.4363     7.1512     7.0345   -39.1576
  589.0000   153.9891     7.1672     7.0741   -39.1184
  589.5000   153.5420     7.1892     7.1247   -39.0753
  590.0000   153.0274     7.2116     7.1733   -39.0335
  590.5000   152.6553     7.2340     7.2275   -38.9924
  591.0000   151.5822     7.2564     7.2878   -38.9479
  591.5000   150.5091     7.2788     7.3568   -38.9106
  592.0000   149.4359     7.3011     7.4251   -38.8577
  592.5000   148.3628     7.3242     7.4935   -38.8735
  593.0000   146.9774     7.3536     7.5640   -39.0127
  593.5000   144.9334     7.3942     7.6486   -39.2306
  594.0000   142.8893     7.4367     7.7467   -39.5348
  594.5000   140.4447     7.4787     7.8673   -39.8858
  595.0000   139.8392     7.5209     7.9666   -40.3066
  595.5000   139.0861     7.5631     8.0686   -40.7569
  596.0000   138.3330     7.6051     8.1439   -40.9533
  596.5000   137.5799     7.6474     8.1510   -41.1263
  597.0000   136.8245     7.6952     8.1751   -40.8667
  597.5000   136.0692     7.7635     8.1918   -40.4405
  598.0000   135.3133     7.8499     8.2157   -40.0534
  598.5000   134.5573     7.9336     8.2388   -39.5985
  599.0000   133.8010     8.0190     8.2868   -39.3476
  599.5000   132.8788     8.1026     8.3969   -39.0590
  600.0000   131.4691     8.1889     8.5417   -39.2163
  600.5000   130.0615     8.2705     8.7606   -39.5261
  601.0000   128.6537     8.3634     9.0190   -39.8066
  601.5000   127.2428     8.4482     9.1410   -40.0935
  602.0000   125.8296     8.5252     9.2437   -40.3917
  602.5000   124.4164     8.6134     9.3773   -40.6570
  603.0000   123.0062     8.6971     9.4783   -41.0018
  603.5000   121.6000     8.7833     9.6204   -41.0324
  604.0000   120.1962     8.8680     9.6934   -40.5030
  604.5000   118.7699     8.9537    10.0050   -40.5841
  605.0000   117.0766     9.0387    10.5443   -40.7772
  605.5000   117.4541     9.1284    10.5681   -40.9517
  606.0000   117.9254     9.1132    10.6777   -41.1349
  606.5000   118.3967     9.0710    10.7462   -41.3137
  607.0000   118.8679     9.0352    10.7695   -41.4789
  607.5000   119.3392     8.9963    10.7460   -41.1466
  608.0000   119.8105     8.9591    10.5379   -40.6794
  608.5000   120.2811     8.9209    10.2083   -40.2319
  609.0000   120.7563     8.8832     9.9854   -39.7952
  609.5000   121.2303     8.8452     9.8794   -39.9795
  610.0000   121.7045     8.8076     9.7441   -40.3104
  610.5000   122.1776     8.7697     9.6671   -40.5620
  611.0000   122.5141     8.7323     9.6154   -40.3250
  611.5000   122.6071     8.6932     9.6053   -39.8979
  612.0000   122.6992     8.6983     9.5867   -39.8244
  612.5000   122.7916     8.7334     9.5724   -40.1281
  613.0000   122.8849     8.7573     9.5533   -40.3815
  613.5000   122.9792     8.8457     9.5168   -40.6663
  614.0000   123.0740     8.8160     9.4729   -40.8379
  614.5000   123.1689     8.7389     9.4304   -40.5872
  615.0000   123.2639     8.6751     9.3869   -40.1371
  615.5000   123.3590     8.6056     9.3443   -40.2652
  616.0000   123.4541     8.5987     9.3005   -40.4034
  616.5000   123.5492     8.5998     9.2586   -39.9993
  617.0000   123.6443     8.5993     9.2114   -39.6057
  617.5000   123.7394     8.5995     9.1820   -39.7866
  618.0000   123.8344     8.5994     9.1984   -40.0403
  618.5000   123.9295     8.5995     9.2466   -40.2025
  619.0000   124.0246     8.5998     9.3091   -39.5051
  619.5000   124.1197     8.5979     9.3648   -39.2407
  620.0000   124.2148     8.5738     9.4296   -39.4709
  620.5000   124.7212     8.5457     9.4311   -39.6060
  621.0000   125.7248     8.5174     9.3761   -39.7911
  621.5000   126.7284     8.4907     9.3351   -39.9454
  622.0000   127.7320     8.4606     9.2462   -40.1217
  622.5000   128.7357     8.4376     9.1399   -40.2513
  623.0000   129.7393     8.3538     9.0236   -40.1984
  623.5000   130.7429     8.2977     8.9090   -40.1324
  624.0000   131.7466     8.2421     8.7904   -40.0646
  624.5000   132.7502     8.1789     8.6799   -40.0042
  625.0000   134.5618     8.1211     8.5217   -39.9291
  625.5000   137.1895     8.0504     8.3182   -39.9737
  626.0000   139.8172     7.8924     8.1190   -40.1136
  626.5000   142.4448     7.7266     7.9226   -40.2206
  627.0000   145.0725     7.5574     7.7151   -40.3571
  627.5000   147.6348     7.3983     7.5847   -40.4070
  628.0000   147.1058     7.2162     7.5121   -40.1043
  628.5000   146.5897     7.1226     7.4968   -39.8136
  629.0000   146.0735     7.5027     7.5862   -39.5098
  629.5000   145.3474     7.9715     7.7010   -39.2300
  630.0000   144.4442     8.1410     7.7789   -38.9101
  630.5000   140.0492     8.0612     8.0485   -39.0391
  631.0000   136.8496     8.0219     8.4282   -39.4833
  631.5000   136.8496     7.9704     8.5195   -39.6878
  632.0000   136.8496     7.9708     8.6072   -39.5694
  632.5000   136.8496     7.9693     8.6375   -39.3912
  633.0000   136.8496     7.9697     8.6398   -39.5429
  633.5000   136.8496     7.9691     8.5946   -39.8058
  634.0000   136.8496     7.9690     8.5030   -39.9446
  634.5000   136.8496     7.9691     8.4235   -40.1463
  635.0000   136.8496     7.9691     8.3388   -40.3096
  635.5000   136.8496     7.9692     8.2558   -40.5140
  636.0000   136.8496     7.9692     8.1743   -40.6562
  636.5000   136.8496     7.9692     8.0884   -40.6957
  637.0000   136.8496     7.9691     8.0597   -40.7762
  637.5000   136.8496     7.9692     8.1092   -40.7605
  638.0000   136.8496     7.9689     8.1476   -40.6049
  638.5000   136.8496     7.9704     8.1989   -40.4607
  639.0000   135.6991     7.9819     8.2564   -40.3032
  639.5000   133.9037     7.9933     8.3098   -40.1632
  640.0000   132.0789     8.0047     8.3650   -39.9906
  640.5000   131.7744     8.0159     8.4179   -39.9361
  641.0000   132.2877     8.0275     8.4560   -40.0497
  641.5000   132.8076     8.0384     8.4868   -40.1424
  642.0000   133.3298     8.0506     8.5071   -40.2467
  642.5000   133.8505     8.0574     8.4876   -40.3453
  643.0000   134.3705     8.0442     8.4445   -40.4457
  643.5000   134.8903     8.0312     8.4044   -40.5473
  644.0000   135.4064     8.0183     8.3636   -40.6441
  644.5000   135.9226     8.0053     8.3253   -40.7523
  645.0000   136.4387     7.9925     8.2939   -40.8102
  645.5000   136.9549     7.9793     8.2652   -40.7938
  646.0000   137.4710     7.9693     8.2603   -40.6961
  646.5000   137.9872     7.9699     8.2723   -40.5688
  647.0000   138.5033     7.9683     8.2665   -40.4675
  647.5000   139.0195     7.9716     8.2001   -40.5731
  648.0000   139.5356     7.9460     8.1370   -40.7106
  648.5000   140.0518     7.9034     8.0785   -40.8508
  649.0000   140.5679     7.8679     8.0345   -40.9460
  649.5000   141.0841     7.8294     7.9955   -40.6759
  650.0000   141.6002     7.7925     7.9605   -40.3393
  650.5000   142.1164     7.7547     7.9203   -40.0377
  651.0000   142.6325     7.7174     7.9317   -39.6848
  651.5000   143.1487     7.6798     7.9580   -39.6225
  652.0000   143.6648     7.6425     7.9829   -39.8366
  652.5000   143.9162     7.6047     7.9745   -39.9981
  653.0000   143.4645     7.5678     7.9545   -40.1920
  653.5000   143.0129     7.5293     7.9372   -40.2996
