~VERSION INFORMATION
 VERS.                2.0:   CWLS LOG ASCII STANDARD - VERSION 2.0
 WRAP.                 NO:   ONE LINE PER DEPTH STEP
~WELL INFORMATION
#MNEM.UNIT      DATA TYPE    INFORMATION
#----------   ------------   ------------------------------
 STRT.F            0.0000:   START DEPTH
 STOP.F          618.0000:   STOP DEPTH
 STEP.F            0.5000:   STEP LENGTH
 NULL.          -999.2500:   NO VALUE
 COMP.   FLUOR DANIEL INC:   COMPANY
 WELL. NAVAL PETROLEUM RESERVE 3 SX-3 #2-33:   WELL
 FLD .             TEAPOT:   FIELD
 LOC .      S33 T39N R78W:   LOCATION
 CNTY.            NATRONA:   COUNTY
 STAT.            WYOMING:   STATE
 CTRY. UNITED STATES OF AMERICA:   COUNTRY
 SRVC.      Western Atlas:   SERVICE COMPANY
 DATE.        07-JAN-1995:   LOGDATE
 API .       490252267200:   API NUMBER
~CURVE INFORMATION
#MNEM.UNIT       API CODE    CURVE DESCRIPTION
#----------   ------------   ------------------------------
 DEPT.F                  :   
 GRR .GAPI   07 310 01 00:   GAMMA RAY FROM RES. LOG.
 RILD.OHMM   07 120 46 00:   INDUCTION LOG DEEP RESISTIVITY
 RILM.OHMM   07 120 44 00:   INDUCTION LOG MEDIUM RESISTIVITY
~PARAMETER INFORMATION
#MNEM.UNIT          VALUE    DESCRIPTION
#----------   ------------   ------------------------------
 PD  .                 GL:   PERMANENT DATUM
 EPD .F              5158:   ELEVATION PERMANENT DATUM
 LMF .                 KB:   LOG MEASURED FROM
 DAPD.F                10:   FEET ABOVE PERMANENT DATUM
 DMF .                 KB:   DRILLING MEASURED FROM
 EKB .F              5168:   KELLING BUSHING
 EDF .F              5167:   DRILLING FLOOR
 EGL .F              5158:   GROUND LEVEL
 DATE.         7-JAN-1995:   RUN DATE
 RUN .                  1:   RUN NUMBER
 DD  .F               625:   DEPTH DRILLER
 DL  .F               626:   DEPTH LOGGER
 BLI .F               618:   BOTTOM LOG INTERVAL
 CS  .IN            9.625:   CASING SIZE
 CBD .F                53:   CASING BOTTOM DRILLER
 CBL .F                54:   CASING BOTTOM LOGGER
 BS  .IN             8.75:   BIT SIZE
 BSD .F               625:   BIT SIZE AT DEPTH
 DFT .                AIR:   DRILLING FLUID TYPE
 MRT .F                89:   MAXIMUM RECORDED TEMPERATURE
 LUN .            HL 6530:   LOGGING UNIT NUMBER
 LUL .             CASPER:   LOGGING UNIT LOCATION
 ENGI.        VERN RAUTIO:   RECORDING ENGINEER
 WITN.        GARY STRONG:   WITNESSED BY
 CLNT.            A2DTECH:   CLIENT CODE
 ORIG.           5" PRINT:   ORIGIN OF DATA
 UWI .       490252267200:   UNIQUE WELL ID
 DICO. A2D Technologies, Inc.:   DIGITIZING COMPANY
~OTHER INFORMATION
~A    DEPT      GRR      RILD       RILM   
    0.0000    12.6506  -999.2500  -999.2500
    0.5000    17.1455  -999.2500  -999.2500
    1.0000    23.4610  -999.2500  -999.2500
    1.5000    28.6457  -999.2500  -999.2500
    2.0000    30.1088  -999.2500  -999.2500
    2.5000    25.7728  -999.2500  -999.2500
    3.0000    19.6049  -999.2500  -999.2500
    3.5000    14.3684  -999.2500  -999.2500
    4.0000    10.3222  -999.2500  -999.2500
    4.5000     8.2281  -999.2500  -999.2500
    5.0000     7.8825  -999.2500  -999.2500
    5.5000     7.9515  -999.2500  -999.2500
    6.0000     8.0303  -999.2500  -999.2500
    6.5000     8.1028  -999.2500  -999.2500
    7.0000     8.1755  -999.2500  -999.2500
    7.5000     8.3671  -999.2500  -999.2500
    8.0000     9.1466  -999.2500  -999.2500
    8.5000    11.6544  -999.2500  -999.2500
    9.0000    14.0932  -999.2500  -999.2500
    9.5000    16.7045  -999.2500  -999.2500
   10.0000    23.9415  -999.2500  -999.2500
   10.5000    32.6648  -999.2500  -999.2500
   11.0000    42.1005  -999.2500  -999.2500
   11.5000    50.8619  -999.2500  -999.2500
   12.0000    55.4992  -999.2500  -999.2500
   12.5000    57.5901  -999.2500  -999.2500
   13.0000    59.4976  -999.2500  -999.2500
   13.5000    61.6186  -999.2500  -999.2500
   14.0000    61.9588  -999.2500  -999.2500
   14.5000    60.6744  -999.2500  -999.2500
   15.0000    58.9916  -999.2500  -999.2500
   15.5000    58.0261  -999.2500  -999.2500
   16.0000    58.0382  -999.2500  -999.2500
   16.5000    57.8052  -999.2500  -999.2500
   17.0000    54.1197  -999.2500  -999.2500
   17.5000    50.1621  -999.2500  -999.2500
   18.0000    50.8106  -999.2500  -999.2500
   18.5000    58.3217  -999.2500  -999.2500
   19.0000    59.4285  -999.2500  -999.2500
   19.5000    56.5405  -999.2500  -999.2500
   20.0000    52.9134  -999.2500  -999.2500
   20.5000    51.9027  -999.2500  -999.2500
   21.0000    54.3827  -999.2500  -999.2500
   21.5000    57.0463  -999.2500  -999.2500
   22.0000    58.7272  -999.2500  -999.2500
   22.5000    58.3233  -999.2500  -999.2500
   23.0000    58.4868  -999.2500  -999.2500
   23.5000    61.1194  -999.2500  -999.2500
   24.0000    63.7259  -999.2500  -999.2500
   24.5000    63.1885  -999.2500  -999.2500
   25.0000    62.4094  -999.2500  -999.2500
   25.5000    63.2243  -999.2500  -999.2500
   26.0000    66.0695  -999.2500  -999.2500
   26.5000    68.8404  -999.2500  -999.2500
   27.0000    69.8773  -999.2500  -999.2500
   27.5000    69.2992  -999.2500  -999.2500
   28.0000    69.2649  -999.2500  -999.2500
   28.5000    71.2317  -999.2500  -999.2500
   29.0000    73.1493  -999.2500  -999.2500
   29.5000    74.9052  -999.2500  -999.2500
   30.0000    76.5817  -999.2500  -999.2500
   30.5000    76.4098  -999.2500  -999.2500
   31.0000    74.7985  -999.2500  -999.2500
   31.5000    74.2942  -999.2500  -999.2500
   32.0000    74.2792  -999.2500  -999.2500
   32.5000    75.2518  -999.2500  -999.2500
   33.0000    76.0923  -999.2500  -999.2500
   33.5000    75.6683  -999.2500  -999.2500
   34.0000    74.1547  -999.2500  -999.2500
   34.5000    74.4942  -999.2500  -999.2500
   35.0000    77.3646  -999.2500  -999.2500
   35.5000    80.2472  -999.2500  -999.2500
   36.0000    81.3374  -999.2500  -999.2500
   36.5000    80.3809  -999.2500  -999.2500
   37.0000    79.2318  -999.2500  -999.2500
   37.5000    78.1064  -999.2500  -999.2500
   38.0000    77.7663  -999.2500  -999.2500
   38.5000    79.3552  -999.2500  -999.2500
   39.0000    80.8611  -999.2500  -999.2500
   39.5000    80.6620  -999.2500  -999.2500
   40.0000    79.1012  -999.2500  -999.2500
   40.5000    76.9358  -999.2500  -999.2500
   41.0000    76.5352  -999.2500  -999.2500
   41.5000    76.7026  -999.2500  -999.2500
   42.0000    76.8836  -999.2500  -999.2500
   42.5000    76.6234  -999.2500  -999.2500
   43.0000    76.6205  -999.2500  -999.2500
   43.5000    76.8377  -999.2500  -999.2500
   44.0000    75.7599  -999.2500  -999.2500
   44.5000    73.8774  -999.2500  -999.2500
   45.0000    72.0694  -999.2500  -999.2500
   45.5000    70.9205  -999.2500  -999.2500
   46.0000    69.8186  -999.2500  -999.2500
   46.5000    68.8598  -999.2500  -999.2500
   47.0000    70.0665  -999.2500  -999.2500
   47.5000    73.6500  -999.2500  -999.2500
   48.0000    77.2045  -999.2500  -999.2500
   48.5000    80.7767  -999.2500  -999.2500
   49.0000    80.8236  -999.2500  -999.2500
   49.5000    78.4193  -999.2500  -999.2500
   50.0000    77.6553  -999.2500  -999.2500
   50.5000    77.1462  -999.2500  -999.2500
   51.0000    75.6629  -999.2500  -999.2500
   51.5000    73.3322  -999.2500  -999.2500
   52.0000    72.2469  -999.2500  -999.2500
   52.5000    71.6787  -999.2500  -999.2500
   53.0000    73.7139  -999.2500  -999.2500
   53.5000    87.7395  -999.2500  -999.2500
   54.0000   101.1879  9618.8369  5832.0161
   54.5000   112.7850  2778.9910     4.0821
   55.0000   117.8887     1.8831     2.8706
   55.5000   121.6537     2.1496     2.9515
   56.0000   125.3614     2.4386     3.5815
   56.5000   126.2329     4.1556     4.1972
   57.0000   124.7120     7.0556     4.6826
   57.5000   124.1782    11.4397     6.2034
   58.0000   123.7180     8.5028     8.4095
   58.5000   120.8477     6.2517     8.4095
   59.0000   116.1880     6.1131     7.6469
   59.5000   112.5382     5.9745     7.3183
   60.0000   112.9678     5.8468     7.9597
   60.5000   114.6627     5.6985     8.5668
   61.0000   117.2806     6.3773     8.0954
   61.5000   122.4846     7.2802     7.4251
   62.0000   128.0633     8.1790     7.0520
   62.5000   129.4178     7.7546     7.0569
   63.0000   126.2895     7.3946     7.0905
   63.5000   122.9837     7.0514     7.1243
   64.0000   119.7021     6.8587     7.1583
   64.5000   116.4780     6.9395     7.1924
   65.0000   114.6787     6.9971     7.2267
   65.5000   116.3023     7.0552     7.2611
   66.0000   120.2595     7.1138     7.2957
   66.5000   124.4436     7.1728     7.3305
   67.0000   125.4880     7.2324     7.3654
   67.5000   124.2870     7.2924     7.4005
   68.0000   122.8719     7.3529     7.4362
   68.5000   122.1889     7.3864     7.4559
   69.0000   124.5080     7.3255     7.3941
   69.5000   127.8020     7.2685     7.3361
   70.0000   131.1593     7.2119     7.2790
   70.5000   131.7502     7.1557     7.2224
   71.0000   129.8004     7.1001     7.1662
   71.5000   123.9345     7.0448     7.1104
   72.0000   119.1073     6.9900     7.0550
   72.5000   122.3231     6.9356     7.0001
   73.0000   126.1795     6.8816     6.9456
   73.5000   125.8589     6.8280     6.8916
   74.0000   123.3009     6.7749     6.8379
   74.5000   121.7818     6.7221     6.7847
   75.0000   124.9702     6.6698     6.7318
   75.5000   126.6643     6.6179     6.6801
   76.0000   126.7090     6.5266     6.5874
   76.5000   127.7279     6.4287     6.4885
   77.0000   129.1335     6.3322     6.3911
   77.5000   128.0812     6.2371     6.2952
   78.0000   125.6325     6.1941     6.2517
   78.5000   123.7682     6.2001     6.2583
   79.0000   123.5923     6.2378     6.2956
   79.5000   123.8416     6.3284     6.4033
   80.0000   121.5719     6.4562     6.5573
   80.5000   119.1041     6.5860     6.7150
   81.0000   118.7554     6.7184     6.8765
   81.5000   121.2890     6.8534     7.0419
   82.0000   123.3924     6.9912     7.2113
   82.5000   121.6618     7.1319     7.3847
   83.0000   119.9652     7.2748     7.4552
   83.5000   120.7581     7.3860     7.3982
   84.0000   121.7604     7.2716     7.3080
   84.5000   120.4727     7.1802     7.2189
   85.0000   118.7178     7.0896     7.1309
   85.5000   116.9335     7.0003     7.0439
   86.0000   115.1465     6.9121     6.9580
   86.5000   116.3498     6.8250     6.8732
   87.0000   119.9820     6.7391     6.7894
   87.5000   122.0242     6.6542     6.7066
   88.0000   123.0085     6.5704     6.6249
   88.5000   123.8825     6.4876     6.5441
   89.0000   123.5775     6.4059     6.4643
   89.5000   122.1413     6.3079     6.3687
   90.0000   121.3877     6.3098     6.4279
   90.5000   121.1816     6.4289     6.4878
