~VERSION INFORMATION
 VERS.                2.0:   CWLS LOG ASCII STANDARD - VERSION 2.0
 WRAP.                 NO:   ONE LINE PER DEPTH STEP
~WELL INFORMATION
#MNEM.UNIT      DATA TYPE    INFORMATION
#----------   ------------   ------------------------------
 STRT.F            2.0000:   START DEPTH
 STOP.F          508.0000:   STOP DEPTH
 STEP.F            0.1000:   STEP LENGTH
 NULL.          -999.2500:   NO VALUE
 COMP. LAWRENCE/ALLISON INC:   COMPANY
 WELL.      48-41 SX #3-3:   WELL
 FLD .             TEAPOT:   FIELD
 LOC .       S3 T38N R78W:   LOCATION
 CNTY.            NATRONA:   COUNTY
 STAT.            WYOMING:   STATE
 CTRY. UNITED STATES OF AMERICA:   COUNTRY
 SRVC.           Gearhart:   SERVICE COMPANY
 DATE.        09-JUL-1988:   LOGDATE
 API .       490251123300:   API NUMBER
~CURVE INFORMATION
#MNEM.UNIT       API CODE    CURVE DESCRIPTION
#----------   ------------   ------------------------------
 DEPT.F                  :   
 GRR .GAPI   07 310 01 00:   GAMMA RAY
 RILD.OHMM   07 120 46 00:   INDUCTION LOG DEEP RESISTIVITY
 RILM.OHMM   07 120 44 00:   INDUCTION LOG MEDIUM RESISTIVITY
~PARAMETER INFORMATION
#MNEM.UNIT          VALUE    DESCRIPTION
#----------   ------------   ------------------------------
 PD  .                 GL:   PERMANENT DATUM
 EPD .F              5200:   ELEVATION PERMANENT DATUM
 LMF .                 KB:   LOG MEASURED FROM
 DAPD.F                 5:   FEET ABOVE PERMANENT DATUM
 DMF .                 KB:   DRILLING MEASURED FROM
 EKB .F              5205:   KELLING BUSHING
 EDF .F              5204:   DRILLING FLOOR
 EGL .F              5200:   GROUND LEVEL
 DATE.        09-JUL-1988:   RUN DATE
 RUN .                  1:   RUN NUMBER
 DD  .F               510:   DEPTH DRILLER
 DL  .F               516:   DEPTH LOGGER
 BLI .F               508:   BOTTOM LOG INTERVAL
 TLI .F               1.5:   TOP LOG INTERVAL
 CS  .IN            9.625:   CASING SIZE
 CBD .F                40:   CASING BOTTOM DRILLER
 CBL .F                45:   CASING BOTTOM LOGGER
 BS  .IN             8.75:   BIT SIZE
 BSD .F               510:   BIT SIZE AT DEPTH
 DFT .                AIR:   DRILLING FLUID TYPE
 TCS .HRS            1800:   TIME CURCULATED STOPPED
 TLAB.HRS            1843:   TIME LOGGER AT BOTTOM
 MRT .F                70:   MAXIMUM RECORDED TEMPERATURE
 LUN .               7597:   LOGGING UNIT NUMBER
 LUL .           GILLETTE:   LOGGING UNIT LOCATION
 ENGI.         WEATHERMON:   RECORDING ENGINEER
 WITN.              FIVAS:   WITNESSED BY
 CLNT.            A2DTECH:   CLIENT CODE
 ORIG.           5" PRINT:   ORIGIN OF DATA
 UWI .       490251123300:   UNIQUE WELL ID
 DICO. A2D Technologies, Inc.:   DIGITIZING COMPANY
~OTHER INFORMATION
~A    DEPT      GRR      RILD       RILM   
# ...
  165.8000   107.8090     7.2460     7.2132
  165.9000   107.6784     7.2826     7.2538
  166.0000   107.6119     7.3248     7.2956
  166.1000   107.3626     7.3672     7.3375
  166.2000   107.0808     7.4098     7.3796
  166.3000   107.0824     7.4497     7.4220
  166.4000   106.9162     7.4497     7.4649
  166.5000   106.7843     7.4872     7.5075
  166.6000   106.8532     7.5305     7.5507
  166.7000   107.1738     7.5741     7.5941
  166.8000   108.5999     7.6179     7.6377
  166.9000   109.6890     7.6591     7.6815
  167.0000   110.9467     7.6591     7.7257
  167.1000   112.0879     7.6974     7.7785
  167.2000   113.0283     7.7419     7.8147
  167.3000   113.7681     7.7868     7.8596
  167.4000   114.3423     7.8318     7.9048
  167.5000   114.9927     7.8743     7.9401
  167.6000   115.4165     7.8743     7.9407
  167.7000   115.5541     7.9135     7.9943
  167.8000   115.5560     7.9593     7.9940
  167.9000   115.5578     8.0054     8.0227
  168.0000   115.5598     8.0398     8.0688
  168.1000   115.5614     8.0398     8.1041
  168.2000   115.7277     8.0398     8.1054
  168.3000   115.9807     8.0398     8.1594
  168.4000   116.1702     8.0702     8.1590
  168.5000   116.1851     8.0957     8.1586
  168.6000   116.4757     8.1075     8.1582
  168.7000   116.4773     8.1520     8.1577
  168.8000   116.4790     8.1520     8.1573
  168.9000   116.4808     8.1921     8.1567
  169.0000   116.4827     8.2087     8.1563
  169.1000   116.4845     8.2087     8.1559
  169.2000   116.4865     8.2087     8.1555
  169.3000   116.4881     8.2087     8.1550
  169.4000   116.0038     8.2087     8.1546
  169.5000   115.0291     8.2087     8.1540
  169.6000   113.8361     8.2087     8.1536
  169.7000   112.8332     8.2087     8.1532
  169.8000   111.6709     8.2087     8.1528
  169.9000   110.8267     8.2087     8.1523
  170.0000   109.9845     8.2087     8.1519
  170.1000   109.2328     8.2087     8.1513
  170.2000   108.5412     8.2087     8.1509
  170.3000   108.0407     8.2087     8.1505
  170.4000   107.4585     8.2087     8.1501
  170.5000   107.0396     8.2087     8.1496
  170.6000   106.5390     8.2087     8.1492
  170.7000   106.1477     8.2087     8.1486
  170.8000   105.8984     8.2087     8.1482
  170.9000   105.6491     8.2087     8.1478
  171.0000   105.3578     8.2087     8.1473
  171.1000   105.3593     8.2087     8.1469
  171.2000   105.5196     8.2087     8.1464
  171.3000   105.8806     8.2087     8.1459
  171.4000   106.3847     8.2087     8.1455
  171.5000   106.8890     8.2087     8.1115
  171.6000   107.4803     8.2087     8.0884
  171.7000   107.8972     8.2075     8.0880
  171.8000   108.4013     8.1520     8.0875
  171.9000   108.7987     8.1520     8.0870
  172.0000   109.1080     8.1520     8.0866
  172.1000   109.6180     8.1321     8.0522
  172.2000   110.5077     8.0957     8.0299
  172.3000   110.9221     8.0957     8.0140
  172.4000   111.4263     8.0957     7.9736
  172.5000   111.8250     8.0957     7.9732
  172.6000   112.0779     8.0668     7.9727
  172.7000   112.3355     8.0398     7.9382
  172.8000   112.9319     8.0297     7.9169
  172.9000   113.3437     7.9842     7.9005
  173.0000   113.8481     7.9842     7.8544
  173.1000   114.2481     7.9468     7.8066
  173.2000   114.5551     7.9291     7.7632
  173.3000   115.0593     7.9102     7.7519
  173.4000   115.6577     7.8647     7.7264
  173.5000   116.0675     7.8195     7.6814
  173.6000   116.4180     7.7660     7.6367
  173.7000   116.3613     7.7297     7.5908
  173.8000   115.8080     7.6853     7.5480
  173.9000   115.0562     7.6411     7.5041
  174.0000   114.1602     7.5881     7.4604
  174.1000   113.9587     7.5012     7.4331
  174.2000   113.5569     7.4497     7.4174
  174.3000   113.1583     7.3468     7.3301
  174.4000   112.9090     7.2458     7.2881
  174.5000   112.6596     7.1461     7.2457
  174.6000   112.3611     7.0397     7.2035
  174.7000   112.7659     6.9990     7.1615
  174.8000   113.1189     6.9029     7.1119
  174.9000   113.4727     6.8711     7.0294
  175.0000   113.9266     6.8080     6.9804
  175.1000   114.1798     6.7298     6.9479
  175.2000   114.4325     6.6602     6.9075
  175.3000   114.6855     6.6217     6.8196
  175.4000   114.9385     6.5460     6.6789
  175.5000   115.1915     6.5007     6.6016
  175.6000   115.3955     6.4633     6.5112
  175.7000   115.3973     6.4261     6.4198
  175.8000   115.6488     6.3891     6.3315
  175.9000   115.5033     6.3520     6.2433
  176.0000   115.2540     6.3157     6.1354
  176.1000   114.8080     6.2794     6.0303
  176.2000   114.1037     6.2646     5.9487
  176.3000   113.5982     6.2505     5.8637
  176.4000   113.1027     6.2213     5.7835
  176.5000   112.8003     6.2213     5.7166
  176.6000   112.4033     6.1509     5.6505
  176.7000   111.9999     6.1357     5.5865
  176.8000   111.7506     6.1357     5.5488
  176.9000   111.4975     6.1221     5.5216
  177.0000   111.0045     6.0933     5.4895
  177.1000   110.7008     6.0933     5.4575
  177.2000   110.3050     6.0588     5.4257
  177.3000   110.2842     6.0512     5.3958
  177.4000   111.0395     6.0310     5.4329
  177.5000   111.8100     6.0094     5.4327
  177.6000   112.3041     6.0094     5.4324
  177.7000   112.8082     6.0094     5.4467
  177.8000   113.4575     6.0094     5.4780
  177.9000   114.1181     6.0094     5.5117
  178.0000   114.5781     6.0094     5.5837
  178.1000   114.8375     6.0225     5.6402
  178.2000   114.8392     6.0512     5.7280
  178.3000   114.8410     6.0512     5.8117
  178.4000   114.8428     6.0853     5.8887
  178.5000   114.7512     6.0933     5.9854
  178.6000   114.5445     6.1135     6.0237
  178.7000   114.5467     6.1489     6.1171
  178.8000   114.5484     6.1905     6.1989
  178.9000   114.5502     6.2646     6.2707
  179.0000   114.5520     6.3351     6.3432
  179.1000   114.7384     6.4087     6.4166
  179.2000   115.2428     6.5046     6.4983
  179.3000   115.7642     6.5899     6.6007
  179.4000   116.0085     6.6344     6.6884
  179.5000   116.4537     6.7141     6.7859
  179.6000   116.8162     6.8274     6.8793
  179.7000   116.9780     6.9160     6.9234
  179.8000   117.0612     6.9735     7.0103
  179.9000   117.5850     7.0286     7.0472
  180.0000   117.5868     7.1101     7.0877
  180.1000   117.7794     7.1959     7.1501
  180.2000   117.8920     7.2359     7.2192
  180.3000   117.7140     7.3098     7.2661
  180.4000   117.2134     7.3708     7.3561
  180.5000   116.6909     7.4135     7.4354
  180.6000   116.2123     7.4631     7.4896
  180.7000   115.7118     7.5536     7.5561
  180.8000   115.3504     7.5954     7.6136
  180.9000   115.0124     7.6394     7.6194
  181.0000   114.5501     7.7083     7.6656
  181.1000   114.2885     7.7818     7.6652
  181.2000   114.0514     7.8268     7.6981
  181.3000   113.6136     7.8743     7.7177
  181.4000   113.2509     7.9612     7.7331
  181.5000   113.0890     8.0189     7.7705
  181.6000   113.0538     8.0398     7.7700
  181.7000   112.7910     8.0560     7.8127
  181.8000   112.5552     8.0957     7.8231
  181.9000   112.4929     8.0957     7.8483
  182.0000   112.7682     8.0957     7.8766
  182.1000   113.1862     8.1306     7.8839
  182.2000   113.4752     8.1776     7.9304
  182.3000   114.0086     8.2087     7.9300
  182.4000   114.2469     8.2087     7.9653
  182.5000   114.4998     8.2087     8.0111
  182.6000   114.7528     8.2087     8.0392
  182.7000   115.0058     8.2087     8.0474
  182.8000   115.2239     8.2343     8.0942
  182.9000   114.9244     8.2658     8.0938
  183.0000   114.9261     8.2658     8.1305
  183.1000   114.9279     8.2658     8.1492
  183.2000   114.9297     8.2658     8.1674
  183.3000   114.9315     8.2658     8.2049
  183.4000   114.9333     8.2658     8.2044
  183.5000   114.9353     8.2658     8.2609
  183.6000   114.9369     8.2658     8.2605
  183.7000   114.9387     8.2658     8.2892
  183.8000   114.9406     8.2216     8.3170
  183.9000   114.9424     8.2434     8.3165
