~VERSION INFORMATION
 VERS.                2.0:   CWLS LOG ASCII STANDARD - VERSION 2.0
 WRAP.                 NO:   ONE LINE PER DEPTH STEP
~WELL INFORMATION
#MNEM.UNIT      DATA TYPE    INFORMATION
#----------   ------------   ------------------------------
 STRT.F           34.0000:   START DEPTH
 STOP.F          638.0000:   STOP DEPTH
 STEP.F            0.5000:   STEP LENGTH
 NULL.          -999.2500:   NO VALUE
 COMP. FENIX & SCISSON INC:   COMPANY
 WELL. S N.P.R. #3 #33-34:   WELL
 FLD .             TEAPOT:   FIELD
 LOC .      S34 T39N R78W:   LOCATION
 CNTY.            NATRONA:   COUNTY
 STAT.            WYOMING:   STATE
 CTRY. UNITED STATES OF AMERICA:   COUNTRY
 SRVC.       Schlumberger:   SERVICE COMPANY
 DATE.        18-MAR-1977:   LOGDATE
 API .       490251030400:   API NUMBER
~CURVE INFORMATION
#MNEM.UNIT       API CODE    CURVE DESCRIPTION
#----------   ------------   ------------------------------
 DEPT.F                  :   
 LL8 .OHMM   07 220 08 00:   LATEROLOG-8 RES.
 ILD .OHMM   07 120 46 00:   INDUCTION LOG DEEP
 ILM .OHMM   07 120 44 00:   INDUCTION LOG MEDIUM
 SPR .MV     07 010 01 00:   SPONTANEOUS POTENTIAL
 GRD .GAPI   45 310 01 00:   GAMMA RAY FROM DENSITY LOG
 CALD.IN     45 280 60 00:   CALIPER FROM DENSITY LOG
 RHOB.G/C3   45 350 01 00:   BULK DENSITY
 CORR.G/C3   45 356 01 00:   DENSITY CORRECTION
 DPHI.DEC    45 890 12 00:   DENSITY POROSITY SANDSTONE
~PARAMETER INFORMATION
#MNEM.UNIT          VALUE    DESCRIPTION
#----------   ------------   ------------------------------
 PD  .                 GL:   PERMANENT DATUM
 EPD .F              5081:   ELEVATION PERMANENT DATUM
 LMF .                 KB:   LOG MEASURED FROM
 DAPD.F                 5:   FEET ABOVE PERMANENT DATUM
 DMF .                 KB:   DRILLING MEASURED FROM
 EKB .F              5086:   KELLING BUSHING
 EGL .F              5081:   GROUND LEVEL
 DATE.            3-18-77:   RUN DATE
 RUN .                  1:   RUN NUMBER
 DD  .F               631:   DEPTH DRILLER
 DL  .F               637:   DEPTH LOGGER
 BLI .F               631:   BOTTOM LOG INTERVAL
 TLI .F                45:   TOP LOG INTERVAL
 CS  .IN            8.625:   CASING SIZE
 CBD .F                40:   CASING BOTTOM DRILLER
 CBL .F                45:   CASING BOTTOM LOGGER
 BS  .IN            7.875:   BIT SIZE
 BSD .F               631:   BIT SIZE AT DEPTH
 DFT .            KCL MUD:   DRILLING FLUID TYPE
 DFD .                8.7:   DRILLING FLUID DENSITY
 DFV .                 31:   DRILLING FLUID VISCOSITY
 DFPH.                  8:   DRILLING FLUID PH
 DFL .                8.2:   DRILLING FLUID LOSS
 MSS .                PIT:   MUD SAMPLE SOURCE
 RMS .OHMM            .27:   RESISTIVITY MUD SAMPLE
 MST .F                60:   MUD SAMPLE TEMPERATURE
 RMF .OHMM            .25:   RESISTIVITY MUD FILTRATE SAMPLE
 MFST.F                60:   MUD FILTRATE SAMPLE TEMPERATURE
 MFSS.                  M:   MUD FILTRATE SAMPLE SOURCE
 TCS .HRS            0400:   TIME CURCULATED STOPPED
 TLAB.HRS            0530:   TIME LOGGER AT BOTTOM
 LUN .               7711:   LOGGING UNIT NUMBER
 LUL .               CSPR:   LOGGING UNIT LOCATION
 ENGI.             SAYLER:   RECORDING ENGINEER
 WITN.         STUEBINGER:   WITNESSED BY
 CLNT.            A2DTECH:   CLIENT CODE
 ORIG.        2" 5" PRINT:   ORIGIN OF DATA
 UWI .       490251030400:   UNIQUE WELL ID
 DICO. A2D Technologies, Inc.:   DIGITIZING COMPANY
~OTHER INFORMATION
~A   DEPT      LL8        ILD        ILM        SPR         GRD      CALD       RHOB       CORR       DPHI   
# ...
  545.0000    15.5031    19.8470    14.0128   -20.7822    69.4793     8.0745     2.3270     0.0647     0.1945
  545.5000    14.6783    17.9138    13.5693   -21.2385    69.6958     8.1964     2.3578     0.0809     0.1842
  546.0000    13.5756    16.1689    12.9601   -21.6923    68.7365     8.3698     2.3287     0.0656     0.1978
  546.5000    13.1399    15.3613    12.5499   -22.1482    66.9593     8.5290     2.3186     0.0495     0.2022
  547.0000    13.3357    15.2208    12.5456   -22.6298    65.2226     8.6642     2.3397     0.0745     0.1882
  547.5000    13.5230    15.2881    14.5188   -22.9070    64.3740     8.7998     2.3326     0.0647     0.1931
  548.0000    11.5256    15.5145    17.0737   -22.9535    64.3055     8.9352     2.3279     0.0624     0.1973
  548.5000    10.1659    15.7442    20.0771   -22.9494    64.2136     9.0714     2.3254     0.0702     0.1938
  549.0000    10.8670    15.9774    23.2291   -22.9479    64.6435     9.2065     2.3218     0.0789     0.2030
  549.5000    11.9839    16.2140    20.8451   -23.0864    65.1328     9.3237     2.3117     0.0944     0.2056
  550.0000    13.2149    16.5986    18.4823   -23.3641    65.7315     9.0349     2.2912     0.0963     0.2156
  550.5000    14.2727    17.3397    16.9288   -23.6413    68.1934     8.4085     2.2818     0.0601     0.2236
  551.0000    13.8601    18.1179    16.7339   -23.9185    70.6025     8.0937     2.3010     0.0374     0.2118
  551.5000    12.9601    18.9271    16.5357   -24.2059    73.0438     8.0320     2.3225     0.0213     0.1989
  552.0000    12.1185    19.8806    16.3400   -24.4986    72.9355     8.0252     2.3442     0.0251     0.1861
  552.5000    11.8768    19.5343    16.1465   -24.5448    72.5923     8.0190     2.3665     0.0343     0.1733
  553.0000    12.2036    18.8992    15.9553   -24.5334    73.1919     8.0122     2.3714     0.0400     0.1690
  553.5000    12.4924    18.2827    15.7664   -23.8433    73.8836     8.0053     2.3632     0.0400     0.1724
  554.0000    12.5499    17.6837    15.5798   -23.0697    74.5869     7.9984     2.3566     0.0299     0.1790
  554.5000    12.2679    17.1057    15.3953   -22.2953    74.2054     8.0059     2.3669     0.0348     0.1736
  555.0000    11.9767    16.5460    15.2130   -21.5243    72.5008     8.0145     2.3669     0.0300     0.1761
  555.5000    11.9722    16.2179    15.0329   -20.7527    70.8177     8.0231     2.3519     0.0209     0.1809
  556.0000    12.7642    15.9867    14.8549   -20.3629    69.3416     8.0316     2.3666     0.0372     0.1830
  556.5000    11.0998    15.7589    14.6790   -20.3851    69.6680     8.0402     2.3716     0.0496     0.1682
  557.0000    10.0664    15.5343    14.5052   -20.8550    70.1976     8.0489     2.3565     0.0349     0.1790
  557.5000    10.8977    15.3128    14.3335   -21.3115    70.7203     8.0571     2.3525     0.0375     0.1798
  558.0000    12.0467    15.0946    14.1638   -21.7637    71.2501     8.0491     2.3435     0.0288     0.1854
  558.5000    12.6734    14.9404    14.0128   -22.2246    71.5660     8.0399     2.3352     0.0165     0.1910
  559.0000    11.8673    15.3545    14.5418   -22.5636    71.3563     8.0308     2.3387     0.0175     0.1906
  559.5000    11.2355    15.7370    15.0401   -22.8715    70.9740     8.0217     2.3507     0.0209     0.1837
  560.0000    11.4162    16.2378    15.5031   -23.1765    70.4080     8.0126     2.3640     0.0243     0.1780
  560.5000    12.0416    16.2208    15.5521   -23.4819    69.8176     8.0036     2.3644     0.0236     0.1755
  561.0000    12.6972    16.1649    15.5968   -23.7876    69.8656     7.9985     2.3637     0.0209     0.1719
  561.5000    13.0197    16.1112    15.6462   -24.0932    70.3321     8.0001     2.3754     0.0331     0.1648
  562.0000    12.9601    16.0800    15.6462   -24.3989    70.8094     8.0016     2.3805     0.0213     0.1622
  562.5000    12.5499    16.0834    16.1946   -24.7048    71.2873     8.0031     2.3789     0.0263     0.1637
  563.0000    12.0654    17.0255    17.6873   -25.0092    71.0659     8.0045     2.3729     0.0232     0.1688
  563.5000    11.5539    17.6841    19.7351   -25.3071    69.3538     8.0060     2.3677     0.0159     0.1730
  564.0000    13.6983    18.3681    21.7800   -25.5693    67.6670     8.0075     2.3714     0.0105     0.1727
  564.5000    17.4699    19.1511    21.7800   -26.3845    65.9935     8.0090     2.3779     0.0125     0.1683
  565.0000    22.2800    19.1951    20.3013   -27.1778    64.9045     8.0105     2.3923     0.0144     0.1556
  565.5000    26.4151    19.2442    19.0443   -27.9586    65.3941     8.0120     2.4254     0.0162     0.1376
  566.0000    21.5443    19.2934    17.8651   -28.5219    66.7986     8.0135     2.4574     0.0114     0.1197
  566.5000    18.0520    19.5063    16.7590   -28.5044    68.2173     8.0150     2.4736     0.0109     0.1062
  567.0000    15.1257    19.5063    15.9852   -28.5355    70.5288     8.0165     2.4633     0.0142     0.1157
  567.5000    12.7780    18.2623    15.5031   -29.1495    73.9769     8.0180     2.4349     0.0155     0.1312
  568.0000    13.1313    17.3596    15.0355   -29.7411    76.0455     8.0194     2.4088     0.0155     0.1466
  568.5000    14.0128    16.5015    14.5820   -30.3283    76.5123     8.0209     2.3922     0.0155     0.1574
  569.0000    14.2727    15.6859    14.1421   -30.9430    76.3220     8.0224     2.3834     0.0127     0.1632
  569.5000    12.8357    14.9105    13.7156   -31.2503    76.1234     8.0239     2.3745     0.0094     0.1691
  570.0000    11.7682    14.5374    13.3019   -31.2076    75.5836     8.0254     2.3687     0.0104     0.1754
  570.5000    11.9110    14.5129    12.9007   -31.0222    75.0439     8.0269     2.3717     0.0250     0.1717
  571.0000    12.0971    14.4314    12.7827   -30.8395    74.5458     8.0284     2.3782     0.0322     0.1658
  571.5000    11.8405    14.3505    12.7827   -30.6572    74.6412     8.0299     2.3777     0.0278     0.1674
  572.0000    11.4439    14.2700    12.7824   -30.4904    76.5463     8.0314     2.3768     0.0209     0.1666
  572.5000    11.4509    14.1899    12.7827   -30.5289    77.7402     8.0329     2.3786     0.0203     0.1641
  573.0000    11.9706    14.1103    12.7827   -31.3185    77.2572     8.0343     2.3823     0.0214     0.1616
  573.5000    12.5784    14.0312    12.7827   -32.0815    76.2525     8.0358     2.3894     0.0227     0.1591
  574.0000    13.0227    13.9525    12.7827   -32.8372    75.2534     8.0374     2.4025     0.0229     0.1551
  574.5000    13.0227    13.8742    12.7827   -33.5920    74.2408     8.0358     2.4152     0.0157     0.1451
  575.0000    12.9020    13.7964    12.7827   -34.3470    73.8091     8.0331     2.4192     0.0070     0.1350
  575.5000    12.7329    13.7068    12.7827   -35.1020    74.7672     8.0303     2.4228     0.0093     0.1290
  576.0000    12.5664    13.6056    12.7827   -35.8573    75.6901     8.0275     2.4264     0.0161     0.1358
  576.5000    12.4026    13.5051    12.7827   -36.6133    76.2758     8.0248     2.4285     0.0223     0.1358
  577.0000    12.3076    13.4054    12.7827   -37.3684    75.9967     8.0220     2.4272     0.0237     0.1359
  577.5000    12.2801    13.3065    12.7827   -38.0478    75.7358     8.0192     2.4206     0.0193     0.1414
  578.0000    12.2526    13.2083    12.7826   -38.1832    75.4732     8.0164     2.4199     0.0143     0.1393
  578.5000    12.2252    13.1399    12.7740   -38.1782    74.6804     8.0137     2.4195     0.0115     0.1387
  579.0000    12.1978    13.1204    12.7568   -37.9212    73.4113     8.0109     2.4203     0.0134     0.1398
  579.5000    12.1706    13.1027    12.7396   -37.6714    73.7047     8.0081     2.4243     0.0177     0.1389
  580.0000    12.1435    13.0850    12.7222   -37.4596    74.8037     8.0054     2.4282     0.0220     0.1355
  580.5000    12.1167    13.0673    12.7047   -37.6301    75.7536     8.0026     2.4320     0.0223     0.1322
  581.0000    12.0652    13.0497    12.6879   -37.7974    76.3368     7.9998     2.4298     0.0179     0.1337
