~VERSION INFORMATION
 VERS.                2.0:   CWLS LOG ASCII STANDARD - VERSION 2.0
 WRAP.                 NO:   ONE LINE PER DEPTH STEP
~WELL INFORMATION
#MNEM.UNIT      DATA TYPE    INFORMATION
#----------   ------------   ------------------------------
 STRT.F           32.0000:   START DEPTH
 STOP.F          571.0000:   STOP DEPTH
 STEP.F            0.5000:   STEP LENGTH
 NULL.          -999.2500:   NO VALUE
 COMP. FENIX & SCISSON INCORP.:   COMPANY
 WELL.      NPR-3 #21-S-3:   WELL
 FLD .             TEAPOT:   FIELD
 LOC .       S3 T38N R78W:   LOCATION
 CNTY.            NATRONA:   COUNTY
 STAT.            WYOMING:   STATE
 CTRY. UNITED STATES OF AMERICA:   COUNTRY
 SRVC.           BIRDWELL:   SERVICE COMPANY
 DATE.        25-JUL-1978:   LOGDATE
 API .       490251067100:   API NUMBER
~CURVE INFORMATION
#MNEM.UNIT       API CODE    CURVE DESCRIPTION
#----------   ------------   ------------------------------
 DEPT.F                  :   
 CALD.IN     45 280 60 00:   CALIPER FROM DENSITY LOG
 CORR.G/C3   45 356 01 00:   DENSITY CORRECTION
 DPHI.DEC    45 890 10 00:   DENSITY POROSITY LIMESTONE
 GRD .GAPI   45 310 01 00:   GAMMA RAY FROM DENSITY LOG
 RHOB.G/C3   45 350 01 00:   BULK DENSITY
 ILD .OHMM   05 120 46 00:   INDUCTION LOG DEEP
 SN  .OHMM   05 040 16 00:   SHORT NORMAL 16"
 SPR .MV     05 010 01 00:   SPONTANEOUS POTENTIAL FROM RES.
 NPHI.DEC    42 890 01 00:   NEUTRON POROSITY LIMESTONE
~PARAMETER INFORMATION
#MNEM.UNIT          VALUE    DESCRIPTION
#----------   ------------   ------------------------------
 PD  .                 GL:   PERMANENT DATUM
 EPD .F              5203:   ELEVATION PERMANENT DATUM
 LMF .                 KB:   LOG MEASURED FROM
 DAPD.F                 4:   FEET ABOVE PERMANENT DATUM
 DMF .                 KB:   DRILLING MEASURED FROM
 EKB .F              5207:   KELLING BUSHING
 EGL .F              5203:   GROUND LEVEL
 DATE.        25-JUL-1978:   RUN DATE
 RUN .                  1:   RUN NUMBER
 DD  .F               565:   DEPTH DRILLER
 DL  .F               573:   DEPTH LOGGER
 BLI .F               566:   BOTTOM LOG INTERVAL
 TLI .F                46:   TOP LOG INTERVAL
 CS  .IN            8.625:   CASING SIZE
 CBD .F                40:   CASING BOTTOM DRILLER
 CBL .F                48:   CASING BOTTOM LOGGER
 BS  .IN            7.875:   BIT SIZE
 BSD .F               565:   BIT SIZE AT DEPTH
 DFT .                KCL:   DRILLING FLUID TYPE
 DFD .                8.6:   DRILLING FLUID DENSITY
 DFV .                 30:   DRILLING FLUID VISCOSITY
 DFPH.                  9:   DRILLING FLUID PH
 MSS .           FLOWLINE:   MUD SAMPLE SOURCE
 LUN .               2958:   LOGGING UNIT NUMBER
 LUL .               CASP:   LOGGING UNIT LOCATION
 WITN.           MCGINLEY:   WITNESSED BY
 CLNT.            A2DTECH:   CLIENT CODE
 ORIG.           5" PRINT:   ORIGIN OF DATA
 UWI .       490251067100:   UNIQUE WELL ID
 DICO. A2D Technologies, Inc.:   DIGITIZING COMPANY
~OTHER INFORMATION
~A   DEPT     CALD       CORR       DPHI         GRD      RHOB        ILD         SN        SPR       NPHI   
# ...
  287.5000     7.8271     0.1104     0.2881   102.9127     2.2146     2.6711     3.0880   -51.2626  -999.2500
  288.0000     8.1579     0.0773     0.2920   102.1692     2.2161     2.8052     3.2210   -51.0966  -999.2500
  288.5000     7.9951     0.0516     0.2536   101.7232     2.2239     3.3050     3.4068   -50.6295  -999.2500
  289.0000     7.7218     0.0408     0.2122   101.2800     2.2649     3.7268     3.6668   -50.4637  -999.2500
  289.5000     7.7218     0.0171     0.2062   100.2348     2.2738     4.1641     4.0824   -50.4464  -999.2500
  290.0000     7.7218     0.0021     0.1930    99.0394     2.3495     4.6208     4.4075   -50.4292  -999.2500
  290.5000     7.6917     0.0201     0.1825    99.0220     2.3600     5.2346     4.8580   -49.8176  -999.2500
  291.0000     7.6917    -0.0010     0.1660    99.2013     2.3915     5.6509     5.3546   -49.6518  -999.2500
  291.5000     7.7669    -0.0115     0.1417    99.6797     2.4215     5.8532     5.7413   -49.6345  -999.2500
  292.0000     7.8120    -0.0040     0.1300   102.3676     2.4380     6.0251     5.9474   -49.7659  -999.2500
  292.5000     7.7068     0.0020     0.1309   106.8779     2.4679     6.0683     6.0349   -50.0415  -999.2500
  293.0000     7.7218     0.0019     0.1318   106.5820     2.4695     6.0727     6.0827   -50.3214  -999.2500
  293.5000     7.7068     0.0004     0.1336   107.0397     2.4664     6.0343     6.1721   -50.3042  -999.2500
  294.0000     7.7068     0.0019     0.1343   108.8474     2.4595     6.0399     6.0912   -50.2869  -999.2500
  294.5000     7.6767     0.0018     0.1354   110.6550     2.4620     6.0028     6.0542   -49.9725  -999.2500
  295.0000     7.6617     0.0018     0.1366   110.9810     2.4628     6.0072     6.0187   -49.6581  -999.2500
  295.5000     7.6316     0.0033     0.1372   109.9159     2.4620     5.9674     5.9821   -49.3279  -999.2500
  296.0000     7.6165     0.0047     0.1213   108.5704     2.4591     5.6554     5.9049   -49.0250  -999.2500
  296.5000     7.5865     0.0077     0.1177   110.0792     2.4673     5.3561     5.8655   -49.3049  -999.2500
  297.0000     7.5714     0.0047     0.1252   111.7367     2.4801     5.0032     5.5981   -49.5848  -999.2500
  297.5000     7.5263    -0.0014     0.1330   113.0939     2.4771     4.8041     5.4502   -50.0134  -999.2500
  298.0000     7.4812    -0.0074     0.1462   112.6493     2.4584     4.7084     5.3063   -50.2976  -999.2500
  298.5000     7.4511    -0.0089     0.1583   109.3518     2.4403     4.6482     5.2730   -49.6817  -999.2500
  299.0000     7.4060    -0.0057     0.1712   108.3066     2.4226     4.6517     5.2782   -49.6642  -999.2500
  299.5000     7.3459     0.0075     0.1790   108.0120     2.4022     4.7205     5.3190   -49.7958  -999.2500
  300.0000     7.3008     0.0105     0.1738   108.7691     2.3933     4.8554     5.5865   -50.5172  -999.2500
  300.5000     7.3161     0.0090     0.1693   114.7795     2.4061     5.1391     5.7860   -50.7952  -999.2500
  301.0000     7.3615     0.0165     0.1546   117.4867     2.4082     5.4292     5.7902   -51.2268  -999.2500
  301.5000     7.3768     0.0226     0.1456   117.4911     2.4285     5.7407     5.9968   -50.9060  -999.2500
  302.0000     7.2418     0.0196     0.1405   113.7215     2.4434     6.1119     6.3845   -50.5900  -999.2500
  302.5000     7.2421     0.0091     0.1381   111.4790     2.4494     6.4181     6.6581   -50.5711  -999.2500
  303.0000     7.3493     0.0016     0.1384   111.6495     2.4524     6.6475     6.8957   -50.4037  -999.2500
  303.5000     7.2277    -0.0014     0.1426   115.1074     2.4524     6.8379     7.0441   -50.5334  -999.2500
  304.0000     7.2430    -0.0044     0.1477   116.7624     2.4517     6.9853     7.0493   -50.6631     0.3978
  304.5000     7.2734    -0.0045     0.1507   116.1673     2.4434     7.0879     7.0535   -50.6442     0.3977
  305.0000     7.3038    -0.0014     0.1582   115.4209     2.4375     7.1417     7.0578   -50.6206     0.3953
  305.5000     7.3041     0.0049     0.1569   113.9238     2.4297     7.0974     7.0620   -50.3046     0.3644
  306.0000     7.3345     0.0137     0.1513   109.8742     2.4240     7.0522     7.0662   -49.9885     0.3608
  306.5000     7.3648     0.0152     0.1393   109.8786     2.4375     7.0094     7.0704   -49.9696     0.3609
  307.0000     7.3501     0.0107     0.1342   110.3335     2.4472     6.9658     7.0261   -49.9508     0.3621
  307.5000     7.3203    -0.0058     0.1315   111.5391     2.4584     6.8753     6.9820   -50.0805     0.3794
  308.0000     7.4259    -0.0148     0.1381   114.6026     2.4547     6.8327     6.9872   -50.2110     0.3812
  308.5000     7.5314    -0.0193     0.1474   115.9234     2.4487     6.7903     6.8956   -50.3403     0.3821
  309.0000     7.5620    -0.0192     0.1480   116.2081     2.4442     6.7018     6.8513   -50.1704     0.3869
  309.5000     7.5771    -0.0192     0.1486   115.9122     2.4404     6.6603     6.7160   -49.8559     0.3944
  310.0000     7.5324    -0.0162     0.1489   115.3160     2.4352     6.4401     6.5373   -49.8328     0.3986
  310.5000     7.5477    -0.0132     0.1495   115.1691     2.4360     6.2684     6.3633   -49.9672     0.4007
  311.0000     7.6082    -0.0087     0.1498   116.5260     2.4375     6.0132     6.0264   -50.0922     0.4034
  311.5000     7.7137    -0.0087     0.1486   117.5815     2.4352     5.7805     5.7857   -50.3752     0.4241
  312.0000     7.7591    -0.0071     0.1474   116.8351     2.4360     5.6660     5.5164   -50.5049     0.4376
  312.5000     7.7895    -0.0071     0.1460   115.1877     2.4397     5.6698     5.2960   -50.6346     0.4382
  313.0000     7.7898    -0.0071     0.1445   115.9430     2.4419     5.6735     5.2627   -50.9129     0.4367
  313.5000     7.7901    -0.0071     0.1541   117.2998     2.4375     5.6773     5.3409   -51.3351     0.4343
  314.0000     7.8205    -0.0071     0.1690   117.7538     2.4300     5.6816     5.4547   -51.3162     0.4356
  314.5000     7.8202    -0.0071     0.1706   116.9264     2.4187     5.7639     5.5720   -51.1486     0.4450
  315.0000     7.7739    -0.0086     0.1685   114.9107     2.4097     5.8890     5.8510   -50.9807     0.4912
  315.5000     7.7461    -0.0085     0.1565   114.4636     2.4082     6.1416     6.2293   -50.9577     0.4915
  316.0000     7.7314    -0.0085     0.1424   117.4721     2.4397     6.5388     6.5864   -51.0921     0.4280
  316.5000     7.7167    -0.0085     0.1298   119.4285     2.4547     6.8664     6.8687   -50.7714     0.4277
  317.0000     7.7019    -0.0070     0.1274   119.5819     2.4674     7.0144     7.0699   -50.4553     0.4280
  317.5000     7.6872    -0.0070     0.1283   115.3832     2.4697     7.1165     7.1684   -50.2879     0.4110
  318.0000     7.6724    -0.0070     0.1313   113.2855     2.4689     7.1706     7.1727   -50.1204     0.4077
  318.5000     7.6578    -0.0039     0.1298   112.9895     2.4659     7.2260     7.1769   -49.9529     0.4074
  319.0000     7.6430    -0.0009     0.1268   112.9940     2.4689     7.2308     7.1812   -49.7855     0.4083
  319.5000     7.6132     0.0036     0.1259   113.3058     2.4719     7.1847     7.1855   -49.6180     0.4071
  320.0000     7.5213     0.0068     0.1280   113.9239     2.4734     7.1907     7.1898   -49.4403     0.4029
  320.5000     7.4111     0.0096     0.1283   114.8102     2.4734     7.1955     7.1943   -48.9851     0.3940
  321.0000     7.2834     0.0141     0.1240   115.2650     2.4749     7.2003     7.1995   -48.8137     0.3850
  321.5000     7.1934     0.0142     0.1156   115.4196     2.4861     7.2053     7.1543   -48.7948     0.3796
  322.0000     7.1336     0.0157     0.1136   114.9735     2.4959     7.2111     7.1586   -48.7760     0.3799
  322.5000     7.1188     0.0127     0.1139   112.2753     2.4959     7.2158     7.1629   -48.7571     0.3799
  323.0000     7.1793     0.0082     0.1148   111.3788     2.4959     7.1699     7.1672   -48.7382     0.3814
  323.5000     7.2247     0.0067     0.1166   111.5333     2.4944     7.1758     7.1715   -48.7193     0.3823
