~VERSION INFORMATION
 VERS.                2.0:   CWLS LOG ASCII STANDARD - VERSION 2.0
 WRAP.                 NO:   ONE LINE PER DEPTH STEP
~WELL INFORMATION
#MNEM.UNIT      DATA TYPE    INFORMATION
#----------   ------------   ------------------------------
 STRT.F           80.0000:   START DEPTH
 STOP.F          814.0000:   STOP DEPTH
 STEP.F            0.5000:   STEP LENGTH
 NULL.          -999.2500:   NO VALUE
 COMP.          U.S. NAVY:   COMPANY
 WELL. RES 3 TEAPOT DOM #17-S-35:   WELL
 FLD .             TEAPOT:   FIELD
 LOC .      S35 T39N R78W:   LOCATION
 CNTY.            NATRONA:   COUNTY
 STAT.            WYOMING:   STATE
 CTRY. UNITED STATES OF AMERICA:   COUNTRY
 SRVC. Schlumberger Well Surveying Corp:   SERVICE COMPANY
 DATE.        20-JUL-1952:   LOGDATE
 API .       490250650200:   API NUMBER
~CURVE INFORMATION
#MNEM.UNIT       API CODE    CURVE DESCRIPTION
#----------   ------------   ------------------------------
 DEPT.F                  :   
 SPR .MV     05 010 01 00:   SPONTANEOUS POTENTIAL FROM RES.
 ILD .OHMM   05 120 46 00:   INDUCTION LOG DEEP
 ASN .OHMM   05 041 16 00:   AMPLIFIED SHORT NORMAL 16"
 CILD.MMHO   05 110 46 00:   CONDUCTIVITY INDUCTION LOG DEEP
 GR  .GAPI   30 310 01 00:   GAMMA RAY
~PARAMETER INFORMATION
#MNEM.UNIT          VALUE    DESCRIPTION
#----------   ------------   ------------------------------
 PD  .                 KB:   PERMANENT DATUM
 LMF .                 KB:   LOG MEASURED FROM
 DMF .                 KB:   DRILLING MEASURED FROM
 EKB .F              5101:   KELLING BUSHING
 EGL .F              5096:   GROUND LEVEL
 DATE.        20-JUL-1962:   RUN DATE
 RUN .                  1:   RUN NUMBER
 DD  .F               815:   DEPTH DRILLER
 DL  .F               815:   DEPTH LOGGER
 BLI .F               814:   BOTTOM LOG INTERVAL
 TLI .F                80:   TOP LOG INTERVAL
 BS  .IN             6.75:   BIT SIZE
 BSD .F               815:   BIT SIZE AT DEPTH
 DFT .       OIL EMULSION:   DRILLING FLUID TYPE
 DFD .               10.0:   DRILLING FLUID DENSITY
 DFV .                 45:   DRILLING FLUID VISCOSITY
 DFL .                2.7:   DRILLING FLUID LOSS
 RMS .OHMM           3.64:   RESISTIVITY MUD SAMPLE
 MST .F                89:   MUD SAMPLE TEMPERATURE
 RMF .OHMM           3.01:   RESISTIVITY MUD FILTRATE SAMPLE
 MFST.F                89:   MUD FILTRATE SAMPLE TEMPERATURE
 RMC .OHMM           3.41:   RESISTIVITY MUD CAKE
 MCST.F                89:   MUD CAKE SAMPLE TEMPERATURE
 RMB .OHMM           3.41:   RESISTIVITY MUD AT BHT
 BHT .F                89:   BOTTOM HOLE TEMPERATURE
 TCS .HRS              .5:   TIME CURCULATED STOPPED
 LUN .               2503:   LOGGING UNIT NUMBER
 LUL .               CSPR:   LOGGING UNIT LOCATION
 ENGI.             DANNER:   RECORDING ENGINEER
 WITN.          JORGENSEN:   WITNESSED BY
 CLNT.            A2DTECH:   CLIENT CODE
 ORIG.           5" PRINT:   ORIGIN OF DATA
 UWI .       490250650200:   UNIQUE WELL ID
 DICO. A2D Technologies, Inc.:   DIGITIZING COMPANY
~OTHER INFORMATION
~A   DEPT      SPR          ILD        ASN      CILD        GR   
   80.0000   -68.5114     6.0513     1.2795   200.1586  -999.2500
   80.5000   -69.1441     5.9707     0.9801   204.8881  -999.2500
   81.0000   -69.9352     5.8096     0.9634   208.8326  -999.2500
   81.5000   -71.3544     5.4126     1.0725   202.5730  -999.2500
   82.0000   -71.8316     5.0156     1.4175   192.3888  -999.2500
   82.5000   -71.9948     5.0117     1.9983   186.1293  -999.2500
   83.0000   -71.8425     5.0865     3.6955   179.0848  -999.2500
   83.5000   -71.0654     5.3194     5.9901   173.6102  -999.2500
   84.0000   -69.8158     5.7903     6.1936   167.3506  -999.2500
   84.5000   -68.5661     6.4333     6.3499   162.6609  -999.2500
   85.0000   -67.4735     7.0571     6.5534   158.6211  -999.2500
   85.5000   -66.6948     7.4255     6.7883   157.9861  -999.2500
   86.0000   -66.0731     7.1848     6.8505   162.8201  -999.2500
   86.5000   -65.1374     6.9450     6.6921   166.6731  -999.2500
   87.0000   -64.3587     6.7839     6.4553   170.6046  -999.2500
   87.5000   -63.7370     6.1511     6.2028   174.5491  -999.2500
   88.0000   -63.4293     5.4396     5.5100   178.4936  -999.2500
   88.5000   -63.1200     5.2785     4.1411   183.2230  -999.2500
   89.0000   -62.8123     5.2746     2.6622   189.5223  -999.2500
   89.5000   -62.9771     5.4280     2.4412   192.6819  -999.2500
   90.0000   -63.1388     5.5813     2.2201   194.2717  -999.2500
   90.5000   -62.6756     5.5774     2.1703   192.7217  -999.2500
   91.0000   -61.7400     5.5735     2.4698   189.6018  -999.2500
   91.5000   -61.4307     5.6492     3.2078   185.6971  -999.2500
   92.0000   -61.2799     5.8802     4.9522   180.2224  -999.2500
   92.5000   -61.2878     6.1908     6.0204   175.5327  -999.2500
   93.0000   -61.7650     6.4237     6.4443   170.8430  -999.2500
   93.5000   -61.7712     6.6549     6.5541   164.5835  -999.2500
   94.0000   -61.4635     6.8866     6.6491   158.3239  -999.2500
   94.5000   -60.9988     7.0400     6.8536   152.0643  -999.2500
   95.0000   -60.2201     7.2719     7.0566   148.6786  -999.2500
   95.5000   -59.7554     7.5825     7.2156   143.3737  -999.2500
   96.0000   -59.2907     7.8145     7.3549   138.7234  -999.2500
   96.5000   -59.1397     8.0505     7.5119   134.8445  -999.2500
   97.0000   -58.8322     8.2784     7.6345   131.7506  -999.2500
   97.5000   -58.5245     8.4317     7.6932   133.3403  -999.2500
   98.0000   -58.0598     8.3354     7.6294   137.2848  -999.2500
   98.5000   -57.7521     7.8727     7.3454   142.7992  -999.2500
   99.0000   -57.4442     7.7115     7.1715   148.3136  -999.2500
   99.5000   -57.1366     7.7076     6.9976   155.3978  -999.2500
  100.0000   -56.9859     7.4679     6.7766   164.0646  -999.2500
  100.5000   -56.6781     6.7565     6.4769   168.8197  -999.2500
  101.0000   -56.5274     6.3595     6.2244   174.3432  -999.2500
  101.5000   -56.3767     6.2780     6.0819   177.5273  -999.2500
  102.0000   -56.3830     6.5089     6.2068   177.4047  -999.2500
  102.5000   -56.3737     6.8195     6.5360   170.1326  -999.2500
  103.0000   -56.2384     7.0515     6.8181   161.7110  -999.2500
  103.5000   -56.2449     7.2834     7.0216   161.0743  -999.2500
  104.0000   -56.2260     7.5154     7.1152   161.8884  -999.2500
  104.5000   -55.9152     7.5911     7.1455   161.9118  -999.2500
  105.0000   -55.4801     7.5862     7.1605   152.5161  -999.2500
  105.5000   -55.6433     7.5823     6.9549   147.0391  -999.2500
  106.0000   -56.1205     7.1067     6.7181   157.2724  -999.2500
  106.5000   -56.5977     6.5525     6.4971   165.1451  -999.2500
  107.0000   -56.9179     6.2342     6.3232   173.0178  -999.2500
  107.5000   -57.0812     5.9944     6.1807   180.1055  -999.2500
  108.0000   -56.9289     5.9119     6.0383   187.1933  -999.2500
  108.5000   -56.6211     5.8294     5.9430   190.3506  -999.2500
  109.0000   -56.1564     5.9041     5.8949   184.1004  -999.2500
  109.5000   -55.3793     5.9001     5.8785   180.9841  -999.2500
  110.0000   -54.7576     5.8963     5.9559   177.0828  -999.2500
  110.5000   -54.4483     5.8923     6.0336   173.9606  -999.2500
  111.0000   -54.6131     5.8876     6.1113   184.1939  -999.2500
  111.5000   -55.0903     5.8837     6.2047   184.2173  -999.2500
  112.0000   -55.5675     5.9594     6.1409   184.2407  -999.2500
  112.5000   -55.2598     5.9545     6.0141   184.2641  -999.2500
  113.0000   -54.9505     5.9506     5.9031   184.2875  -999.2500
  113.5000   -54.6428     6.0254     5.8079   184.3109  -999.2500
  114.0000   -54.3351     6.0215     5.7283   183.5435  -999.2500
  114.5000   -54.9708     6.0972     5.6959   182.7878  -999.2500
  115.0000   -55.1341     6.0923     5.8066   181.2414  -999.2500
  115.5000   -54.9818     6.1680     5.9474   178.1250  -999.2500
  116.0000   -54.8326     6.2427     6.0717   175.0087  -999.2500
  116.5000   -54.5233     6.2379     6.1183   171.8924  -999.2500
  117.0000   -54.3726     6.3136     6.1629   177.4122  -999.2500
  117.5000   -54.6943     6.2301     6.0787   182.9301  -999.2500
  118.0000   -54.7006     6.0690     5.9170   188.4480  -999.2500
  118.5000   -54.7068     5.8292     5.7196   193.9659  -999.2500
  119.0000   -54.7131     5.6681     5.5457   197.9140  -999.2500
  119.5000   -54.7193     5.5070     5.3404   202.6469  -999.2500
  120.0000   -55.0396     5.2672     5.2137   205.8100  -999.2500
  120.5000   -55.2028     5.0275     5.1027   208.9732  -999.2500
  121.0000   -55.3660     4.8664     5.0546   212.1363  -999.2500
  121.5000   -55.6862     4.8624     5.0536   216.0843  -999.2500
  122.0000   -55.6925     4.8585     5.0841   219.2474  -999.2500
  122.5000   -55.6987     4.8650     5.1461   220.8407  -999.2500
  123.0000   -55.7050     4.9428     5.1925   218.5093  -999.2500
  123.5000   -55.8682     5.0828     5.2231   216.1774  -999.2500
  124.0000   -55.8745     5.2351     5.2533   213.8462  -999.2500
  124.5000   -55.8807     5.3108     5.2681   213.0847  -999.2500
  125.0000   -55.8870     5.3060     5.2986   212.3234  -999.2500
  125.5000   -55.4223     5.3807     5.3451   210.7562  -999.2500
  126.0000   -54.7943     5.3768     5.3911   207.6192  -999.2500
  126.5000   -53.6891     5.4515     5.3902   204.4821  -999.2500
  127.0000   -53.5322     5.5262     5.3578   202.9978  -999.2500
  127.5000   -53.5645     5.5223     5.3411   202.1322  -999.2500
  128.0000   -53.5707     5.5980     5.3716   200.6898  -999.2500
  128.5000   -53.5770     5.6728     5.4021   199.7828  -999.2500
  129.0000   -53.7402     5.6679     5.4641   197.6027  -999.2500
  129.5000   -54.2174     5.6640     5.5260   196.8412  -999.2500
  130.0000   -54.3791     5.7397     5.6194   194.5039  -999.2500
  130.5000   -54.2283     5.7348     5.6502   191.3935  -999.2500
  131.0000   -53.7652     5.8098     5.6805   188.2713  -999.2500
  131.5000   -53.6129     5.8057     5.7267   184.3759  -999.2500
  132.0000   -53.9347     5.8805     5.7729   180.4746  -999.2500
  132.5000   -54.0979     5.9552     5.8506   177.3583  -999.2500
  133.0000   -54.1042     6.0298     5.9597   175.0269  -999.2500
  133.5000   -54.1104     6.1046     6.0688   172.6897  -999.2500
  134.0000   -54.1166     6.2579     6.1950   170.3641  -999.2500
  134.5000   -54.1229     6.2539     6.1456   168.8118  -999.2500
  135.0000   -53.9706     6.2500     6.0975   167.2653  -999.2500
  135.5000   -53.5075     6.2460     6.0494   171.2192  -999.2500
  136.0000   -53.3552     6.1628     6.0325   178.3070  -999.2500
  136.5000   -53.3630     6.0016     6.0154   185.3947  -999.2500
  137.0000   -53.3692     5.8405     5.9827   194.0523  -999.2500
  137.5000   -53.3755     5.6794     5.8189   203.4949  -999.2500
  138.0000   -53.2245     5.3610     5.4718   211.3676  -999.2500
  138.5000   -53.0738     5.0427     5.3068   219.2402  -999.2500
  139.0000   -52.9230     4.5671     5.1453   227.1129  -999.2500
  139.5000   -52.9295     4.4060     4.9725   232.6308  -999.2500
  140.0000   -52.7787     4.4021     4.8301   235.7939  -999.2500
  140.5000   -52.7850     4.4778     4.7505   234.2475  -999.2500
