~VERSION INFORMATION
 VERS.                2.0:   CWLS LOG ASCII STANDARD - VERSION 2.0
 WRAP.                 NO:   ONE LINE PER DEPTH STEP
~WELL INFORMATION
#MNEM.UNIT      DATA TYPE    INFORMATION
#----------   ------------   ------------------------------
 STRT.F           32.0000:   START DEPTH
 STOP.F          812.0000:   STOP DEPTH
 STEP.F            0.5000:   STEP LENGTH
 NULL.          -999.2500:   NO VALUE
 COMP. FENIX & SCISSON INC:   COMPANY
 WELL.       75 SX #15-15:   WELL
 FLD .             TEAPOT:   FIELD
 LOC .      S15 T38N R78W:   LOCATION
 CNTY.            NATRONA:   COUNTY
 STAT.            WYOMING:   STATE
 CTRY. UNITED STATES OF AMERICA:   COUNTRY
 SRVC.              Welex:   SERVICE COMPANY
 DATE.        28-FEB-1977:   LOGDATE
 API .       490251030100:   API NUMBER
~CURVE INFORMATION
#MNEM.UNIT       API CODE    CURVE DESCRIPTION
#----------   ------------   ------------------------------
 DEPT.F                  :   
 SPR .MV     07 010 01 00:   SPONTANEOUS POTENTIAL
 ILD .OHMM   07 120 46 00:   INDUCTION LOG DEEP
 SGRD.OHMM   07 220 05 00:   SHALLOW RESISTIVITY
 ILM .OHMM   07 120 44 00:   INDUCTION LOG MEDIUM
 GRD .GAPI   45 310 01 00:   GAMMA RAY FROM DENSITY LOG
 CALD.IN     45 280 60 00:   CALIPER FROM DENSITY LOG
 RHOB.G/C3   45 350 01 00:   BULK DENSITY
 DPHI.DEC    45 890 12 00:   DENSITY POROSITY SANDSTONE
 CORR.G/C3   45 356 01 00:   DENSITY CORRECTION
~PARAMETER INFORMATION
#MNEM.UNIT          VALUE    DESCRIPTION
#----------   ------------   ------------------------------
 PD  .                 GL:   PERMANENT DATUM
 EPD .F              5264:   ELEVATION PERMANENT DATUM
 LMF .                 GL:   LOG MEASURED FROM
 DMF .                 GL:   DRILLING MEASURED FROM
 EGL .F              5264:   GROUND LEVEL
 DATE.          2-28-1977:   RUN DATE
 RUN .                  1:   RUN NUMBER
 DD  .F               830:   DEPTH DRILLER
 DL  .F               814:   DEPTH LOGGER
 BLI .F               812:   BOTTOM LOG INTERVAL
 TLI .F                42:   TOP LOG INTERVAL
 CS  .IN            8.625:   CASING SIZE
 CBD .F                40:   CASING BOTTOM DRILLER
 CBL .F                42:   CASING BOTTOM LOGGER
 BS  .IN            7.875:   BIT SIZE
 BSD .F               830:   BIT SIZE AT DEPTH
 DFT .           CHEM-GEL:   DRILLING FLUID TYPE
 DFD .                9.3:   DRILLING FLUID DENSITY
 DFV .                 38:   DRILLING FLUID VISCOSITY
 DFPH.               10.5:   DRILLING FLUID PH
 DFL .               16.2:   DRILLING FLUID LOSS
 MSS .          FLOW LINE:   MUD SAMPLE SOURCE
 RMS .OHMM           0.44:   RESISTIVITY MUD SAMPLE
 MST .F                62:   MUD SAMPLE TEMPERATURE
 RMF .OHMM            .38:   RESISTIVITY MUD FILTRATE SAMPLE
 MFST.F                62:   MUD FILTRATE SAMPLE TEMPERATURE
 RMC .OHMM           0.79:   RESISTIVITY MUD CAKE
 MCST.F                62:   MUD CAKE SAMPLE TEMPERATURE
 MFSS.           MEASURED:   MUD FILTRATE SAMPLE SOURCE
 MCSS.           MEASURED:   MUD CAKE SAMPLE SOURCE
 RMB .OHMM           .368:   RESISTIVITY MUD AT BHT
 BHT .F                74:   BOTTOM HOLE TEMPERATURE
 TCS .HRS               3:   TIME CURCULATED STOPPED
 MRT .F                74:   MAXIMUM RECORDED TEMPERATURE
 LUN .               8611:   LOGGING UNIT NUMBER
 LUL .           GILLETTE:   LOGGING UNIT LOCATION
 ENGI.               DOAK:   RECORDING ENGINEER
 WITN.               JAPP:   WITNESSED BY
 CLNT.            A2DTECH:   CLIENT CODE
 ORIG.       2", 5" PRINT:   ORIGIN OF DATA
 UWI .       490251030100:   UNIQUE WELL ID
 DICO. A2D Technologies, Inc.:   DIGITIZING COMPANY
~OTHER INFORMATION
~A   DEPT      SPR        ILD       SGRD        ILM         GRD        CALD       RHOB       DPHI      CORR  
# ...
  141.5000   -49.2304     4.7383     6.6367     4.9879   113.1103     7.8285     2.4004     0.1483     0.0376
  142.0000   -49.6139     4.5665     6.0678     4.7928   112.4403     7.8333     2.3898     0.1551     0.0383
  142.5000   -49.9536     4.4010     6.3039     4.6054   111.8320     7.8382     2.3780     0.1619     0.0382
  143.0000   -50.2798     4.2415     6.6407     4.4251   114.7576     7.8331     2.3616     0.1697     0.0345
  143.5000   -50.6046     4.0878     6.7769     4.2519   117.9078     7.8236     2.3452     0.1787     0.0308
  144.0000   -50.9296     3.9396     5.2592     4.0858   118.1829     7.8139     2.3287     0.1878     0.0299
  144.5000   -51.2546     3.7968     4.1166     3.9722   117.1837     7.8042     2.3348     0.1914     0.0321
  145.0000   -51.5796     3.6592     4.9229     4.0215   115.9018     7.7946     2.3445     0.1811     0.0343
  145.5000   -51.9047     3.5266     6.1239     4.0601   113.3363     7.7850     2.3538     0.1763     0.0366
  146.0000   -52.2303     3.3988     5.9630     4.0990   111.2450     7.7792     2.3505     0.1747     0.0388
  146.5000   -52.5545     3.2756     5.5384     4.1213   111.1382     7.7793     2.3400     0.1802     0.0407
  147.0000   -52.7995     3.1569     5.0024     3.8068   111.4972     7.7819     2.3260     0.1908     0.0385
  147.5000   -52.7947     3.0424     4.5183     3.6016   113.4814     7.7929     2.3118     0.2014     0.0362
  148.0000   -52.7949     2.9319     4.3787     3.4075   115.6619     7.8034     2.2977     0.2090     0.0340
  148.5000   -52.8009     2.8251     4.3541     3.2236   117.8539     7.8140     2.2910     0.2141     0.0318
  149.0000   -52.5384     2.7992     3.9740     3.0488   119.0981     7.8245     2.2845     0.2193     0.0277
  149.5000   -52.2151     2.7992     3.6203     2.9574   119.3891     7.8351     2.2780     0.2205     0.0226
  150.0000   -51.8910     2.9001     3.3016     3.1563   118.7409     7.8457     2.2862     0.2211     0.0170
  150.5000   -51.5676     3.0561     3.8272     3.4092   117.4767     7.8571     2.3178     0.2016     0.0157
  151.0000   -51.2441     3.2205     5.7762     3.6823   112.8169     7.8332     2.3482     0.1802     0.0167
  151.5000   -50.9189     3.3938     7.0291     3.9773   107.8449     7.7992     2.3786     0.1588     0.0178
  152.0000   -50.6067     3.5764     6.2378     4.2960   104.9531     7.7792     2.3949     0.1515     0.0189
  152.5000   -50.5968     3.7688     6.2664     4.5704   107.5139     7.7790     2.3895     0.1544     0.0200
  153.0000   -50.6023     3.9716     6.3133     4.6137   109.6408     7.8000     2.3846     0.1572     0.0211
  153.5000   -50.8390     4.0835     6.3606     4.6569   110.5649     7.8292     2.3797     0.1601     0.0221
  154.0000   -51.3864     4.0835     6.4125     4.6867   111.1407     7.8580     2.3748     0.1630     0.0232
  154.5000   -51.9350     4.0160     6.1206     4.6480   111.8216     7.8590     2.3688     0.1658     0.0243
  155.0000   -52.4581     3.7929     5.8152     4.3977   114.9716     7.8589     2.3580     0.1696     0.0253
  155.5000   -52.7900     3.5823     5.5250     4.1827   118.1771     7.8589     2.3474     0.1758     0.0264
  156.0000   -53.1310     3.3833     5.2493     3.9676   121.3775     7.8590     2.3368     0.1820     0.0269
  156.5000   -53.4756     3.1954     5.0286     3.7647   124.5825     7.8583     2.3264     0.1882     0.0269
  157.0000   -53.5902     3.0180     4.9548     3.5443   126.6594     7.8340     2.3234     0.1929     0.0269
  157.5000   -53.5236     2.8502     4.5962     3.3126   128.7086     7.8081     2.3205     0.1954     0.0268
  158.0000   -53.3769     2.6922     4.2178     3.0944   130.7696     7.7824     2.3104     0.2039     0.0235
  158.5000   -53.2332     2.5069     3.7522     2.8908   132.8340     7.7792     2.2922     0.2150     0.0166
  159.0000   -52.8521     2.5448     3.2539     2.6244   134.9388     7.7793     2.2740     0.2262     0.0097
  159.5000   -52.4000     2.5956     2.8278     2.7930   135.3497     7.7793     2.2566     0.2329     0.0062
  160.0000   -52.0549     2.6492     3.2932     3.1182   131.5519     7.7793     2.2545     0.2277     0.0052
  160.5000   -51.7147     2.8720     4.6981     3.4784   128.7951     7.7793     2.3047     0.2035     0.0092
  161.0000   -51.3908     3.1114     7.3111     3.8802   123.3711     7.7793     2.3442     0.1806     0.0133
  161.5000   -51.1539     3.3697     7.3087     4.3282   116.7967     7.7793     2.3836     0.1572     0.0173
  162.0000   -50.9260     3.7636     7.3464     4.8280   116.1305     7.7794     2.4142     0.1418     0.0214
  162.5000   -50.6986     4.2178     7.3689     5.2523   115.8423     7.7848     2.4053     0.1341     0.0229
  163.0000   -50.4711     4.7269     7.3947     5.4568   114.4275     7.7906     2.3974     0.1371     0.0229
  163.5000   -50.2435     5.1064     7.4206     5.6634   112.3711     7.7963     2.3920     0.1392     0.0229
  164.0000   -50.0160     5.3755     7.5704     5.8784   111.0193     7.8020     2.4028     0.1356     0.0229
  164.5000   -49.7884     5.6588     7.8074     6.1048   109.9927     7.8077     2.4134     0.1319     0.0229
  165.0000   -49.5607     5.9570     8.0501     6.3963   109.0701     7.8134     2.4240     0.1283     0.0229
  165.5000   -49.3336     6.2378     8.3025     6.7413   108.7290     7.8192     2.4339     0.1249     0.0229
  166.0000   -49.1059     6.4949     8.9199     7.1027   107.9231     7.8249     2.4383     0.1229     0.0229
  166.5000   -49.0088     6.7903     9.7423     7.4995   107.1032     7.8306     2.4425     0.1211     0.0244
  167.0000   -48.9551     7.0986    10.8467     7.6837   106.2849     7.8364     2.4467     0.1193     0.0273
  167.5000   -48.8550     7.3368    10.7715     7.8807   105.4855     7.8336     2.4507     0.1136     0.0301
  168.0000   -48.9745     7.5209    10.6393     8.0827   105.4491     7.8239     2.4646     0.1069     0.0330
  168.5000   -49.1000     7.7104    10.8045     8.2899   106.7574     7.8141     2.4808     0.1002     0.0359
  169.0000   -49.2243     7.9256    11.1651     8.5030   107.9360     7.8042     2.4844     0.0972     0.0387
  169.5000   -49.3484     7.8626    11.3509     8.6020   107.9581     7.7983     2.4769     0.1012     0.0377
  170.0000   -49.4726     7.7731    11.2339     8.4742   107.9538     7.7966     2.4688     0.1062     0.0365
  170.5000   -49.5967     7.6846    11.0149     8.3838   107.9459     7.7949     2.4625     0.1070     0.0353
  171.0000   -49.7208     7.5970    10.8142     8.2948   108.4730     7.7931     2.4627     0.1081     0.0341
  171.5000   -49.8449     7.5105    10.6776     8.2068   109.4093     7.7914     2.4625     0.1091     0.0329
  172.0000   -49.9690     7.4249    10.5425     8.1197   112.0777     7.7896     2.4609     0.1102     0.0318
  172.5000   -50.0933     7.3611    10.4089     8.0729   116.1828     7.7879     2.4588     0.1106     0.0306
  173.0000   -50.2171     7.3567    10.2777     8.2699   120.1459     7.7861     2.4596     0.1106     0.0294
  173.5000   -50.3413     7.3522    10.1632     8.4078   121.0611     7.7844     2.4656     0.1092     0.0281
  174.0000   -50.4148     7.3477    10.3875     8.5480   120.3380     7.7826     2.4723     0.1064     0.0270
  174.5000   -50.4470     7.3431    10.6358     8.6105   121.9243     7.7805     2.4812     0.1006     0.0291
  175.0000   -50.4779     7.3385    10.7523     8.5316   123.5219     7.7814     2.4901     0.0947     0.0315
  175.5000   -50.5089     7.3340    10.7822     8.4055   121.0433     7.8241     2.4990     0.0889     0.0340
  176.0000   -50.5401     7.3294    10.8122     8.2516   118.6208     7.8657     2.5071     0.0831     0.0364
  176.5000   -50.5715     7.3249    10.8400     8.1004   116.8226     7.9069     2.5107     0.0794     0.0388
  177.0000   -50.5887     7.3203    10.6943     7.9520   118.7306     7.9481     2.4997     0.0852     0.0403
  177.5000   -50.4935     7.3158    10.5314     7.8529   123.0331     7.9893     2.4879     0.0932     0.0356
