~VERSION INFORMATION
 VERS.                2.0:   CWLS LOG ASCII STANDARD - VERSION 2.0
 WRAP.                 NO:   ONE LINE PER DEPTH STEP
~WELL INFORMATION
#MNEM.UNIT      DATA TYPE    INFORMATION
#----------   ------------   ------------------------------
 STRT.F          600.0000:   START DEPTH
 STOP.F         2218.0000:   STOP DEPTH
 STEP.F            0.5000:   STEP LENGTH
 NULL.          -999.2500:   NO VALUE
 COMP. US DEPTMNT OF ENRGY:   COMPANY
 WELL.   37 STX 10 #37-10:   WELL
 FLD .             TEAPOT:   FIELD
 LOC .      S10 T38N R78W:   LOCATION
 CNTY.            NATRONA:   COUNTY
 STAT.            WYOMING:   STATE
 CTRY. UNITED STATES OF AMERICA:   COUNTRY
 SRVC.            Unknown:   SERVICE COMPANY
 DATE.        15-MAY-1991:   LOGDATE
 API .       490251094200:   API NUMBER
~CURVE INFORMATION
#MNEM.UNIT       API CODE    CURVE DESCRIPTION
#----------   ------------   ------------------------------
 DEPT.F                  :   
 TGAS.UNITS  91 830 01 00:   TOTAL GAS FROM HOTWIRE
 ROP .MIN/FT 91 810 01 00:   RATE OF DRILLING PENETRATION
~PARAMETER INFORMATION
#MNEM.UNIT          VALUE    DESCRIPTION
#----------   ------------   ------------------------------
 EKB .F              5231:   KELLING BUSHING
 EGL .F              5221:   GROUND LEVEL
 DATE.            5-15-91:   RUN DATE
 DD  .F              2218:   DEPTH DRILLER
 BLI .F              2218:   BOTTOM LOG INTERVAL
 TLI .F               960:   TOP LOG INTERVAL
 ENGI.              TOWER:   RECORDING ENGINEER
 WITN.               HUSK:   WITNESSED BY
 CLNT.            A2DTECH:   CLIENT CODE
 ORIG.           5" PRINT:   ORIGIN OF DATA
 UWI .       490251094200:   UNIQUE WELL ID
 DICO. A2D Technologies, Inc.:   DIGITIZING COMPANY
~OTHER INFORMATION
~A   DEPT     TGAS          ROP 
# ...
 1329.0000    32.6623     0.5786
 1329.5000    32.5544     0.5777
 1330.0000    32.4465     0.5769
 1330.5000    32.3386     0.5761
 1331.0000    32.2307     0.5816
 1331.5000    32.1228     0.6036
 1332.0000    32.0149     0.6216
 1332.5000    31.9070     0.6367
 1333.0000    31.7991     0.6538
 1333.5000    31.6912     0.6591
 1334.0000    31.5833     0.6582
 1334.5000    31.4754     0.6574
 1335.0000    31.3675     0.6566
 1335.5000    31.2596     0.6345
 1336.0000    31.1517     0.6070
 1336.5000    31.0438     0.5753
 1337.0000    30.9359     0.5319
 1337.5000    30.8280     0.4985
 1338.0000    30.7201     0.4867
 1338.5000    30.6122     0.4859
 1339.0000    30.5043     0.4851
 1339.5000    30.3964     0.4843
 1340.0000    30.2885     0.4725
 1340.5000    30.3154     0.4739
 1341.0000    30.3423     0.4754
 1341.5000    30.3693     0.4768
 1342.0000    30.3962     0.4782
 1342.5000    30.4231     0.4796
 1343.0000    30.4501     0.4811
 1343.5000    30.4770     0.4816
 1344.0000    30.5039     0.4813
 1344.5000    30.5309     0.4810
 1345.0000    30.5578     0.4876
 1345.5000    30.5847     0.4987
 1346.0000    30.6117     0.5172
 1346.5000    30.6386     0.5161
 1347.0000    30.6655     0.4963
 1347.5000    30.6925     0.4734
 1348.0000    30.7194     0.4351
 1348.5000    30.7463     0.4239
 1349.0000    30.7733     0.4456
 1349.5000    30.8002     0.4673
 1350.0000    30.8271     0.4890
 1350.5000    30.8541     0.4997
 1351.0000    30.8810     0.5104
 1351.5000    30.9079     0.5212
 1352.0000    30.9349     0.5429
 1352.5000    30.9618     0.5426
 1353.0000    30.9887     0.5433
 1353.5000    31.0157     0.5531
 1354.0000    31.0426     0.5544
 1354.5000    31.0695     0.5654
 1355.0000    31.0965     0.5765
 1355.5000    31.1234     0.5849
 1356.0000    31.1503     0.5875
 1356.5000    31.1773     0.5953
 1357.0000    31.2042     0.5951
 1357.5000    31.2311     0.5987
 1358.0000    31.2581     0.6055
 1358.5000    31.2850     0.6052
 1359.0000    31.3119     0.6049
 1359.5000    31.3389     0.6047
 1360.0000    31.3702     0.6044
 1360.5000    31.3474     0.6041
 1361.0000    31.3201     0.6038
 1361.5000    31.2928     0.6036
 1362.0000    31.2656     0.6033
 1362.5000    31.2383     0.6101
 1363.0000    31.2110     0.6212
 1363.5000    31.1838     0.6245
 1364.0000    31.1565     0.6242
 1364.5000    31.1292     0.6239
 1365.0000    31.1020     0.6236
 1365.5000    31.0747     0.6233
 1366.0000    31.0475     0.6230
 1366.5000    31.0202     0.6228
 1367.0000    30.9929     0.6225
 1367.5000    30.9657     0.6222
 1368.0000    30.9384     0.6220
 1368.5000    30.9111     0.6107
 1369.0000    30.8839     0.5876
 1369.5000    30.8566     0.5546
 1370.0000    30.8293     0.5430
 1370.5000    30.8021     0.5327
 1371.0000    30.7748     0.5434
 1371.5000    30.7476     0.5450
 1372.0000    30.7203     0.5539
 1372.5000    30.6930     0.5536
 1373.0000    30.6658     0.5533
 1373.5000    30.6385     0.5530
 1374.0000    30.6112     0.5527
 1374.5000    30.5840     0.5525
 1375.0000    30.5567     0.5522
 1375.5000    30.5294     0.5519
 1376.0000    30.5022     0.5469
 1376.5000    30.4749     0.5404
 1377.0000    30.4477     0.5401
 1377.5000    30.4204     0.5456
 1378.0000    30.3931     0.5687
 1378.5000    30.3659     0.6151
 1379.0000    30.3386     0.6780
 1379.5000    30.3113     0.7386
 1380.0000    30.2796     0.7949
 1380.5000    30.2808     0.7644
 1381.0000    30.2822     0.7387
 1381.5000    30.2836     0.7043
 1382.0000    30.2850     0.6729
 1382.5000    30.2864     0.6566
 1383.0000    30.2878     0.6523
 1383.5000    30.2892     0.6445
 1384.0000    30.2906     0.6440
 1384.5000    30.2920     0.6481
 1385.0000    30.2934     0.6538
 1385.5000    30.2948     0.6533
 1386.0000    30.2962     0.6527
 1386.5000    30.2976     0.6582
 1387.0000    30.2990     0.6626
 1387.5000    30.3004     0.6687
 1388.0000    30.3018     0.6725
 1388.5000    30.3032     0.6720
 1389.0000    30.3046     0.6790
 1389.5000    30.3060     0.6819
 1390.0000    30.3074     0.6813
 1390.5000    30.3088     0.6808
 1391.0000    30.3102     0.6801
 1391.5000    30.3116     0.6796
 1392.0000    30.3130     0.6900
 1392.5000    30.3144     0.6895
 1393.0000    30.3158     0.7109
 1393.5000    30.3172     0.7434
 1394.0000    30.3186     0.7758
 1394.5000    30.3200     0.7863
 1395.0000    30.3214     0.7166
 1395.5000    30.3228     0.6408
 1396.0000    30.3242     0.6198
 1396.5000    30.3256     0.6192
 1397.0000    30.3270     0.6187
 1397.5000    30.3284     0.6181
 1398.0000    30.3298     0.6176
 1398.5000    30.3312     0.6143
 1399.0000    30.3326     0.6055
 1399.5000    30.3340     0.6049
 1400.0000    30.3895     0.6162
 1400.5000    30.4859     0.6521
 1401.0000    30.5823     0.6923
 1401.5000    30.6787     0.6929
 1402.0000    30.7752     0.6936
 1402.5000    30.8716     0.6944
 1403.0000    30.9680     0.6951
 1403.5000    31.0644     0.6958
 1404.0000    31.1608     0.6965
 1404.5000    31.2572     0.6972
 1405.0000    31.3537     0.6979
 1405.5000    31.4501     0.6986
 1406.0000    31.5465     0.6993
 1406.5000    31.6429     0.7000
 1407.0000    31.7525     0.7007
 1407.5000    31.8118     0.7015
 1408.0000    31.8806     0.7022
 1408.5000    31.9493     0.7029
 1409.0000    32.0181     0.7169
 1409.5000    32.0868     0.7458
 1410.0000    32.1555     0.7734
 1410.5000    32.2243     0.7859
 1411.0000    32.2930     0.7470
 1411.5000    32.3618     0.6969
 1412.0000    32.4305     0.6692
 1412.5000    32.4992     0.6530
 1413.0000    32.5680     0.6418
 1413.5000    32.6367     0.6306
 1414.0000    32.7054     0.6264
 1414.5000    32.7742     0.6191
 1415.0000    32.8429     0.6154
 1415.5000    32.9117     0.6154
 1416.0000    32.9804     0.6154
 1416.5000    33.0491     0.6154
 1417.0000    33.1179     0.6239
 1417.5000    33.1866     0.6374
 1418.0000    33.2553     0.6484
 1418.5000    33.3241     0.6703
 1419.0000    33.3928     0.6813
 1419.5000    33.4616     0.6703
 1420.0000    33.5358     0.6484
 1420.5000    33.6857     0.6154
 1421.0000    33.8487     0.6154
 1421.5000    34.0117     0.6154
 1422.0000    34.1746     0.6154
 1422.5000    34.3376     0.6157
 1423.0000    34.5006     0.6270
 1423.5000    34.6636     0.6382
 1424.0000    34.8265     0.6484
 1424.5000    34.9895     0.6497
 1425.0000    35.1525     0.6641
 1425.5000    35.3155     0.6979
 1426.0000    35.4784     0.7295
 1426.5000    35.6414     0.7496
 1427.0000    35.8044     0.7635
 1427.5000    35.9674     0.7831
 1428.0000    36.1303     0.7912
 1428.5000    36.2933     0.7912
 1429.0000    36.4563     0.7912
 1429.5000    36.6193     0.7912
 1430.0000    36.7822     0.7830
 1430.5000    36.9452     0.7649
 1431.0000    37.1082     0.7490
 1431.5000    37.2712     0.7265
 1432.0000    37.4341     0.7040
 1432.5000    37.5971     0.6869
 1433.0000    37.7601     0.6813
 1433.5000    37.9231     0.6813
 1434.0000    38.0860     0.6813
 1434.5000    38.2490     0.6813
 1435.0000    38.4120     0.6880
 1435.5000    38.5750     0.6992
 1436.0000    38.7379     0.7104
 1436.5000    38.9009     0.7217
 1437.0000    39.0639     0.7329
 1437.5000    39.2269     0.7363
 1438.0000    39.3898     0.7363
 1438.5000    39.5528     0.7363
 1439.0000    39.7158     0.7363
 1439.5000    39.8788     0.7363
 1440.0000    40.0152     0.7363
 1440.5000    39.9842     0.7363
 1441.0000    39.9575     0.6813
 1441.5000    39.9307     0.6593
 1442.0000    39.9040     0.6482
 1442.5000    39.8773     0.6374
 1443.0000    39.8506     0.6374
 1443.5000    39.8239     0.6374
 1444.0000    39.7972     0.6374
 1444.5000    39.7705     0.6358
 1445.0000    39.7437     0.6264
 1445.5000    39.7170     0.6264
 1446.0000    39.6903     0.6240
 1446.5000    39.6636     0.6180
 1447.0000    39.6369     0.6264
 1447.5000    39.6102     0.6264
 1448.0000    39.5834     0.6299
 1448.5000    39.5567     0.6411
 1449.0000    39.5300     0.6564
 1449.5000    39.5033     0.6789
 1450.0000    39.4766     0.7060
