~VERSION INFORMATION
 VERS.                2.0:   CWLS LOG ASCII STANDARD - VERSION 2.0
 WRAP.                 NO:   ONE LINE PER DEPTH STEP
~WELL INFORMATION
#MNEM.UNIT      DATA TYPE    INFORMATION
#----------   ------------   ------------------------------
 STRT.F           52.5000:   START DEPTH
 STOP.F         2929.0000:   STOP DEPTH
 STEP.F            0.5000:   STEP LENGTH
 NULL.          -999.2500:   NO VALUE
 COMP.   FLUOR DANIEL INC:   COMPANY
 WELL. NAVAL PETROLEUM RESERVE 3 X-23 #52-23:   WELL
 FLD .            WILDCAT:   FIELD
 LOC .      S23 T38N R78W:   LOCATION
 CNTY.            NATRONA:   COUNTY
 STAT.            WYOMING:   STATE
 CTRY. UNITED STATES OF AMERICA:   COUNTRY
 SRVC.            Unknown:   SERVICE COMPANY
 DATE.        23-APR-1995:   LOGDATE
 API .       490252271500:   API NUMBER
~CURVE INFORMATION
#MNEM.UNIT       API CODE    CURVE DESCRIPTION
#----------   ------------   ------------------------------
 DEPT.F                  :   
 ROP .MIN/FT 91 810 01 00:   RAT OF DRILLING PENETRATION
 TGAS.UNITS  91 830 01 00:   TOTAL GAS FROM HOTWIRE
~PARAMETER INFORMATION
#MNEM.UNIT          VALUE    DESCRIPTION
#----------   ------------   ------------------------------
 EKB .F              5344:   KELLING BUSHING
 EGL .F              5334:   GROUND LEVEL
 DATE.            4-23-95:   RUN DATE
 DD  .F              2929:   DEPTH DRILLER
 CS  .IN            9.625:   CASING SIZE
 CBD .F                53:   CASING BOTTOM DRILLER
 BS  .IN             8.75:   BIT SIZE
 BSD .F              2929:   BIT SIZE AT DEPTH
 ENGI.              TOWER:   RECORDING ENGINEER
 WITN.               HUSK:   WITNESSED BY
 CLNT.            A2DTECH:   CLIENT CODE
 ORIG.           5" PRINT:   ORIGIN OF DATA
 UWI .       490252271500:   UNIQUE WELL ID
 DICO. A2D Technologies, Inc.:   DIGITIZING COMPANY
~OTHER INFORMATION
~A   DEPT        ROP     TGAS   
   52.5000     0.8054  -999.2500
   53.0000     0.8054  -999.2500
   53.5000     0.8054     0.4296
   54.0000     0.8054     0.3966
   54.5000     0.8054     0.3631
   55.0000     0.8054     0.3296
   55.5000     0.8054     0.2961
   56.0000     0.8054     0.2626
   56.5000     0.8054     0.2291
   57.0000     0.8054     0.2148
   57.5000     0.8054     0.2148
   58.0000     0.8054     0.2148
   58.5000     0.8054     0.2148
   59.0000     0.7950     0.2148
   59.5000     0.7950     0.2148
   60.0000     0.7950     0.2148
   60.5000     0.7950     0.2148
   61.0000     0.7950     0.2148
   61.5000     0.7950     0.2148
   62.0000     0.7950     0.2148
   62.5000     0.7950     0.2148
   63.0000     0.7950     0.2148
   63.5000     0.7950     0.2148
   64.0000     0.7950     0.2148
   64.5000     0.7950     0.2148
   65.0000     0.7950     0.2148
   65.5000     0.7950     0.2148
   66.0000     0.7950     0.2148
   66.5000     0.7950     0.2148
   67.0000     0.7950     0.2148
   67.5000     0.7950     0.2148
   68.0000     0.5021     0.2148
   68.5000     0.5026     0.2148
   69.0000     0.5030     0.2148
   69.5000     0.5034     0.2148
   70.0000     0.5039     0.2148
   70.5000     0.5043     0.2148
   71.0000     0.5047     0.2148
   71.5000     0.5052     0.2148
   72.0000     0.5056     0.2148
   72.5000     0.5060     0.2148
   73.0000     0.5065     0.2148
   73.5000     0.5069     0.2148
   74.0000     0.5073     0.2148
   74.5000     0.5077     0.2148
   75.0000     0.5082     0.2148
   75.5000     0.5086     0.2148
   76.0000     0.5090     0.2148
   76.5000     0.5095     0.2148
   77.0000     0.5099     0.2148
   77.5000     0.5103     0.2148
   78.0000     0.5108     0.2148
   78.5000     0.5112     0.2148
   79.0000     0.5116     0.2148
   79.5000     0.5120     0.2148
   80.0000     0.5126     0.2148
   80.5000     0.5136     0.2148
   81.0000     0.5150     0.2148
   81.5000     0.5163     0.2148
   82.0000     0.5176     0.2148
   82.5000     0.5189     0.2148
   83.0000     0.5202     0.2148
   83.5000     0.5215     0.2148
   84.0000     0.5228     0.2148
   84.5000     0.5242     0.2148
   85.0000     0.5255     0.2148
   85.5000     0.5268     0.2148
   86.0000     0.5281     0.2148
   86.5000     0.5294     0.2148
   87.0000     0.5307     0.2148
   87.5000     0.5320     0.2148
   88.0000     0.5334     0.2148
   88.5000     0.5347     0.2148
   89.0000     0.5360     0.2148
   89.5000     0.5373     0.2148
   90.0000     0.5386     0.2148
   90.5000     0.5399     0.2148
   91.0000     0.5412     0.2148
   91.5000     0.5426     0.2148
   92.0000     0.5439     0.2148
   92.5000     0.5452     0.2148
   93.0000     0.5465     0.2148
   93.5000     0.5478     0.2148
   94.0000     0.5491     0.2148
   94.5000     0.5504     0.2148
   95.0000     0.5518     0.2148
   95.5000     0.5531     0.2148
   96.0000     0.5544     0.2148
   96.5000     0.5557     0.2148
   97.0000     0.5570     0.2148
   97.5000     0.5583     0.2148
   98.0000     0.5596     0.2148
   98.5000     0.5610     0.2148
   99.0000     0.5623     0.2148
   99.5000     0.5636     0.2366
  100.0000     0.5648     0.4296
  100.5000     0.5639     0.3958
  101.0000     0.5631     0.3591
  101.5000     0.5623     0.3224
  102.0000     0.5616     0.2857
  102.5000     0.5608     0.2490
  103.0000     0.5600     0.2148
  103.5000     0.5592     0.2148
  104.0000     0.5584     0.2148
  104.5000     0.5576     0.2148
  105.0000     0.5568     0.2148
  105.5000     0.5560     0.2148
  106.0000     0.5552     0.2148
  106.5000     0.5544     0.2148
  107.0000     0.5536     0.2148
  107.5000     0.5528     0.2148
  108.0000     0.5520     0.2148
  108.5000     0.5512     0.2148
  109.0000     0.5504     0.2148
  109.5000     0.5497     0.2148
  110.0000     0.5489     0.2148
  110.5000     0.5481     0.2148
  111.0000     0.5473     0.2148
  111.5000     0.5465     0.2148
  112.0000     0.5457     0.2148
  112.5000     0.5449     0.2148
  113.0000     0.5441     0.2148
  113.5000     0.5433     0.2148
  114.0000     0.5425     0.2148
  114.5000     0.5417     0.2148
  115.0000     0.5409     0.2148
  115.5000     0.5401     0.2148
  116.0000     0.5393     0.2148
  116.5000     0.5385     0.2148
  117.0000     0.5377     0.2148
  117.5000     0.5370     0.2148
  118.0000     0.5362     0.2148
  118.5000     0.5354     0.2148
  119.0000     0.5346     0.2148
  119.5000     0.5338     0.2148
  120.0000     0.5335     0.2148
  120.5000     0.5340     0.2148
  121.0000     0.5345     0.2148
  121.5000     0.5350     0.2148
  122.0000     0.5356     0.2148
  122.5000     0.5361     0.2148
  123.0000     0.5366     0.2148
  123.5000     0.5371     0.2148
  124.0000     0.5377     0.2148
  124.5000     0.5382     0.2148
  125.0000     0.5387     0.2148
  125.5000     0.5392     0.2148
  126.0000     0.5397     0.2148
  126.5000     0.5403     0.2148
  127.0000     0.5408     0.2148
  127.5000     0.5309     0.2148
  128.0000     0.4791     0.2148
  128.5000     0.4587     0.2148
  129.0000     0.4697     0.2148
  129.5000     0.4702     0.2148
  130.0000     0.4708     0.2148
  130.5000     0.4713     0.2148
  131.0000     0.4718     0.2148
  131.5000     0.4723     0.2148
  132.0000     0.4729     0.2148
  132.5000     0.4734     0.2148
  133.0000     0.4739     0.2148
  133.5000     0.4744     0.2148
  134.0000     0.4749     0.2148
  134.5000     0.4754     0.2148
  135.0000     0.4759     0.2148
  135.5000     0.4766     0.2148
  136.0000     0.4771     0.2148
  136.5000     0.4776     0.2148
  137.0000     0.4781     0.2148
  137.5000     0.4786     0.2148
  138.0000     0.4791     0.2148
  138.5000     0.4796     0.2148
  139.0000     0.4801     0.2148
  139.5000     0.4807     0.2148
  140.0000     0.4812     0.2148
  140.5000     0.4797     0.2148
  141.0000     0.4781     0.2148
  141.5000     0.4766     0.2148
  142.0000     0.4751     0.2148
  142.5000     0.4736     0.2148
  143.0000     0.4721     0.2148
  143.5000     0.4706     0.2148
  144.0000     0.4690     0.2148
  144.5000     0.4675     0.2148
  145.0000     0.4660     0.2148
  145.5000     0.4645     0.2148
  146.0000     0.4630     0.2148
  146.5000     0.4615     0.2148
  147.0000     0.4599     0.2148
  147.5000     0.4584     0.2148
  148.0000     0.4569     0.2148
  148.5000     0.4558     0.2148
  149.0000     0.4555     0.2148
  149.5000     0.4448     0.2148
  150.0000     0.4132     0.2148
  150.5000     0.4025     0.2148
  151.0000     0.4022     0.2148
  151.5000     0.4019     0.2148
  152.0000     0.4016     0.2148
  152.5000     0.4014     0.2148
  153.0000     0.4011     0.2148
  153.5000     0.4015     0.2148
  154.0000     0.4111     0.2148
  154.5000     0.4108     0.2148
  155.0000     0.4419     0.2148
  155.5000     0.4730     0.2148
  156.0000     0.4833     0.2148
  156.5000     0.4830     0.2148
  157.0000     0.4827     0.2148
  157.5000     0.4824     0.2148
  158.0000     0.4822     0.2148
  158.5000     0.4715     0.2148
  159.0000     0.4712     0.2148
  159.5000     0.4710     0.2148
  160.0000     0.4705     0.2148
  160.5000     0.4695     0.2148
  161.0000     0.4684     0.2148
  161.5000     0.4674     0.2148
  162.0000     0.4664     0.2148
  162.5000     0.4653     0.2148
  163.0000     0.4643     0.2148
  163.5000     0.4633     0.2148
  164.0000     0.4622     0.2148
  164.5000     0.4612     0.2148
  165.0000     0.4601     0.2148
  165.5000     0.4591     0.2148
  166.0000     0.4581     0.2148
  166.5000     0.4570     0.2148
  167.0000     0.4560     0.2148
  167.5000     0.4550     0.2148
  168.0000     0.4539     0.2148
  168.5000     0.4529     0.2148
  169.0000     0.4518     0.2148
  169.5000     0.4508     0.2148
  170.0000     0.4498     0.2148
  170.5000     0.4487     0.2148
  171.0000     0.4477     0.2148
  171.5000     0.4467     0.2148
  172.0000     0.4456     0.2148
  172.5000     0.4446     0.2148
  173.0000     0.4435     0.2148
  173.5000     0.4425     0.2148
