~VERSION INFORMATION
 VERS.                2.0:   CWLS LOG ASCII STANDARD - VERSION 2.0
 WRAP.                 NO:   ONE LINE PER DEPTH STEP
~WELL INFORMATION
#MNEM.UNIT      DATA TYPE    INFORMATION
#----------   ------------   ------------------------------
 STRT.F           16.0000:   START DEPTH
 STOP.F          716.0000:   STOP DEPTH
 STEP.F            0.5000:   STEP LENGTH
 NULL.          -999.2500:   NO VALUE
 COMP. BROWN JOHN E&C INC:   COMPANY
 WELL.   STX 10 #24-51-10:   WELL
 FLD .             NPR #3:   FIELD
 LOC .      S10 T38N R78W:   LOCATION
 CNTY.            NATRONA:   COUNTY
 STAT.            WYOMING:   STATE
 CTRY. UNITED STATES OF AMERICA:   COUNTRY
 SRVC.           Gearhart:   SERVICE COMPANY
 DATE.        01-JUL-1986:   LOGDATE
 API .       490251107800:   API NUMBER
~CURVE INFORMATION
#MNEM.UNIT       API CODE    CURVE DESCRIPTION
#----------   ------------   ------------------------------
 DEPT.F                  :   
 GRR .GAPI   07 310 01 00:   GAMMA RAY
 RILD.OHMM   07 120 46 00:   INDUCTION LOG DEEP RESISTIVITY
 RILM.OHMM   07 120 44 00:   INDUCTION LOG MEDIUM RESISTIVITY
~PARAMETER INFORMATION
#MNEM.UNIT          VALUE    DESCRIPTION
#----------   ------------   ------------------------------
 PD  .                 GL:   PERMANENT DATUM
 EPD .F              5235:   ELEVATION PERMANENT DATUM
 LMF .                 KB:   LOG MEASURED FROM
 DAPD.F               5.0:   FEET ABOVE PERMANENT DATUM
 DMF .                 KB:   DRILLING MEASURED FROM
 EKB .F              5240:   KELLING BUSHING
 EGL .F              5235:   GROUND LEVEL
 DATE.        01-JUL-1986:   RUN DATE
 RUN .                  1:   RUN NUMBER
 DD  .F               728:   DEPTH DRILLER
 DL  .F               726:   DEPTH LOGGER
 BLI .F               716:   BOTTOM LOG INTERVAL
 TLI .F                15:   TOP LOG INTERVAL
 CS  .IN            8.625:   CASING SIZE
 CBD .F                47:   CASING BOTTOM DRILLER
 CBL .F                47:   CASING BOTTOM LOGGER
 BS  .IN            7.875:   BIT SIZE
 BSD .F               728:   BIT SIZE AT DEPTH
 DFT .               FOAM:   DRILLING FLUID TYPE
 TCS .HRS            0800:   TIME CURCULATED STOPPED
 TLAB.HRS            0930:   TIME LOGGER AT BOTTOM
 MRT .F                85:   MAXIMUM RECORDED TEMPERATURE
 LUN .               7609:   LOGGING UNIT NUMBER
 LUL .           GILLETTE:   LOGGING UNIT LOCATION
 ENGI.              BAUER:   RECORDING ENGINEER
 WITN.              FIVAS:   WITNESSED BY
 CLNT.            A2DTECH:   CLIENT CODE
 ORIG.           5" PRINT:   ORIGIN OF DATA
 UWI .       490251107800:   UNIQUE WELL ID
 DICO. A2D Technologies, Inc.:   DIGITIZING COMPANY
~OTHER INFORMATION
~A   DEPT       GRR      RILD       RILM   
   16.0000    72.0933  -999.2500  -999.2500
   16.5000    73.0404  -999.2500  -999.2500
   17.0000    74.8985  -999.2500  -999.2500
   17.5000    77.0496  -999.2500  -999.2500
   18.0000    79.1938  -999.2500  -999.2500
   18.5000    79.8222  -999.2500  -999.2500
   19.0000    80.1457  -999.2500  -999.2500
   19.5000    80.7723  -999.2500  -999.2500
   20.0000    81.4024  -999.2500  -999.2500
   20.5000    82.0325  -999.2500  -999.2500
   21.0000    80.8334  -999.2500  -999.2500
   21.5000    78.1098  -999.2500  -999.2500
   22.0000    76.6057  -999.2500  -999.2500
   22.5000    76.3212  -999.2500  -999.2500
   23.0000    76.6465  -999.2500  -999.2500
   23.5000    77.2766  -999.2500  -999.2500
   24.0000    78.2116  -999.2500  -999.2500
   24.5000    78.8417  -999.2500  -999.2500
   25.0000    77.0328  -999.2500  -999.2500
   25.5000    72.7849  -999.2500  -999.2500
   26.0000    70.9756  -999.2500  -999.2500
   26.5000    72.5207  -999.2500  -999.2500
   27.0000    74.6752  -999.2500  -999.2500
   27.5000    73.4760  -999.2500  -999.2500
   28.0000    70.7525  -999.2500  -999.2500
   28.5000    71.0777  -999.2500  -999.2500
   29.0000    74.0548  -999.2500  -999.2500
   29.5000    76.3014  -999.2500  -999.2500
   30.0000    77.5412  -999.2500  -999.2500
   30.5000    77.5616  -999.2500  -999.2500
   31.0000    78.1917  -999.2500  -999.2500
   31.5000    79.1267  -999.2500  -999.2500
   32.0000    80.0617  -999.2500  -999.2500
   32.5000    80.9966  -999.2500  -999.2500
   33.0000    80.7121  -999.2500  -999.2500
   33.5000    79.2081  -999.2500  -999.2500
   34.0000    77.3992  -999.2500  -999.2500
   34.5000    77.1138  -999.2500  -999.2500
   35.0000    76.8301  -999.2500  -999.2500
   35.5000    76.5447  -999.2500  -999.2500
   36.0000    73.8220  -999.2500  -999.2500
   36.5000    71.4034  -999.2500  -999.2500
   37.0000    70.5081  -999.2500  -999.2500
   37.5000    71.4441  -999.2500  -999.2500
   38.0000    73.2937  -999.2500  -999.2500
   38.5000    75.4482  -999.2500  -999.2500
   39.0000    76.6881  -999.2500  -999.2500
   39.5000    77.0133  -999.2500  -999.2500
   40.0000    76.7288  -999.2500  -999.2500
   40.5000    76.4443  -999.2500  -999.2500
   41.0000    74.3305  -999.2500  -999.2500
   41.5000    71.3020  -999.2500  -999.2500
   42.0000    72.5419  -999.2500  -999.2500
   42.5000    76.8305  -999.2500  -999.2500
   43.0000    82.9484  -999.2500  -999.2500
   43.5000    88.1517  -999.2500  -999.2500
   44.0000    87.5623  -999.2500  -999.2500
   44.5000    84.5339  -999.2500  -999.2500
   45.0000    83.6345  -999.2500  -999.2500
   45.5000    85.4892  -999.2500  -999.2500
   46.0000    91.3023  -999.2500  -999.2500
   46.5000    94.9812  -999.2500  -999.2500
   47.0000    92.8674    18.4933     7.5076
   47.5000    84.9609    25.8955     9.0750
   48.0000    83.1469    24.6607    12.6218
   48.5000    86.8309    18.7661    14.2234
   49.0000    88.6823    15.7530    15.0476
   49.5000    90.5349    14.7930    14.5320
   50.0000    86.9530    14.2865    13.5504
   50.5000    84.4708    15.0081    13.0861
   51.0000    86.9364    16.3285    13.0888
   51.5000    90.3114    16.4460    13.4641
   52.0000    93.6811    16.1080    13.8502
   52.5000    90.9585    15.6659    14.2642
   53.0000    92.8144    15.3431    14.9781
   53.5000    91.0065    15.1327    15.0761
   54.0000    88.8937    14.9244    15.1854
   54.5000    88.2999    15.1390    15.4195
   55.0000    90.1558    15.4640    15.6241
   55.5000    92.9210    15.9070    15.8686
   56.0000    89.2838    16.2485    16.1893
   56.5000    81.3783    16.7140    16.4215
   57.0000    78.6504    16.9535    16.8923
   57.5000    79.8966    17.1964    17.1345
   58.0000    83.2716    17.3210    17.3803
   58.5000    85.7319    17.3246    17.3839
   59.0000    84.5337    17.2063    17.2651
   59.5000    82.4209    16.7350    17.0282
   60.0000    81.8271    16.3893    16.7944
   60.5000    83.6831    16.1654    16.2199
   61.0000    87.3629    15.5029    15.6641
   61.5000    93.4818    14.8675    15.0217
   62.0000    99.2958    13.7672    14.2049
   62.5000    98.7074    13.0191    13.3386
   63.0000    94.1555    11.9714    12.4376
   63.5000    93.5618    11.0853    11.4359
   64.0000    98.1616    10.0513    10.0110
   64.5000   102.4540     9.3074     9.2048
   65.0000   107.6537     8.5583     8.4043
   65.5000   111.6384     8.0368     8.0032
   66.0000   114.0988     7.4943     7.7290
   66.5000   115.3396     7.2377     7.4120
   67.0000   115.3609     7.0391     7.0090
   67.5000   114.7725     6.9914     6.7688
   68.0000   112.9646     6.8955     6.5829
   68.5000   110.5469     6.8969     6.5379
   69.0000   108.1292     6.8984     6.5857
   69.5000   111.1993     6.9484     6.7272
   70.0000   120.6718     6.9498     6.8717
   70.5000   124.0468     7.0002     7.0193
   71.0000   118.2754     7.0509     7.1199
   71.5000   114.0285     7.0524     7.1214
   72.0000   113.1341     7.0538     7.0731
   72.5000   110.1077     7.0553     7.0746
   73.0000   107.0802     7.0568     6.9772
   73.5000   106.7957     7.0583     6.9302
   74.0000   109.2570     7.0039     6.9316
   74.5000   113.8515     6.9071     6.8845
   75.0000   115.0924     6.8674     6.8379
   75.5000   115.0630     6.8209     6.7915
   76.0000   118.1838     6.7747     6.7930
   76.5000   120.3392     6.7764     6.7944
   77.0000   117.9216     6.7779     6.7958
   77.5000   114.2843     6.7793     6.8451
   78.0000   114.9154     6.7807     6.8947
   78.5000   118.2904     6.8298     6.9447
   79.0000   120.7507     6.8793     7.0939
   79.5000   121.6867     6.9292     7.1453
   80.0000   121.4024     7.0779     7.2478
   80.5000   120.8140     7.1793     7.3518
   81.0000   117.7873     7.2822     7.4572
   81.5000   113.8452     7.4385     7.5641
   82.0000   110.2080     7.5982     7.6190
   82.5000   107.7903     7.7070     7.7328
   83.0000   106.2866     7.8175     7.8502
   83.5000   104.1744     7.9295     8.0141
   84.0000   103.8902     8.0997     8.1300
   84.5000   105.1317     8.1584     8.1813
   85.0000   104.8481     8.2753     8.2406
   85.5000   101.2718     8.2188     8.2423
   86.0000    96.9657     8.1631     8.2444
   86.5000    96.0670     8.1652     8.1308
   87.0000    96.7035     8.1095     8.0192
   87.5000    99.1638     7.9428     7.9648
   88.0000   102.5388     7.8886     7.8555
   88.5000   104.0845     7.7260     7.8022
   89.0000   104.1058     7.6205     7.7493
   89.5000   101.3832     7.6757     7.7514
   90.0000   101.4046     7.7313     7.8076
   90.5000   101.4259     7.7873     7.8092
   91.0000   100.5326     7.7889     7.8658
   91.5000    97.8100     7.8454     7.9786
   92.0000    95.6972     7.9022     8.0365
   92.5000    96.0234     7.9595     8.0381
   93.0000   103.6667     7.9611     8.0398
   93.5000   108.8709     8.0188     8.0415
   94.0000   111.6361     8.0205     7.9870
   94.5000   111.6575     7.9661     7.9887
   95.0000   111.9837     7.9678     7.8790
   95.5000   112.3099     7.9695     7.8256
   96.0000   108.9775     7.9154     7.8272
   96.5000   100.7671     7.8618     7.8289
   97.0000    99.5636     7.8635     7.8856
   97.5000   104.4683     7.8651     7.8873
   98.0000   110.5872     7.8668     7.8889
   98.5000   111.5232     7.9237     7.9461
   99.0000   111.8494     7.9254     8.0037
   99.5000   113.3951     7.9828     8.0618
  100.0000   114.3257     7.9845     8.0551
  100.5000   109.1529     7.9388     8.0077
  101.0000   106.7200     7.8932     7.9603
  101.5000   105.5051     7.9404     7.9091
  102.0000   105.8176     7.9443     7.9135
  102.5000   106.7383     7.8375     7.8615
  103.0000   108.2688     7.7834     7.7574
  103.5000   109.7992     7.6246     7.6525
  104.0000   111.6346     7.5217     7.4984
  104.5000   111.9456     7.3728     7.3981
  105.0000   112.2566     7.2687     7.2481
  105.5000   113.7870     7.1760     7.2522
  106.0000   115.3175     7.1293     7.2045
  106.5000   114.4090     7.0830     7.1582
