~VERSION INFORMATION
 VERS.                2.0:   CWLS LOG ASCII STANDARD - VERSION 2.0
 WRAP.                 NO:   ONE LINE PER DEPTH STEP
~WELL INFORMATION
#MNEM.UNIT      DATA TYPE    INFORMATION
#----------   ------------   ------------------------------
 STRT.F           34.5000:   START DEPTH
 STOP.F          665.5000:   STOP DEPTH
 STEP.F            0.5000:   STEP LENGTH
 NULL.          -999.2500:   NO VALUE
 COMP. FENIX & SCISSON INC:   COMPANY
 WELL.    NPR-3 SX #14-14:   WELL
 FLD .        TEAPOT DOME:   FIELD
 LOC .      S14 T38N R78W:   LOCATION
 CNTY.            NATRONA:   COUNTY
 STAT.            WYOMING:   STATE
 CTRY. UNITED STATES OF AMERICA:   COUNTRY
 SRVC.            Unknown:   SERVICE COMPANY
 DATE.        01-JUN-1978:   LOGDATE
 API .       490251063100:   API NUMBER
~CURVE INFORMATION
#MNEM.UNIT       API CODE    CURVE DESCRIPTION
#----------   ------------   ------------------------------
 DEPT.F                  :   
 SPR .MV     05 010 01 00:   SPONTANEOUS POTENTIAL FROM RES.
 SN  .OHMM   05 040 16 00:   SHORT NORMAL 16"
 IL  .OHMM   05 120 00 00:   INDUCTION LOG
 GRD .GAPI   45 310 01 00:   GAMMA RAY FROM DENSITY LOG
 RHOB.G/C3   45 350 01 00:   BULK DENSITY
 DPHI.DEC    45 890 12 00:   DENSITY POROSITY SANDSTONE
 CORR.G/C3   45 356 01 00:   DENSITY CORRECTION
 CALD.IN     45 280 60 00:   CALIPER FROM DENSITY LOG
~PARAMETER INFORMATION
#MNEM.UNIT          VALUE    DESCRIPTION
#----------   ------------   ------------------------------
 PD  .                 GL:   PERMANENT DATUM
 EPD .F              5212:   ELEVATION PERMANENT DATUM
 LMF .                 KB:   LOG MEASURED FROM
 DAPD.F                 4:   FEET ABOVE PERMANENT DATUM
 DMF .                 KB:   DRILLING MEASURED FROM
 EKB .F              5216:   KELLING BUSHING
 EGL .F              5212:   GROUND LEVEL
 DATE.           6-1-1978:   RUN DATE
 RUN .                  1:   RUN NUMBER
 DD  .F               670:   DEPTH DRILLER
 DL  .F               670:   DEPTH LOGGER
 BLI .F               664:   BOTTOM LOG INTERVAL
 TLI .F                40:   TOP LOG INTERVAL
 CS  .IN            8.625:   CASING SIZE
 CBD .F                40:   CASING BOTTOM DRILLER
 BS  .IN            7.875:   BIT SIZE
 BSD .F               670:   BIT SIZE AT DEPTH
 DFT .                KCL:   DRILLING FLUID TYPE
 DFD .                8.7:   DRILLING FLUID DENSITY
 DFV .                 32:   DRILLING FLUID VISCOSITY
 DFPH.                 10:   DRILLING FLUID PH
 RMS .OHMM            .30:   RESISTIVITY MUD SAMPLE
 MST .F                66:   MUD SAMPLE TEMPERATURE
 BHT .F                75:   BOTTOM HOLE TEMPERATURE
 TCS .HRS               2:   TIME CURCULATED STOPPED
 MRT .F                75:   MAXIMUM RECORDED TEMPERATURE
 LUN .               2958:   LOGGING UNIT NUMBER
 LUL .              CSPR.:   LOGGING UNIT LOCATION
 ENGI.             MILLER:   RECORDING ENGINEER
 WITN.           MCGINLEY:   WITNESSED BY
 CLNT.            A2DTECH:   CLIENT CODE
 ORIG.      2" , 5" PRINT:   ORIGIN OF DATA
 UWI .       490251063100:   UNIQUE WELL ID
 DICO. A2D Technologies, Inc.:   DIGITIZING COMPANY
~OTHER INFORMATION
~A   DEPT      SPR         SN         IL         GRD      RHOB       DPHI       CORR       CALD   
# ...
  439.5000   -30.8383     6.0886     5.9994    87.3838     2.4656     0.1279     0.0266     7.7400
  440.0000   -30.8383     6.0906     6.0227    87.5256     2.4608     0.1315     0.0266     7.7485
  440.5000   -30.8383     6.0949     6.0316    87.7321     2.4544     0.1397     0.0266     7.7571
  441.0000   -30.8383     5.8776     5.7607    88.8123     2.4413     0.1489     0.0273     7.7657
  441.5000   -30.8383     5.6479     5.5821    89.9666     2.4285     0.1580     0.0283     7.7743
  442.0000   -30.8384     5.5013     5.4509    91.0599     2.4158     0.1530     0.0344     7.7824
  442.5000   -30.8388     5.4509     5.4008    90.9969     2.4156     0.1455     0.0404     7.7666
  443.0000   -30.8427     5.6247     5.5013    90.9310     2.4354     0.1380     0.0375     7.7162
  443.5000   -30.6693     5.8442     5.6753    89.3050     2.4474     0.1305     0.0359     7.6898
  444.0000   -30.4571     6.0722     5.9016    87.2213     2.4581     0.1226     0.0385     7.6693
  444.5000   -30.2437     6.3092     6.1368    85.3612     2.4682     0.1238     0.0343     7.6687
  445.0000   -30.0307     6.5553     6.3815    85.5004     2.4700     0.1241     0.0304     7.6686
  445.5000   -29.8424     6.8111     6.6360    85.1670     2.4714     0.1187     0.0301     7.6687
  446.0000   -29.8539     7.0769     6.9005    85.1827     2.4811     0.1133     0.0298     7.6687
  446.5000   -29.8679     7.3531     7.1757    85.5571     2.4917     0.1079     0.0294     7.6687
  447.0000   -29.8813     7.6400     7.4620    84.0456     2.5009     0.1078     0.0291     7.6687
  447.5000   -29.8946     7.8818     7.7592    81.6132     2.5003     0.1110     0.0288     7.6687
  448.0000   -29.9078     7.8818     7.9548    80.7896     2.4993     0.1048     0.0284     7.6687
  448.5000   -29.9211     7.9548     7.7534    80.0434     2.4982     0.1026     0.0281     7.6687
  449.0000   -29.9343     7.9493     7.5598    78.6439     2.5010     0.1060     0.0277     7.6687
  449.5000   -29.9475     7.9273     7.3702    77.7756     2.5044     0.1100     0.0274     7.6687
  450.0000   -29.9608     7.9054     7.1858    79.5622     2.4940     0.1139     0.0271     7.6687
  450.5000   -29.9740     7.8818     7.0059    81.3269     2.4838     0.1182     0.0267     7.6687
  451.0000   -29.9872     7.7969     6.8306    82.0361     2.4771     0.1190     0.0268     7.6687
  451.5000   -30.0005     7.7058     6.6597    82.7786     2.4749     0.1182     0.0286     7.6687
  452.0000   -30.0137     7.6157     6.5355    84.8138     2.4783     0.1158     0.0304     7.6687
  452.5000   -30.0269     7.5267     6.4841    86.4913     2.4839     0.1134     0.0322     7.6687
  453.0000   -30.0403     7.4388     6.4337    86.7223     2.4859     0.1133     0.0322     7.6687
  453.5000   -30.0619     7.3518     6.3836    86.9881     2.4855     0.1146     0.0317     7.6687
  454.0000   -30.0837     7.2659     6.3338    88.1860     2.4848     0.1150     0.0313     7.6687
  454.5000   -30.1053     7.1876     6.2593    90.1675     2.4840     0.1143     0.0308     7.6687
  455.0000   -30.1270     6.9142     5.9397    92.2033     2.4834     0.1149     0.0304     7.6687
  455.5000   -30.1486     6.6701     5.5421    91.1047     2.4807     0.1233     0.0299     7.6687
  456.0000   -30.1703     6.4345     5.1711    89.4081     2.4712     0.1249     0.0295     7.6687
  456.5000   -30.1920     6.2072     4.8249    87.6735     2.4652     0.1325     0.0290     7.6687
  457.0000   -30.2146     5.9880     4.6648    87.1554     2.4528     0.1408     0.0284     7.6687
  457.5000   -30.2387     5.7765     4.7257    87.9256     2.4359     0.1491     0.0307     7.6687
  458.0000   -30.2248     5.6556     4.7975    89.2626     2.4302     0.1575     0.0331     7.6687
  458.5000   -29.5289     5.7080     4.8684    88.9619     2.4127     0.1652     0.0367     7.6687
  459.0000   -28.7063     5.8681     4.9448    86.3830     2.4008     0.1498     0.0525     7.6687
  459.5000   -28.4506     6.2264     5.0226    84.2225     2.4142     0.1273     0.0520     7.6687
  460.0000   -28.4528     6.5849     5.1085    83.2630     2.4541     0.1120     0.0433     7.6687
  460.5000   -28.4606     6.9640     5.5312    82.9579     2.4895     0.1101     0.0343     7.6687
  461.0000   -28.4679     7.4605     6.0401    82.2005     2.4911     0.1106     0.0324     7.6687
  461.5000   -28.4747     7.4553     6.6153    81.4162     2.4901     0.1126     0.0322     7.6687
  462.0000   -28.4814     7.7324     6.9928    82.3789     2.4886     0.1136     0.0320     7.6687
  462.5000   -28.4882     7.8044     7.0000    85.1197     2.4871     0.1130     0.0319     7.6687
  463.0000   -28.4950     8.0285     7.0071    85.2626     2.4861     0.1144     0.0317     7.6687
  463.5000   -28.5017     8.0242     7.0143    83.4422     2.4870     0.1146     0.0315     7.6687
  464.0000   -28.5085     8.0173     7.0215    83.8898     2.4878     0.1121     0.0313     7.6687
  464.5000   -28.5153     8.0105     7.0286    87.0643     2.4886     0.1134     0.0311     7.6687
  465.0000   -28.5220     8.0036     7.0358    89.4874     2.4881     0.1133     0.0310     7.6687
  465.5000   -28.5288     7.9968     7.0431    88.1613     2.4866     0.1131     0.0308     7.6687
  466.0000   -28.5355     7.9900     7.0502    87.1004     2.4859     0.1111     0.0306     7.6687
  466.5000   -28.5423     7.9831     7.0563    88.1200     2.4893     0.1079     0.0301     7.6687
  467.0000   -28.5491     7.9763     7.0160    89.0882     2.4947     0.1047     0.0295     7.6686
  467.5000   -28.5558     7.9695     6.9814    87.5211     2.5002     0.1062     0.0290     7.6665
  468.0000   -28.5626     7.9627     6.9467    86.0130     2.5005     0.1105     0.0288     7.6608
  468.5000   -28.5694     7.9559     6.9275    85.2828     2.4976     0.1099     0.0299     7.6551
  469.0000   -28.5761     7.9491     6.9426    88.7458     2.4968     0.1063     0.0308     7.6492
  469.5000   -28.5829     7.9423     6.9534    92.8080     2.5039     0.1026     0.0318     7.6592
  470.0000   -28.5897     7.9355     6.9641    92.8881     2.5148     0.0994     0.0328     7.6714
  470.5000   -28.5964     7.9287     6.9749    86.4410     2.5115     0.0975     0.0338     7.6836
  471.0000   -28.6032     7.9219     6.9856    81.5002     2.5040     0.1052     0.0348     7.6958
  471.5000   -28.6100     7.9152     6.9964    82.9062     2.4965     0.1126     0.0358     7.7077
  472.0000   -28.6167     7.9084     7.0072    85.4311     2.4908     0.1101     0.0368     7.7084
  472.5000   -28.6235     7.9016     7.0180    87.8489     2.4935     0.1072     0.0378     7.7223
  473.0000   -28.6303     7.8950     7.0289    87.9647     2.4972     0.1042     0.0388     7.8021
  473.5000   -28.6370     7.8882     7.0401    86.6319     2.5010     0.1018     0.0416     7.8527
  474.0000   -28.6438     7.8818     7.0505    85.0755     2.5047     0.1036     0.0444     7.8643
  474.5000   -28.6505     7.7970     7.0563    85.9730     2.5030     0.1069     0.0444     7.8763
  475.0000   -28.6573     7.7177     6.6814    89.0285     2.4974     0.1101     0.0498     7.8868
  475.5000   -28.6641     7.6392     6.4380    92.2064     2.4919     0.1105     0.0566     7.8864
  476.0000   -28.6708     7.5615     6.2034    93.1066     2.4921     0.1058     0.0634     7.8679
  476.5000   -28.6776     7.4408     6.1071    92.4188     2.4948     0.1140     0.0668     7.7667
  477.0000   -28.6844     7.2870     6.0566    91.6591     2.4874     0.1218     0.0586     7.6886
  477.5000   -28.6911     7.1363     6.0065    92.8247     2.4786     0.1249     0.0508     7.6791
  478.0000   -28.6979     6.9906     5.9047    94.7559     2.4700     0.1281     0.0430     7.6630
  478.5000   -28.7047     6.9919     5.7321    95.4728     2.4643     0.1297     0.0351     7.6471
  479.0000   -28.7114     6.9927     5.5640    94.4658     2.4581     0.1268     0.0274     7.6309
  479.5000   -28.7182     6.9915     5.3510    93.2797     2.4607     0.1256     0.0225     7.6335
