~VERSION INFORMATION
 VERS.                2.0:   CWLS LOG ASCII STANDARD - VERSION 2.0
 WRAP.                 NO:   ONE LINE PER DEPTH STEP
~WELL INFORMATION
#MNEM.UNIT      DATA TYPE    INFORMATION
#----------   ------------   ------------------------------
 STRT.F           16.0000:   START DEPTH
 STOP.F          716.0000:   STOP DEPTH
 STEP.F            0.5000:   STEP LENGTH
 NULL.          -999.2500:   NO VALUE
 COMP. BROWN JOHN E&C INC:   COMPANY
 WELL.   STX 10 #24-51-10:   WELL
 FLD .             NPR #3:   FIELD
 LOC .      S10 T38N R78W:   LOCATION
 CNTY.            NATRONA:   COUNTY
 STAT.            WYOMING:   STATE
 CTRY. UNITED STATES OF AMERICA:   COUNTRY
 SRVC.           Gearhart:   SERVICE COMPANY
 DATE.        01-JUL-1986:   LOGDATE
 API .       490251107800:   API NUMBER
~CURVE INFORMATION
#MNEM.UNIT       API CODE    CURVE DESCRIPTION
#----------   ------------   ------------------------------
 DEPT.F                  :   
 GRR .GAPI   07 310 01 00:   GAMMA RAY
 RILD.OHMM   07 120 46 00:   INDUCTION LOG DEEP RESISTIVITY
 RILM.OHMM   07 120 44 00:   INDUCTION LOG MEDIUM RESISTIVITY
~PARAMETER INFORMATION
#MNEM.UNIT          VALUE    DESCRIPTION
#----------   ------------   ------------------------------
 PD  .                 GL:   PERMANENT DATUM
 EPD .F              5235:   ELEVATION PERMANENT DATUM
 LMF .                 KB:   LOG MEASURED FROM
 DAPD.F               5.0:   FEET ABOVE PERMANENT DATUM
 DMF .                 KB:   DRILLING MEASURED FROM
 EKB .F              5240:   KELLING BUSHING
 EGL .F              5235:   GROUND LEVEL
 DATE.        01-JUL-1986:   RUN DATE
 RUN .                  1:   RUN NUMBER
 DD  .F               728:   DEPTH DRILLER
 DL  .F               726:   DEPTH LOGGER
 BLI .F               716:   BOTTOM LOG INTERVAL
 TLI .F                15:   TOP LOG INTERVAL
 CS  .IN            8.625:   CASING SIZE
 CBD .F                47:   CASING BOTTOM DRILLER
 CBL .F                47:   CASING BOTTOM LOGGER
 BS  .IN            7.875:   BIT SIZE
 BSD .F               728:   BIT SIZE AT DEPTH
 DFT .               FOAM:   DRILLING FLUID TYPE
 TCS .HRS            0800:   TIME CURCULATED STOPPED
 TLAB.HRS            0930:   TIME LOGGER AT BOTTOM
 MRT .F                85:   MAXIMUM RECORDED TEMPERATURE
 LUN .               7609:   LOGGING UNIT NUMBER
 LUL .           GILLETTE:   LOGGING UNIT LOCATION
 ENGI.              BAUER:   RECORDING ENGINEER
 WITN.              FIVAS:   WITNESSED BY
 CLNT.            A2DTECH:   CLIENT CODE
 ORIG.           5" PRINT:   ORIGIN OF DATA
 UWI .       490251107800:   UNIQUE WELL ID
 DICO. A2D Technologies, Inc.:   DIGITIZING COMPANY
~OTHER INFORMATION
~A   DEPT       GRR      RILD       RILM   
# ...
  107.0000   112.5858     7.0865     7.1121
  107.5000   111.6757     7.0404     7.0664
  108.0000   112.2931     7.0439     7.0219
  108.5000   112.6041     6.9981     6.9270
  109.0000   111.6955     6.9440     6.8824
  109.5000   110.4806     6.8592     6.8872
  110.0000   111.4028     6.8634     6.8911
  110.5000   114.7626     6.8667     6.8950
  111.0000   115.3769     6.8701     6.8988
  111.5000   111.1162     6.9705     6.9027
  112.0000   105.6345     7.0229     6.9552
  112.5000   103.5065     7.0758     7.0574
  113.0000   102.9028     7.2297     7.1111
  113.5000   103.2138     7.2841     7.3175
  114.0000   105.3540     7.3906     7.4774
  114.5000   108.4089     7.4986     7.5342
  115.0000   110.2443     7.6082     7.6450
  115.5000   107.5064     7.6654     7.7573
  116.0000   101.4150     7.8322     7.8163
  116.5000    99.5918     7.8911     7.9312
  117.0000    99.5979     8.0628     8.0477
  117.5000    99.6040     8.1234     8.1660
  118.0000    98.3906     8.1274     8.1706
  118.5000    97.1756     8.0736     8.1180
  119.0000    97.1832     8.0211     8.0094
  119.5000    97.4942     7.9143     7.9579
  120.0000   100.5491     7.8629     7.8503
  120.5000   105.7381     7.7021     7.7462
  121.0000   110.6222     7.4937     7.5891
  121.5000   114.8966     7.4441     7.4878
  122.0000   111.8539     7.3441     7.4394
  122.5000   107.2869     7.3486     7.3916
  123.0000   106.3780     7.4560     7.4480
  123.5000   108.2137     7.5121     7.4522
  124.0000   109.7442     7.5686     7.5617
  124.5000   110.0551     7.6793     7.6192
  125.0000   109.1466     7.7915     7.7856
  125.5000   107.9332     7.9053     7.9000
  126.0000   106.1100     8.0209     8.0726
  126.5000   104.2868     8.1953     8.2489
  127.0000   103.3781     8.2570     8.3116
  127.5000   103.6893     8.3192     8.3162
  128.0000   106.1344     8.2641     8.3209
  128.5000   110.4088     8.2104     8.2672
  129.0000   114.0734     8.1010     8.2140
  129.5000   117.1283     7.9912     8.1043
  130.0000   115.0002     7.8297     8.1088
  130.5000   108.2990     7.7245     7.9444
  131.0000   104.6465     7.6198     7.7834
  131.5000   102.2134     7.5174     7.6255
  132.0000   102.5246     7.3654     7.4708
  132.5000   104.9697     7.3690     7.4751
  133.0000   105.0103     7.3203     7.4793
  133.5000   102.5429     7.4281     7.4835
  134.0000   100.7197     7.5367     7.5935
  134.5000   102.2502     7.5934     7.7051
  135.0000   104.6953     7.7044     7.7637
  135.5000   106.8355     7.8170     7.8778
  136.0000   105.9270     7.9870     8.0499
  136.5000    97.7014     8.1037     8.1682
  137.0000    94.0489     8.2800     8.2882
  137.5000    94.0295     8.3423     8.4100
  138.0000   106.8660     8.4051     8.4740
  138.5000   117.8477     8.4684     8.5384
  139.0000   121.8172     8.5321     8.6033
  139.5000   113.5916     8.5963     8.6688
  140.0000    99.8782     8.6610     8.6736
  140.5000    98.3404     8.7262     8.7396
  141.0000   100.8050     8.7305     8.8060
  141.5000   107.2135     8.7348     8.6882
  142.0000   110.5732     8.6172     8.6322
  142.5000   112.7135     8.5613     8.5169
  143.0000   114.5489     8.4462     8.4620
  143.5000   118.5184     8.3327     8.4075
  144.0000   120.6586     8.2786     8.2951
  144.5000   117.9208     8.2248     8.2418
  145.0000   114.5732     8.1144     8.1888
  145.5000   111.2257     8.1183     8.1361
  146.0000   109.7074     8.0091     8.0272
  146.5000   110.3232     7.9016     7.9756
  147.0000   111.5488     7.9055     7.8689
  147.5000   112.4695     7.7992     7.8183
  148.0000   111.5610     7.7486     7.8226
  148.5000   109.1281     7.8069     7.8270
  149.0000   108.5244     7.8107     7.8314
  149.5000   108.2256     7.8695     7.8910
  150.0000   106.4024     7.9287     7.9510
  150.5000   104.2238     7.8841     7.9091
  151.0000   103.9817     7.8395     7.8671
  151.5000   105.2105     7.8866     7.8515
  152.0000   105.5245     7.9466     7.9116
  152.5000   102.7898     7.9510     7.9712
  153.0000   100.3599     8.0115     7.9751
  153.5000    99.1494     8.0160     7.9791
  154.0000   100.3783     8.0769     8.0392
  154.5000   103.7411     8.1383     8.0998
  155.0000   108.3235     8.2001     8.1037
  155.5000   108.9424     8.2624     8.2223
  156.0000   108.0369     8.3252     8.2842
  156.5000   106.2169     8.4475     8.3466
  157.0000   105.3110     8.5117     8.4687
  157.5000   105.9303     8.5165     8.5325
  158.0000   108.9883     8.5812     8.5968
  158.5000   112.6560     8.7072     8.6011
  159.0000   113.5775     8.7734     8.6659
  159.5000   112.9769     8.7783     8.7312
  160.0000   113.9031     8.8450     8.7346
  160.5000   116.9610     8.8500     8.8124
  161.0000   121.2385     8.9173     8.8784
  161.5000   122.4649     8.9850     8.9964
  162.0000   118.5129     9.1170     9.0752
  162.5000   117.3003     9.2509     9.1432
  163.0000   118.8362     9.3868     9.2116
  163.5000   123.7234     9.5247     9.4016
  164.0000   127.0862     9.6645     9.5489
  164.5000   122.5222     9.8065     9.6881
  165.0000   115.2143     9.9505     9.8294
  165.5000   113.3919    10.0967     9.9639
  166.0000   116.4522    10.2450    10.1807
  166.5000   121.0345    10.4686    10.2656
  167.0000   123.1779    10.5481    10.4153
  167.5000   120.7480    10.7030    10.5596
  168.0000   116.1840    10.7844    10.6462
  168.5000   114.3616    10.8663    10.8708
  169.0000   115.5926    11.0259    10.9527
  169.5000   116.5164    11.1097    11.1129
  170.0000   113.1720    11.1160    11.1184
  170.5000   109.2177    11.1222    11.1239
  171.0000   108.9220    11.1285    11.1293
  171.5000   108.0166    11.0569    11.0534
  172.0000   104.0623    11.0632    10.9850
  172.5000   100.4130    11.0694    10.9136
  173.0000   100.4221    10.9967    10.9189
  173.5000   103.1752    11.0044    10.8479
  174.0000   108.3673    10.9321    10.7774
  174.5000   109.2911    10.8619    10.7827
  175.0000   112.0442    10.8695    10.7880
  175.5000   119.3705    10.7997    10.7179
  176.0000   120.9017    10.7287    10.6482
  176.5000   118.1693    10.6598    10.6534
  177.0000   113.9102    10.5913    10.5842
  177.5000   110.5657    10.5232    10.4418
  178.0000   108.7456    10.4556    10.3740
  178.5000   108.4476    10.3173    10.3791
  179.0000   109.6786    10.2495    10.2394
  179.5000   111.8219    10.1125    10.1728
  180.0000   114.5124    10.0475    10.1067
  180.5000   117.4400     9.9829    10.1118
  181.0000   118.8594     9.9188    10.0460
  181.5000   117.6005     9.8550     9.9806
  182.0000   118.0082     9.7917     9.8465
  182.5000   119.6187     9.7288     9.8513
  183.0000   122.2864     9.7356     9.8562
  183.5000   122.1940     9.7411     9.7921
  184.0000   120.0772     9.6109     9.6603
  184.5000   119.2285     9.5478     9.5974
  185.0000   118.9125     9.4864     9.6024
  185.5000   118.0273     9.4931     9.5397
  186.0000   117.1219     9.3007     9.4116
  186.5000   116.8262     9.2397     9.1557
  187.0000   117.4492     9.0538     9.0326
  187.5000   118.9787     8.9327     8.8489
  188.0000   121.1220     8.7518     8.7299
  188.5000   125.3995     8.5745     8.5523
  189.0000   131.5062     8.3996     8.3781
  189.5000   136.3934     8.2885     8.2079
  190.0000   137.0326     8.1206     8.0975
  190.5000   133.0581     8.0120     8.0439
  191.0000   128.1892     7.9038     8.0488
  191.5000   124.2350     8.0210     8.1666
  192.0000   122.7198     8.1961     8.4031
  192.5000   119.6802     8.3750     8.5260
  193.0000   114.2016     8.6179     8.7116
  193.5000   108.4180     8.7445     8.9013
  194.0000   104.1589     8.8729     9.0950
  194.5000   105.0827     8.9404     9.2281
  195.0000   106.0066     9.0717     9.3631
  195.5000   106.3206     9.1406     9.3677
  196.0000   108.1590     9.1458     9.2406
  196.5000   113.6560     9.1509     9.1805
  197.0000   123.1164     9.1560     9.1861
  197.5000   125.8695     9.0336     9.0626
