~VERSION INFORMATION
 VERS.                2.0:   CWLS LOG ASCII STANDARD - VERSION 2.0
 WRAP.                 NO:   ONE LINE PER DEPTH STEP
~WELL INFORMATION
#MNEM.UNIT      DATA TYPE    INFORMATION
#----------   ------------   ------------------------------
 STRT.F           44.0000:   START DEPTH
 STOP.F          461.0000:   STOP DEPTH
 STEP.F            0.5000:   STEP LENGTH
 NULL.          -999.2500:   NO VALUE
 COMP. BROWN JOHN E&C INC:   COMPANY
 WELL. NPR 3 SX-10 #55-41-10:   WELL
 FLD .             TEAPOT:   FIELD
 LOC .      S10 T38N R78W:   LOCATION
 CNTY.            NATRONA:   COUNTY
 STAT.            WYOMING:   STATE
 CTRY. UNITED STATES OF AMERICA:   COUNTRY
 SRVC.       Schlumberger:   SERVICE COMPANY
 DATE.        28-SEP-1990:   LOGDATE
 API .       490251131900:   API NUMBER
~CURVE INFORMATION
#MNEM.UNIT       API CODE    CURVE DESCRIPTION
#----------   ------------   ------------------------------
 DEPT.F                  :   
 GRR .GAPI   07 310 01 00:   GAMMA RAY
 ILD .OHMM   07 120 46 00:   INDUCTION LOG DEEP
 ILM .OHMM   07 120 44 00:   INDUCTION LOG MEDIUM
~PARAMETER INFORMATION
#MNEM.UNIT          VALUE    DESCRIPTION
#----------   ------------   ------------------------------
 PD  .                 GL:   PERMANENT DATUM
 EPD .F              5187:   ELEVATION PERMANENT DATUM
 LMF .                 KB:   LOG MEASURED FROM
 DAPD.F              10.0:   FEET ABOVE PERMANENT DATUM
 DMF .                 KB:   DRILLING MEASURED FROM
 EKB .F              5197:   KELLING BUSHING
 EDF .F              5196:   DRILLING FLOOR
 EGL .F              5187:   GROUND LEVEL
 DATE.        28-SEP-1990:   RUN DATE
 RUN .                  1:   RUN NUMBER
 DD  .F               470:   DEPTH DRILLER
 DL  .F               467:   DEPTH LOGGER
 BLI .F               461:   BOTTOM LOG INTERVAL
 TLI .F                48:   TOP LOG INTERVAL
 CS  .IN            8.625:   CASING SIZE
 CBD .F                48:   CASING BOTTOM DRILLER
 CBL .F                49:   CASING BOTTOM LOGGER
 BS  .IN            7.875:   BIT SIZE
 BSD .F               470:   BIT SIZE AT DEPTH
 DFT .                AIR:   DRILLING FLUID TYPE
 TLAB.HRS            1715:   TIME LOGGER AT BOTTOM
 LUN .               6882:   LOGGING UNIT NUMBER
 LUL .               CODY:   LOGGING UNIT LOCATION
 ENGI.        MIKE FISHER:   RECORDING ENGINEER
 WITN.       GARRY STRONG:   WITNESSED BY
 CLNT.            A2DTECH:   CLIENT CODE
 ORIG.           5" PRINT:   ORIGIN OF DATA
 UWI .       490251131900:   UNIQUE WELL ID
 DICO. A2D Technologies, Inc.:   DIGITIZING COMPANY
~OTHER INFORMATION
~A   DEPT      GRR        ILD        ILM   
# ...
  317.0000   102.9152    14.1489    13.4508
  317.5000   102.5817    14.8801    14.1243
  318.0000   101.5805    16.4873    15.8498
  318.5000    95.5293    18.0565    18.8128
  319.0000    86.6852    20.1940    21.4854
  319.5000    78.7529    22.4272    24.0280
  320.0000    73.5562    25.2580    26.4979
  320.5000    73.2227    27.6619    29.2217
  321.0000    75.6174    29.8741    31.3359
  321.5000    76.5071    32.0386    33.1359
  322.0000    75.2544    33.4440    34.7949
  322.5000    75.8328    34.8867    35.5533
  323.0000    80.9704    36.0880    35.5223
  323.5000    87.9318    36.3430    35.0238
  324.0000    90.3339    35.5914    34.2915
  324.5000    89.3769    34.6133    33.5744
  325.0000    88.4499    33.8975    33.1032
  325.5000    88.1102    33.1965    32.8679
  326.0000    87.1688    33.1988    33.0943
  326.5000    86.8353    33.4339    33.3221
  327.0000    87.1171    33.9225    33.7872
  327.5000    87.3916    34.4265    34.2588
  328.0000    85.2270    34.8732    34.7370
  328.5000    80.6382    34.6327    34.4888
  329.0000    79.6961    34.1538    32.6064
  329.5000    82.6994    33.4481    31.0433
  330.0000    84.7975    32.9861    30.3941
  330.5000    89.0233    32.5300    30.6035
  331.0000    88.3859    32.3061    31.0365
  331.5000    88.0524    31.8600    31.4637
  332.0000    87.7189    31.4055    31.4584
  332.5000    87.3854    30.9502    31.2347
  333.0000    86.4438    30.1344    30.1565
  333.5000    86.4134    29.5113    28.3117
  334.0000    86.9855    28.9010    26.5798
  334.5000    88.1717    28.3033    25.4833
  335.0000    88.7575    27.9119    25.3021
  335.5000    87.8087    27.3352    25.2904
  336.0000    86.2594    26.7699    25.1187
  336.5000    86.5338    26.4002    25.2918
  337.0000    87.4162    26.0235    25.2875
  337.5000    87.3860    25.8560    25.4625
  338.0000    87.0458    25.6777    25.2806
  338.5000    88.2320    25.6799    25.2771
  339.0000    90.3302    25.6816    25.0974
  339.5000    90.9159    25.6834    25.0940
  340.0000    90.5824    25.8653    24.7304
  340.5000    92.0653    25.8670    24.5651
  341.0000    95.9871    26.2329    24.9088
  341.5000    98.0852    26.4186    25.2557
  342.0000    96.3727    26.4204    25.2522
  342.5000    92.8516    26.4223    25.4270
  343.0000    93.1334    26.2400    25.2453
  343.5000    93.7118    25.6974    25.2419
  344.0000    93.9862    25.1664    25.0625
  344.5000    93.0374    24.8184    24.7106
  345.0000    92.4000    24.3056    24.0244
  345.5000    93.8902    23.8026    23.0334
  346.0000    95.7041    23.1484    22.0832
  346.5000    98.6870    22.5118    21.3208
  347.0000   101.0891    22.0361    20.7294
  347.5000   100.7556    21.5654    20.0138
  348.0000    99.5102    20.9971    19.3230
  348.5000    97.9609    20.4197    18.5258
  349.0000    97.3235    19.8581    18.1248
  349.5000    96.3821    19.4471    17.8833
  350.0000    94.8328    19.1278    17.8698
  350.5000    92.0294    18.8162    17.7526
  351.0000    91.7283    18.6448    17.7490
  351.5000    93.5114    18.7730    17.7454
  352.0000    94.7028    18.7704    17.7416
  352.5000    93.7503    18.7678    17.7372
  353.0000    91.8941    18.6340    17.7336
  353.5000    91.5576    18.3729    17.7300
  354.0000    94.2606    18.2424    17.6036
  354.5000    96.3558    18.1129    17.7236
  355.0000    96.0182    17.9843    17.5955
  355.5000    96.5866    17.7323    17.3474
  356.0000    97.7699    17.3621    17.0996
  356.5000    98.3534    16.9995    16.8615
  357.0000    97.0969    16.6423    16.6230
  357.5000    95.2407    16.2837    16.3886
  358.0000    92.1687    16.0681    16.2710
  358.5000    91.2243    15.9541    15.9297
  359.0000    91.1918    15.8408    15.7050
  359.5000    92.1629    15.8386    15.3756
  360.0000    93.5503    15.6167    15.1588
  360.5000    92.9099    15.5058    14.9401
  361.0000    91.0536    15.1820    14.6314
  361.5000    89.5014    14.7615    14.4244
  362.0000    90.9886    14.6567    14.3209
  362.5000    95.5154    14.5527    14.2181
  363.0000    98.8263    14.5506    14.2152
  363.5000    98.7933    14.6507    14.1132
  364.0000    97.7953    14.6482    14.0119
  364.5000    95.6811    14.5443    14.0091
  365.0000    94.1289    14.5423    14.0062
  365.5000    93.4966    14.6422    14.0026
  366.0000    94.9757    14.6402    14.0988
  366.5000    97.3748    14.6383    13.9969
  367.0000    99.4699    14.5343    13.8965
  367.5000    99.4374    14.5323    13.9919
  368.0000    98.4681    14.5303    14.0873
  368.5000    97.8526    14.4267    14.0837
  369.0000    99.6357    14.3243    13.9826
  369.5000   100.2192    14.3223    13.9797
  370.0000   100.1786    14.2207    13.8787
  370.5000   100.1461    14.1197    13.8759
  371.0000   100.7296    14.0195    13.8731
  371.5000   101.9047    13.9199    13.7735
  372.0000   102.7841    13.9180    13.6746
  372.5000   103.0555    13.8192    13.4818
  373.0000   102.7109    13.7211    13.4791
  373.5000    99.0310    13.6233    13.4763
  374.0000    92.9195    13.6214    13.3795
  374.5000    88.9356    13.5247    13.3762
  375.0000    90.1189    13.5228    13.3734
  375.5000    94.3417    13.5210    13.2775
  376.0000    99.1724    13.5192    13.1822
  376.5000   104.0070    13.5173    13.0876
  377.0000   104.8824    13.4213    12.9936
  377.5000   105.1457    13.3261    12.9910
  378.0000   106.6330    13.2315    12.8977
  378.5000   106.9126    13.0459    12.8950
  379.0000   106.2640    12.9530    12.8019
  379.5000   105.0157    12.8610    12.7100
  380.0000   104.3753    12.7697    12.6188
  380.5000   105.5586    12.6791    12.6162
  381.0000   107.3576    12.5891    12.5257
  381.5000   108.5744    12.4997    12.5231
  382.0000   108.8045    12.3245    12.5206
  382.5000   108.4599    12.2370    12.4307
  383.0000   106.6037    12.0655    12.3414
  383.5000   104.2098    11.9798    12.1668
  384.0000   102.2806    11.8944    11.9953
  384.5000   106.5034    11.8100    11.9092
  385.0000   110.1183    11.7261    11.7412
  385.5000   113.4293    11.5618    11.5757
  386.0000   114.6140    11.3998    11.4124
  386.5000   115.1880    11.2400    11.1730
  387.0000   115.4594    11.0825    10.9387
  387.5000   115.4256    10.8511    10.7091
  388.0000   114.4744    10.6981    10.4840
  388.5000   113.5300    10.3947    10.1925
  389.0000   114.4094    10.0438    10.0488
  389.5000   116.8085     9.7656     9.7694
  390.0000   121.6392     9.5617     9.4977
  390.5000   122.5197     9.3621     9.1053
  391.0000   120.6623     8.8518     8.6682
  391.5000   120.0213     8.1958     7.8338
  392.0000   123.6286     7.0762     6.5029
  392.5000   135.4502     6.2389     5.4580
  393.0000   142.7126     5.7765     4.9823
  393.5000   145.1198     5.7788     5.1949
  394.0000   140.5199     5.9531     6.0162
  394.5000   132.2807     6.3231     6.7749
  395.0000   121.3059     6.7326     6.9173
  395.5000   117.6260     7.2696     7.1621
  396.0000   117.2887     8.0156     7.5880
  396.5000   116.3370     8.7767     8.5876
  397.0000   115.0887     9.4767     9.8069
  397.5000   112.6246    10.0905    10.4424
  398.0000   110.4644    10.5949    10.5141
  398.5000   110.1279    10.5133    10.3653
  399.0000   112.8310    10.2282    10.3632
  399.5000   115.8380    10.2983    10.3611
  400.0000   119.1445    10.5887    10.5050
  400.5000   118.8139    10.8874    11.0384
  401.0000   116.6597    11.2730    11.3404
  401.5000   114.2015    11.5103    11.4985
  402.0000   114.7828    11.4514    11.7395
  402.5000   118.4036    11.7737    11.9861
  403.0000   122.0283    12.0212    12.1532
  403.5000   123.2136    12.2740    12.4951
  404.0000   120.7487    12.5321    12.7577
  404.5000   118.2905    12.9754    12.9348
  405.0000   116.1363    13.2482    13.2065
  405.5000   114.2860    13.4330    13.4061
  406.0000   108.7882    13.7148    13.6706
  406.5000   104.2024    14.0031    13.8611
  407.0000   102.6560    14.1978    13.6650
  407.5000   105.0808    14.2947    13.3783
