~VERSION INFORMATION
 VERS.                2.0:   CWLS LOG ASCII STANDARD - VERSION 2.0
 WRAP.                 NO:   ONE LINE PER DEPTH STEP
~WELL INFORMATION
#MNEM.UNIT      DATA TYPE    INFORMATION
#----------   ------------   ------------------------------
 STRT.F           35.0000:   START DEPTH
 STOP.F          474.0000:   STOP DEPTH
 STEP.F            0.5000:   STEP LENGTH
 NULL.          -999.2500:   NO VALUE
 COMP.    FENIX & SCISSON:   COMPANY
 WELL.        NPR #53-S-3:   WELL
 FLD .             TEAPOT:   FIELD
 LOC .       S3 T38N R78W:   LOCATION
 CNTY.            NATRONA:   COUNTY
 STAT.            WYOMING:   STATE
 CTRY. UNITED STATES OF AMERICA:   COUNTRY
 SRVC.       Schlumberger:   SERVICE COMPANY
 DATE.        21-FEB-1977:   LOGDATE
 API .       490251027800:   API NUMBER
~CURVE INFORMATION
#MNEM.UNIT       API CODE    CURVE DESCRIPTION
#----------   ------------   ------------------------------
 DEPT.F                  :   
 SPR .MV     07 010 01 00:   SPONTANEOUS POTENTIAL
 ILD .OHMM   07 120 46 00:   INDUCTION LOG DEEP
 ILM .OHMM   07 120 44 00:   INDUCTION LOG MEDIUM
 LL8 .OHMM   07 220 08 00:   LATEROLOG-8 RES.
 CALD.IN     45 280 60 00:   CALIPER FROM DENSITY LOG
 CORR.G/C3   45 356 01 00:   DENSITY CORRECTION
 RHOB.G/C3   45 350 01 00:   BULK DENSITY
 DPHI.DEC    45 890 12 00:   DENSITY POROSITY SANDSTONE
 GRD .GAPI   45 310 01 00:   GAMMA RAY FROM DENSITY LOG
~PARAMETER INFORMATION
#MNEM.UNIT          VALUE    DESCRIPTION
#----------   ------------   ------------------------------
 PD  .                 GL:   PERMANENT DATUM
 EPD .F              5163:   ELEVATION PERMANENT DATUM
 LMF .                 GL:   LOG MEASURED FROM
 DMF .                 KB:   DRILLING MEASURED FROM
 EKB .F              5167:   KELLING BUSHING
 EGL .F              5163:   GROUND LEVEL
 DATE.        21-FEB-1977:   RUN DATE
 RUN .                  1:   RUN NUMBER
 DD  .F               480:   DEPTH DRILLER
 DL  .F               475:   DEPTH LOGGER
 BLI .F               474:   BOTTOM LOG INTERVAL
 TLI .F                39:   TOP LOG INTERVAL
 CS  .IN            8.625:   CASING SIZE
 CBD .F                40:   CASING BOTTOM DRILLER
 CBL .F                39:   CASING BOTTOM LOGGER
 BS  .IN            7.875:   BIT SIZE
 BSD .F               480:   BIT SIZE AT DEPTH
 DFT .            KCL MUD:   DRILLING FLUID TYPE
 DFD .                8.6:   DRILLING FLUID DENSITY
 DFV .                 35:   DRILLING FLUID VISCOSITY
 DFPH.                8.0:   DRILLING FLUID PH
 DFL .                6.8:   DRILLING FLUID LOSS
 MSS .           FLOWLINE:   MUD SAMPLE SOURCE
 RMS .OHMM            .41:   RESISTIVITY MUD SAMPLE
 MST .F                70:   MUD SAMPLE TEMPERATURE
 RMF .OHMM            .46:   RESISTIVITY MUD FILTRATE SAMPLE
 MFST.F                70:   MUD FILTRATE SAMPLE TEMPERATURE
 MFSS.               MEAS:   MUD FILTRATE SAMPLE SOURCE
 TCS .HRS               1:   TIME CURCULATED STOPPED
 LUN .               7680:   LOGGING UNIT NUMBER
 LUL .               CSPR:   LOGGING UNIT LOCATION
 ENGI.             TAYLOR:   RECORDING ENGINEER
 WITN.               JAPP:   WITNESSED BY
 CLNT.            A2DTECH:   CLIENT CODE
 ORIG.           5" PRINT:   ORIGIN OF DATA
 UWI .       490251027800:   UNIQUE WELL ID
 DICO. A2D Technologies, Inc.:   DIGITIZING COMPANY
~OTHER INFORMATION
~A   DEPT      SPR        ILD        ILM        LL8       CALD       CORR       RHOB       DPHI         GRD  
# ...
  400.0000   -38.4111    28.9609    40.0461    45.5394     8.1531     0.0591     2.4127     0.1540    60.0450
  400.5000   -38.7130    26.8848    37.7043    39.0283     8.1388     0.0669     2.3675     0.1693    60.0960
  401.0000   -39.0945    24.5545    32.6291    36.0291     8.1244     0.0560     2.3646     0.1729    61.2714
  401.5000   -39.3881    24.5662    30.8950    33.6357     8.1100     0.0460     2.3880     0.1611    63.0405
  402.0000   -39.4993    24.5778    30.6992    34.5930     8.1016     0.0528     2.3738     0.1880    65.0866
  402.5000   -39.7845    24.4170    30.7279    35.0890     8.1483     0.0296     2.3226     0.1970    67.5825
  403.0000   -40.2157    24.2626    30.7510    33.5758     8.2097     0.0454     2.3408     0.1933    66.4802
  403.5000   -40.6502    24.1072    30.9877    31.4428     8.2561     0.0357     2.3175     0.2024    64.2535
  404.0000   -40.6370    23.7871    31.6614    32.3377     8.2426     0.0290     2.3078     0.2081    64.7254
  404.5000   -40.4745    23.6210    32.1267    33.9552     8.2141     0.0343     2.3139     0.2077    66.3217
  405.0000   -40.4613    23.1597    32.5988    34.2048     8.1707     0.0329     2.3056     0.2123    64.3199
  405.5000   -40.1495    22.8549    32.1604    32.6018     8.1123     0.0277     2.2966     0.2152    63.2120
  406.0000   -39.8377    22.3933    30.6490    30.2264     8.0974     0.0435     2.3030     0.2101    63.0093
  406.5000   -39.3767    22.0987    28.8512    27.8308     8.0703     0.0548     2.3081     0.2064    63.9365
  407.0000   -39.2142    21.8027    27.3178    26.5239     8.0721     0.0414     2.3293     0.1976    65.3080
  407.5000   -39.0517    21.2201    26.0456    27.0937     8.0736     0.0452     2.3489     0.1786    66.9043
  408.0000   -38.7400    20.9383    24.6614    27.2928     8.0901     0.0468     2.3618     0.1767    68.5068
  408.5000   -38.5775    20.5179    24.1683    27.3039     8.0915     0.0217     2.3536     0.1794    69.4228
  409.0000   -38.4119    20.1059    24.1909    27.3150     8.1080     0.0176     2.3544     0.1779    69.9266
  409.5000   -38.1030    20.1154    24.5464    26.5833     8.1244     0.0094     2.3597     0.1763    71.0464
  410.0000   -37.9403    19.9862    24.9071    26.2289     8.1259     0.0140     2.3628     0.1845    72.1930
  410.5000   -37.9242    19.9958    24.9258    25.3479     8.1423     0.0185     2.3403     0.1920    72.2151
  411.0000   -37.9109    20.0055    24.7724    25.0074     8.1438     0.0066     2.3298     0.1932    69.7635
  411.5000   -38.1962    20.0170    24.2817    24.8452     8.1299     0.0157     2.3389     0.1862    67.5312
  412.0000   -38.3322    20.0265    23.6365    25.2040     8.1318     0.0277     2.3412     0.1792    70.2575
  412.5000   -38.4715    20.0360    23.0084    25.7427     8.1333     0.0315     2.3594     0.1740    71.1792
  413.0000   -38.4550    20.1847    22.5526    25.9319     8.1347     0.0376     2.3707     0.1709    65.3543
  413.5000   -38.5943    20.1943    22.5909    25.7637     8.1362     0.0399     2.3716     0.1683    64.2464
  414.0000   -38.5777    20.2039    23.2246    25.0710     8.1227     0.0375     2.3724     0.1734    64.9488
  414.5000   -38.5645    20.2143    23.8943    24.5663     8.1243     0.0535     2.3596     0.1812    66.9949
  415.0000   -38.7038    20.2231    24.7540    25.3011     8.1107     0.0386     2.3394     0.1824    71.5148
  415.5000   -38.6873    20.0929    25.2922    26.7138     8.0972     0.0311     2.3500     0.1781    73.3360
  416.0000   -38.5248    20.1027    24.9633    25.9979     8.0837     0.0286     2.3523     0.1820    72.4409
  416.5000   -38.5115    19.9735    24.3000    25.6486     8.0855     0.0170     2.3411     0.1877    68.1882
  417.0000   -38.4983    19.8452    23.6543    28.4663     8.0870     0.0103     2.3336     0.1913    67.7803
  417.5000   -38.4850    19.7177    23.0258    27.8932     8.0885     0.0141     2.3450     0.1858    67.1333
  418.0000   -38.4716    19.5933    22.8798    24.9820     8.0900     0.0217     2.3827     0.1659    65.1314
  418.5000   -38.4582    19.3332    22.7391    23.4842     8.0914     0.0308     2.4122     0.1459    67.4024
  419.0000   -38.4448    19.2067    22.9184    23.0114     8.0929     0.0248     2.3926     0.1522    68.0992
  419.5000   -38.4287    18.9517    23.0948    22.8598     8.0944     0.0226     2.3867     0.1645    67.2218
  420.0000   -38.5680    18.7001    23.1121    23.1900     8.0959     0.0302     2.3604     0.1751    66.7887
  420.5000   -38.5515    18.5800    23.1297    23.3604     8.0973     0.0325     2.3564     0.1808    69.2901
  421.0000   -38.5382    18.3355    22.9666    23.0447     8.0988     0.0341     2.3613     0.1757    70.2118
  421.5000   -38.5250    18.2175    21.7695    21.3540     8.1003     0.0356     2.3583     0.1738    70.9086
  422.0000   -38.6643    18.1006    20.7557    21.5287     8.1018     0.0447     2.3815     0.1683    71.8303
  422.5000   -38.6478    17.7372    19.7891    21.6869     8.1032     0.0635     2.3931     0.1587    72.3022
  423.0000   -38.7871    17.4819    19.8039    21.2503     8.0897     0.0495     2.3729     0.1595    72.9990
  423.5000   -38.9198    17.1523    19.9564    19.4313     8.0916     0.0229     2.3646     0.1671    74.5953
  424.0000   -39.0558    16.8078    20.1100    19.8467     8.0930     0.0142     2.3564     0.1756    76.2099
  424.5000   -39.1918    16.6979    19.9825    22.1775     8.0795     0.0052     2.3467     0.1831    78.0368
  425.0000   -39.3284    16.3626    19.5903    21.8818     8.0810     0.0000     2.3400     0.1877    79.1604
  425.5000   -39.3146    15.9253    19.3355    20.8564     8.0825     0.0143     2.3461     0.1838    79.4121
  426.0000   -39.3013    15.6055    18.9524    19.4709     8.0840     0.0384     2.3620     0.1672    78.7595
  426.5000   -39.2881    15.2922    18.4489    18.4306     8.0854     0.0190     2.3500     0.1593    74.9530
  427.0000   -39.2748    14.8817    18.0833    17.5669     8.0869     0.0168     2.3598     0.1708    75.6554
  427.5000   -39.4108    14.4823    17.6028    16.9691     8.0884     0.0236     2.3885     0.1517    78.3762
  428.0000   -39.3970    14.0937    16.8844    16.6185     8.0899     0.0146     2.4127     0.1472    79.9725
  428.5000   -39.5336    13.7154    16.3225    16.3001     8.0913     0.0267     2.4151     0.1523    78.1956
  429.0000   -39.5170    13.5333    15.9030    15.9720     8.0928     0.0358     2.4045     0.1483    72.1457
  429.5000   -39.5038    13.2616    15.6991    15.7606     8.0943     0.0268     2.4185     0.1389    70.5937
  430.0000   -39.4906    13.1764    15.4920    15.5505     8.1108     0.0359     2.4250     0.1446    69.0416
  430.5000   -39.6299    13.0030    15.3967    15.5568     8.1126     0.0103     2.3987     0.1588    69.9633
  431.0000   -39.6133    12.8288    14.9876    15.4559     8.1140     0.0090     2.3950     0.1515    71.7845
  431.5000   -39.7526    12.6585    14.5921    15.3556     8.1155     0.0136     2.4071     0.1463    73.1560
  432.0000   -39.5868    12.4904    14.4023    15.1509     8.1170     0.0166     2.4110     0.1435    72.9295
  432.5000   -39.5736    12.2411    14.3111    15.0524     8.1185     0.0197     2.4253     0.1336    71.8509
  433.0000   -39.7129    12.1622    14.2230    14.7496     8.1349     0.0212     2.4329     0.1309    72.3238
  433.5000   -39.6963    12.0842    14.1382    14.6539     8.1210     0.0168     2.4307     0.1351    73.2501
  434.0000   -39.6831    11.9239    14.0508    14.4585     8.1379     0.0116     2.4308     0.1266    73.7220
  434.5000   -39.6699    11.9296    13.8684    14.3647     8.1393     0.0244     2.4444     0.1233    73.2943
  435.0000   -39.6566    11.8529    13.7831    14.3721     8.1408     0.0207     2.4400     0.1371    71.5118
  435.5000   -39.6433    11.8599    13.6038    14.3779     8.1423     0.0125     2.4242     0.1386    73.3386
  436.0000   -39.6299    11.8655    13.5202    14.3838     8.1438     0.0088     2.4439     0.1301    74.2603
