~VERSION INFORMATION
 VERS.                2.0:   CWLS LOG ASCII STANDARD - VERSION 2.0
 WRAP.                 NO:   ONE LINE PER DEPTH STEP
~WELL INFORMATION
#MNEM.UNIT      DATA TYPE    INFORMATION
#----------   ------------   ------------------------------
 STRT.F            4.0000:   START DEPTH
 STOP.F          564.0000:   STOP DEPTH
 STEP.F            0.1000:   STEP LENGTH
 NULL.          -999.2500:   NO VALUE
 COMP.       F D SERV INC:   COMPANY
 WELL. NAVAL PETROLEUM RESERVE 3 SX-3 #88-4-3:   WELL
 FLD .             TEAPOT:   FIELD
 LOC .       S3 T38N R78W:   LOCATION
 CNTY.            NATRONA:   COUNTY
 STAT.            WYOMING:   STATE
 CTRY. UNITED STATES OF AMERICA:   COUNTRY
 SRVC.      Western Atlas:   SERVICE COMPANY
 DATE.        15-OCT-1992:   LOGDATE
 API .       490252255000:   API NUMBER
~CURVE INFORMATION
#MNEM.UNIT       API CODE    CURVE DESCRIPTION
#----------   ------------   ------------------------------
 DEPT.F                  :   
 GRR .GAPI   07 310 01 00:   GAMMA RAY
 RILD.OHMM   07 120 46 00:   INDUCTION LOG DEEP RESISTIVITY
 RILM.OHMM   07 120 44 00:   INDUCTION LOG MEDIUM RESISTIVITY
~PARAMETER INFORMATION
#MNEM.UNIT          VALUE    DESCRIPTION
#----------   ------------   ------------------------------
 PD  .                 GL:   PERMANENT DATUM
 EPD .F              5129:   ELEVATION PERMANENT DATUM
 LMF .                 KB:   LOG MEASURED FROM
 DAPD.F                10:   FEET ABOVE PERMANENT DATUM
 DMF .                 KB:   DRILLING MEASURED FROM
 EKB .F              5139:   KELLING BUSHING
 EGL .F              5129:   GROUND LEVEL
 DATE.        15-OCT-1992:   RUN DATE
 RUN .                  1:   RUN NUMBER
 DD  .F               570:   DEPTH DRILLER
 DL  .F               570:   DEPTH LOGGER
 BLI .F               564:   BOTTOM LOG INTERVAL
 TLI .F               564:   TOP LOG INTERVAL
 CS  .IN            8.625:   CASING SIZE
 CBL .F                94:   CASING BOTTOM LOGGER
 BS  .IN            7.875:   BIT SIZE
 BSD .F               570:   BIT SIZE AT DEPTH
 DFT .           AIR FOAM:   DRILLING FLUID TYPE
 TCS .HRS               4:   TIME CURCULATED STOPPED
 MRT .F                72:   MAXIMUM RECORDED TEMPERATURE
 LUN .            HL-6345:   LOGGING UNIT NUMBER
 LUL .          FT.MORGAN:   LOGGING UNIT LOCATION
 ENGI.             BURLEY:   RECORDING ENGINEER
 WITN.        DARY STRONG:   WITNESSED BY
 CLNT.            A2DTECH:   CLIENT CODE
 ORIG.           5" PRINT:   ORIGIN OF DATA
 UWI .       490252255000:   UNIQUE WELL ID
 DICO. A2D Technologies, Inc.:   DIGITIZING COMPANY
~OTHER INFORMATION
~A    DEPT      GRR      RILD       RILM   
# ...
  550.0000  -999.2500     8.3988     8.1359
  550.1000  -999.2500     8.3991     8.1750
  550.2000  -999.2500     8.3993     8.2141
  550.3000  -999.2500     8.3995     8.2532
  550.4000  -999.2500     8.3998     8.2928
  550.5000  -999.2500     8.4000     8.2928
  550.6000  -999.2500     8.3813     8.2928
  550.7000  -999.2500     8.3416     8.2928
  550.8000  -999.2500     8.3419     8.2928
  550.9000  -999.2500     8.3421     8.2928
  551.0000  -999.2500     8.3424     8.2928
  551.1000  -999.2500     8.3426     8.2928
  551.2000  -999.2500     8.3428     8.2928
  551.3000  -999.2500     8.3431     8.2658
  551.4000  -999.2500     8.3433     8.2348
  551.5000  -999.2500     8.2966     8.2348
  551.6000  -999.2500     8.2854     8.2348
  551.7000  -999.2500     8.2856     8.2348
  551.8000  -999.2500     8.2686     8.2348
  551.9000  -999.2500     8.2280     8.2348
  552.0000  -999.2500     8.2283     8.2348
  552.1000  -999.2500     8.2285     8.2284
  552.2000  -999.2500     8.1929     8.1772
  552.3000  -999.2500     8.1714     8.1772
  552.4000  -999.2500     8.1716     8.1772
  552.5000  -999.2500     8.1651     8.1525
  552.6000  -999.2500     8.1149     8.1051
  552.7000  -999.2500     8.1151     8.0580
  552.8000  -999.2500     8.1153     8.0070
  552.9000  -999.2500     8.0904     8.0070
  553.0000  -999.2500     8.0589     7.9741
  553.1000  -999.2500     8.0474     7.9278
  553.2000  -999.2500     7.9470     7.8681
  553.3000  -999.2500     7.9045     7.7854
  553.4000  -999.2500     7.8918     7.7854
  553.5000  -999.2500     7.8682     7.7451
  553.6000  -999.2500     7.8084     7.6695
  553.7000  -999.2500     7.7228     7.6019
  553.8000  -999.2500     7.6739     7.5577
  553.9000  -999.2500     7.6336     7.5073
  554.0000  -999.2500     7.5582     7.3605
  554.1000  -999.2500     7.4925     7.3233
  554.2000  -999.2500     7.4362     7.2526
  554.3000  -999.2500     7.3499     7.1878
  554.4000  -999.2500     7.2558     7.1247
  554.5000  -999.2500     7.1435     7.0056
  554.6000  -999.2500     7.0478     6.9589
  554.7000  -999.2500     6.9662     6.8563
  554.8000  -999.2500     6.8855     6.7628
  554.9000  -999.2500     6.8056     6.6844
  555.0000  -999.2500     6.7173     6.6162
  555.1000  -999.2500     6.6831     6.5777
  555.2000  -999.2500     6.6443     6.5331
  555.3000  -999.2500     6.5877     6.5015
  555.4000  -999.2500     6.5216     6.4637
  555.5000  -999.2500     6.4863     6.4262
  555.6000  -999.2500     6.4865     6.3971
  555.7000  -999.2500     6.4540     6.3971
  555.8000  -999.2500     6.4415     6.3971
  555.9000  -999.2500     6.4416     6.3971
  556.0000  -999.2500     6.4515     6.3971
  556.1000  -999.2500     6.4874     6.3971
  556.2000  -999.2500     6.4876     6.3971
  556.3000  -999.2500     6.4878     6.3971
  556.4000  -999.2500     6.5126     6.3971
  556.5000  -999.2500     6.5339     6.3971
  556.6000  -999.2500     6.5433     6.3971
  556.7000  -999.2500     6.5819     6.3971
  556.8000  -999.2500     6.6269     6.4039
  556.9000  -999.2500     6.6271     6.4421
  557.0000  -999.2500     6.6519     6.4421
  557.1000  -999.2500     6.6742     6.4713
  557.2000  -999.2500     6.6744     6.5091
  557.3000  -999.2500     6.6755     6.5472
  557.4000  -999.2500     6.7218     6.5791
  557.5000  -999.2500     6.7544     6.5791
  557.6000  -999.2500     6.7941     6.6160
  557.7000  -999.2500     6.8341     6.6842
  557.8000  -999.2500     6.8658     6.7407
  557.9000  -999.2500     6.8668     6.7801
  558.0000  -999.2500     6.9633     6.8255
  558.1000  -999.2500     6.9964     6.9102
  558.2000  -999.2500     7.0376     6.9482
  558.3000  -999.2500     7.0624     7.0495
  558.4000  -999.2500     7.0875     7.1290
  558.5000  -999.2500     7.2133     7.1985
  558.6000  -999.2500     7.2556     7.3144
  558.7000  -999.2500     7.2983     7.3605
  558.8000  -999.2500     7.3667     7.4803
  558.9000  -999.2500     7.4535     7.5486
  559.0000  -999.2500     7.5412     7.6387
  559.1000  -999.2500     7.6316     7.7450
  559.2000  -999.2500     7.6757     7.8000
  559.3000  -999.2500     7.6858     7.9510
  559.4000  -999.2500     7.7119     8.0352
  559.5000  -999.2500     7.7573     8.1628
  559.6000  -999.2500     7.8030     8.2348
  559.7000  -999.2500     7.8504     8.2629
  559.8000  -999.2500     7.8506     8.3554
  559.9000  -999.2500     7.8860     8.4099
  560.0000  -999.2500     7.9064     8.4533
  560.1000  -999.2500     7.9066     8.5028
  560.2000  -999.2500     7.9068     8.5763
  560.3000  -999.2500     7.9071     8.6630
  560.4000  -999.2500     7.9073     8.7170
  560.5000  -999.2500     7.9075     8.8332
  560.6000  -999.2500     7.9077     8.9227
  560.7000  -999.2500     7.9239     8.9925
  560.8000  -999.2500     7.9639     9.0693
  560.9000  -999.2500     7.9642     9.1620
  561.0000  -999.2500     7.9644     9.2129
  561.1000  -999.2500  -999.2500     9.2129
  561.2000  -999.2500  -999.2500     9.2584
  561.3000  -999.2500  -999.2500     9.3475
  561.4000  -999.2500  -999.2500     9.4088
  561.5000  -999.2500  -999.2500     9.4088
  561.6000  -999.2500  -999.2500     9.4088
  561.7000  -999.2500  -999.2500     9.4088
  561.8000  -999.2500  -999.2500     9.4088
  561.9000  -999.2500  -999.2500     9.4088
  562.0000  -999.2500  -999.2500     9.4318
  562.1000  -999.2500  -999.2500     9.4751
  562.2000  -999.2500  -999.2500     9.4751
  562.3000  -999.2500  -999.2500     9.4751
  562.4000  -999.2500  -999.2500     9.4751
  562.5000  -999.2500  -999.2500     9.4751
  562.6000  -999.2500  -999.2500     9.4751
  562.7000  -999.2500  -999.2500     9.4751
  562.8000  -999.2500  -999.2500     9.4751
  562.9000  -999.2500  -999.2500     9.5299
  563.0000  -999.2500  -999.2500     9.5418
  563.1000  -999.2500  -999.2500     9.5743
  563.2000  -999.2500  -999.2500     9.6089
  563.3000  -999.2500  -999.2500     9.6187
  563.4000  -999.2500  -999.2500     9.6766
  563.5000  -999.2500  -999.2500     9.6766
  563.6000  -999.2500  -999.2500     9.6766
  563.7000  -999.2500  -999.2500     9.6766
  563.8000  -999.2500  -999.2500     9.6766
  563.9000  -999.2500  -999.2500     9.6766
  564.0000  -999.2500  -999.2500     9.6766
