~VERSION INFORMATION
 VERS.                2.0:   CWLS LOG ASCII STANDARD - VERSION 2.0
 WRAP.                 NO:   ONE LINE PER DEPTH STEP
~WELL INFORMATION
#MNEM.UNIT      DATA TYPE    INFORMATION
#----------   ------------   ------------------------------
 STRT.F           83.0000:   START DEPTH
 STOP.F         3044.0000:   STOP DEPTH
 STEP.F            0.5000:   STEP LENGTH
 NULL.          -999.2500:   NO VALUE
 COMP.   TESORO PETROLEUM:   COMPANY
 WELL.  NPR # 3  AX #81-4:   WELL
 FLD .        TEAPOT DOME:   FIELD
 LOC .       S4 T38N R78W:   LOCATION
 CNTY.            NATRONA:   COUNTY
 STAT.            WYOMING:   STATE
 CTRY. UNITED STATES OF AMERICA:   COUNTRY
 SRVC.       Schlumberger:   SERVICE COMPANY
 DATE.        31-JUL-1969:   LOGDATE
 API .       490251002700:   API NUMBER
~CURVE INFORMATION
#MNEM.UNIT       API CODE    CURVE DESCRIPTION
#----------   ------------   ------------------------------
 DEPT.F                  :   
 CILD.MMHO   05 110 46 00:   CONDUCTIVITY INDUCTION LOG DEEP
 ILD .OHMM   05 120 46 00:   INDUCTION LOG DEEP
 SN  .OHMM   05 040 16 00:   SHORT NORMAL 16"
 SPR .MV     05 010 01 00:   SPONTANEOUS POTENTIAL FROM RES.
 CALD.IN     45 280 60 00:   CALIPER FROM DENSITY
 DPHI.DEC    45 890 12 00:   DENSITY POROSITY SANDSTONE
 GRD .GAPI   45 310 01 00:   GAMMA RAY FROM DENSITY LOG
 RHOB.G/C3   45 350 01 00:   BULK DENSITY
 DRHO.G/C3   45 356 01 00:   DENSITY CORRECTION
~PARAMETER INFORMATION
#MNEM.UNIT          VALUE    DESCRIPTION
#----------   ------------   ------------------------------
 PD  .                 GL:   PERMANENT DATUM
 EPD .F              5170:   ELEVATION PERMANENT DATUM
 LMF .                 KB:   LOG MEASURED FROM
 DAPD.F                13:   FEET ABOVE PERMANENT DATUM
 DMF .                 KB:   DRILLING MEASURED FROM
 EKB .F              5183:   KELLING BUSHING
 EGL .F              5170:   GROUND LEVEL
 DATE.            7-31-69:   RUN DATE
 RUN .                  2:   RUN NUMBER
 DD  .F              3047:   DEPTH DRILLER
 DL  .F              3044:   DEPTH LOGGER
 BLI .F              3043:   BOTTOM LOG INTERVAL
 TLI .F               626:   TOP LOG INTERVAL
 CS  .IN            10.75:   CASING SIZE
 CBD .F               625:   CASING BOTTOM DRILLER
 CBL .F               626:   CASING BOTTOM LOGGER
 BS  .IN             6.25:   BIT SIZE
 BSD .F              3047:   BIT SIZE AT DEPTH
 DFT .      FRESH GEL MUD:   DRILLING FLUID TYPE
 DFD .                9.7:   DRILLING FLUID DENSITY
 DFV .                 50:   DRILLING FLUID VISCOSITY
 DFPH.                9.5:   DRILLING FLUID PH
 DFL .                  8:   DRILLING FLUID LOSS
 MSS .          FLOW LINE:   MUD SAMPLE SOURCE
 RMS .OHMM           1.35:   RESISTIVITY MUD SAMPLE
 MST .F                74:   MUD SAMPLE TEMPERATURE
 RMF .OHMM            .81:   RESISTIVITY MUD FILTRATE SAMPLE
 MFST.F                74:   MUD FILTRATE SAMPLE TEMPERATURE
 MFSS.                  M:   MUD FILTRATE SAMPLE SOURCE
 RMB .OHMM            .83:   RESISTIVITY MUD AT BHT
 BHT .F               121:   BOTTOM HOLE TEMPERATURE
 TCS .HRS               4:   TIME CURCULATED STOPPED
 MRT .F               121:   MAXIMUM RECORDED TEMPERATURE
 LUN .               4507:   LOGGING UNIT NUMBER
 LUL .               CSPR:   LOGGING UNIT LOCATION
 ENGI.               MIXA:   RECORDING ENGINEER
 WITN.                MAY:   WITNESSED BY
 CLNT.            A2DTECH:   CLIENT CODE
 ORIG.     1", 2.5" PRINT:   ORIGIN OF DATA
 UWI .       490251002700:   UNIQUE WELL ID
 DICO. A2D Technologies, Inc.:   DIGITIZING COMPANY
~OTHER INFORMATION
~A   DEPT      CILD       ILD         SN        SPR       CALD       DPHI        GRD       RHOB       DRHO   
# ...
 2893.5000   204.4140     4.8561     6.7453    -7.6563     8.9783     0.0475   128.2163     2.5674     0.1018
 2894.0000   201.1946     5.0124     6.7481    -7.6607     8.9789     0.0505   131.3827     2.5697     0.0952
 2894.5000   198.4816     5.0161     6.9061    -7.6651     8.9794     0.0517   129.0977     2.5765     0.0863
 2895.0000   196.2967     5.1703     7.0641    -7.6698     8.9799     0.0466   122.7185     2.5834     0.0764
 2895.5000   193.0768     5.1718     7.0663    -7.6744     8.9804     0.0427   120.7869     2.5730     0.0663
 2896.0000   189.8571     5.1734     7.0686    -7.6790     8.9809     0.0550   120.8373     2.5566     0.0601
 2896.5000   186.6366     5.1749     7.2266    -7.6836     8.9814     0.0576   122.5980     2.5611     0.0543
 2897.0000   183.4160     5.1765     7.2396    -7.6883     8.9819     0.0498   124.7274     2.5687     0.0504
 2897.5000   181.1278     5.1780     7.4046    -7.6929     8.9825     0.0513   125.3087     2.5732     0.0490
 2898.0000   178.5191     5.1796     7.5696    -7.6975     8.9830     0.0542   123.8886     2.5684     0.0515
 2898.5000   177.4460     5.1811     7.7345    -7.5902     8.9835     0.0534   124.1007     2.5621     0.0589
 2899.0000   180.8869     5.1827     7.8614    -7.3981     8.9724     0.0531   125.9065     2.5564     0.0630
 2899.5000   185.7371     5.1842     7.8187    -7.4028     8.9547     0.0568   124.0978     2.5539     0.0657
 2900.0000   191.3593     5.1858     7.5547    -7.2531     8.9552     0.0567   121.6867     2.5573     0.0659
 2900.5000   195.9963     5.1873     7.1865    -7.1034     8.9226     0.0496   120.4479     2.5685     0.0637
 2901.0000   202.1765     5.1889     6.9605    -7.1080     8.8966     0.0443   119.8767     2.5690     0.0575
 2901.5000   208.3567     5.1904     6.7101    -7.1127     8.8971     0.0538   121.3709     2.5557     0.0489
 2902.0000   213.0443     5.0873     6.5499    -7.1173     7.6988     0.0682   122.2376     2.5408     0.0412
 2902.5000   216.1841     4.9271     6.4759    -7.1219     6.1220     0.0808   119.0621     2.5259     0.0338
 2903.0000   217.6381     4.8854     6.4782    -7.1265     8.1228     0.0849   117.4407     2.5135     0.0282
 2903.5000   211.8269     4.8873     6.4805    -7.4406     8.9887     0.0791   119.7974     2.5094     0.0262
 2904.0000   204.0734     4.8888     6.6969    -7.7537     8.9893     0.0753   120.8971     2.5211     0.0262
 2904.5000   197.2480     5.0450     7.0245    -7.7581     8.9898     0.0778   119.2831     2.5225     0.0274
 2905.0000   189.1850     5.2013     7.2313    -7.7625     8.9903     0.0713   118.9833     2.5260     0.0315
 2905.5000   181.6430     5.2028     7.5806    -7.7670     8.9908     0.0529   118.1918     2.5441     0.0392
 2906.0000   175.1953     5.5186     7.7386    -7.7716     8.9914     0.0481   117.0632     2.5576     0.0487
 2906.5000   169.4104     5.6817     8.0524    -7.7762     8.9919     0.0469   118.1103     2.5741     0.0563
 2907.0000   165.3703     5.8449     8.3662    -7.7809     8.9924     0.0464   121.8266     2.5741     0.0576
 2907.5000   158.9506     6.0082     8.3684    -7.7855     8.9929     0.0466   121.6639     2.5691     0.0541
 2908.0000   160.8646     6.1390     8.3707    -7.7901     8.9934     0.0513   121.6624     2.5615     0.0504
 2908.5000   162.4630     6.0881     8.3599    -7.7086     8.9909     0.0559   122.2634     2.5564     0.0500
 2909.0000   164.5419     6.2415     8.1467    -7.4907     8.9645     0.0521   125.2741     2.5597     0.0521
 2909.5000   169.3480     6.0786     7.8660    -7.4954     8.9651     0.0467   128.9887     2.5726     0.0537
 2910.0000   179.7078     5.6037     7.3988    -7.3714     8.9497     0.0466   134.3835     2.5801     0.0577
 2910.5000   196.0368     5.2551     6.9315    -7.1960     8.9065     0.0393   144.9086     2.5869     0.0588
 2911.0000   234.1747     4.6118     6.4642    -7.2006     8.9070     0.0349   161.8005     2.5934     0.0601
 2911.5000   288.1759     3.8956     6.1526    -7.2052     8.9075     0.0372   170.0867     2.5858     0.0582
 2912.0000   315.8733     2.8917     5.8411    -7.2099     8.9081     0.0492   160.6548     2.5708     0.0525
 2912.5000   334.0078     2.5155     5.2049    -7.2145     8.9086     0.0606   143.5453     2.5559     0.0454
 2913.0000   349.6736     2.4319     4.5436    -7.2191     8.9447     0.0711   126.7385     2.5428     0.0413
 2913.5000   354.3736     2.2028     3.6604    -6.9961     8.9693     0.0778   116.8479     2.5269     0.0458
 2914.0000   352.8697     2.2012     3.6604    -6.9198     8.9909     0.0828   111.0818     2.5120     0.0542
 2914.5000   335.5065     2.3149     3.7095    -6.9251     9.0002     0.0873   107.9833     2.4985     0.0611
 2915.0000   303.5240     2.6973     4.0614    -6.9296     9.0307     0.0887   107.1837     2.4971     0.0624
 2915.5000   276.7568     3.3143     4.5799    -6.9340     9.0312     0.0874   107.9852     2.4956     0.0570
 2916.0000   242.2840     4.1146     5.2649    -6.9384     9.0317     0.0898   108.8192     2.5047     0.0444
 2916.5000   209.8765     4.9148     6.1620    -6.9428     9.0919     0.0924   110.8504     2.5221     0.0368
 2917.0000   191.3580     5.5441     7.0337    -6.9395     9.0935     0.0863   113.2016     2.5408     0.0331
 2917.5000   177.4691     5.8417     7.2995    -6.9361     9.1227     0.0768   115.0074     2.5566     0.0325
 2918.0000   166.6667     5.9040     7.3988    -6.9321     9.0934     0.0611   116.8132     2.5718     0.0328
 2918.5000   168.2099     5.9025     7.3988    -6.9275     9.0819     0.0443   118.6190     2.5826     0.0343
 2919.0000   169.7968     5.9009     7.3263    -6.9228     9.0348     0.0372   116.6816     2.5845     0.0400
 2919.5000   171.3954     5.8994     7.2430    -7.1150     9.0260     0.0444   113.7967     2.5765     0.0442
 2920.0000   173.1486     5.8978     7.1599    -7.2222     9.0060     0.0489   114.1571     2.5712     0.0492
 2920.5000   176.1359     5.8960     6.9988    -7.2176     9.0065     0.0411   116.3260     2.5799     0.0552
 2921.0000   177.7344     5.8945     6.8378    -7.4368     8.9928     0.0338   116.6492     2.5863     0.0624
 2921.5000   179.0123     5.8930     6.6767    -7.5170     8.9459     0.0362   116.0127     2.5816     0.0685
 2922.0000   179.7633     5.7367     6.5156    -7.5123     8.9185     0.0410   116.0364     2.5735     0.0744
 2922.5000   182.0988     5.5804     6.4642    -7.5069     8.9190     0.0441   118.5654     2.5713     0.0764
 2923.0000   183.0714     5.5789     6.5792    -7.1937     8.8988     0.0458   123.5766     2.5792     0.0781
 2923.5000   186.2681     5.5747     6.7403    -6.8806     8.8902     0.0447   129.9241     2.5924     0.0717
 2924.0000   193.0425     5.4128     6.9315    -6.8761     8.8908     0.0340   137.2526     2.6015     0.0554
 2924.5000   212.3494     5.2371     7.0872    -6.2543     8.8913     0.0249   145.2492     2.6041     0.0431
 2925.0000   238.2960     4.9149     6.7757    -6.2498     8.9217     0.0299   149.5787     2.5792     0.0356
 2925.5000   259.1516     4.5926     6.3084    -5.6280     8.9819     0.0437   146.8493     2.5629     0.0312
 2926.0000   278.3351     4.2399     5.8411    -5.6183     9.0122     0.0550   138.4709     2.5534     0.0304
 2926.5000   294.0248     3.7213     5.2181    -5.2961     9.0152     0.0585   132.4914     2.5559     0.0355
 2927.0000   301.2405     3.1615     4.5914    -4.9969     9.0431     0.0599   127.1687     2.5515     0.0476
 2927.5000   302.4691     2.9334     4.2835    -4.9923     9.0437     0.0656   121.7680     2.5455     0.0640
 2928.0000   299.3523     2.9319     4.6074    -4.9877     9.0442     0.0646   116.9035     2.5532     0.0689
 2928.5000   291.2733     2.9886     4.8041    -4.9830     9.0447     0.0574   115.4880     2.5665     0.0720
 2929.0000   273.6329     3.2748     5.2643    -4.9784     9.0346     0.0492   115.9608     2.5792     0.0667
 2929.5000   245.6194     3.8927     5.6150    -4.9738     9.0159     0.0413   117.3347     2.5860     0.0542
