~VERSION INFORMATION
 VERS.                2.0:   CWLS LOG ASCII STANDARD - VERSION 2.0
 WRAP.                 NO:   ONE LINE PER DEPTH STEP
~WELL INFORMATION
#MNEM.UNIT      DATA TYPE    INFORMATION
#----------   ------------   ------------------------------
 STRT.F          520.5000:   START DEPTH
 STOP.F         3119.5000:   STOP DEPTH
 STEP.F            0.5000:   STEP LENGTH
 NULL.          -999.2500:   NO VALUE
 COMP.   FLUOR DANIEL INC:   COMPANY
 WELL. NAVAL PETROLEUM RESERVE 3 X-10 #52-10:   WELL
 FLD .            WILDCAT:   FIELD
 LOC .      S10 T38N R78W:   LOCATION
 CNTY.            NATRONA:   COUNTY
 STAT.            WYOMING:   STATE
 CTRY. UNITED STATES OF AMERICA:   COUNTRY
 SRVC.            Unknown:   SERVICE COMPANY
 DATE.        16-AUG-1995:   LOGDATE
 API .       490252275200:   API NUMBER
~CURVE INFORMATION
#MNEM.UNIT       API CODE    CURVE DESCRIPTION
#----------   ------------   ------------------------------
 DEPT.F                  :   
 ROP .MIN/FT 91 810 01 00:   RAT OF DRILLING PENETRATION
 TGAS.UNITS  91 830 01 00:   TOTAL GAS FROM HOTWIRE
~PARAMETER INFORMATION
#MNEM.UNIT          VALUE    DESCRIPTION
#----------   ------------   ------------------------------
 EKB .F              5206:   KELLING BUSHING
 EGL .F              5196:   GROUND LEVEL
 DATE.            8-16-95:   RUN DATE
 DD  .F              3120:   DEPTH DRILLER
 CS  .IN            9.625:   CASING SIZE
 CBD .F               508:   CASING BOTTOM DRILLER
 BS  .IN             8.75:   BIT SIZE
 BSD .F              3120:   BIT SIZE AT DEPTH
 ENGI.               HUSK:   RECORDING ENGINEER
 WITN.              TOWER:   WITNESSED BY
 CLNT.            A2DTECH:   CLIENT CODE
 ORIG.           5" PRINT:   ORIGIN OF DATA
 UWI .       490252275200:   UNIQUE WELL ID
 DICO. A2D Technologies, Inc.:   DIGITIZING COMPANY
~OTHER INFORMATION
~A   DEPT        ROP     TGAS   
# ...
 1614.0000     0.4301    32.4530
 1614.5000     0.4295    32.4445
 1615.0000     0.4290    32.4360
 1615.5000     0.4391    32.4274
 1616.0000     0.4385    32.4189
 1616.5000     0.4379    32.4104
 1617.0000     0.4374    32.4018
 1617.5000     0.4476    32.3933
 1618.0000     0.4470    32.3847
 1618.5000     0.4465    32.3762
 1619.0000     0.4566    32.3677
 1619.5000     0.4560    32.3591
 1620.0000     0.4555    32.3506
 1620.5000     0.4549    32.3420
 1621.0000     0.4544    32.3335
 1621.5000     0.4539    32.3250
 1622.0000     0.4533    32.3164
 1622.5000     0.4528    32.3079
 1623.0000     0.4523    32.2993
 1623.5000     0.4518    32.2908
 1624.0000     0.4513    32.2823
 1624.5000     0.4400    32.2737
 1625.0000     0.4395    32.2652
 1625.5000     0.4390    32.2566
 1626.0000     0.4385    32.2481
 1626.5000     0.4380    32.2396
 1627.0000     0.4375    32.2310
 1627.5000     0.4264    32.2225
 1628.0000     0.4258    32.2140
 1628.5000     0.4253    32.2054
 1629.0000     0.4247    32.1969
 1629.5000     0.4242    32.1883
 1630.0000     0.4237    32.1798
 1630.5000     0.4231    32.1713
 1631.0000     0.4226    32.1627
 1631.5000     0.4221    32.1542
 1632.0000     0.4216    32.1456
 1632.5000     0.4317    32.1371
 1633.0000     0.4311    32.1286
 1633.5000     0.4305    32.1200
 1634.0000     0.4300    32.1115
 1634.5000     0.4296    32.1029
 1635.0000     0.4290    32.0944
 1635.5000     0.4284    32.0859
 1636.0000     0.4279    32.0773
 1636.5000     0.4380    32.0688
 1637.0000     0.4375    32.0602
 1637.5000     0.4264    32.0517
 1638.0000     0.4365    32.0432
 1638.5000     0.4358    32.0346
 1639.0000     0.4353    32.0261
 1639.5000     0.4348    32.0176
 1640.0000     0.4343    32.0090
 1640.5000     0.4343    32.0005
 1641.0000     0.4343    31.9919
 1641.5000     0.4343    31.9834
 1642.0000     0.4343    31.9749
 1642.5000     0.4343    31.9663
 1643.0000     0.4343    31.9578
 1643.5000     0.4343    31.9492
 1644.0000     0.4343    31.9407
 1644.5000     0.4343    31.9322
 1645.0000     0.4343    31.9236
 1645.5000     0.4343    31.9151
 1646.0000     0.4343    31.9065
 1646.5000     0.4343    31.8980
 1647.0000     0.4343    31.8895
 1647.5000     0.4237    31.8809
 1648.0000     0.4237    31.8724
 1648.5000     0.4237    31.8638
 1649.0000     0.4237    31.8553
 1649.5000     0.4237    31.8468
 1650.0000     0.4343    31.8382
 1650.5000     0.4449    31.8297
 1651.0000     0.4449    31.8211
 1651.5000     0.4555    31.8126
 1652.0000     0.4661    31.8041
 1652.5000     0.4661    31.7955
 1653.0000     0.4661    31.7870
 1653.5000     0.4767    31.7785
 1654.0000     0.4767    31.7699
 1654.5000     0.4767    31.7614
 1655.0000     0.4767    31.7528
 1655.5000     0.4767    31.7443
 1656.0000     0.4873    31.7358
 1656.5000     0.4873    31.7272
 1657.0000     0.4873    31.7187
 1657.5000     0.4873    31.7101
 1658.0000     0.4979    31.7016
 1658.5000     0.4979    31.6931
 1659.0000     0.4979    31.6845
 1659.5000     0.4979    31.6760
 1660.0000     0.4979    31.6674
 1660.5000     0.4979    31.6589
 1661.0000     0.4979    31.6504
 1661.5000     0.4979    31.6418
 1662.0000     0.4979    31.6333
 1662.5000     0.4979    31.6247
 1663.0000     0.4873    31.6162
 1663.5000     0.4873    31.6077
 1664.0000     0.4859    31.5991
 1664.5000     0.4767    31.5906
 1665.0000     0.4767    31.5821
 1665.5000     0.4767    31.5735
 1666.0000     0.4767    31.5650
 1666.5000     0.4767    31.5564
 1667.0000     0.4767    31.5479
 1667.5000     0.4767    31.5394
 1668.0000     0.4756    31.5308
 1668.5000     0.4661    31.5223
 1669.0000     0.4661    31.5137
 1669.5000     0.4661    31.5052
 1670.0000     0.4555    31.4967
 1670.5000     0.4449    31.4881
 1671.0000     0.4449    31.4796
 1671.5000     0.4343    31.4710
 1672.0000     0.4343    31.4625
 1672.5000     0.4343    31.4540
 1673.0000     0.4343    31.4454
 1673.5000     0.4343    31.4369
 1674.0000     0.4343    31.4283
 1674.5000     0.4343    31.4198
 1675.0000     0.4343    31.4113
 1675.5000     0.4343    31.4027
 1676.0000     0.4343    31.3942
 1676.5000     0.4343    31.3857
 1677.0000     0.4343    31.3771
 1677.5000     0.4343    31.3686
 1678.0000     0.4343    31.3600
 1678.5000     0.4343    31.3515
 1679.0000     0.4343    31.3430
 1679.5000     0.4343    31.3344
 1680.0000     0.4448    31.3259
 1680.5000     0.4439    31.3173
 1681.0000     0.4538    31.3088
 1681.5000     0.4420    31.3003
 1682.0000     0.4305    31.2917
 1682.5000     0.4296    31.2832
 1683.0000     0.4287    31.2746
 1683.5000     0.4172    31.2661
 1684.0000     0.4163    31.2576
 1684.5000     0.4260    31.2490
 1685.0000     0.4251    31.2405
 1685.5000     0.4241    31.2319
 1686.0000     0.4230    31.2234
 1686.5000     0.4115    31.2149
 1687.0000     0.4106    31.2063
 1687.5000     0.3991    31.1978
 1688.0000     0.3876    31.1893
 1688.5000     0.3761    31.1807
 1689.0000     0.3752    31.1722
 1689.5000     0.3743    31.1636
 1690.0000     0.3734    31.1551
 1690.5000     0.3619    31.1466
 1691.0000     0.3610    31.1380
 1691.5000     0.3600    31.1295
 1692.0000     0.3591    31.1209
 1692.5000     0.3580    31.1124
 1693.0000     0.3571    31.1039
 1693.5000     0.3562    31.0953
 1694.0000     0.3553    31.0868
 1694.5000     0.3544    31.0782
 1695.0000     0.3535    31.0697
 1695.5000     0.3525    31.0612
 1696.0000     0.3516    31.0526
 1696.5000     0.3615    31.0441
 1697.0000     0.3604    31.0355
 1697.5000     0.3489    31.0270
 1698.0000     0.3480    31.0185
 1698.5000     0.3471    31.0099
 1699.0000     0.3461    31.0014
 1699.5000     0.3450    30.9929
 1700.0000     0.3441    32.2642
 1700.5000     0.3432    32.6887
 1701.0000     0.3423    32.6887
 1701.5000     0.3414    32.4764
 1702.0000     0.3405    32.4764
 1702.5000     0.3396    32.4730
 1703.0000     0.3387    32.4691
 1703.5000     0.3378    32.4651
 1704.0000     0.3898    32.4611
 1704.5000     0.4631    32.4572
 1705.0000     0.4612    32.4532
 1705.5000     0.4506    32.4492
 1706.0000     0.4389    32.4453
 1706.5000     0.4274    32.4413
 1707.0000     0.4265    32.4373
 1707.5000     0.4256    32.4334
 1708.0000     0.4141    32.4294
 1708.5000     0.4132    32.4254
 1709.0000     0.4123    32.4215
 1709.5000     0.4114    32.4175
 1710.0000     0.4104    32.4135
 1710.5000     0.4095    32.4095
 1711.0000     0.4086    32.4056
 1711.5000     0.4077    32.4016
 1712.0000     0.4068    32.3976
 1712.5000     0.3951    32.3937
 1713.0000     0.3942    32.3897
 1713.5000     0.3933    32.3857
 1714.0000     0.3818    32.3818
 1714.5000     0.3808    32.3778
 1715.0000     0.3799    32.3738
 1715.5000     0.3684    32.3699
 1716.0000     0.3675    32.3659
 1716.5000     0.3666    32.3619
 1717.0000     0.3657    32.3580
 1717.5000     0.3542    32.3540
 1718.0000     0.3639    32.3500
 1718.5000     0.3630    32.3461
 1719.0000     0.3746    32.3421
 1719.5000     0.3823    32.3381
 1720.0000     0.3920    32.3341
 1720.5000     0.4122    32.3302
 1721.0000     0.4111    32.3262
 1721.5000     0.4102    32.3222
 1722.0000     0.4093    32.3183
 1722.5000     0.4084    32.3143
 1723.0000     0.4075    32.3103
 1723.5000     0.4066    32.3064
 1724.0000     0.4057    32.3024
 1724.5000     0.3942    32.2984
 1725.0000     0.3933    32.2945
 1725.5000     0.3923    32.2905
 1726.0000     0.3912    32.2865
 1726.5000     0.3903    32.2826
 1727.0000     0.3894    32.2786
 1727.5000     0.3885    32.2746
 1728.0000     0.3876    32.5726
 1728.5000     0.3867    33.0191
 1729.0000     0.3858    33.7776
 1729.5000     0.3849    34.4977
 1730.0000     0.3840    34.9952
 1730.5000     0.3831    34.8889
 1731.0000     0.3820    35.1125
 1731.5000     0.3811    35.1239
 1732.0000     0.3802    35.1353
 1732.5000     0.3793    35.5713
 1733.0000     0.3784    35.7949
 1733.5000     0.3774    36.4431
 1734.0000     0.3765    36.8790
 1734.5000     0.3756    37.3152
 1735.0000     0.3641    37.5389
