~VERSION INFORMATION
 VERS.                2.0:   CWLS LOG ASCII STANDARD - VERSION 2.0
 WRAP.                 NO:   ONE LINE PER DEPTH STEP
~WELL INFORMATION
#MNEM.UNIT      DATA TYPE    INFORMATION
#----------   ------------   ------------------------------
 STRT.F           30.0000:   START DEPTH
 STOP.F          759.0000:   STOP DEPTH
 STEP.F            0.5000:   STEP LENGTH
 NULL.          -999.2500:   NO VALUE
 COMP. FENIX & SCISSON INC:   COMPANY
 WELL.    NPR ##3 15-S-14:   WELL
 FLD .             TEAPOT:   FIELD
 LOC .      S14 T38N R78W:   LOCATION
 CNTY.            NATRONA:   COUNTY
 STAT.            WYOMING:   STATE
 CTRY. UNITED STATES OF AMERICA:   COUNTRY
 SRVC.              Welex:   SERVICE COMPANY
 DATE.        23-FEB-1977:   LOGDATE
 API .       490251027600:   API NUMBER
~CURVE INFORMATION
#MNEM.UNIT       API CODE    CURVE DESCRIPTION
#----------   ------------   ------------------------------
 DEPT.F                  :   
 GURD.OHMM   07 220 05 00:   SHALLOW SHORT GUARD RESISTIVITY
 ILD .OHMM   07 120 46 00:   INDUCTION LOG DEEP
 ILM .OHMM   07 120 44 00:   INDUCTION LOG MEDIUM
 SPR .MV     07 010 01 00:   SPONTANEOUS POTENTIAL
 CALD.IN     45 280 60 00:   CALIPER FROM DENSITY LOG
 CORR.G/C3   45 356 01 00:   DENSITY CORRECTION
 DPHI.DEC    45 890 12 00:   DENSITY POROSITY SANDSTONE
 GRD .GAPI   45 310 01 00:   GAMMA RAY FROM DENSITY LOG
 RHOB.G/C3   45 350 01 00:   BULK DENSITY
~PARAMETER INFORMATION
#MNEM.UNIT          VALUE    DESCRIPTION
#----------   ------------   ------------------------------
 PD  .                 GL:   PERMANENT DATUM
 EPD .F            5229.2:   ELEVATION PERMANENT DATUM
 LMF .                 GL:   LOG MEASURED FROM
 DMF .                 GL:   DRILLING MEASURED FROM
 EGL .F            5229.2:   GROUND LEVEL
 DATE.        23-FEB-1977:   RUN DATE
 RUN .                  1:   RUN NUMBER
 DD  .F               764:   DEPTH DRILLER
 DL  .F               762:   DEPTH LOGGER
 BLI .F               760:   BOTTOM LOG INTERVAL
 TLI .F                40:   TOP LOG INTERVAL
 CS  .IN            8.625:   CASING SIZE
 CBD .F                40:   CASING BOTTOM DRILLER
 CBL .F                40:   CASING BOTTOM LOGGER
 BS  .IN            7.875:   BIT SIZE
 BSD .F               764:   BIT SIZE AT DEPTH
 DFT .           CHEM/GEL:   DRILLING FLUID TYPE
 DFD .                9.4:   DRILLING FLUID DENSITY
 DFV .                 50:   DRILLING FLUID VISCOSITY
 DFPH.               11.0:   DRILLING FLUID PH
 DFL .               12.2:   DRILLING FLUID LOSS
 MSS .           FLOWLINE:   MUD SAMPLE SOURCE
 RMS .OHMM           0.23:   RESISTIVITY MUD SAMPLE
 MST .F                38:   MUD SAMPLE TEMPERATURE
 RMF .OHMM           0.15:   RESISTIVITY MUD FILTRATE SAMPLE
 MFST.F                38:   MUD FILTRATE SAMPLE TEMPERATURE
 RMC .OHMM           0.54:   RESISTIVITY MUD CAKE
 MCST.F                38:   MUD CAKE SAMPLE TEMPERATURE
 MFSS.               MEAS:   MUD FILTRATE SAMPLE SOURCE
 MCSS.               MEAS:   MUD CAKE SAMPLE SOURCE
 RMB .OHMM           .148:   RESISTIVITY MUD AT BHT
 BHT .F                59:   BOTTOM HOLE TEMPERATURE
 TCS .HRS               2:   TIME CURCULATED STOPPED
 MRT .F                59:   MAXIMUM RECORDED TEMPERATURE
 LUN .               8611:   LOGGING UNIT NUMBER
 LUL .           GILLETTE:   LOGGING UNIT LOCATION
 ENGI.             C.DOAK:   RECORDING ENGINEER
 WITN.         STUEBINGER:   WITNESSED BY
 CLNT.            A2DTECH:   CLIENT CODE
 ORIG.           5" PRINT:   ORIGIN OF DATA
 UWI .       490251027600:   UNIQUE WELL ID
 DICO. A2D Technologies, Inc.:   DIGITIZING COMPANY
~OTHER INFORMATION
~A   DEPT     GURD        ILD        ILM        SPR         CALD      CORR      DPHI         GRD        RHOB 
# ...
  212.5000     9.5490     7.0445     9.3207   -49.3655     8.2002     0.1112     0.0945   103.9238     2.4875
  213.0000     9.6165     6.9964     9.3853   -49.3640     8.2000     0.1142     0.0915   106.9898     2.4957
  213.5000     9.8873     6.9970     9.4504   -49.0641     8.1998     0.1157     0.0888   109.8313     2.5039
  214.0000    10.4507     7.0459     9.5159   -49.0626     8.1997     0.1172     0.0861   110.5802     2.5114
  214.5000    11.1998     7.0464     9.5819   -49.2104     8.2064     0.1188     0.0843   112.3754     2.5144
  215.0000    11.2090     7.0469     9.6483   -49.0597     8.2144     0.1235     0.0828   114.7681     2.5159
  215.5000    10.6739     7.0232     9.4504   -49.0582     8.2142     0.1292     0.0816   112.6773     2.5129
  216.0000     9.9436     6.9994     9.3207   -49.0567     8.2141     0.1277     0.0874   110.8850     2.5054
  216.5000     9.2991     6.9517     9.2565   -49.0550     8.2188     0.1158     0.0989   113.1286     2.4956
  217.0000     9.1095     6.9523     9.0666   -48.9045     8.2288     0.1083     0.1030   115.6712     2.4844
  217.5000     8.9238     6.8575     9.0042   -48.9028     8.2286     0.1068     0.1030   114.7758     2.4761
  218.0000     8.6817     6.8108     8.8806   -48.9014     8.2285     0.1053     0.1039   112.9836     2.4746
  218.5000     8.5045     6.7178     8.8122   -48.8999     8.2283     0.1038     0.1060   110.8645     2.4754
  219.0000     8.5059     6.6721     8.6984   -48.8984     8.2282     0.1039     0.1084   108.5800     2.4731
  219.5000     8.9287     6.5811     8.5200   -48.8970     8.2280     0.1039     0.1105   106.4114     2.4664
  220.0000     9.2437     6.4915     8.4030   -48.8955     8.2279     0.1039     0.1063   106.8613     2.4641
  220.5000     9.4386     6.4029     8.3452   -48.8940     8.2277     0.1024     0.1030   108.6564     2.4705
  221.0000     9.3710     6.2722     8.2877   -48.8925     8.2276     0.1009     0.1007   108.9569     2.4791
  221.5000     9.1838     6.1867     8.2306   -48.8908     8.2424     0.1049     0.0986   109.2573     2.4843
  222.0000     9.3132     6.1872     8.3452   -48.8893     8.2423     0.1084     0.0968   111.0521     2.4881
  222.5000     9.3790     6.1450     8.4613   -48.8879     8.2421     0.1115     0.0953   111.2034     2.4918
  223.0000     9.2516     6.1880     8.6984   -48.7372     8.2570     0.1115     0.0941   113.2976     2.4940
  223.5000     9.0627     6.2744     8.8806   -48.7357     8.2568     0.1100     0.0938   116.7370     2.4895
  224.0000     9.0015     6.3620     8.9422   -48.6746     8.2717     0.1070     0.1001   119.2796     2.4828
  224.5000     9.0654     6.4955     8.9422   -48.5164     8.2715     0.1025     0.1043   117.7863     2.4768
  225.0000     9.4504     6.5862     9.0042   -48.4329     8.2714     0.0996     0.1025   116.4425     2.4745
  225.5000    10.1981     6.6781     9.0666   -48.3493     8.2712     0.0981     0.1017   118.7299     2.4769
  226.0000    10.3414     6.8183     9.1295   -48.2803     8.2861     0.1011     0.1008   118.0020     2.4835
  226.5000    10.2629     6.9673     9.2565   -48.1296     8.2836     0.1057     0.0993   115.8998     2.4902
  227.0000     9.9932     7.1075     9.3207   -48.1281     8.2804     0.1118     0.0927   114.0857     2.4992
  227.5000     9.8574     7.1572     9.4504   -48.1267     8.2772     0.1191     0.0855   112.2648     2.5067
  228.0000     9.7905     7.2072     9.5159   -48.1252     8.2740     0.1191     0.0828   111.2199     2.5104
  228.5000     9.9284     7.2576     9.5159   -47.9745     8.2708     0.1146     0.0894   111.3709     2.5074
  229.0000    10.2081     7.2581     9.4504   -47.9731     8.2676     0.1101     0.0925   112.1194     2.5037
  229.5000    10.6416     7.2086     9.4504   -47.9716     8.2645     0.1072     0.0922   110.6264     2.4984
  230.0000    10.5697     7.1104     9.3207   -48.1194     8.2638     0.1042     0.0992   107.9373     2.4932
  230.5000    10.2830     7.1108     9.2565   -48.2672     8.2630     0.1027     0.1027   107.0416     2.4864
  231.0000    10.0040     7.1113     9.0666   -48.4149     8.2775     0.0997     0.1012   108.9866     2.4795
  231.5000     9.7267     7.0629     9.0042   -48.7117     8.2766     0.0968     0.1009   108.3902     2.4759
  232.0000     9.4689     7.0634     8.9422   -48.7102     8.2758     0.0953     0.1009   105.6851     2.4789
  232.5000     9.2759     7.0640     8.8806   -48.8580     8.2901     0.0938     0.1024   103.2661     2.4797
  233.0000     9.1499     7.0645     8.8194   -48.8566     8.2823     0.0938     0.1081   103.8904     2.4767
  233.5000     9.1511     7.0649     8.7587   -49.0044     8.2736     0.0938     0.1111   106.7521     2.4684
  234.0000     9.2158     7.0654     8.6984   -48.8537     8.2579     0.0938     0.1150   109.2947     2.4602
  234.5000     9.5410     7.0659     8.6322   -48.8522     8.2570     0.0938     0.1082   114.2289     2.4594
  235.0000     9.8097     7.1153     8.5790   -48.9005     8.2562     0.0954     0.1052   115.7252     2.4646
  235.5000     9.6764     7.1650     8.5790   -48.9986     8.2555     0.0954     0.1028   114.9792     2.4774
  236.0000     9.5449     7.3397     8.5790   -48.9967     8.2699     0.0954     0.0992   114.3824     2.4841
  236.5000    10.1088     7.4718     8.6984   -48.9953     8.2690     0.0969     0.0977   115.8790     2.4856
  237.0000    11.0501     7.7315     8.8194   -48.9941     8.2683     0.0969     0.0973   113.0405     2.4848
  237.5000    11.1938     7.8939     8.8806   -49.0174     8.2827     0.0984     0.0926   113.1914     2.4916
  238.0000    11.1179     8.0041     8.9422   -49.1403     8.2818     0.0999     0.0945   111.9970     2.5028
  238.5000    11.2745     7.9496     8.8806   -49.1388     8.2811     0.1015     0.0999   108.4111     2.4961
  239.0000    11.7533     7.8955     8.8806   -49.1372     8.2803     0.1015     0.1020   105.2576     2.4848
  239.5000    12.0843     7.7877     8.8806   -49.1358     8.2946     0.1015     0.0993   105.9487     2.4811
  240.0000    11.8380     7.7346     8.8806   -49.1343     8.2789     0.1013     0.0972   110.0601     2.4878
  240.5000    11.1257     7.6602     8.8194   -49.1328     8.2781     0.1048     0.0954   113.9480     2.4923
  241.0000    10.6754     7.5774     8.6984   -49.1310     8.2772     0.1079     0.0945   116.7895     2.4953
  241.5000    10.3841     7.4728     8.5790   -49.2788     8.2766     0.1075     0.0955   117.5383     2.4922
  242.0000    10.1657     7.3154     8.3452   -49.2774     8.2909     0.1060     0.0994   116.0450     2.4891
  242.5000     9.8984     7.1227     8.0618   -49.2759     8.2900     0.1031     0.1051   112.9075     2.4848
  243.0000     9.6966     6.9293     7.7880   -49.2745     8.2893     0.1001     0.1084   111.5633     2.4803
  243.5000     9.4990     6.8348     7.6811   -49.4226     8.2885     0.0956     0.1102   112.6115     2.4743
  244.0000     9.4345     6.8353     7.7344   -49.4208     8.2728     0.0941     0.1120   113.3603     2.4683
  244.5000     9.4361     6.8357     8.0618   -49.5687     8.2721     0.0941     0.1129   112.9134     2.4630
  245.0000     9.7691     6.8835     8.3452   -49.5672     8.2713     0.0959     0.1090   111.4201     2.4652
  245.5000    10.2546     6.9507     8.2786   -49.5657     8.2556     0.1002     0.1033   110.0762     2.4802
  246.0000    10.4708     7.0284     8.1177   -49.4146     8.2549     0.1017     0.0971   112.0449     2.4929
  246.5000    10.6180     7.1266     8.2306   -49.4132     8.2541     0.1047     0.0947   113.4135     2.4982
  247.0000    10.8484     7.2261     8.4613   -49.4117     8.2684     0.1047     0.0935   114.1169     2.4989
  247.5000    10.9185     7.3271     8.6535   -49.4103     8.2675     0.1047     0.0923   113.2215     2.4974
  248.0000    10.5495     7.4294     8.8693   -49.4088     8.2667     0.1047     0.0887   111.4292     2.4989
  248.5000     9.9835     7.4813     9.0850   -49.4073     8.2660     0.1047     0.0845   107.9927     2.5049
