~VERSION INFORMATION
 VERS.                2.0:   CWLS LOG ASCII STANDARD - VERSION 2.0
 WRAP.                 NO:   ONE LINE PER DEPTH STEP
~WELL INFORMATION
#MNEM.UNIT      DATA TYPE    INFORMATION
#----------   ------------   ------------------------------
 STRT.F           18.0000:   START DEPTH
 STOP.F          501.0000:   STOP DEPTH
 STEP.F            0.5000:   STEP LENGTH
 NULL.          -999.2500:   NO VALUE
 COMP. FENIX & SCISSON INC:   COMPANY
 WELL.     NPR-3 SX #34-3:   WELL
 FLD .             TEAPOT:   FIELD
 LOC .       S3 T38N R78W:   LOCATION
 CNTY.            NATRONA:   COUNTY
 STAT.            WYOMING:   STATE
 CTRY. UNITED STATES OF AMERICA:   COUNTRY
 SRVC.            Unknown:   SERVICE COMPANY
 DATE.        13-JUL-1978:   LOGDATE
 API .       490251066600:   API NUMBER
~CURVE INFORMATION
#MNEM.UNIT       API CODE    CURVE DESCRIPTION
#----------   ------------   ------------------------------
 DEPT.F                  :   
 SPR .MV     05 010 01 00:   SPONTANEOUS POTENTIAL FROM RES.
 SN  .OHMM   05 040 16 00:   SHORT NORMAL 16"
 ILD .OHMM   05 120 46 00:   INDUCTION LOG DEEP
 CALD.IN     45 280 60 00:   CALIPER FROM DENSITY LOG
 GRD .GAPI   45 310 01 00:   GAMMA RAY FROM DENSITY LOG
 CORR.G/C3   45 356 01 00:   DENSITY CORRECTION
 DEN .G/C3   45 350 01 00:   COMPENSATED BULK DENSTIY
 DPHI.DEC    45 890 12 00:   DENSITY POROSITY SANDSTONE
~PARAMETER INFORMATION
#MNEM.UNIT          VALUE    DESCRIPTION
#----------   ------------   ------------------------------
 PD  .                 GL:   PERMANENT DATUM
 EPD .F              5209:   ELEVATION PERMANENT DATUM
 LMF .                 KB:   LOG MEASURED FROM
 DAPD.F                 4:   FEET ABOVE PERMANENT DATUM
 DMF .                 KB:   DRILLING MEASURED FROM
 EKB .F              5213:   KELLING BUSHING
 EGL .F              5209:   GROUND LEVEL
 DATE.            7-13-78:   RUN DATE
 RUN .                  1:   RUN NUMBER
 DD  .F               500:   DEPTH DRILLER
 DL  .F               507:   DEPTH LOGGER
 BLI .F               500:   BOTTOM LOG INTERVAL
 TLI .F                30:   TOP LOG INTERVAL
 CS  .IN            8.625:   CASING SIZE
 CBL .F                30:   CASING BOTTOM LOGGER
 BS  .IN            7.875:   BIT SIZE
 BSD .F               500:   BIT SIZE AT DEPTH
 DFT .                KCL:   DRILLING FLUID TYPE
 DFD .                8.6:   DRILLING FLUID DENSITY
 DFV .                 32:   DRILLING FLUID VISCOSITY
 DFPH.                  9:   DRILLING FLUID PH
 DFL .               12.2:   DRILLING FLUID LOSS
 MSS .          FLOW LINE:   MUD SAMPLE SOURCE
 RMS .OHMM            .22:   RESISTIVITY MUD SAMPLE
 MST .F                80:   MUD SAMPLE TEMPERATURE
 RMF .OHMM            .19:   RESISTIVITY MUD FILTRATE SAMPLE
 MFST.F                88:   MUD FILTRATE SAMPLE TEMPERATURE
 RMC .OHMM            .38:   RESISTIVITY MUD CAKE
 MCST.F                84:   MUD CAKE SAMPLE TEMPERATURE
 MFSS.               MEAS:   MUD FILTRATE SAMPLE SOURCE
 BHT .F                76:   BOTTOM HOLE TEMPERATURE
 TCS .HRS               1:   TIME CURCULATED STOPPED
 MRT .F                76:   MAXIMUM RECORDED TEMPERATURE
 LUN .               2958:   LOGGING UNIT NUMBER
 LUL .               CASP:   LOGGING UNIT LOCATION
 ENGI.             MILLER:   RECORDING ENGINEER
 WITN.           MCGINLEY:   WITNESSED BY
 CLNT.            A2DTECH:   CLIENT CODE
 ORIG. 2", 2.5", 5" PRINT:   ORIGIN OF DATA
 UWI .       490251066600:   UNIQUE WELL ID
 DICO. A2D Technologies, Inc.:   DIGITIZING COMPANY
~OTHER INFORMATION
~A   DEPT      SPR         SN        ILD       CALD        GRD       CORR        DEN       DPHI   
# ...
  301.5000   -34.5922     6.8638     7.5137     7.6242    93.4151     0.0156     2.5081     0.1078
  302.0000   -34.6149     6.8674     7.9390     7.6113    95.2372     0.0142     2.4976     0.1120
  302.5000   -34.6286     6.8711     7.5698     7.6146    96.6051     0.0144     2.4939     0.1134
  303.0000   -34.6177     6.8748     7.1190     7.6322    96.7703     0.0161     2.4940     0.1134
  303.5000   -34.7600     6.8785     6.6951     7.6348    95.5984     0.0163     2.4963     0.1122
  304.0000   -34.7492     6.6479     6.2964     7.6524    95.1699     0.0165     2.4979     0.1112
  304.5000   -34.7405     6.3395     6.0035     7.6551    94.7414     0.0167     2.4942     0.1253
  305.0000   -34.7319     6.1289     5.8038     7.6577    94.0135     0.0183     2.4695     0.1390
  305.5000   -34.7232     5.9246     5.6070     7.6604    91.7886     0.0215     2.4583     0.1486
  306.0000   -34.5655     5.7666     5.4622     7.6631    91.4611     0.0247     2.4321     0.1627
  306.5000   -34.4061     5.6517     5.3899     7.6658    94.8238     0.0294     2.4080     0.1586
  307.0000   -34.2486     5.5383     5.4688     7.6534    98.2875     0.0386     2.4180     0.1404
  307.5000   -33.9423     5.5039     5.8623     7.6567    99.5135     0.0733     2.5043     0.1300
  308.0000   -33.7848     5.9449     6.3714     7.6437    99.9754     0.1620     2.5306     0.1133
  308.5000   -33.7761     6.5075     6.7364     7.6314    97.1569     0.0967     2.4579     0.1051
  309.0000   -33.7675     6.8261     6.9291     7.6191    97.6266     0.0183     2.4962     0.1114
  309.5000   -33.7588     7.0206     7.1760     7.6224    99.4436     0.0305     2.5210     0.1117
  310.0000   -33.7500     7.2705     7.3819     7.6251    98.7157     0.0186     2.4941     0.1113
  310.5000   -33.7393     7.4776     7.4888     7.6277    96.1914     0.0023     2.5009     0.1095
  311.0000   -33.7306     7.6907     7.6498     7.6306    89.9245    -0.0006     2.5032     0.1106
  311.5000   -33.7220     7.8015     7.8142     7.6330    87.4002    -0.0003     2.5123     0.1031
  312.0000   -33.7133     7.9162     7.9822     7.6357    86.6723     0.0013     2.5161     0.1058
  312.5000   -33.7046     7.9823     8.0978     7.6383    86.5381     0.0030     2.5146     0.1009
  313.0000   -33.6960     8.0890     8.1587     7.6410    86.5638     0.0047     2.5155     0.1039
  313.5000   -33.6873     8.1492     8.2212     7.6436    87.4826     0.0049     2.5232     0.0963
  314.0000   -33.6786     8.1536     8.2261     7.6463    90.4972     0.0065     2.5306     0.0927
  314.5000   -33.6696     8.2143     8.2311     7.6490    91.4207     0.0067     2.5321     0.0944
  315.0000   -33.6591     8.2187     8.2360     7.6366    92.6797     0.0069     2.5359     0.0911
  315.5000   -33.7993     8.2231     8.1832     7.6399    94.0284     0.0071     2.5308     0.0961
  316.0000   -33.7906     8.2306     8.1893     7.6426    94.3273     0.0073     2.5270     0.0945
  316.5000   -33.7819     8.2899     8.1379     7.6452    94.3479     0.0075     2.5301     0.0970
  317.0000   -33.9221     8.2943     8.1429     7.6479    94.0691     0.0076     2.5257     0.1002
  317.5000   -33.9134     8.2988     8.0918     7.6349    93.6406     0.0078     2.5190     0.1011
  318.0000   -33.9047     8.2451     8.0979     7.6382    92.9127     0.0080     2.5174     0.1001
  318.5000   -34.0449     8.2506     8.1028     7.6409    89.3404     0.0082     2.5191     0.1019
  319.0000   -34.0340     8.2550     8.1637     7.6435    87.2652     0.0069     2.5183     0.1051
  319.5000   -34.1763     8.2594     8.3392     7.6462    86.6870     0.0070     2.5109     0.1069
  320.0000   -34.1655     8.2639     8.6963     7.6488    87.9052     0.0072     2.5050     0.1078
  320.5000   -34.1568     8.2694     9.1314     7.6515    90.6204     0.0089     2.5021     0.1086
  321.0000   -34.1482     8.2738     9.6053     7.6541    90.6497     0.0091     2.5007     0.1098
  321.5000   -34.1395     8.2782     9.2706     7.6568    89.6093     0.0093     2.4985     0.1109
  322.0000   -34.2796     8.2247     8.7185     7.6595    87.6527     0.0095     2.4970     0.1115
  322.5000   -34.2708     8.2302     8.2560     7.6621    85.3742     0.0096     2.4963     0.1121
  323.0000   -34.2601     8.0661     7.7110     7.6498    83.2384     0.0098     2.4949     0.1168
  323.5000   -34.2515     7.6377     6.8630     7.6375    83.2641     0.0040     2.4904     0.1327
  324.0000   -34.2428     6.7433     6.5437     7.6102    83.2847    -0.0033     2.4665     0.1621
  324.5000   -34.0853     6.4807     6.5478     7.6135    83.1505    -0.0077     2.4163     0.1966
  325.0000   -33.9278     6.4851     6.5971     7.6162    83.1762    -0.0090     2.3728     0.2195
  325.5000   -33.4728     6.4885     6.6935     7.6135    84.2447    -0.0073     2.3192     0.2234
  326.0000   -32.7200     6.5821     6.7438     7.2623    88.1575     0.0064     2.3069     0.1814
  326.5000   -32.2649     6.8635     7.1302     7.8479    94.1610     0.0512     2.4481     0.1228
  327.0000   -32.2341     7.8815     7.7493     7.5964    92.2407     0.0563     2.4609     0.1156
  327.5000   -31.8012     8.5653     8.7173     7.8837    83.5786     0.0205     2.4902     0.1082
  328.0000   -32.0901     9.1300    10.2201     7.5127    79.9820    -0.0019     2.5105     0.0990
  328.5000   -31.7817     9.7749    11.5887     7.4997    83.1707    -0.0063     2.5173     0.0993
  329.0000   -31.0290     9.9843    11.6650     7.4922    83.9398    -0.0060     2.5211     0.1010
  329.5000   -30.1274    10.0587    11.5106     7.5014    80.4400    -0.0059     2.5219     0.1016
  330.0000   -29.8211    10.0641    11.5192     7.4930    79.0409    -0.0042     2.5145     0.1027
  330.5000   -29.9613    10.1390    11.6058     7.4514    79.0666    -0.0025     2.5033     0.1123
  331.0000   -30.3990    10.2852    11.8553     7.4385    79.5363    -0.0023     2.5011     0.1170
  331.5000   -30.2394    10.4335    12.2781     7.5165    81.3533    -0.0037     2.4934     0.1230
  332.0000   -29.6355    10.7467    12.8039     7.5939    82.8709    -0.0050     2.4753     0.1278
  332.5000   -28.8828    11.2683    13.3633     7.6265    86.1850    -0.0063     2.4585     0.1368
  333.0000   -28.8741    11.5098    13.9262     7.6590    86.5050    -0.0076     2.4503     0.1509
  333.5000   -28.5678    11.9195    14.6229     7.6616    85.7770     0.0001     2.4264     0.1634
  334.0000   -27.6663    12.4291    16.0025     7.6643    83.2527     0.0033     2.3972     0.1848
  334.5000   -26.9136    13.2312    18.0015     7.6669    75.9380     0.0065     2.3680     0.1939
  335.0000   -26.2996    14.0850    19.6999     7.6397    67.8748     0.0186     2.3613     0.1908
  335.5000   -25.4060    14.9939    20.9725     7.6274    59.0630     0.0473     2.3696     0.1761
  336.0000   -24.5044    15.6612    21.7206     7.6307    55.5749     0.0685     2.3967     0.1691
  336.5000   -21.8194    16.3056    21.7341     7.7529    51.1048     0.0657     2.3120     0.2210
  337.0000   -24.1895    16.8861    21.7499     7.7257    52.2246     0.0329     2.3263     0.2186
  337.5000   -23.4368    17.2479    22.6813     7.4742    56.3063     0.0060     2.3241     0.2194
  338.0000   -22.6841    17.6175    23.9808     7.4613    57.6742     0.0032     2.3166     0.2128
  338.5000   -22.8256    17.7487    25.7064     7.4795    56.4972     0.0065     2.3245     0.2022
  339.0000   -22.9658    17.8810    25.1957     7.4822    55.9138     0.0095     2.3573     0.1935
  339.5000   -12.9847    17.8905    24.6952     7.4848    54.7419     0.0128     2.3768     0.1790
  340.0000   -16.1010    17.9004    24.0276     7.4875    51.0200     0.0084     2.3979     0.1667
  340.5000   -17.1340    17.7867    23.2420     7.4901    49.6882     0.0041     2.4040     0.1628
  341.0000   -13.4762    17.7986    22.7803     7.4928    54.0552     0.0027     2.4063     0.1639
  341.5000   -13.2477    17.8081    22.4787     7.4954    55.5728     0.0060     2.4101     0.1609
