~VERSION INFORMATION
 VERS.                2.0:   CWLS LOG ASCII STANDARD - VERSION 2.0
 WRAP.                 NO:   ONE LINE PER DEPTH STEP
~WELL INFORMATION
#MNEM.UNIT      DATA TYPE    INFORMATION
#----------   ------------   ------------------------------
 STRT.F           80.0000:   START DEPTH
 STOP.F         1056.0000:   STOP DEPTH
 STEP.F            0.5000:   STEP LENGTH
 NULL.          -999.2500:   NO VALUE
 COMP. U S NAVY-INTEX OIL:   COMPANY
 WELL.      NPR 3 #68-S-2:   WELL
 FLD .        TEAPOT DOME:   FIELD
 LOC .       S2 T38N R78W:   LOCATION
 CNTY.            NATRONA:   COUNTY
 STAT.            WYOMING:   STATE
 CTRY. UNITED STATES OF AMERICA:   COUNTRY
 SRVC.       Schlumberger:   SERVICE COMPANY
 DATE.        21-JUL-1964:   LOGDATE
 API .       490250638800:   API NUMBER
~CURVE INFORMATION
#MNEM.UNIT       API CODE    CURVE DESCRIPTION
#----------   ------------   ------------------------------
 DEPT.F                  :   
 SPR .MV     05 010 01 00:   SPONTANEOUS POTENTIAL FROM RES.
 ASN .OHMM   05 041 16 00:   AMPLIFIED SHORT NORMAL 16"
 ILD .OHMM   05 120 46 00:   INDUCTION LOG DEEP
 CILD.MMHO   05 110 46 00:   CONDUCTIVITY INDUCTION LOG DEEP
 GR  .GAPI   30 310 01 00:   GAMMA RAY
 CALS.IN     60 280 50 00:   CALIPER FROM SONIC LOG
 DT  .US/F   60 520 00 00:   INTERVAL TRANSIT TIME
~PARAMETER INFORMATION
#MNEM.UNIT          VALUE    DESCRIPTION
#----------   ------------   ------------------------------
 PD  .                 GL:   PERMANENT DATUM
 EPD .F              5201:   ELEVATION PERMANENT DATUM
 LMF .                 KB:   LOG MEASURED FROM
 DAPD.F                 5:   FEET ABOVE PERMANENT DATUM
 DMF .                 KB:   DRILLING MEASURED FROM
 EKB .F              5206:   KELLING BUSHING
 EGL .F              5201:   GROUND LEVEL
 DATE.          8-12-1964:   RUN DATE
 RUN .                  1:   RUN NUMBER
 DD  .F              1055:   DEPTH DRILLER
 DL  .F              1057:   DEPTH LOGGER
 BLI .F              1055:   BOTTOM LOG INTERVAL
 TLI .F               450:   TOP LOG INTERVAL
 CS  .IN              4.5:   CASING SIZE
 BS  .IN             6.75:   BIT SIZE
 DFT .            GEL OIL:   DRILLING FLUID TYPE
 DFD .                9.3:   DRILLING FLUID DENSITY
 DFV .                 48:   DRILLING FLUID VISCOSITY
 DFPH.                 10:   DRILLING FLUID PH
 DFL .                 10:   DRILLING FLUID LOSS
 MSS .           FLOWLINE:   MUD SAMPLE SOURCE
 RMS .OHMM           1.07:   RESISTIVITY MUD SAMPLE
 MST .F                95:   MUD SAMPLE TEMPERATURE
 RMF .OHMM            .67:   RESISTIVITY MUD FILTRATE SAMPLE
 MFST.F                95:   MUD FILTRATE SAMPLE TEMPERATURE
 RMC .OHMM           1.44:   RESISTIVITY MUD CAKE
 MCST.F                95:   MUD CAKE SAMPLE TEMPERATURE
 MFSS.                 FP:   MUD FILTRATE SAMPLE SOURCE
 MCSS.                 FP:   MUD CAKE SAMPLE SOURCE
 TCS .HRS               1:   TIME CURCULATED STOPPED
 LUN .               4507:   LOGGING UNIT NUMBER
 LUL .               CSPR:   LOGGING UNIT LOCATION
 ENGI.             DANNER:   RECORDING ENGINEER
 WITN.         JORGENESEN:   WITNESSED BY
 CLNT.            A2DTECH:   CLIENT CODE
 ORIG.           2" PRINT:   ORIGIN OF DATA
 UWI .       490250638800:   UNIQUE WELL ID
 DICO. A2D Technologies, Inc.:   DIGITIZING COMPANY
~OTHER INFORMATION
~A   DEPT      SPR          ASN        ILD      CILD        GR       CALS         DT   
# ...
  125.5000   -41.8018     6.4356     5.3892   184.8874  -999.2500  -999.2500  -999.2500
  126.0000   -41.6511     6.6006     5.7240   177.0833  -999.2500  -999.2500  -999.2500
  126.5000   -41.6498     6.8116     5.9944   169.2485  -999.2500  -999.2500  -999.2500
  127.0000   -41.6527     7.0379     6.2874   161.3248  -999.2500  -999.2500  -999.2500
  127.5000   -41.7002     7.5753     6.4315   155.1959  -999.2500  -999.2500  -999.2500
  128.0000   -41.7946     7.7923     6.6617   150.6242  -999.2500  -999.2500  -999.2500
  128.5000   -41.7927     8.0103     6.8512   147.0856  -999.2500  -999.2500  -999.2500
  129.0000   -42.0114     8.1261     6.8862   142.4256  -999.2500  -999.2500  -999.2500
  129.5000   -42.1011     8.0536     6.8114   142.9068  -999.2500  -999.2500  -999.2500
  130.0000   -42.3842     7.9805     6.7091   145.0397  -999.2500  -999.2500  -999.2500
  130.5000   -42.5323     8.0317     6.6617   148.3551  -999.2500  -999.2500  -999.2500
  131.0000   -42.6795     8.0406     6.5868   152.3907  -999.2500  -999.2500  -999.2500
  131.5000   -42.5984     7.8140     6.4969   157.3412  -999.2500  -999.2500  -999.2500
  132.0000   -42.3567     7.7145     6.3623   158.0060  -999.2500  -999.2500  -999.2500
  132.5000   -42.2278     7.6660     6.3623   158.9781  -999.2500  -999.2500  -999.2500
  133.0000   -42.0775     7.6367     6.2874   160.2229  -999.2500  -999.2500  -999.2500
  133.5000   -41.9270     7.6212     6.2389   161.0144  -999.2500  -999.2500  -999.2500
  134.0000   -41.6880     7.6513     6.1182   163.2935  -999.2500  -999.2500  -999.2500
  134.5000   -41.5954     7.6123     6.0629   165.4081  -999.2500  -999.2500  -999.2500
  135.0000   -41.4752     7.5015     5.9519   166.6915  -999.2500  -999.2500  -999.2500
  135.5000   -41.4739     7.4007     5.8312   169.1145  -999.2500  -999.2500  -999.2500
  136.0000   -41.4725     7.3145     5.7635   172.2122  -999.2500  -999.2500  -999.2500
  136.5000   -41.4709     7.2169     5.6886   175.6375  -999.2500  -999.2500  -999.2500
  137.0000   -41.4695     7.1396     5.6886   178.7640  -999.2500  -999.2500  -999.2500
  137.5000   -41.4678     7.0671     5.6886   178.4475  -999.2500  -999.2500  -999.2500
  138.0000   -41.5390     6.9888     5.7635   176.4781  -999.2500  -999.2500  -999.2500
  138.5000   -41.6287     6.9405     5.7635   174.5486  -999.2500  -999.2500  -999.2500
  139.0000   -41.7616     6.9024     5.8665   172.4157  -999.2500  -999.2500  -999.2500
  139.5000   -41.9094     6.9528     5.9880   169.0544  -999.2500  -999.2500  -999.2500
  140.0000   -41.9075     7.0575     6.0629   166.8651  -999.2500  -999.2500  -999.2500
  140.5000   -41.9061     7.1875     6.1536   163.6607  -999.2500  -999.2500  -999.2500
  141.0000   -41.9046     7.2801     6.2874   160.1027  -999.2500  -999.2500  -999.2500
  141.5000   -41.7539     7.3975     6.3948   158.3879  -999.2500  -999.2500  -999.2500
  142.0000   -41.6960     7.5037     6.5155   157.1127  -999.2500  -999.2500  -999.2500
  142.5000   -41.4530     7.5496     6.6361   155.5927  -999.2500  -999.2500  -999.2500
  143.0000   -41.2717     7.6077     6.6617   154.0278  -999.2500  -999.2500  -999.2500
  143.5000   -40.8219     7.6689     6.6617   152.6253  -999.2500  -999.2500  -999.2500
  144.0000   -40.7033     7.7577     6.6617   151.8750  -999.2500  -999.2500  -999.2500
  144.5000   -40.9816     7.7966     6.6538   151.8674  -999.2500  -999.2500  -999.2500
  145.0000   -41.4605     7.8028     6.5120   153.8690  -999.2500  -999.2500  -999.2500
  145.5000   -41.9394     7.8029     6.4125   157.5870  -999.2500  -999.2500  -999.2500
  146.0000   -42.4183     7.7880     6.2874   162.2609  -999.2500  -999.2500  -999.2500
  146.5000   -42.6334     7.7401     6.0964   165.3720  -999.2500  -999.2500  -999.2500
  147.0000   -42.9300     7.6291     5.9635   168.9536  -999.2500  -999.2500  -999.2500
  147.5000   -42.8962     7.4594     5.7635   171.8008  -999.2500  -999.2500  -999.2500
  148.0000   -42.3306     7.2186     5.6597   175.2183  -999.2500  -999.2500  -999.2500
  148.5000   -41.7834     7.0919     5.6138   177.1049  -999.2500  -999.2500  -999.2500
  149.0000   -41.2846     6.9409     5.5389   175.2778  -999.2500  -999.2500  -999.2500
  149.5000   -41.2831     6.8848     5.5555   173.3284  -999.2500  -999.2500  -999.2500
  150.0000   -41.2817     6.9440     5.6886   172.1230  -999.2500  -999.2500  -999.2500
  150.5000   -41.2800     6.9941     5.7968   170.9177  -999.2500  -999.2500  -999.2500
  151.0000   -41.4277     6.9774     5.9132   169.6275  -999.2500  -999.2500  -999.2500
  151.5000   -41.4262     6.9017     5.9132   169.6205  -999.2500  -999.2500  -999.2500
  152.0000   -41.4247     6.9044     5.9132   169.6131  -999.2500  -999.2500  -999.2500
  152.5000   -41.4233     6.9824     5.8383   169.6043  -999.2500  -999.2500  -999.2500
  153.0000   -41.4216     7.0544     5.8006   169.8413  -999.2500  -999.2500  -999.2500
  153.5000   -41.5693     7.0057     5.6714   171.8226  -999.2500  -999.2500  -999.2500
  154.0000   -41.5678     6.9388     5.4641   174.1171  -999.2500  -999.2500  -999.2500
  154.5000   -41.5663     6.8448     5.3892   177.1330  -999.2500  -999.2500  -999.2500
  155.0000   -41.5648     6.7499     5.3892   177.7530  -999.2500  -999.2500  -999.2500
  155.5000   -41.5632     6.6476     5.4313   177.4653  -999.2500  -999.2500  -999.2500
  156.0000   -41.4863     6.6051     5.4641   176.9940  -999.2500  -999.2500  -999.2500
  156.5000   -41.4113     6.6098     5.4641   177.7307  -999.2500  -999.2500  -999.2500
  157.0000   -41.4096     6.6352     5.3595   177.8770  -999.2500  -999.2500  -999.2500
  157.5000   -41.3574     6.6583     5.2389   179.2030  -999.2500  -999.2500  -999.2500
  158.0000   -41.2578     6.6975     5.1647   180.5753  -999.2500  -999.2500  -999.2500
  158.5000   -41.0231     6.6954     5.1473   183.6805  -999.2500  -999.2500  -999.2500
  159.0000   -40.9304     6.6749     5.0898   185.8335  -999.2500  -999.2500  -999.2500
  159.5000   -40.8061     6.6206     5.0558   189.2286  -999.2500  -999.2500  -999.2500
  160.0000   -40.7451     6.5098     5.0150   192.5589  -999.2500  -999.2500  -999.2500
  160.5000   -40.6543     6.3703     5.0150   195.1389  -999.2500  -999.2500  -999.2500
  161.0000   -40.6527     6.1561     5.0150   194.6479  -999.2500  -999.2500  -999.2500
  161.5000   -40.6513     6.0398     5.0150   192.5358  -999.2500  -999.2500  -999.2500
  162.0000   -40.6496     6.0063     5.0898   192.3017  -999.2500  -999.2500  -999.2500
  162.5000   -40.6483     6.2063     5.1741   190.2898  -999.2500  -999.2500  -999.2500
  163.0000   -40.6468     6.4064     5.3144   188.3630  -999.2500  -999.2500  -999.2500
  163.5000   -40.6450     6.5313     5.4641   186.2502  -999.2500  -999.2500  -999.2500
  164.0000   -40.6875     6.5991     5.6138   181.3381  -999.2500  -999.2500  -999.2500
  164.5000   -40.7914     6.6531     5.6886   177.5594  -999.2500  -999.2500  -999.2500
  165.0000   -40.7898     6.6814     5.6886   174.6278  -999.2500  -999.2500  -999.2500
  165.5000   -40.7884     6.6711     5.6138   173.2464  -999.2500  -999.2500  -999.2500
  166.0000   -40.7866     6.6216     5.5085   175.6350  -999.2500  -999.2500  -999.2500
  166.5000   -40.7854     6.6389     5.3878   178.3250  -999.2500  -999.2500  -999.2500
  167.0000   -40.7839     6.6817     5.2672   180.8532  -999.2500  -999.2500  -999.2500
  167.5000   -40.7824     6.6068     5.1466   182.7878  -999.2500  -999.2500  -999.2500
  168.0000   -40.7809     6.4983     5.0150   184.4445  -999.2500  -999.2500  -999.2500
  168.5000   -40.7792     6.3955     5.0150   186.8328  -999.2500  -999.2500  -999.2500
  169.0000   -40.7779     6.2988     5.0955   189.4487  -999.2500  -999.2500  -999.2500
  169.5000   -40.7765     6.2209     5.1647   190.1860  -999.2500  -999.2500  -999.2500
  170.0000   -40.7750     6.1874     5.3368   190.1290  -999.2500  -999.2500  -999.2500
  170.5000   -40.7735     6.2019     5.4641   187.4133  -999.2500  -999.2500  -999.2500
