~VERSION INFORMATION
 VERS.                2.0:   CWLS LOG ASCII STANDARD - VERSION 2.0
 WRAP.                 NO:   ONE LINE PER DEPTH STEP
~WELL INFORMATION
#MNEM.UNIT      DATA TYPE    INFORMATION
#----------   ------------   ------------------------------
 STRT.F           26.0000:   START DEPTH
 STOP.F          543.5000:   STOP DEPTH
 STEP.F            0.5000:   STEP LENGTH
 NULL.          -999.2500:   NO VALUE
 COMP. LAWRENCE/ALLISON INC:   COMPANY
 WELL. NPR 3 #68-61-STX-3:   WELL
 FLD .             TEAPOT:   FIELD
 LOC .       S3 T38N R78W:   LOCATION
 CNTY.            NATRONA:   COUNTY
 STAT.            WYOMING:   STATE
 CTRY. UNITED STATES OF AMERICA:   COUNTRY
 SRVC.           Gearhart:   SERVICE COMPANY
 DATE.        30-MAY-1987:   LOGDATE
 API .       490251112800:   API NUMBER
~CURVE INFORMATION
#MNEM.UNIT       API CODE    CURVE DESCRIPTION
#----------   ------------   ------------------------------
 DEPT.F                  :   
 GRR .GAPI   07 310 01 00:   GAMMA RAY FROM RES. LOG.
 RILD.OHMM   07 120 46 00:   INDUCTION LOG DEEP RESISTIVITY
 RILM.OHMM   07 120 44 00:   INDUCTION LOG MEDIUM
~PARAMETER INFORMATION
#MNEM.UNIT          VALUE    DESCRIPTION
#----------   ------------   ------------------------------
 PD  .                 GL:   PERMANENT DATUM
 EPD .F              5176:   ELEVATION PERMANENT DATUM
 LMF .                 KB:   LOG MEASURED FROM
 DAPD.F                 8:   FEET ABOVE PERMANENT DATUM
 DMF .                 KB:   DRILLING MEASURED FROM
 EKB .F              5184:   KELLING BUSHING
 EDF .F              5182:   DRILLING FLOOR
 EGL .F              5176:   GROUND LEVEL
 DATE.          5-30-1987:   RUN DATE
 RUN .                  1:   RUN NUMBER
 DD  .F               550:   DEPTH DRILLER
 DL  .F               552:   DEPTH LOGGER
 BLI .F               544:   BOTTOM LOG INTERVAL
 TLI .F                30:   TOP LOG INTERVAL
 CS  .IN            8.625:   CASING SIZE
 CBD .F                50:   CASING BOTTOM DRILLER
 CBL .F                49:   CASING BOTTOM LOGGER
 BS  .IN            7.875:   BIT SIZE
 BSD .F               550:   BIT SIZE AT DEPTH
 DFT .                AIR:   DRILLING FLUID TYPE
 TLAB.HRS            0735:   TIME LOGGER AT BOTTOM
 MRT .F                80:   MAXIMUM RECORDED TEMPERATURE
 LUN .               7597:   LOGGING UNIT NUMBER
 LUL .           GILLETTE:   LOGGING UNIT LOCATION
 ENGI.         WEATHERMON:   RECORDING ENGINEER
 WITN.             STRONG:   WITNESSED BY
 CLNT.            A2DTECH:   CLIENT CODE
 ORIG.       2", 5" PRINT:   ORIGIN OF DATA
 UWI .       490251112800:   UNIQUE WELL ID
 DICO. A2D Technologies, Inc.:   DIGITIZING COMPANY
~OTHER INFORMATION
~A   DEPT       GRR      RILD       RILM   
# ...
  208.0000   121.8143     3.8641     3.3041
  208.5000   127.3310     4.3560     3.7735
  209.0000   126.6506     4.9106     4.3244
  209.5000   125.3056     5.4274     4.8260
  210.0000   124.0929     5.7246     5.3700
  210.5000   124.2328     6.0385     5.7302
  211.0000   124.4475     6.3693     6.0059
  211.5000   124.6518     6.7186     6.2949
  212.0000   124.8909     6.8828     6.5668
  212.5000   128.0116     6.9022     6.6382
  213.0000   129.7893     6.9239     6.6695
  213.5000   130.1512     6.9478     6.6891
  214.0000   130.5564     6.7483     6.2953
  214.5000   133.1136     6.4871     6.0714
  215.0000   132.4982     6.2360     5.8748
  215.5000   131.2063     5.9947     5.6846
  216.0000   130.5813     5.7626     5.5007
  216.5000   132.7256     5.5448     5.3402
  217.0000   135.9142     5.4416     5.2408
  217.5000   136.9654     5.3907     5.1918
  218.0000   135.8725     5.5413     5.3277
  218.5000   131.2569     5.6820     5.4544
  219.0000   128.9619     5.8371     5.5691
  219.5000   128.9495     6.0981     5.8179
  220.0000   131.8610     6.3708     6.0779
  220.5000   135.0549     6.6558     6.3495
  221.0000   134.6627     6.9534     6.6332
  221.5000   132.2843     7.2644     6.9296
  222.0000   130.2002     7.5891     7.2392
  222.5000   129.6349     7.9280     7.5631
  223.0000   129.2874     8.2813     7.9012
  223.5000   128.9242     8.5436     8.0821
  224.0000   127.8390     8.5954     8.1458
  224.5000   126.9327     8.6243     8.2097
  225.0000   126.9212     8.5615     8.2290
  225.5000   126.7115     8.4726     8.0268
  226.0000   125.2942     8.3374     7.8477
  226.5000   125.1344     8.1821     7.6727
  227.0000   125.9499     8.0298     7.5016
  227.5000   126.7684     7.8802     7.3164
  228.0000   127.7090     7.7335     7.1221
  228.5000   128.1282     7.5895     6.9419
  229.0000   128.5544     7.3854     6.7646
  229.5000   129.0775     7.1130     6.2488
  230.0000   130.3374     6.5940     5.7725
  230.5000   131.6126     6.0935     5.3324
  231.0000   132.8581     5.6305     5.2408
  231.5000   132.4190     5.2024     5.3402
  232.0000   130.3592     4.8069     5.4529
  232.5000   128.3858     4.7693     5.5680
  233.0000   127.1955     5.1493     5.6766
  233.5000   126.3643     5.4989     6.0188
  234.0000   126.2601     5.8898     6.3897
  234.5000   126.7485     6.3086     6.7835
  235.0000   128.4075     6.7571     7.2016
  235.5000   130.5486     7.2375     7.5829
  236.0000   132.6862     7.5841     7.9191
  236.5000   134.6070     7.7751     8.2702
  237.0000   138.0646     7.9710     8.3439
  237.5000   141.5927     8.1514     8.3981
  238.0000   144.7872     8.1652     8.4528
  238.5000   141.3100     8.1849     8.5078
  239.0000   136.4357     8.2046     8.5632
  239.5000   132.2582     8.2244     8.6245
  240.0000   129.9916     8.2443     8.6180
  240.5000   130.5497     8.2642     8.6087
  241.0000   132.6152     8.2841     8.5995
  241.5000   136.8182     8.3041     8.5903
  242.0000   141.0710     8.3167     8.5811
  242.5000   142.7410     8.3316     8.5720
  243.0000   139.6415     8.3467     8.5628
  243.5000   134.8935     8.3618     8.5537
  244.0000   130.1047     8.3770     8.5445
  244.5000   127.3284     8.3845     8.5307
  245.0000   129.0765     8.3389     8.5164
  245.5000   131.5645     8.2885     8.5021
  246.0000   133.7970     8.2384     8.4879
  246.5000   133.8132     8.1888     8.4736
  247.0000   133.0804     8.1394     8.4630
  247.5000   132.2591     8.0905     8.4127
  248.0000   131.4493     7.8739     8.3488
  248.5000   131.7033     7.5937     7.9997
  249.0000   134.8158     7.3240     7.6651
  249.5000   140.3791     7.0639     7.3632
  250.0000   147.0937     6.8123     7.1155
  250.5000   148.6420     6.6083     6.9359
  251.0000   142.9108     6.5384     6.8967
  251.5000   138.0618     6.4707     6.8578
  252.0000   133.2741     6.4032     6.8191
  252.5000   133.4025     6.3503     6.7806
  253.0000   134.2289     6.3030     6.6477
  253.5000   134.4903     6.2560     6.3049
  254.0000   133.5705     6.2063     5.9764
  254.5000   132.6304     6.2064     5.6465
  255.0000   133.2903     6.2283     5.6993
  255.5000   134.5960     6.2447     5.7971
  256.0000   135.8119     6.2613     5.8981
  256.5000   132.8511     6.4699     6.1250
  257.0000   131.7652     6.7535     6.5124
  257.5000   131.4504     7.0494     6.7810
  258.0000   130.2151     7.3584     7.0371
  258.5000   128.0013     7.6324     7.3028
  259.0000   125.8273     7.7045     7.5713
  259.5000   124.0579     7.3794     7.8440
  260.0000   124.7579     7.1465     8.0752
  260.5000   126.6270     6.9406     7.8300
  261.0000   129.6922     6.7369     6.6125
  261.5000   134.8693     6.5378     6.2583
  262.0000   140.0348     6.3246     5.9219
  262.5000   145.1229     6.2068     5.6206
  263.0000   141.9113     6.0342     5.3907
  263.5000   135.7680     6.0775     5.2903
  264.0000   130.0031     6.1487     5.7478
  264.5000   128.4970     6.4110     5.9810
  265.0000   129.5230     6.6812     6.4395
  265.5000   130.9036     6.9628     7.0508
  266.0000   127.6594     7.2563     7.6133
  266.5000   124.8441     7.5621     7.8477
  267.0000   124.8798     7.8808     8.0894
  267.5000   125.7370     8.2129     8.2585
  268.0000   127.0232     8.5591     8.3275
  268.5000   128.1638     8.9198     8.3972
  269.0000   128.3647     9.2108     8.4674
  269.5000   128.5845     9.3009     8.5381
  270.0000   127.0457     9.3135     8.6095
  270.5000   125.6778     9.3260     8.6815
  271.0000   125.9359     9.3386     8.7423
  271.5000   126.1434     9.3512     8.7974
  272.0000   124.9290     9.3638     8.8529
  272.5000   123.7287     9.3765     8.9088
  273.0000   124.5866     9.3862     8.9650
  273.5000   127.9157     9.3972     9.0216
  274.0000   130.6530     9.4080     9.0394
  274.5000   128.3153     9.4189     9.0393
  275.0000   125.0994     9.4297     9.0391
  275.5000   124.4963     9.4406     9.0390
  276.0000   125.6182     9.4517     9.0386
  276.5000   126.2119     9.4698     9.1910
  277.0000   124.5227     9.4754     9.4110
  277.5000   121.6471     9.5689     9.6523
  278.0000   120.4657     8.8182    10.2008
  278.5000   120.4393     8.2919    10.6160
  279.0000   120.4367     7.7970     9.7712
  279.5000   120.4353     7.3316     8.7112
  280.0000   120.7775     7.0796     7.3525
  280.5000   123.8601     6.8184     6.2213
  281.0000   131.7630     6.7546     5.5875
  281.5000   140.1158     6.8387     5.5972
  282.0000   142.5508     6.9525     5.5448
  282.5000   134.8862     7.0683     6.5299
  283.0000   124.5906     7.1860     7.4222
  283.5000   115.0325     7.7634     8.4007
  284.0000   115.3302     8.8389     9.5083
  284.5000   118.1055    10.0634    10.3492
  285.0000   119.5034    11.0115    10.5736
  285.5000   118.9603    11.2690    10.8064
  286.0000   117.1087    11.5380    11.3200
  286.5000   115.6825    11.8135    11.5614
  287.0000   116.0853    12.0955    11.5955
  287.5000   117.3997    12.3791    11.6298
  288.0000   118.5087    13.2610    11.7603
  288.5000   117.6939    14.3566    12.3622
  289.0000   109.9238    15.5439    13.7287
  289.5000   101.2005    16.8081    15.2225
  290.0000    89.8522    18.3227    18.6882
  290.5000    77.0188    19.9467    22.4664
  291.0000    67.2457    21.6633    25.3278
  291.5000    62.1925    26.1431    28.4506
  292.0000    61.6625    27.6880    31.7012
  292.5000    65.4244    29.2642    34.7856
  293.0000    68.2202    29.2642    37.0415
  293.5000    67.8645    29.0079    36.4930
  294.0000    67.5638    28.7646    34.3695
  294.5000    67.3707    28.5233    32.7579
  295.0000    68.7560    28.2840    31.9521
  295.5000    70.8930    28.0467    31.1958
  296.0000    73.0784    27.9208    30.4013
  296.5000    75.0568    28.4827    30.0851
  297.0000    75.3741    28.9342    30.5169
  297.5000    72.8989    29.8274    30.9618
  298.0000    70.5656    31.1074    32.0313
  298.5000    70.2299    32.4425    33.5430
