~VERSION INFORMATION
 VERS.                2.0:   CWLS LOG ASCII STANDARD - VERSION 2.0
 WRAP.                 NO:   ONE LINE PER DEPTH STEP
~WELL INFORMATION
#MNEM.UNIT      DATA TYPE    INFORMATION
#----------   ------------   ------------------------------
 STRT.F            7.0000:   START DEPTH
 STOP.F          587.0000:   STOP DEPTH
 STEP.F            0.5000:   STEP LENGTH
 NULL.          -999.2500:   NO VALUE
 COMP. FENIX & SCISSON INC:   COMPANY
 WELL.        NPR-3 #63-3:   WELL
 FLD .             TEAPOT:   FIELD
 LOC .       S3 T38N R78W:   LOCATION
 CNTY.            NATRONA:   COUNTY
 STAT.            WYOMING:   STATE
 CTRY. UNITED STATES OF AMERICA:   COUNTRY
 SRVC.     Wedge Wireline:   SERVICE COMPANY
 DATE.        06-JAN-1978:   LOGDATE
 API .       490251044700:   API NUMBER
~CURVE INFORMATION
#MNEM.UNIT       API CODE    CURVE DESCRIPTION
#----------   ------------   ------------------------------
 DEPT.F                  :   
 ILD .OHMM   05 120 46 00:   INDUCTION LOG DEEP
 SN  .OHMM   05 040 16 00:   SHORT NORMAL
 SPR .MV     05 010 01 00:   SPONTANEOUS POTENTIAL FROM RES.
 CALD.IN     45 280 60 00:   CALIPER FROM DENSITY LOG
 CORR.G/C3   45 356 01 00:   DENSITY CORRECTION
 DPHI.DEC    45 890 12 00:   DENSITY POROSITY SANDSTONE
 GRD .GAPI   45 310 01 00:   GAMMA RAY FROM DENSITY LOG
 RHOB.G/C3   45 350 01 00:   BULK DENSITY
~PARAMETER INFORMATION
#MNEM.UNIT          VALUE    DESCRIPTION
#----------   ------------   ------------------------------
 PD  .                 GL:   PERMANENT DATUM
 EPD .F              5177:   ELEVATION PERMANENT DATUM
 LMF .                 KB:   LOG MEASURED FROM
 DMF .                 KB:   DRILLING MEASURED FROM
 EKB .F              5181:   KELLING BUSHING
 EGL .F              5177:   GROUND LEVEL
 DATE.        06-JAN-1978:   RUN DATE
 RUN .                  1:   RUN NUMBER
 DD  .F               590:   DEPTH DRILLER
 DL  .F               581:   DEPTH LOGGER
 BLI .F               576:   BOTTOM LOG INTERVAL
 TLI .F                20:   TOP LOG INTERVAL
 CS  .IN            9.625:   CASING SIZE
 CBD .F                19:   CASING BOTTOM DRILLER
 CBL .F                19:   CASING BOTTOM LOGGER
 BS  .IN            7.875:   BIT SIZE
 BSD .F               590:   BIT SIZE AT DEPTH
 DFT .                KCL:   DRILLING FLUID TYPE
 DFD .                8.5:   DRILLING FLUID DENSITY
 DFV .                 34:   DRILLING FLUID VISCOSITY
 DFPH.                9.0:   DRILLING FLUID PH
 DFL .                7.8:   DRILLING FLUID LOSS
 MSS .           FLOWLINE:   MUD SAMPLE SOURCE
 RMS .OHMM           0.22:   RESISTIVITY MUD SAMPLE
 MST .F                63:   MUD SAMPLE TEMPERATURE
 RMF .OHMM           0.24:   RESISTIVITY MUD FILTRATE SAMPLE
 MFST.F                63:   MUD FILTRATE SAMPLE TEMPERATURE
 RMC .OHMM           0.48:   RESISTIVITY MUD CAKE
 MCST.F                64:   MUD CAKE SAMPLE TEMPERATURE
 MFSS.               MEAS:   MUD FILTRATE SAMPLE SOURCE
 MCSS.               MEAS:   MUD CAKE SAMPLE SOURCE
 RMB .OHMM           0.19:   RESISTIVITY MUD AT BHT
 BHT .F                71:   BOTTOM HOLE TEMPERATURE
 TCS .HRS               3:   TIME CURCULATED STOPPED
 MRT .F                71:   MAXIMUM RECORDED TEMPERATURE
 LUN .               2958:   LOGGING UNIT NUMBER
 LUL .             CASPER:   LOGGING UNIT LOCATION
 ENGI.             MILLER:   RECORDING ENGINEER
 WITN.         HARRINGTON:   WITNESSED BY
 CLNT.            A2DTECH:   CLIENT CODE
 ORIG.           5" PRINT:   ORIGIN OF DATA
 UWI .       490251044700:   UNIQUE WELL ID
 DICO. A2D Technologies, Inc.:   DIGITIZING COMPANY
~OTHER INFORMATION
~A    DEPT     ILD         SN        SPR       CALD       CORR       DPHI         GRD      RHOB   
# ...
  452.5000    17.9360    11.3332   -40.6904     8.4516    -0.3333     0.1183   108.6739     2.4742
  453.0000    17.9418    11.3284   -40.6890     8.4522    -0.3347     0.1221   102.2069     2.4720
  453.5000    17.9465    11.4133   -40.6873     8.4528    -0.3362     0.1242    93.6107     2.4683
  454.0000    17.9512    11.4142   -40.5405     8.4535    -0.3374     0.1284    93.1079     2.4593
  454.5000    17.9560    11.4938   -40.5392     8.4541    -0.3312     0.1344    97.2661     2.4454
  455.0000    18.0850    11.5740   -40.5378     8.4546    -0.3249     0.1410    98.7580     2.4337
  455.5000    19.6511    11.7354   -40.3910     8.4552    -0.3172     0.1503    93.4767     2.4270
  456.0000    20.4864    11.8992   -40.2439     8.4557    -0.3050     0.1594    87.0098     2.4097
  456.5000    20.7763    12.2324   -40.2426     8.4563    -0.2957     0.1742    82.9027     2.3811
  457.0000    21.3627    12.5750   -39.8051     8.4569    -0.2830     0.1971    84.4876     2.3524
  457.5000    22.9502    13.1065   -38.7863     8.4576    -0.2803     0.2137    82.3639     2.3229
  458.0000    29.3520    13.6630   -37.0136     8.4581    -0.3376     0.2262    75.8912     2.2846
  458.5000    33.4687    14.3365   -35.5855     8.4587    -0.3162     0.2242    81.2294     2.2922
  459.0000    35.1326    14.9425   -34.1306     8.4446    -0.3040     0.2405    85.0869     2.3013
  459.5000    40.1422    15.5740   -32.9665     8.4305    -0.3462     0.2495    86.2896     2.2516
  460.0000    46.6763    16.2323   -32.2383     8.4311    -0.3829     0.2396    89.3609     2.2637
  460.5000    47.9525    16.9274   -31.7921     8.4317    -0.4048     0.2308    95.7802     2.2774
  461.0000    47.9651    17.5127   -31.5085     8.4324    -0.3850     0.2278    94.7492     2.2834
  461.5000    46.9956    17.8796   -31.5071     8.4329    -0.3591     0.2158    92.8758     2.3174
  462.0000    45.7294    18.2541   -31.6514     8.4187    -0.3393     0.2021    92.0136     2.3288
  462.5000    44.1413    18.5086   -31.7953     8.4046    -0.3134     0.1999    92.6263     2.3334
  463.0000    42.4148    18.6541   -32.0843     8.4053    -0.2966     0.1972    95.0089     2.3350
  463.5000    41.5575    18.7681   -32.3736     8.4059    -0.3070     0.1908    98.4011     2.3335
  464.0000    41.2801    18.7693   -32.6629     8.3918    -0.3522     0.1703   103.3196     2.3320
  464.5000    41.2936    18.5134   -32.9519     8.3925    -0.3687     0.1570   103.6317     2.3789
  465.0000    41.3048    18.3878   -33.2416     8.3930    -0.3504     0.1358   101.0052     2.4039
  465.5000    41.0315    18.2628   -33.3852     8.3936    -0.3063     0.1237    96.3082     2.4432
  466.0000    40.4829    18.0141   -33.6741     8.3942    -0.2820     0.1509    88.9563     2.4545
  466.5000    40.2127    17.7688   -33.8184     8.3947    -0.2927     0.1666    83.3215     2.4093
  467.0000    39.1318    17.5268   -33.8167     8.3953    -0.3134     0.1774    80.4529     2.3893
  467.5000    38.0472    17.2845   -33.8153     8.3813    -0.3223     0.1823    79.0006     2.3792
  468.0000    36.7993    16.8196   -33.8139     8.3819    -0.3297     0.1864    76.0735     2.3740
  468.5000    35.5618    16.5905   -33.5218     8.3825    -0.3356     0.1870    74.6156     2.3688
  469.0000    34.6036    16.3646   -33.5201     8.3830    -0.3400     0.1846    78.7738     2.3628
  469.5000    34.1386    16.1420   -33.2280     8.3836    -0.3459     0.1822    85.2863     2.3583
  470.0000    33.2189    15.9222   -32.9360     8.3842    -0.3362     0.1809    95.1229     2.3598
  470.5000    33.2298    15.7053   -32.9346     8.3848    -0.3183     0.1803    89.4672     2.3599
  471.0000    34.1679    15.4914   -32.6424     8.3854    -0.3060     0.1791    82.4103     2.3600
  471.5000    34.6513    15.3863   -32.3501     8.3860    -0.2937     0.1794    78.0082     2.3600
  472.0000    35.1416    15.2817   -32.4944     8.3719    -0.2815     0.1839    74.1961     2.3601
  472.5000    35.1512    15.2827   -32.3476     8.3725    -0.2692     0.1875    75.1038     2.3586
  473.0000    34.6809    15.2840   -32.6366     8.3730    -0.2569     0.1905    79.3038     2.3541
  473.5000    34.2127    15.2850   -32.6352     8.3589    -0.2537     0.2008    83.1196     2.3406
  474.0000    33.2931    15.2860   -32.9245     8.3595    -0.2747     0.2125    84.3222     2.3256
  474.5000    32.3960    15.3926   -33.2138     8.3602    -0.3290     0.2091    86.9998     2.3203
  475.0000    31.5232    15.5003   -33.7935     8.3608    -0.3622     0.2043    89.6774     2.3226
  475.5000    30.8880    15.6085   -34.0829     8.3613    -0.3590     0.2031    89.1102     2.3272
  476.0000    30.2637    15.7174   -34.6628     8.3619    -0.3649     0.2079    88.2479     2.3273
  476.5000    29.8552    15.9365   -34.9521     8.3625    -0.3823     0.2091    88.6037     2.3196
  477.0000    29.4560    15.9375   -35.2414     8.3616    -0.4039     0.2036    90.0690     2.3183
  477.5000    29.2613    15.9388   -35.2397     8.3343    -0.3825     0.1870    89.2068     2.3282
  478.0000    29.0679    16.0501   -35.2383     8.3350    -0.3612     0.1846    88.3389     2.3426
  478.5000    29.0775    16.0511   -35.0887     8.3355    -0.3428     0.1800    88.0666     2.3585
  479.0000    29.0851    16.0522   -34.6538     8.3361    -0.3276     0.1706    87.8000     2.3699
  479.5000    28.8929    16.0532   -34.6524     8.3367    -0.3152     0.1676    85.4218     2.3850
  480.0000    28.7019    16.0545   -34.6510     8.3372    -0.3030     0.1744    82.2464     2.3715
  480.5000    28.7113    15.9451   -34.6496     8.3400    -0.3028     0.1781    83.7441     2.3685
  481.0000    29.1176    15.9464   -34.9389     8.3678    -0.3148     0.1727    85.5367     2.3738
  481.5000    29.1252    15.9474   -35.2279     8.3684    -0.3282     0.1630    86.4444     2.3897
  482.0000    29.3344    15.8390   -35.5176     8.3690    -0.3432     0.1557    86.4671     2.4064
  482.5000    29.5470    15.7313   -35.8069     8.3695    -0.3597     0.1560    87.3748     2.4034
  483.0000    29.5110    15.6246   -36.0962     8.3701    -0.3517     0.1585    88.9085     2.4080
  483.5000    29.1558    15.5183   -36.3852     8.3707    -0.2761     0.1632    89.7802     2.4443
  484.0000    27.6004    15.5193   -36.4050     8.3714    -0.2578     0.1668    84.2038     2.4670
  484.5000    26.1156    15.3080   -36.6731     8.3719    -0.2788     0.1662    79.5068     2.4263
  485.0000    25.0742    15.3092   -36.6713     8.3725    -0.3104     0.1605    78.9339     2.3931
  485.5000    25.4306    15.2049   -36.6700     8.3731    -0.3284     0.1749    80.1422     2.3901
  486.0000    25.7905    15.1015   -36.6686     8.3736    -0.3496     0.1878    78.0648     2.3676
  486.5000    25.7973    14.8961   -36.6672     8.3742    -0.3659     0.1921    76.0579     2.3488
  487.0000    24.7506    14.7948   -36.6655     8.3748    -0.3733     0.1900    77.7621     2.3465
  487.5000    24.0914    14.6942   -36.6641     8.3755    -0.3792     0.1812    80.8288     2.3549
  488.0000    24.0992    14.4941   -36.6627     8.3760    -0.3730     0.1776    83.6251     2.3663
  488.5000    24.4403    14.3955   -36.8067     8.3766    -0.3501     0.1754    86.7740     2.3724
  489.0000    24.7861    14.2933   -36.9506     8.3625    -0.3409     0.1773    88.8616     2.3725
  489.5000    24.7927    14.0362   -37.2399     8.3484    -0.3422     0.1775    87.3098     2.3732
  490.0000    24.8007    13.9123   -37.5292     8.3490    -0.3466     0.1772    82.4230     2.3733
  490.5000    24.4659    13.7884   -37.6728     8.3496    -0.3570     0.1705    78.9060     2.3786
  491.0000    24.1372    13.6645   -37.9622     8.3502    -0.3689     0.1681    76.2738     2.3847
  491.5000    23.4884    13.5406   -38.3968     8.3508    -0.3809     0.1693    75.9959     2.3893
  492.0000    22.5180    13.4167   -38.6861     8.3514    -0.3883     0.1692    78.0892     2.3955
  492.5000    21.3400    13.2928   -38.9754     8.3519    -0.3835     0.1493    79.8820     2.4037
