~VERSION INFORMATION
 VERS.                2.0:   CWLS LOG ASCII STANDARD - VERSION 2.0
 WRAP.                 NO:   ONE LINE PER DEPTH STEP
~WELL INFORMATION
#MNEM.UNIT      DATA TYPE    INFORMATION
#----------   ------------   ------------------------------
 STRT.F            0.0000:   START DEPTH
 STOP.F         3030.0000:   STOP DEPTH
 STEP.F            0.5000:   STEP LENGTH
 NULL.          -999.2500:   NO VALUE
 COMP. LAWRENCE/ALLISON INC:   COMPANY
 WELL. NAVAL PETROLEUM RESERVE 3 AX-3 #36  X 34-34:   WELL
 FLD .         N. P. R #3:   FIELD
 LOC .      S34 T39N R78W:   LOCATION
 CNTY.            NATRONA:   COUNTY
 STAT.            WYOMING:   STATE
 CTRY. UNITED STATES OF AMERICA:   COUNTRY
 SRVC.      Dresser Atlas:   SERVICE COMPANY
 DATE.        29-JUN-1985:   LOGDATE
 API .       490251103200:   API NUMBER
~CURVE INFORMATION
#MNEM.UNIT       API CODE    CURVE DESCRIPTION
#----------   ------------   ------------------------------
 DEPT.F                  :   
 RFOC.OHMM   07 220 01 00:   RESISTIVITY FOCUSED LOG
 RILM.OHMM   07 120 44 00:   RESITIVITY LONG MEDIUM
 SPR .MV     07 010 01 00:   SPONTANEOUS POTENTIAL
 RILD.OHMM   07 120 46 00:   INDUCTION LOG DEEP RESITIVITY
 GRR .GAPI   07 310 01 00:   GAMMA RAY
 DT  .US/F   60 520 00 00:   INTERVAL TRANSIT TIME
 CALD.IN     45 280 60 00:   CALIPER FROM DENSITY LOG
 CORR.G/C3   45 356 01 00:   DENSITY CORRECTION
 CNC .DEC    42 890 03 00:   NEUTRON POROSITY SANDSTONE
 DEN .G/C3   45 350 01 00:   COMPENSATED BULK DENSTIY
 PORD.DEC    45 890 12 00:   POROSITY DENSITY SANDSTONE
~PARAMETER INFORMATION
#MNEM.UNIT          VALUE    DESCRIPTION
#----------   ------------   ------------------------------
 PD  .                 GL:   PERMANENT DATUM
 EPD .F              5108:   ELEVATION PERMANENT DATUM
 LMF .                 KB:   LOG MEASURED FROM
 DAPD.F                12:   FEET ABOVE PERMANENT DATUM
 DMF .                 KB:   DRILLING MEASURED FROM
 EKB .F              5120:   KELLING BUSHING
 EGL .F              5108:   GROUND LEVEL
 DATE.       29-JUNE-1985:   RUN DATE
 RUN .                  1:   RUN NUMBER
 DD  .F              3033:   DEPTH DRILLER
 DL  .F              3033:   DEPTH LOGGER
 BLI .F              3030:   BOTTOM LOG INTERVAL
 CS  .IN            8.625:   CASING SIZE
 CBD .F               601:   CASING BOTTOM DRILLER
 CBL .F               601:   CASING BOTTOM LOGGER
 BS  .IN            7.875:   BIT SIZE
 BSD .F              3033:   BIT SIZE AT DEPTH
 DFT .   FOAM & KCL WATER:   DRILLING FLUID TYPE
 MSS .           FLOWLINE:   MUD SAMPLE SOURCE
 RMS .OHMM           0.44:   RESISTIVITY MUD SAMPLE
 MST .F                82:   MUD SAMPLE TEMPERATURE
 RMF .OHMM           0.44:   RESISTIVITY MUD FILTRATE SAMPLE
 MFST.F                82:   MUD FILTRATE SAMPLE TEMPERATURE
 MFSS.               MEAS:   MUD FILTRATE SAMPLE SOURCE
 RMB .OHMM           0.31:   RESISTIVITY MUD AT BHT
 BHT .F               116:   BOTTOM HOLE TEMPERATURE
 TCS .HRS               3:   TIME CURCULATED STOPPED
 MRT .F               116:   MAXIMUM RECORDED TEMPERATURE
 LUN .               6274:   LOGGING UNIT NUMBER
 LUL .               GLTE:   LOGGING UNIT LOCATION
 ENGI.             RAUTIO:   RECORDING ENGINEER
 WITN.       MR. JENNINGS:   WITNESSED BY
 CLNT.            A2DTECH:   CLIENT CODE
 ORIG.        2" 5" PRINT:   ORIGIN OF DATA
 UWI .       490251103200:   UNIQUE WELL ID
 DICO. A2D Technologies, Inc.:   DIGITIZING COMPANY
~OTHER INFORMATION
~A    DEPT    RFOC       RILM        SPR       RILD         GRR        DT       CALD       CORR        CNC        DEN       PORD   
# ...
 2684.0000     9.7624     5.9129    70.9641     9.2136    77.4918  -999.2500     6.4367    -0.0894     0.3153  -999.2500     0.7001
 2684.5000     8.8697     6.2109    70.9667     8.7192    75.3821  -999.2500     6.4518    -0.0788     0.3377  -999.2500     0.7001
 2685.0000     7.4947     6.4336    70.9697     8.5418    70.4542  -999.2500     6.4367    -0.0681     0.3462  -999.2500     0.7001
 2685.5000     6.6141     6.2593    70.9727     8.3700    67.2263  -999.2500     6.5120    -0.0523     0.3613  -999.2500     0.7000
 2686.0000     5.5983     5.6218    70.8241     7.8306    64.8136   239.9669     6.8283    -0.0138     0.3936  -999.2500     0.6997
 2686.5000     4.9063     5.0832    70.2216     6.8460    62.4009   231.1548     7.7470     0.0449     0.4296  -999.2500     0.6997
 2687.0000     4.3229     4.5489    69.7700     6.5687    63.3215   221.5411    11.0753     0.0774     0.4075  -999.2500     0.6997
 2687.5000     3.8215     4.1278    69.1668     6.4801    66.8191   207.4320     9.5542     0.1113     0.3476  -999.2500     0.6789
 2688.0000     3.5906     4.0723    67.9327     6.6671    80.6203   198.0932     7.5060     0.1309     0.2983  -999.2500     0.6178
 2688.5000     3.5173     4.2235    64.3248     6.9691    86.3894   187.7002     7.4157     0.1099     0.2847  -999.2500     0.4878
 2689.0000     3.6434     5.3852    61.5796     7.3579    90.0373   170.6806     7.3705    -0.0553     0.2692  -999.2500     0.3702
 2689.5000     3.9630     6.9242    60.3912     7.6222    90.3519   162.9231     7.3705    -0.0657     0.2460     2.2383     0.2181
 2690.0000     5.0224     7.0732    59.9394     7.7868    90.3636   151.6363     7.3705    -0.0070     0.2233     2.4434     0.1229
 2690.5000     6.5455     7.1255    59.9424     7.8449    90.3779   127.0466     7.3705     0.0127     0.2263     2.4758     0.1042
 2691.0000     6.8747     7.4327    59.7937     7.7873    90.6925   105.3132     7.3705     0.0112     0.2335     2.4675     0.1084
 2691.5000     7.0711     7.5927    59.4943     7.6898    91.3101    92.6364     7.3855     0.0054     0.2398     2.4613     0.1141
 2692.0000     7.2228     7.4906    58.8911     7.5869    91.6247    91.8268     7.4006     0.0100     0.2444     2.4578     0.1156
 2692.5000     7.2177     7.2884    57.9849     7.5386    92.2424    92.7837     7.4006     0.0176     0.2434     2.4669     0.1132
 2693.0000     6.8844     7.1897    56.9111     7.5421    92.8628    94.3883     7.4006     0.0237     0.2413     2.4729     0.1071
 2693.5000     6.7914     7.1426    56.0217     7.4356    93.7834    96.0435     7.4006     0.0253     0.2419     2.4789     0.1035
 2694.0000     6.7937     7.0965    55.2670     7.2409    94.4010    96.4190     7.4157     0.0134     0.2428     2.4782     0.1014
 2694.5000     6.9394     7.0501    54.5123     7.0945    95.3217    95.8901     7.4157    -0.0120     0.2394     2.4707     0.1074
 2695.0000     7.6740     6.9560    53.7576     7.0978    95.3332    93.5539     7.4006    -0.0450     0.2288     2.4700     0.1073
 2695.5000     8.9225     6.6739    53.1333     6.9542    92.3174    91.1429     7.4006    -0.0509     0.2273     2.4746     0.1049
 2696.0000     8.8021     6.0984    52.5520     6.7574    89.9047    88.9577     7.4006    -0.0478     0.2315     2.4768     0.1037
 2696.5000     8.3280     5.6903    52.0996     6.4031    92.6232    87.8268     7.3855    -0.0132     0.2493     2.4393     0.1146
 2697.0000     8.1102     5.4217    51.9510     6.1012    98.6299    87.1436     7.3830     0.0501     0.2638     2.4033     0.1379
 2697.5000     7.8794     5.2748    51.6515     6.0188   104.6366    88.0494     7.3705     0.1043     0.2735     2.3920     0.1563
 2698.0000     7.6157     5.2039    51.6551     5.9389   109.0437    90.0058     7.3705     0.0924     0.2665     2.4251     0.1439
 2698.5000     7.3576     5.1699    51.6580     5.8975   103.2977    92.9412     7.3705     0.0203     0.2571     2.5010     0.1115
 2699.0000     7.1579     5.1724    51.6609     5.8623    95.1274    92.7891     7.3554     0.0159     0.2559     2.5401     0.0692
 2699.5000     7.1100     5.2107    51.6638     5.8243    95.8703    91.4446     7.3404     0.0318     0.2605     2.5439     0.0625
 2700.0000     6.9659     5.2492    51.3636     5.8277    98.7898    86.9877     7.3404     0.0417     0.2628     2.5402     0.0674
 2700.5000     6.7775     5.3279    50.9120     5.8711   101.0160    85.1038     7.3404     0.0403     0.2631     2.5285     0.0761
 2701.0000     6.5935     5.4043    50.6118     5.9563   106.4753    85.6294     7.3404     0.0314     0.2625     2.5095     0.0846
 2701.5000     6.4146     5.5224    50.1602     5.9177   107.6199    87.4352     7.3404     0.0300     0.2618     2.5050     0.0876
 2702.0000     6.3275     5.6032    49.7092     5.9211   104.6075    88.4124     7.3404     0.0376     0.2602     2.5110     0.0767
 2702.5000     6.3301     5.7250    49.7121     5.9239   103.1564    89.2392     7.3400     0.0392     0.2576     2.5268     0.0734
 2703.0000     6.3952     5.8513    49.7157     5.9681   102.1921    89.3135     7.3545     0.0168     0.2573     2.5261     0.0752
 2703.5000     6.7915     6.0191    49.5663     6.0144   100.7146    88.9352     7.3694    -0.0011     0.2597     2.5165     0.0869
 2704.0000     7.0345     6.1183    49.4184     6.1005    99.2138    87.4875     7.3844    -0.0311     0.2610     2.4909     0.0973
 2704.5000     7.2862     6.2185    49.2697     6.2322    97.7130    85.6669     7.3842    -0.0400     0.2565     2.4826     0.1011
 2705.0000     7.5466     6.3318    49.1212     6.3330    96.2121    84.6837     7.3840    -0.0339     0.2550     2.4826     0.1017
 2705.5000     7.7624     6.4245    49.1248     6.4647    94.1088    84.2266     7.3839    -0.0232     0.2556     2.4834     0.1008
 2706.0000     7.5118     6.4732    49.1276     6.5588    95.3352    84.1470     7.3837    -0.0081     0.2564     2.4902     0.0983
 2706.5000     7.5687     6.4321    49.0000     6.4706   101.4102    84.2934     7.3836     0.0145     0.2561     2.5013     0.0911
 2707.0000     7.5196     6.4369    48.8717     6.4749   103.8487    84.6672     7.3834     0.0267     0.2552     2.5128     0.0826
 2707.5000     7.4190     6.3950    48.5759     6.4784   102.6545    85.1122     7.3833     0.0486     0.2548     2.5266     0.0744
 2708.0000     7.2631     6.2674    48.5830     6.3044   101.1537    85.1080     7.3831     0.0502     0.2558     2.5309     0.0714
 2708.5000     7.1229     6.1843    48.1342     6.1344   103.8952    85.0284     7.3830     0.0502     0.2587     2.5279     0.0704
 2709.0000     7.1262     6.0600    48.1399     6.0519   105.1217    84.9488     7.3678     0.0473     0.2626     2.5227     0.0747
 2709.5000     7.0309     6.0215    48.1456     6.0138   105.1364    84.8683     7.3676     0.0398     0.2656     2.5117     0.0795
 2710.0000     6.6871     6.0260    48.3030     6.0178   105.4569    85.1652     7.3675     0.0199     0.2646     2.4965     0.0813
 2710.5000     5.9552     6.0295    48.3100     6.1055   104.8652    86.4411     7.3587    -0.0201     0.2631     2.4852     0.0858
 2711.0000     6.3875     6.0754    48.3157     6.1087   103.9704    86.7381     7.3521    -0.0456     0.2619     2.4823     0.0976
 2711.5000     6.8512     6.0367    48.2992     6.1119   102.7527    86.1304     7.3369    -0.0351     0.2604     2.4845     0.1009
 2712.0000     7.4011     6.0412    48.3273     6.1159    98.2450    84.9213     7.3367    -0.0242     0.2585     2.4868     0.1018
 2712.5000     7.3017     6.1724    48.3343     6.2050    96.1346    84.3900     7.3366    -0.0169     0.2503     2.4891     0.0990
 2713.0000     6.9576     6.2193    48.3400     6.2954   101.0010    84.4600     7.3214    -0.0168     0.2428     2.4921     0.0954
 2713.5000     6.7689     6.3165    48.4972     6.3428   103.7425    84.6074     7.3062    -0.0153     0.2397     2.4982     0.0926
 2714.0000     6.8677     6.4032    48.5030     6.4352   106.7872    84.3762     7.3060    -0.0089     0.2388     2.4997     0.0899
