~VERSION INFORMATION
 VERS.                2.0:   CWLS LOG ASCII STANDARD - VERSION 2.0
 WRAP.                 NO:   ONE LINE PER DEPTH STEP
~WELL INFORMATION
#MNEM.UNIT      DATA TYPE    INFORMATION
#----------   ------------   ------------------------------
 STRT.F           18.0000:   START DEPTH
 STOP.F          576.0000:   STOP DEPTH
 STEP.F            0.5000:   STEP LENGTH
 NULL.          -999.2500:   NO VALUE
 COMP. LAWRENCE/ALLISON INC:   COMPANY
 WELL.    41-16 SX #10-10:   WELL
 FLD .             TEAPOT:   FIELD
 LOC .      S10 T38N R78W:   LOCATION
 CNTY.            NATRONA:   COUNTY
 STAT.            WYOMING:   STATE
 CTRY. UNITED STATES OF AMERICA:   COUNTRY
 SRVC.           Gearhart:   SERVICE COMPANY
 DATE.        30-JUL-1987:   LOGDATE
 API .       490251115400:   API NUMBER
~CURVE INFORMATION
#MNEM.UNIT       API CODE    CURVE DESCRIPTION
#----------   ------------   ------------------------------
 DEPT.F                  :   
 GRR .GAPI   07 310 01 00:   GAMMA RAY
 ILD .OHMM   07 120 46 00:   INDUCTION LOG DEEP
 ILM .OHMM   07 120 44 00:   INDUCTION LOG MEDIUM
~PARAMETER INFORMATION
#MNEM.UNIT          VALUE    DESCRIPTION
#----------   ------------   ------------------------------
 PD  .                 GL:   PERMANENT DATUM
 EPD .F              5253:   ELEVATION PERMANENT DATUM
 LMF .                 KB:   LOG MEASURED FROM
 DAPD.F                 8:   FEET ABOVE PERMANENT DATUM
 DMF .                 KB:   DRILLING MEASURED FROM
 EKB .F              5261:   KELLING BUSHING
 EGL .F              5253:   GROUND LEVEL
 DATE.        30-JUL-1987:   RUN DATE
 RUN .                  1:   RUN NUMBER
 DD  .F               570:   DEPTH DRILLER
 DL  .F               584:   DEPTH LOGGER
 BLI .F               576:   BOTTOM LOG INTERVAL
 TLI .F                18:   TOP LOG INTERVAL
 CS  .IN            8.625:   CASING SIZE
 CBD .F                48:   CASING BOTTOM DRILLER
 CBL .F                48:   CASING BOTTOM LOGGER
 BS  .IN            7.875:   BIT SIZE
 BSD .F               570:   BIT SIZE AT DEPTH
 TLAB.HRS            0346:   TIME LOGGER AT BOTTOM
 MRT .F                80:   MAXIMUM RECORDED TEMPERATURE
 LUN .               7597:   LOGGING UNIT NUMBER
 LUL .           GILLETTE:   LOGGING UNIT LOCATION
 ENGI. K. HUCHFELDT, R. WEATHERMON:   RECORDING ENGINEER
 WITN.    MR. GARY STRONG:   WITNESSED BY
 CLNT.            A2DTECH:   CLIENT CODE
 ORIG.         2.5" PRINT:   ORIGIN OF DATA
 UWI .       490251115400:   UNIQUE WELL ID
 DICO. A2D Technologies, Inc.:   DIGITIZING COMPANY
~OTHER INFORMATION
~A   DEPT       GRR       ILD        ILM   
# ...
  382.0000    87.8298    25.6339    23.7488
  382.5000    89.6366    25.6339    24.0834
  383.0000    89.6307    25.4467    24.0038
  383.5000    88.4163    25.0867    23.6696
  384.0000    85.9935    24.2584    23.4422
  384.5000    83.5707    24.2584    23.3349
  385.0000    82.9605    23.9262    22.8139
  385.5000    82.3504    23.2755    22.5070
  386.0000    82.3444    22.9567    22.2034
  386.5000    82.9428    22.9567    22.0625
  387.0000    83.6133    22.6424    21.9084
  387.5000    85.4481    21.7249    21.4526
  388.0000    86.0745    21.4274    21.1540
  388.5000    87.3051    20.5592    21.0337
  389.0000    87.7471    20.5592    21.0389
  389.5000    87.7402    20.2777    20.7543
  390.0000    88.3395    20.5592    20.1946
  390.5000    89.8107    20.5592    19.9216
  391.0000    90.7432    20.5592    19.3842
  391.5000    90.7372    20.5877    18.8608
  392.0000    90.7311    20.8446    18.8646
  392.5000    88.9113    20.8446    18.8685
  393.0000    87.6969    21.1340    18.8723
  393.5000    87.0868    21.2025    18.8762
  394.0000    87.0809    21.4274    18.8800
  394.5000    88.2835    21.7249    18.8839
  395.0000    89.4860    21.7249    18.8877
  395.5000    90.6888    21.7249    18.8916
  396.0000    88.2657    21.7249    19.1579
  396.5000    87.6556    21.7249    19.4279
  397.0000    88.2860    21.7249    19.4706
  397.5000    90.1208    21.5762    19.7057
  398.0000    90.7472    21.4274    19.9835
  398.5000    91.8616    21.2612    19.9876
  399.0000    91.1058    20.8446    19.9917
  399.5000    89.0856    20.8446    19.9959
  400.0000    87.6148    20.7502    20.0000
  400.5000    89.4363    20.8512    19.9986
  401.0000    93.0706    20.5713    19.9790
  401.5000    96.1006    20.5768    19.6950
  402.0000    97.3180    20.5824    19.1493
  402.5000    97.4069    20.5880    18.9203
  403.0000    96.7311    20.5936    18.6088
  403.5000    94.9277    20.3168    18.3444
  404.0000    94.3323    20.0442    18.0836
  404.5000    92.5126    19.7752    17.9001
  405.0000    91.9332    19.7806    17.8989
  405.5000    93.8197    19.5150    17.8977
  406.0000    94.3679    19.5205    17.8964
  406.5000    92.4521    19.5259    17.8952
  407.0000    90.0202    19.5313    17.8940
  407.5000    89.5607    19.5367    18.0169
  408.0000    92.5438    19.5420    18.3917
  408.5000    94.6234    19.5474    18.6458
  409.0000    95.2608    19.5528    18.9034
  409.5000    95.6405    19.5582    18.9018
  410.0000    95.6496    19.5636    18.6417
  410.5000    94.7482    19.5690    18.3852
  411.0000    94.1289    19.5744    18.1322
  411.5000    92.9053    19.8516    17.8827
  412.0000    92.6646    19.9968    17.8815
  412.5000    95.0921    20.2898    17.6355
  413.0000    95.7052    20.4236    17.6343
  413.5000    94.5057    20.7139    17.6331
  414.0000    93.3061    20.7195    17.8767
  414.5000    92.7100    20.7252    18.6304
  415.0000    92.7196    20.7308    18.8877
  415.5000    90.9158    20.1724    18.6278
  416.0000    92.1332    19.6290    18.3547
  416.5000    92.1421    19.3655    18.0939
  417.0000    90.9102    19.1051    17.8367
  417.5000    89.1387    18.5909    17.3033
  418.0000    92.4271    18.5959    16.8618
  418.5000    95.3767    18.0950    16.3946
  419.0000    97.0211    17.8521    15.9987
  419.5000    96.0150    17.6048    15.7137
  420.0000    92.2043    17.3602    15.2782
  420.5000    95.0020    16.9079    15.1371
  421.0000    96.4532    16.6809    15.0531
  421.5000    94.7866    16.6466    14.8392
  422.0000    90.5176    16.4153    14.6282
  422.5000    91.2840    16.1872    14.5197
  423.0000    94.6848    15.9623    14.5187
  423.5000    95.5640    15.8072    14.3189
  424.0000    94.6949    15.8123    14.3177
  424.5000    94.7056    15.7340    14.3168
  425.0000    95.3187    15.6043    14.3158
  425.5000    97.7445    15.3949    14.3148
  426.0000   101.3788    15.1883    14.3139
  426.5000    98.9707    15.0840    14.1169
  427.0000    96.5627    14.9886    13.9226
  427.5000    94.7583    14.9927    13.7311
  428.0000    99.6016    14.7915    13.5421
  428.5000   101.4232    14.5936    13.5412
  429.0000   101.4321    14.5976    13.5403
  429.5000    99.6123    14.5474    13.5394
  430.0000    97.7845    14.8083    13.5384
  430.5000    96.4966    15.0179    13.5438
  431.0000    94.7331    15.2306    13.7372
  431.5000    93.5096    15.6607    13.9334
  432.0000    94.8399    15.8824    14.1064
  432.5000    94.8489    15.8867    14.3012
  433.0000    92.6747    15.8910    14.3002
  433.5000    91.2402    15.8953    14.3455
  434.0000    93.7643    15.8997    14.4968
  434.5000    97.5599    15.6861    14.4362
  435.0000    97.0292    15.4267    14.2962
  435.5000    95.2014    15.0587    14.2952
  436.0000    93.3172    14.8189    14.0213
  436.5000    90.5871    14.6571    13.6327
  437.0000    92.5153    14.4603    13.5254
  437.5000    97.9622    14.2661    13.4319
  438.0000   101.5965    14.2068    13.2409
  438.5000   100.3969    13.8856    12.9747
  439.0000    97.3846    13.6992    12.7959
  439.5000    96.1851    13.7037    12.7951
  440.0000    98.6109    13.7075    12.4462
  440.5000   101.6409    13.9985    12.2749
  441.0000   104.0667    14.4008    12.4445
  441.5000   104.6798    15.4737    12.9692
  442.0000   101.6033    16.6453    14.2823
  442.5000    97.2459    17.8382    15.7285
  443.0000    92.3000    19.1165    17.8053
  443.5000    86.6616    21.0592    20.1563
  444.0000    80.1048    22.2593    22.5054
  444.5000    76.0615    23.5278    24.7841
  445.0000    75.1348    25.5639    26.5512
  445.5000    76.5388    27.7762    28.0941
  446.0000    76.9652    29.3591    30.1110
  446.5000    75.0664    30.1882    31.4097
  447.0000    72.3283    29.3751    32.6427
  447.5000    69.5016    28.5838    33.0937
  448.0000    67.6334    27.0378    30.4754
  448.5000    68.0051    25.9247    26.2061
  449.0000    70.2296    24.8573    23.9203
  449.5000    77.6361    23.5917    23.3418
  450.0000    83.0831    22.8526    22.3842
  450.5000    87.3215    22.2160    21.6556
  451.0000    83.7051    21.0772    20.8710
  451.5000    80.0886    20.4242    20.2926
  452.0000    79.4924    20.0212    19.8571
  452.5000    79.4209    19.7524    19.5839
  453.0000    81.3237    19.7588    19.1733
  453.5000    84.9579    19.8772    18.7877
  454.0000    85.5711    19.9216    18.2752
  454.5000    83.1148    19.7752    17.7769
  455.0000    80.7150    19.7806    17.7757
  455.5000    80.8288    19.7861    17.5311
  456.0000    83.4562    19.6325    17.2899
  456.5000    85.9546    19.5259    16.8185
  457.0000    88.9205    19.0009    16.8174
  457.5000    89.8641    19.0061    16.5859
  458.0000    88.4794    18.7502    16.8151
  458.5000    87.0462    18.2452    16.8139
  459.0000    85.4280    18.5042    17.0462
  459.5000    84.4622    18.7662    17.2817
  460.0000    85.3575    19.0318    17.5204
  460.5000    85.6888    19.0370    17.7625
  461.0000    86.0282    19.5746    18.0079
  461.5000    86.3112    19.5799    18.2566
  462.0000    87.5304    19.8590    18.2891
  462.5000    88.1435    20.1384    18.5076
  463.0000    88.1524    20.1439    18.5062
  463.5000    88.1612    20.1807    18.5649
  464.0000    89.9828    20.4344    18.7607
  464.5000    90.5959    20.4405    18.7593
  465.0000    90.0006    20.4461    18.7580
  465.5000    88.1968    20.4518    18.7567
  466.0000    88.2057    20.3771    18.7554
  466.5000    90.0273    20.1820    18.6428
  467.0000    88.8117    20.1884    18.4960
  467.5000    88.2323    20.1940    18.4947
  468.0000    88.2417    20.0815    18.3584
  468.5000    88.9436    19.9284    18.2390
  469.0000    90.0717    19.9339    17.9877
  469.5000    88.2679    19.6664    17.7402
  470.0000    87.6725    19.5192    17.7390
  470.5000    90.2850    19.4078    17.7378
  471.0000    92.1309    19.1473    17.4937
  471.5000    91.4632    18.8912    17.4925
  472.0000    90.2154    18.8963    17.2518
  472.5000    88.9275    18.3873    16.7815
