~VERSION INFORMATION
 VERS.                2.0:   CWLS LOG ASCII STANDARD - VERSION 2.0
 WRAP.                 NO:   ONE LINE PER DEPTH STEP
~WELL INFORMATION
#MNEM.UNIT      DATA TYPE    INFORMATION
#----------   ------------   ------------------------------
 STRT.F           89.0000:   START DEPTH
 STOP.F         1360.0000:   STOP DEPTH
 STEP.F            0.5000:   STEP LENGTH
 NULL.          -999.2500:   NO VALUE
 COMP.           U S NAVY:   COMPANY
 WELL.     NPR 3 #85 S-11:   WELL
 FLD .             TEAPOT:   FIELD
 LOC .      S11 T38N R78W:   LOCATION
 CNTY.            NATRONA:   COUNTY
 STAT.            WYOMING:   STATE
 CTRY. UNITED STATES OF AMERICA:   COUNTRY
 SRVC.       Schlumberger:   SERVICE COMPANY
 DATE.        15-AUG-1966:   LOGDATE
 API .       490250959000:   API NUMBER
~CURVE INFORMATION
#MNEM.UNIT       API CODE    CURVE DESCRIPTION
#----------   ------------   ------------------------------
 DEPT.F                  :   
 SPR .MV     05 010 01 00:   SPONTANEOUS POTENTIAL FROM RES.
 CILD.MMHO   05 110 46 00:   CONDUCTIVITY INDUCTION LOG DEEP
 ASN .OHMM   05 041 16 00:   AMPLIFIED SHORT NORMAL 16"
 ILD .OHMM   05 120 46 00:   INDUCTION LOG DEEP
 GR  .GAPI   30 310 01 00:   GAMMA RAY
~PARAMETER INFORMATION
#MNEM.UNIT          VALUE    DESCRIPTION
#----------   ------------   ------------------------------
 PD  .                 GL:   PERMANENT DATUM
 EPD .F              5288:   ELEVATION PERMANENT DATUM
 LMF .                 KB:   LOG MEASURED FROM
 DAPD.F                 5:   FEET ABOVE PERMANENT DATUM
 DMF .                 KB:   DRILLING MEASURED FROM
 EKB .F            5286.9:   KELLING BUSHING
 EGL .F            5281.9:   GROUND LEVEL
 DATE.        15-AUG-1966:   RUN DATE
 RUN .                  1:   RUN NUMBER
 DD  .F              1360:   DEPTH DRILLER
 DL  .F              1361:   DEPTH LOGGER
 BLI .F              1360:   BOTTOM LOG INTERVAL
 TLI .F                88:   TOP LOG INTERVAL
 CS  .IN            8.625:   CASING SIZE
 CBD .F                12:   CASING BOTTOM DRILLER
 BS  .IN            7.875:   BIT SIZE
 BSD .F              1360:   BIT SIZE AT DEPTH
 DFT .          CHEM- GEL:   DRILLING FLUID TYPE
 DFD .                9.6:   DRILLING FLUID DENSITY
 DFV .                 60:   DRILLING FLUID VISCOSITY
 DFPH.                7.2:   DRILLING FLUID PH
 DFL .                6.4:   DRILLING FLUID LOSS
 MSS .         CIRCULATED:   MUD SAMPLE SOURCE
 RMS .OHMM           1.41:   RESISTIVITY MUD SAMPLE
 MST .F                72:   MUD SAMPLE TEMPERATURE
 RMF .OHMM           0.75:   RESISTIVITY MUD FILTRATE SAMPLE
 MFST.F                73:   MUD FILTRATE SAMPLE TEMPERATURE
 MFSS.               MEAS:   MUD FILTRATE SAMPLE SOURCE
 TCS .HRS             2.5:   TIME CURCULATED STOPPED
 LUN .               3527:   LOGGING UNIT NUMBER
 LUL .              CSPR.:   LOGGING UNIT LOCATION
 ENGI.               HAUG:   RECORDING ENGINEER
 WITN.             TUTTLE:   WITNESSED BY
 CLNT.            A2DTECH:   CLIENT CODE
 ORIG.       2", 5" PRINT:   ORIGIN OF DATA
 UWI .       490250959000:   UNIQUE WELL ID
 DICO. A2D Technologies, Inc.:   DIGITIZING COMPANY
~OTHER INFORMATION
~A   DEPT      SPR       CILD          ASN        ILD       GR   
# ...
 1309.0000   -26.9722   115.6997    11.5355     7.7887    77.4415
 1309.5000   -26.9800   115.7734    11.5280     7.8611    76.1828
 1310.0000   -26.9863   115.8470    11.5976     7.8581    66.5852
 1310.5000   -26.9925   115.9206    11.5883     7.9307    66.2705
 1311.0000   -26.8455   115.9943    11.6579     8.0030    71.4626
 1311.5000   -26.7000   116.1036    11.6486     8.0000    70.8333
 1312.0000   -26.7078   116.8909    11.6411     7.9970    67.2145
 1312.5000   -26.7140   116.9656    11.6336     7.9939    61.7077
 1313.0000   -26.7202   117.8020    11.6261     7.9155    60.1175
 1313.5000   -26.7265   118.6230    11.5433     7.9125    66.1132
 1314.0000   -26.7327   119.4440    11.5358     7.9089    74.1516
 1314.5000   -26.5870   120.2650    11.4530     7.9059    73.2699
 1315.0000   -26.4416   121.0861    11.4455     7.8275    67.3818
 1315.5000   -26.2962   121.9071    11.3627     7.8245    65.4838
 1316.0000   -26.3025   121.9807    11.2799     7.7461    58.8756
 1316.5000   -26.1569   122.8017    11.1218     7.7432    54.4702
 1317.0000   -26.1634   122.8754    10.9637     7.6648    39.9952
 1317.5000   -26.1697   122.9490    10.8809     7.5864    24.8908
 1318.0000   -26.1772   123.0226    10.7981     7.5080    27.8802
 1318.5000   -26.1835   123.8436    10.7153     7.4296    59.5050
 1319.0000   -26.1897   125.4120    10.7078     7.4266    61.0784
 1319.5000   -26.0426   126.2384    10.7003     7.4236    55.7289
 1320.0000   -26.0504   127.0553    10.6175     7.4206    49.9074
 1320.5000   -25.9034   127.8774    10.5347     7.3422    37.0057
 1321.0000   -25.7579   129.4469    10.4518     7.3392    22.2160
 1321.5000   -25.6124   131.7777    10.2937     7.3362    29.4536
 1322.0000   -25.1649   134.0935    10.1306     7.1824    53.8408
 1322.5000   -25.1712   136.4093     9.9021     7.0286    66.9475
 1323.0000   -25.1774   138.7251     9.7365     6.8748    74.8146
 1323.5000   -25.1836   141.0408     9.9062     6.6456    80.6849
 1324.0000   -25.1899   143.3566     9.6908     6.5671    82.6336
 1324.5000   -25.1961   147.1672     9.4452     6.4887    85.3083
 1325.0000   -25.0506   150.2303     9.2297     6.3223    90.0284
 1325.5000   -25.0569   155.5357     9.0293     5.8787   102.3008
 1326.0000   -24.7479   166.0727     8.6783     5.5741    99.6260
 1326.5000   -24.3106   185.5021     8.3875     5.0432    94.5912
 1327.0000   -24.0134   210.3279     8.0365     4.4369    82.0042
 1327.5000   -23.8679   228.3387     7.5536     4.2006    74.9241
 1328.0000   -23.7239   242.6127     6.7940     3.8280    79.6442
 1328.5000   -23.7302   253.8787     6.0034     3.7496    82.6336
 1329.0000   -23.5831   248.7390     5.5169     3.7466    76.1828
 1329.5000   -23.4376   244.3283     5.3767     3.7430  -999.2500
 1330.0000   -23.2921   239.9177     5.4775     3.7400  -999.2500
 1330.5000   -23.2999   232.5175     5.8946     3.8879  -999.2500
 1331.0000   -23.4579   222.1277     6.7032     4.3374  -999.2500
 1331.5000   -23.6159   205.7589     7.6775     5.1640  -999.2500
 1332.0000   -23.7738   181.1689     8.4861     5.6889  -999.2500
 1332.5000   -23.7801   159.5684     8.9182     6.2138  -999.2500
 1333.0000   -23.7863   150.6734     9.1244     6.5879  -999.2500
 1333.5000   -23.6406   143.9913     9.2704     6.7365  -999.2500
 1334.0000   -23.7988   141.1046     9.3712     6.5819  -999.2500
 1334.5000   -24.1085   141.9283     9.5273     6.4281  -999.2500
 1335.0000   -24.2666   141.2703     9.6950     6.5759  -999.2500
 1335.5000   -24.2729   139.1018     9.8231     6.7238  -999.2500
 1336.0000   -24.2792   136.1859     9.8798     6.8724  -999.2500
 1336.5000   -24.2573   133.2700    10.0107     7.0949  -999.2500
 1337.0000   -24.1397   129.6067    10.1567     7.1674  -999.2500
 1337.5000   -24.1475   127.4382    10.4521     7.3152  -999.2500
 1338.0000   -24.1538   125.9987    10.7487     7.3876  -999.2500
 1338.5000   -24.0067   123.8485    10.9712     7.4603  -999.2500
 1339.0000   -24.0145   122.4274    11.2666     7.6114  -999.2500
 1339.5000   -24.0208   120.2589    11.4879     7.7557  -999.2500
 1340.0000   -24.0270   118.0904    11.7091     7.9036  -999.2500
 1340.5000   -24.1850   116.6693    11.9304     7.9760  -999.2500
 1341.0000   -24.1912   115.2481    12.0764     8.1231  -999.2500
 1341.5000   -24.1975   114.5740    12.2224     8.1955  -999.2500
 1342.0000   -24.2037   113.1532    12.3771     8.1925  -999.2500
 1342.5000   -24.0579   111.7321    12.5143     8.2650  -999.2500
 1343.0000   -24.0644   111.0583    12.6603     8.2620  -999.2500
 1343.5000   -24.0707   110.3846    12.7310     8.1836  -999.2500
 1344.0000   -24.0769   109.7108    12.8017     8.2568  -999.2500
 1344.5000   -24.0832   109.8029    12.7959     8.2530  -999.2500
 1345.0000   -24.0895   109.1107    12.7913     8.2501  -999.2500
 1345.5000   -24.0959   109.2028    12.7866     8.2471  -999.2500
 1346.0000   -24.1022   109.2764    12.7820     8.2441  -999.2500
 1346.5000   -24.1097   109.3500    12.8538     8.2411  -999.2500
 1347.0000   -24.2677   109.4237    12.8481     8.2381  -999.2500
 1347.5000   -24.5774   109.4973    12.8434     8.3113  -999.2500
 1348.0000   -24.5836   109.5709    12.8388     8.3076  -999.2500
 1348.5000   -24.1346   109.6446    12.8313     8.3800  -999.2500
 1349.0000   -23.8374   110.4656    12.6789     8.3770  -999.2500
 1349.5000   -23.8436   112.0340    12.5235     8.3740  -999.2500
 1350.0000   -24.0016   112.8550    12.4427     8.2956  -999.2500
 1350.5000   -24.0079   113.3442    12.4380     8.2206  -999.2500
 1351.0000   -24.0141   113.7555    12.4334     8.1457  -999.2500
 1351.5000   -24.0203   113.8291    12.5052     8.0635  -999.2500
 1352.0000   -24.0266   113.9026    12.4995     7.9863  -999.2500
 1352.5000   -23.8809   113.9761    12.4948     7.9090  -999.2500
 1353.0000   -23.7355   114.8479    12.4149     7.8318  -999.2500
 1353.5000   -23.5900   116.3677    12.3350     7.8299  -999.2500
 1354.0000   -23.4446   117.2045    12.1798     7.8281  -999.2500
 1354.5000   -23.4509   117.2781    12.0245     7.8380  -999.2500
 1355.0000   -23.4573   117.3516    11.7940     7.8998  -999.2500
 1355.5000   -23.4648   117.4251    11.6366     7.8975  -999.2500
 1356.0000   -23.3178   117.4986    11.4081     7.8957  -999.2500
 1356.5000   -23.1723   116.8064    11.2399     7.8938  -999.2500
 1357.0000   -23.1801   116.8982    11.0213     7.8920  -999.2500
 1357.5000   -23.1863   116.2060    10.9414     7.8901  -999.2500
 1358.0000   -23.1926   116.2979    10.9368     7.8883  -999.2500
 1358.5000   -23.1988   117.1188    10.9322     7.8865  -999.2500
 1359.0000   -23.0517   117.1923    10.9275     7.8846  -999.2500
 1359.5000   -22.7560   117.2658    10.9229     7.8828  -999.2500
 1360.0000   -22.6090   116.5919    10.9947     7.8805  -999.2500
