~VERSION INFORMATION
 VERS.                2.0:   CWLS LOG ASCII STANDARD - VERSION 2.0
 WRAP.                 NO:   ONE LINE PER DEPTH STEP
~WELL INFORMATION
#MNEM.UNIT      DATA TYPE    INFORMATION
#----------   ------------   ------------------------------
 STRT.F          714.0000:   START DEPTH
 STOP.F         1640.0000:   STOP DEPTH
 STEP.F            0.5000:   STEP LENGTH
 NULL.          -999.2500:   NO VALUE
 COMP. BROWN JOHN E&C INC:   COMPANY
 WELL. NPR 3 STX-15 #83-15:   WELL
 FLD .             TEAPOT:   FIELD
 LOC .      S15 T38N R78W:   LOCATION
 CNTY.            NATRONA:   COUNTY
 STAT.            WYOMING:   STATE
 CTRY. UNITED STATES OF AMERICA:   COUNTRY
 SRVC.            Unknown:   SERVICE COMPANY
 DATE.        30-AUG-1991:   LOGDATE
 API .       490251111300:   API NUMBER
~CURVE INFORMATION
#MNEM.UNIT       API CODE    CURVE DESCRIPTION
#----------   ------------   ------------------------------
 DEPT.F                  :   
 TGAS.UNITS  91 830 01 00:   TOTAL GAS FROM HOTWIRE
 C1  .VF     91 831 01 00:   METHANE
 C2  .VF     91 832 01 00:   ETHANE
 C3  .VF     91 833 01 00:   PROPANE
 C4  .VF     91 834 01 00:   BUTANE
 ROP .MIN/FT 91 810 01 00:   RAT OF DRILLING PENETRATION
~PARAMETER INFORMATION
#MNEM.UNIT          VALUE    DESCRIPTION
#----------   ------------   ------------------------------
 EKB .F              5265:   KELLING BUSHING
 EGL .F              5255:   GROUND LEVEL
 DATE.            5-30-91:   RUN DATE
 DD  .F              1626:   DEPTH DRILLER
 TCS .HRS            1200:   TIME CURCULATED STOPPED
 TLAB.HRS            1815:   TIME LOGGER AT BOTTOM
 ENGI.               HUSK:   RECORDING ENGINEER
 WITN.              TOWER:   WITNESSED BY
 CLNT.            A2DTECH:   CLIENT CODE
 ORIG.           5" PRINT:   ORIGIN OF DATA
 UWI .       490251111300:   UNIQUE WELL ID
 DICO. A2D Technologies, Inc.:   DIGITIZING COMPANY
~OTHER INFORMATION
~A   DEPT     TGAS         C1         C2         C3         C4          ROP 
# ...
  870.0000    60.0951    54.6419  -999.2500     4.0821     2.3750     0.5308
  870.5000    59.5968    54.3392  -999.2500     4.0751     2.3755     0.5310
  871.0000    59.0991    54.0364  -999.2500     4.0681     2.3486     0.5312
  871.5000    58.6013    53.7336  -999.2500     4.0610     2.3113     0.5313
  872.0000    58.1035    53.4309  -999.2500     4.0540     2.2738     0.5315
  872.5000    57.6058    53.1281  -999.2500     4.0470     2.2363     0.5317
  873.0000    57.1080    52.8253  -999.2500     4.0400     2.1988     0.5319
  873.5000    56.6102    52.5225  -999.2500     4.0329     2.1613     0.5321
  874.0000    56.1125    52.2198  -999.2500     4.0259     2.1238     0.5323
  874.5000    55.6147    51.9170  -999.2500     4.0178     2.0863     0.5325
  875.0000    55.1170    51.6142  -999.2500     4.0093     2.0489     0.5326
  875.5000    54.6192    51.3115  -999.2500     4.0009     2.0114     0.5328
  876.0000    54.1214    51.0087  -999.2500     3.9924     1.9739     0.5329
  876.5000    53.6237    50.7059  -999.2500     3.9840     1.9364     0.5329
  877.0000    53.1259    50.4031  -999.2500     3.9755     1.8989     0.5329
  877.5000    52.6282    50.1004  -999.2500     3.9671     1.8614     0.5329
  878.0000    52.1304    49.7976  -999.2500     3.9586     1.8239     0.5329
  878.5000    51.6326    49.4948  -999.2500     3.9502     1.7864     0.5329
  879.0000    51.1349    49.1921  -999.2500     3.9417     1.7490     0.5329
  879.5000    50.6371    48.8893  -999.2500     3.9332     1.7114     0.5329
  880.0000    50.1394    48.5865  -999.2500     3.9248     1.6740     0.5329
  880.5000    49.6416    48.2837  -999.2500     3.9163     1.6356     0.5329
  881.0000    49.1438    47.9810  -999.2500     3.9079     1.6446     0.5329
  881.5000    48.6461    47.6782  -999.2500     3.8994     1.6717     0.5329
  882.0000    48.1483    47.3754  -999.2500     3.8910     1.6994     0.5329
  882.5000    47.6506    47.0727  -999.2500     3.8825     1.7271     0.5329
  883.0000    47.1528    46.7699  -999.2500     3.8741     1.7547     0.5329
  883.5000    46.6550    46.4671  -999.2500     3.8656     1.7824     0.5329
  884.0000    46.1573    46.1643  -999.2500     3.8572     1.8100     0.5329
  884.5000    45.6595    45.8616  -999.2500     3.8487     1.8376     0.5329
  885.0000    45.1618    45.5588  -999.2500     3.8403     1.8653     0.5329
  885.5000    44.6640    45.2560  -999.2500     3.8318     1.8929     0.5329
  886.0000    44.1662    44.9533  -999.2500     3.8233     1.9206     0.5329
  886.5000    43.6685    44.6506  -999.2500     3.8149     1.9482     0.5329
  887.0000    43.1707    44.3481  -999.2500     3.8064     1.9758     0.5329
  887.5000    42.6730    44.0453  -999.2500     3.7979     2.0035     0.5329
  888.0000    42.1751    43.6419  -999.2500     3.7889     2.0311     0.5322
  888.5000    41.6761    43.0345  -999.2500     3.7818     2.0567     0.5311
  889.0000    41.1588    42.4260  -999.2500     3.8784     2.0910     0.5300
  889.5000    40.7313    41.7102  -999.2500     3.9826     2.0822     0.5290
  890.0000    41.0050    40.5640  -999.2500     4.7736     4.8428     0.5279
  890.5000    55.0183    64.6057  -999.2500     7.1660     9.2662     0.5269
  891.0000    81.7347    90.8005  -999.2500    11.0727    13.5998     0.5258
  891.5000   108.4217   116.7651  -999.2500    14.9908    17.1949     0.5247
  892.0000   135.4326   142.9524  -999.2500    18.9254    22.0338     0.5237
  892.5000   165.9557   168.8651  -999.2500    11.9121    17.0917     0.5226
  893.0000   174.8611   183.8461  -999.2500     8.0637    13.3782     0.5215
  893.5000   175.3089   336.0099  -999.2500     7.5367    10.7898     0.5205
  894.0000   175.3371   482.2643  -999.2500     8.3739     8.8931     0.5194
  894.5000   175.2940   567.6799  -999.2500     9.1995     8.3372     0.5184
  895.0000   175.2384   566.4127  -999.2500    10.0272     7.7587     0.5173
  895.5000   175.1829   565.2463  -999.2500    10.8202     7.3591     0.5162
  896.0000   175.1275   563.8782  -999.2500    10.4828     7.3367     0.5152
  896.5000   175.0721   562.6109  -999.2500     9.7819     7.3066     0.5141
  897.0000   175.0170   561.3436  -999.2500     9.0844     7.2778     0.5130
  897.5000   174.9612   560.0764  -999.2500     8.3926     7.2487     0.5120
  898.0000  -999.2500   558.8091  -999.2500     7.9193     7.2196     0.5109
  898.5000  -999.2500   557.5419  -999.2500     7.9279     7.1906     0.5098
  899.0000  -999.2500   556.2747  -999.2500     7.9265     7.1615     0.5087
  899.5000  -999.2500   555.0074  -999.2500     7.9268     7.1325     0.5091
  900.0000   789.4183   553.7401  -999.2500     7.9268     7.1034     0.5246
  900.5000   787.8049   552.4729  -999.2500     7.9268     7.0743     0.5663
  901.0000   787.8049   551.2056  -999.2500     7.9268     7.0453     0.6087
  901.5000   787.8049   549.9384  -999.2500     7.9268     7.0162     0.6896
  902.0000   782.5340   548.6711  -999.2500     7.9268     6.9872     0.7936
  902.5000   780.5524   547.4039  -999.2500     7.9268     6.9581     0.9083
  903.0000   772.8802   546.1366  -999.2500     7.9268     6.9291     1.0233
  903.5000   772.4876   544.8693  -999.2500     7.9268     6.9000     1.1381
  904.0000   771.8310   543.6022  -999.2500     7.9268     6.8693     1.2575
  904.5000   771.1212   542.3340  -999.2500     7.9268     6.8325     1.2829
  905.0000   770.4142   541.0604  -999.2500     7.9268     6.7952     1.2805
  905.5000   769.7074   539.7866  -999.2500     7.9268     6.7579     1.2772
  906.0000   769.0006   539.2972  -999.2500     7.9268     6.7205     1.2743
  906.5000   768.2938   538.8427  -999.2500     7.9268     6.6832     1.2280
  907.0000   767.5870   538.3848  -999.2500     7.9268     6.6459     1.1428
  907.5000   766.8802   537.9250  -999.2500     7.9268     6.6086     1.0579
  908.0000   766.1734   537.4548  -999.2500     7.9268     6.5713     0.9845
  908.5000   765.4666   536.3706  -999.2500     7.9268     6.5340     1.0043
  909.0000   764.7598   534.2084  -999.2500     7.9268     6.4967     1.0223
  909.5000   764.0530   532.0621  -999.2500     7.9268     6.4593     1.0322
  910.0000   763.3463   529.9155  -999.2500     7.9268     6.4220     1.0244
  910.5000   762.6394   527.7574  -999.2500     7.9268     6.3847     1.0169
  911.0000   761.9326   526.4087  -999.2500     7.9268     6.3474     1.0093
  911.5000   761.2258   525.5417  -999.2500     7.9268     6.3101     1.0019
  912.0000   760.5190   524.6829  -999.2500     7.9268     6.2728     0.9991
  912.5000   759.8123   523.8248  -999.2500     7.9268     6.2355     1.0063
  913.0000   759.1054   522.9658  -999.2500     7.9268     6.1982     1.0133
  913.5000   758.3986   522.1068  -999.2500     7.9268     6.1611     1.0211
  914.0000   757.6918   521.2479  -999.2500     7.9268     6.1230     0.9914
  914.5000   756.9850   520.3889  -999.2500     7.9268     6.0536     0.9512
  915.0000   756.2783   519.5299  -999.2500     7.9268     5.9843     0.9107
  915.5000   755.5714   518.6710  -999.2500     7.9269     5.9153     0.8702
  916.0000   754.8646   517.8120  -999.2500     7.9269     5.8463     0.8299
  916.5000   754.1578   516.9530  -999.2500     7.9261     5.7773     0.7954
  917.0000   753.4510   516.0940  -999.2500     7.9098     5.7083     0.7970
  917.5000   752.7443   515.2350  -999.2500     7.8935     5.6393     0.7979
  918.0000   752.0374   514.3761  -999.2500     7.8774     5.5703     0.7986
  918.5000   751.3306   513.5173  -999.2500     7.8613     5.5013     0.7994
  919.0000   750.6238   512.6548  -999.2500     7.8451     5.4323     0.8001
  919.5000   749.9171   511.8067  -999.2500     7.8290     5.3633     0.8008
  920.0000   749.2103   510.5262  -999.2500     7.8129     5.2943     0.8016
  920.5000   748.5035   509.1107  -999.2500     7.7968     5.2253     0.8023
  921.0000   747.7966   507.6788  -999.2500     7.7807     5.1563     0.8031
  921.5000   747.0898   506.2464  -999.2500     7.7645     5.0873     0.8038
