~VERSION INFORMATION
 VERS.                2.0:   CWLS LOG ASCII STANDARD - VERSION 2.0
 WRAP.                 NO:   ONE LINE PER DEPTH STEP
~WELL INFORMATION
#MNEM.UNIT      DATA TYPE    INFORMATION
#----------   ------------   ------------------------------
 STRT.F            7.0000:   START DEPTH
 STOP.F          587.0000:   STOP DEPTH
 STEP.F            0.5000:   STEP LENGTH
 NULL.          -999.2500:   NO VALUE
 COMP. FENIX & SCISSON INC:   COMPANY
 WELL.        NPR-3 #63-3:   WELL
 FLD .             TEAPOT:   FIELD
 LOC .       S3 T38N R78W:   LOCATION
 CNTY.            NATRONA:   COUNTY
 STAT.            WYOMING:   STATE
 CTRY. UNITED STATES OF AMERICA:   COUNTRY
 SRVC.     Wedge Wireline:   SERVICE COMPANY
 DATE.        06-JAN-1978:   LOGDATE
 API .       490251044700:   API NUMBER
~CURVE INFORMATION
#MNEM.UNIT       API CODE    CURVE DESCRIPTION
#----------   ------------   ------------------------------
 DEPT.F                  :   
 ILD .OHMM   05 120 46 00:   INDUCTION LOG DEEP
 SN  .OHMM   05 040 16 00:   SHORT NORMAL
 SPR .MV     05 010 01 00:   SPONTANEOUS POTENTIAL FROM RES.
 CALD.IN     45 280 60 00:   CALIPER FROM DENSITY LOG
 CORR.G/C3   45 356 01 00:   DENSITY CORRECTION
 DPHI.DEC    45 890 12 00:   DENSITY POROSITY SANDSTONE
 GRD .GAPI   45 310 01 00:   GAMMA RAY FROM DENSITY LOG
 RHOB.G/C3   45 350 01 00:   BULK DENSITY
~PARAMETER INFORMATION
#MNEM.UNIT          VALUE    DESCRIPTION
#----------   ------------   ------------------------------
 PD  .                 GL:   PERMANENT DATUM
 EPD .F              5177:   ELEVATION PERMANENT DATUM
 LMF .                 KB:   LOG MEASURED FROM
 DMF .                 KB:   DRILLING MEASURED FROM
 EKB .F              5181:   KELLING BUSHING
 EGL .F              5177:   GROUND LEVEL
 DATE.        06-JAN-1978:   RUN DATE
 RUN .                  1:   RUN NUMBER
 DD  .F               590:   DEPTH DRILLER
 DL  .F               581:   DEPTH LOGGER
 BLI .F               576:   BOTTOM LOG INTERVAL
 TLI .F                20:   TOP LOG INTERVAL
 CS  .IN            9.625:   CASING SIZE
 CBD .F                19:   CASING BOTTOM DRILLER
 CBL .F                19:   CASING BOTTOM LOGGER
 BS  .IN            7.875:   BIT SIZE
 BSD .F               590:   BIT SIZE AT DEPTH
 DFT .                KCL:   DRILLING FLUID TYPE
 DFD .                8.5:   DRILLING FLUID DENSITY
 DFV .                 34:   DRILLING FLUID VISCOSITY
 DFPH.                9.0:   DRILLING FLUID PH
 DFL .                7.8:   DRILLING FLUID LOSS
 MSS .           FLOWLINE:   MUD SAMPLE SOURCE
 RMS .OHMM           0.22:   RESISTIVITY MUD SAMPLE
 MST .F                63:   MUD SAMPLE TEMPERATURE
 RMF .OHMM           0.24:   RESISTIVITY MUD FILTRATE SAMPLE
 MFST.F                63:   MUD FILTRATE SAMPLE TEMPERATURE
 RMC .OHMM           0.48:   RESISTIVITY MUD CAKE
 MCST.F                64:   MUD CAKE SAMPLE TEMPERATURE
 MFSS.               MEAS:   MUD FILTRATE SAMPLE SOURCE
 MCSS.               MEAS:   MUD CAKE SAMPLE SOURCE
 RMB .OHMM           0.19:   RESISTIVITY MUD AT BHT
 BHT .F                71:   BOTTOM HOLE TEMPERATURE
 TCS .HRS               3:   TIME CURCULATED STOPPED
 MRT .F                71:   MAXIMUM RECORDED TEMPERATURE
 LUN .               2958:   LOGGING UNIT NUMBER
 LUL .             CASPER:   LOGGING UNIT LOCATION
 ENGI.             MILLER:   RECORDING ENGINEER
 WITN.         HARRINGTON:   WITNESSED BY
 CLNT.            A2DTECH:   CLIENT CODE
 ORIG.           5" PRINT:   ORIGIN OF DATA
 UWI .       490251044700:   UNIQUE WELL ID
 DICO. A2D Technologies, Inc.:   DIGITIZING COMPANY
~OTHER INFORMATION
~A    DEPT     ILD         SN        SPR       CALD       CORR       DPHI         GRD      RHOB   
# ...
  412.0000    29.1168    15.3577   -33.6962     8.5320    -0.2968     0.1618   110.9895     2.4049
  412.5000    28.7057    15.2606   -33.6838     8.5477    -0.2877     0.1586    95.7416     2.4042
  413.0000    28.3324    15.1648   -33.8169     8.5489    -0.2906     0.1686    81.9383     2.3989
  413.5000    28.1415    15.1759   -33.8012     8.5498    -0.2965     0.1680    78.7078     2.3868
  414.0000    28.3408    14.9771   -33.7888     8.5508    -0.3090     0.1664    81.0573     2.3853
  414.5000    28.3445    14.8831   -33.9218     8.5518    -0.3251     0.1694    87.5184     2.3914
  415.0000    28.5510    14.7918   -34.0578     8.5530    -0.3386     0.1734    90.4552     2.3989
  415.5000    28.7466    14.8005   -34.0421     8.5539    -0.3536     0.1752    89.2805     2.3748
  416.0000    28.9492    14.6065   -34.1721     8.5549    -0.3565     0.1763    86.3436     2.3763
  416.5000    28.9530    14.6155   -34.3051     8.5559    -0.3534     0.1769    84.5815     2.3771
  417.0000    28.9569    14.5234   -34.4380     8.5422    -0.3427     0.1769    85.7562     2.3779
  417.5000    28.9607    14.4322   -34.7163     8.5434    -0.3320     0.1775    88.6931     2.3777
  418.0000    28.7655    14.4429   -35.0136     8.5444    -0.3440     0.1935    91.6300     2.3417
  418.5000    28.7702    14.3522   -35.2729     8.5453    -0.3893     0.1995    92.8047     2.3372
  419.0000    28.3791    14.2620   -35.4058     8.5463    -0.4013     0.1991    91.3363     2.3357
  419.5000    27.9942    14.2726   -35.3903     8.5326    -0.3709     0.1922    88.3994     2.3425
  420.0000    27.4256    14.2810   -35.3779     8.5338    -0.3526     0.1780    86.0499     2.3782
  420.5000    26.8451    14.2894   -35.6531     8.5348    -0.3622     0.1720    85.1689     2.3719
  421.0000    26.1404    14.2978   -35.7891     8.5211    -0.3978     0.1714    86.3436     2.3659
  421.5000    25.7859    14.3084   -36.0643     8.5076    -0.4159     0.1671    87.2247     2.3750
  422.0000    25.4361    14.3168   -36.3430     8.5086    -0.4037     0.1571    86.9310     2.3901
  422.5000    25.2654    14.3252   -36.4755     8.4803    -0.3944     0.1514    85.1689     2.4018
  423.0000    25.4437    14.3337   -36.4600     8.4812    -0.3883     0.1496    79.5888     2.4113
  423.5000    25.4479    14.3422   -36.4476     8.4675    -0.3882     0.1450    78.7078     2.4218
  424.0000    25.8046    14.3527   -36.4352     8.4687    -0.3911     0.1344    90.4552     2.4256
  424.5000    25.9865    14.4605   -36.4228     8.4548    -0.3941     0.1085    99.8532     2.4400
  425.0000    26.1697    14.5690   -37.2794     8.4560    -0.4030     0.1030    99.2658     2.4943
  425.5000    26.1732    14.5776   -38.1391     8.4572    -0.4044     0.0994    89.5742     2.5449
  426.0000    26.5409    14.5864   -38.7081     8.4582    -0.3710     0.0866    86.3436     2.5510
  426.5000    26.5444    14.5969   -38.9895     8.4592    -0.3452     0.0737    86.3436     2.5336
  427.0000    26.5479    14.7065   -39.1193     8.4601    -0.3234     0.0818    86.3436     2.5223
  427.5000    26.1869    14.8169   -39.2522     8.4613    -0.2936     0.0885    86.0499     2.5005
  428.0000    25.8326    14.8256   -39.2367     8.4623    -0.2798     0.1026    89.8678     2.4582
  428.5000    24.7899    14.4312   -39.2243     8.4633    -0.3055     0.1307    97.5037     2.4326
  429.0000    23.9531    14.2421   -39.2119     8.4496    -0.3357     0.1476   102.4963     2.4167
  429.5000    23.1438    13.8653   -39.0538     8.4655    -0.3718     0.1488    98.9721     2.4077
  430.0000    22.0571    13.4964   -39.0386     8.4664    -0.3899     0.1657    93.9794     2.3986
  430.5000    21.3126    13.2281   -38.8809     8.4674    -0.4019     0.1681    86.3436     2.3926
  431.0000    20.8791    12.9652   -38.8685     8.4684    -0.4139     0.1686    82.2282     2.3858
  431.5000    20.7383    12.8857   -38.8561     8.4694    -0.4137     0.1632    80.1762     2.3881
  432.0000    20.7418    12.8047   -38.8405     8.4705    -0.4015     0.1544    86.3436     2.3965
  432.5000    20.7445    12.8123   -38.8281     8.4715    -0.3863     0.1475    96.6226     2.4085
  433.0000    20.7472    12.8198   -38.8157     8.4725    -0.3711     0.1459   100.1468     2.4168
  433.5000    20.7409    12.6519   -38.8033     8.4735    -0.3556     0.1462   101.3216     2.4244
  434.0000    20.4685    12.5565   -38.7907     8.4747    -0.3436     0.1471    99.8532     2.4320
  434.5000    20.3306    12.4935   -38.7754     8.4756    -0.3450     0.1468    98.6784     2.4289
  435.0000    19.9177    12.3316   -38.7630     8.4766    -0.3464     0.1438   101.0279     2.4207
  435.5000    19.6475    12.3389   -38.7506     8.4776    -0.3505     0.1403    98.5180     2.4177
  436.0000    19.3810    12.2632   -38.7382     8.4788    -0.3568     0.1383    94.2731     2.4358
  436.5000    19.1182    12.2705   -38.7253     8.4797    -0.3628     0.1413    95.7416     2.4421
  437.0000    18.8595    12.1916   -38.7102     8.4954    -0.3702     0.1455   105.7269     2.4319
  437.5000    18.7324    12.2006   -38.6978     8.4817    -0.3807     0.1506   117.6699     2.4162
  438.0000    18.6055    12.1240   -38.8339     8.4829    -0.3884     0.1533   123.3480     2.4117
  438.5000    18.6086    12.0478   -38.9637     8.4838    -0.3926     0.1491   111.6006     2.4110
  439.0000    18.3562    12.0567   -39.2420     8.4848    -0.3910     0.1412   102.2026     2.4261
  439.5000    18.3592    12.0638   -39.5203     8.4858    -0.3818     0.1346    98.9721     2.4445
  440.0000    18.2355    12.0710   -39.7986     8.4870    -0.3616     0.1276    98.6784     2.4525
  440.5000    18.2379    12.0782   -40.0738     8.4733    -0.3453     0.1240    94.5668     2.4541
  441.0000    18.2403    12.0022   -40.0610     8.4743    -0.3497     0.1219    85.7562     2.4556
  441.5000    18.2427    12.0111   -40.0458     8.4606    -0.3481     0.1203    77.8267     2.4563
  442.0000    18.3719    12.0182   -40.0334     8.4618    -0.3208     0.1212    78.7078     2.4632
  442.5000    18.3743    12.0252   -40.0210     8.4481    -0.2964     0.1224    83.9941     2.4639
  443.0000    18.6319    12.0786   -40.0086     8.4491    -0.3175     0.1248    87.5184     2.4594
  443.5000    18.8930    12.1232   -39.9931     8.4500    -0.3356     0.1287    90.7489     2.4557
  444.0000    19.1579    12.1307   -40.2714     8.4363    -0.3445     0.1326    94.5668     2.4443
  444.5000    19.4270    12.1383   -40.2590     8.4375    -0.3492     0.1368    97.7974     2.4327
  445.0000    19.5640    12.1459   -40.2466     8.4239    -0.3534     0.1432    99.8532     2.4240
  445.5000    19.7019    12.1533   -40.0887     8.4099    -0.3578     0.1459   102.2026     2.4195
  446.0000    19.9781    12.1620   -40.0733     8.4111    -0.3562     0.1474   103.7024     2.4218
  446.5000    19.9807    12.1692   -40.0609     8.4123    -0.3529     0.1368   104.8458     2.4331
  447.0000    19.9840    12.1764   -40.0485     8.3984    -0.3469     0.1350   105.7269     2.4424
  447.5000    19.7123    12.1836   -39.8907     8.3996    -0.3468     0.1386   106.0206     2.4512
  448.0000    19.3120    12.1071   -39.8779     8.4006    -0.3558     0.1410   105.7112     2.4550
  448.5000    18.6601    12.1160   -39.8628     8.3869    -0.3633     0.1367   103.9648     2.4513
  449.0000    18.1549    12.0381   -39.8504     8.3881    -0.3707     0.1334   102.2026     2.4400
  449.5000    17.6635    12.0470   -39.8380     8.4037    -0.3736     0.1300    99.2658     2.4323
  450.0000    17.4554    11.8892   -39.8256     8.4047    -0.3697     0.1261    98.4458     2.4340
  450.5000    17.5561    11.5668   -40.1129     8.4247    -0.3551     0.1232    98.5478     2.4441
  451.0000    17.6569    11.5607   -40.5492     8.4313    -0.3520     0.1199    94.1514     2.4542
  451.5000    17.7576    11.4101   -40.5478     8.4380    -0.3594     0.1176    92.1093     2.4642
  452.0000    17.8584    11.4110   -40.5464     8.4446    -0.3365     0.1161   100.3916     2.4727
