~VERSION INFORMATION
 VERS.                2.0:   CWLS LOG ASCII STANDARD - VERSION 2.0
 WRAP.                 NO:   ONE LINE PER DEPTH STEP
~WELL INFORMATION
#MNEM.UNIT      DATA TYPE    INFORMATION
#----------   ------------   ------------------------------
 STRT.F           50.0000:   START DEPTH
 STOP.F         1020.0000:   STOP DEPTH
 STEP.F            0.5000:   STEP LENGTH
 NULL.          -999.2500:   NO VALUE
 COMP. LAWRENCE/ALLISON INC:   COMPANY
 WELL.      28 STX #14-14:   WELL
 FLD .             TEAPOT:   FIELD
 LOC .      S14 T38N R78W:   LOCATION
 CNTY.            NATRONA:   COUNTY
 STAT.            WYOMING:   STATE
 CTRY. UNITED STATES OF AMERICA:   COUNTRY
 SRVC.            Unknown:   SERVICE COMPANY
 DATE.        22-OCT-1984:   LOGDATE
 API .       490251099000:   API NUMBER
~CURVE INFORMATION
#MNEM.UNIT       API CODE    CURVE DESCRIPTION
#----------   ------------   ------------------------------
 DEPT.F                  :   
 SPR .MV     07 010 01 00:   SPONTANEOUS POTENTIAL
 RILD.OHMM   07 120 46 00:   INDUCTION LOG DEEP RESISTIVITY
 RILM.OHMM   07 120 44 00:   INDUCTION LOG MEDIUM RESISTIVITY
 RFOC.OHMM   07 220 04 00:   RESISTIVITY FOCUSED LOG
 GRD .GAPI   45 310 01 00:   GAMMA RAY FROM DENSITY LOG
 CALD.IN     45 280 60 00:   CALIPER
 DEN .G/C3   45 350 01 00:   COMPENSATED BULK DENSTIY
 CORR.G/C3   45 356 01 00:   DENSITY CORRECTION
 PORD.DEC    45 890 12 00:   POROSITY DENSITY SANDSTONE
 CNC .DEC    42 890 03 00:   NEUTRON POROSITY SANDSTONE
 AC  .US/F   60 520 00 00:   ACOUSTIC SONIC
~PARAMETER INFORMATION
#MNEM.UNIT          VALUE    DESCRIPTION
#----------   ------------   ------------------------------
 PD  .                 GL:   PERMANENT DATUM
 EPD .F              5257:   ELEVATION PERMANENT DATUM
 LMF .                 KB:   LOG MEASURED FROM
 DAPD.F                12:   FEET ABOVE PERMANENT DATUM
 DMF .                 KB:   DRILLING MEASURED FROM
 EKB .F              5269:   KELLING BUSHING
 EGL .F              5257:   GROUND LEVEL
 DATE.           10-22-84:   RUN DATE
 RUN .                  1:   RUN NUMBER
 DD  .F              1020:   DEPTH DRILLER
 DL  .F              1019:   DEPTH LOGGER
 BLI .F              1017:   BOTTOM LOG INTERVAL
 TLI .F                52:   TOP LOG INTERVAL
 CS  .IN               16:   CASING SIZE
 CBD .F                40:   CASING BOTTOM DRILLER
 CBL .F                52:   CASING BOTTOM LOGGER
 BS  .IN            12.25:   BIT SIZE
 BSD .F              1020:   BIT SIZE AT DEPTH
 DFT .          GEL/WATER:   DRILLING FLUID TYPE
 DFD .                9.1:   DRILLING FLUID DENSITY
 DFV .                 35:   DRILLING FLUID VISCOSITY
 MSS .           FLOWLINE:   MUD SAMPLE SOURCE
 RMS .OHMM           2.04:   RESISTIVITY MUD SAMPLE
 MST .F                76:   MUD SAMPLE TEMPERATURE
 RMF .OHMM           1.53:   RESISTIVITY MUD FILTRATE SAMPLE
 MFST.F                76:   MUD FILTRATE SAMPLE TEMPERATURE
 RMC .OHMM           2.55:   RESISTIVITY MUD CAKE
 MCST.F                76:   MUD CAKE SAMPLE TEMPERATURE
 MFSS.               CALC:   MUD FILTRATE SAMPLE SOURCE
 MCSS.               CALC:   MUD CAKE SAMPLE SOURCE
 TCS .HRS               3:   TIME CURCULATED STOPPED
 MRT .F               100:   MAXIMUM RECORDED TEMPERATURE
 LUN .            HL 6307:   LOGGING UNIT NUMBER
 LUL .           GILLETTE:   LOGGING UNIT LOCATION
 ENGI.          CROSSBERG:   RECORDING ENGINEER
 WITN.            JOHNSON:   WITNESSED BY
 CLNT.            A2DTECH:   CLIENT CODE
 ORIG.       2", 5" PRINT:   ORIGIN OF DATA
 UWI .       490251099000:   UNIQUE WELL ID
 DICO. A2D Technologies, Inc.:   DIGITIZING COMPANY
~OTHER INFORMATION
~A   DEPT      SPR       RILD       RILM       RFOC        GRD        CALD       DEN       CORR       PORD          CNC       AC   
# ...
  812.5000   -62.6737    11.7259     8.9026     7.9849    73.2149    12.2401     2.4174     0.0190     0.1569     0.2706    91.4159
  813.0000   -62.6565    11.6909     8.8823     7.9601    73.2135    12.2401     2.4153     0.0221     0.1575     0.2648    91.0409
  813.5000   -62.5705    11.6561     8.8621     7.9402    73.2152    12.2401     2.4040     0.0252     0.1623     0.2591    90.6659
  814.0000   -61.7846    11.6213     8.8407     7.9493    72.3046    12.2401     2.3904     0.0283     0.1676     0.2556    90.4271
  814.5000   -60.8586    11.5867     8.8195     7.9571    70.4770    12.2401     2.3826     0.0238     0.1728     0.2536    90.9271
  815.0000   -59.9271    11.5522     8.7877     7.9649    68.6581    12.2401     2.3841     0.0155     0.1764     0.2499    91.4471
  815.5000   -59.2233    11.5177     8.8011     7.9727    68.4196    12.2401     2.3857     0.0071     0.1754     0.2462    91.8071
  816.0000   -58.9245    11.4687     8.8436     7.9805    69.8432    12.2401     2.3874    -0.0012     0.1741     0.2465    92.1186
  816.5000   -58.6214    11.6656     8.8863     7.9881    72.1955    12.2401     2.3939    -0.0098     0.1715     0.2533    92.1693
  817.0000   -58.2952    12.0191     8.9292     7.9962    74.9316    12.2401     2.4035    -0.0115     0.1669     0.2601    91.9623
  817.5000   -57.9653    12.3833     9.0864     8.0038    77.6422    12.2401     2.4131    -0.0021     0.1618     0.2612    91.7473
  818.0000   -57.6278    12.7586     9.3350     8.0116    79.3177    12.2401     2.4208     0.0142     0.1567     0.2553    91.4302
  818.5000   -57.5560    13.1642     9.5906     8.2953    77.3726    12.2401     2.4227     0.0264     0.1541     0.2493    91.1041
  819.0000   -57.6042    13.0474     9.8539     8.6839    74.5630    12.2401     2.4253     0.0153     0.1534     0.2434    90.7780
  819.5000   -57.8297    13.0709    10.0912     9.0906    71.7532    12.2401     2.4347     0.0038     0.1444     0.2381    90.4519
  820.0000   -58.3626    13.0974    10.1427     9.5427    69.2658    12.2401     2.4596    -0.0010     0.1333     0.2331    89.9082
  820.5000   -58.8964    13.1232    10.1769     9.6308    70.4196    12.2401     2.4843     0.0061     0.1223     0.2281    89.0082
  821.0000   -59.4304    13.1494     9.6632     9.0037    71.7550    12.2401     2.4839     0.0130     0.1171     0.2231    88.1848
  821.5000   -59.9689    13.1642     9.2961     8.5546    72.1994    12.2401     2.4744     0.0200     0.1207     0.2208    87.7545
  822.0000   -60.5137    12.8129     9.0881     8.0135    71.7350    12.2401     2.4624     0.0272     0.1273     0.2265    88.4243
  822.5000   -60.6625    12.5549     9.0239     8.0187    72.6079    12.2401     2.4477     0.0281     0.1367     0.2334    89.6507
  823.0000   -60.6690    12.3020     9.0145     8.0259    74.0256    12.2401     2.4331     0.0207     0.1462     0.2313    90.2695
  823.5000   -60.1158    12.0579     9.0050     8.0331    73.3021    12.2401     2.4179     0.0133     0.1557     0.2322    90.6957
  824.0000   -59.5574    11.6871     8.9958     8.0404    71.7475    12.2401     2.4133     0.0060     0.1594     0.2373    90.4230
  824.5000   -59.0000    11.7211     8.9864     8.0476    70.2074    12.2401     2.4160     0.0033     0.1597     0.2521    90.1497
  825.0000   -58.4437    11.7871     8.9771     8.0548    70.7961    12.2401     2.4186     0.0089     0.1568     0.2537    90.3160
  825.5000   -57.8864    11.8545     8.9677     8.0620    72.5630    12.2401     2.4190     0.0145     0.1549     0.2497    90.4827
  826.0000   -57.3100    11.9243     8.9584     8.0693    75.6836    12.2401     2.4111     0.0047     0.1595     0.2485    90.6487
  826.5000   -57.0625    11.9945     8.9491     8.0766    78.6347    12.2401     2.4025    -0.0145     0.1642     0.2562    90.4125
  827.0000   -56.8595    12.0651     8.9346     8.0871    76.7660    12.2401     2.4025    -0.0324     0.1657     0.2529    90.1772
  827.5000   -56.6639    12.1361     8.9194     8.0824    74.9248    12.2401     2.4107    -0.0202     0.1618     0.2499    89.9419
  828.0000   -56.4676    12.2309     8.9044     8.0723    73.9940    12.2401     2.4192    -0.0067     0.1567     0.2506    89.9488
  828.5000   -56.3911    12.1596     8.8893     8.0620    74.7685    12.2392     2.4277     0.0066     0.1516     0.2526    90.1101
  829.0000   -56.4507    12.0548     8.8742     8.0518    75.8465    12.2363     2.4318     0.0151     0.1491     0.2513    90.2713
  829.5000   -56.5100    11.9508     8.8592     8.0416    75.3948    12.2334     2.4307     0.0164     0.1494     0.2509    90.4328
  830.0000   -56.5700    11.8478     8.8442     8.0314    73.3990    12.2304     2.4237     0.0088     0.1523     0.2518    90.5942
  830.5000   -56.6307    11.7456     8.8292     8.0211    71.4477    12.2275     2.4148    -0.0006     0.1558     0.2527    90.7553
  831.0000   -56.6898    11.6443     8.8142     8.0138    72.0378    12.2246     2.4121    -0.0100     0.1594     0.2537    90.7703
  831.5000   -56.7366    11.5433     8.7993     8.0224    74.9153    12.2217     2.4193    -0.0174     0.1570     0.2490    90.5861
  832.0000   -57.1278    11.4691     8.7850     8.0295    77.7369    12.2188     2.4289    -0.0042     0.1494     0.2424    90.4019
  832.5000   -57.5577    11.4859     8.7770     8.0365    79.0226    12.2159     2.4383     0.0120     0.1440     0.2435    90.2177
  833.0000   -57.9926    11.5004     8.7693     8.0436    76.9876    12.2129     2.4376     0.0098     0.1439     0.2512    90.2398
  833.5000   -58.4205    11.5148     8.7615     8.0507    74.9604    12.2100     2.4350     0.0025     0.1456     0.2589    90.3827
  834.0000   -58.8457    11.5291     8.7538     8.0578    74.6131    12.2071     2.4288    -0.0049     0.1497     0.2630    90.5255
  834.5000   -59.2705    11.5434     8.7461     8.0649    75.4115    12.2042     2.4228    -0.0124     0.1535     0.2530    90.6684
  835.0000   -59.3982    11.5575     8.7384     8.0720    76.5312    12.2011     2.4173    -0.0134     0.1573     0.2391    90.7485
  835.5000   -59.4659    11.5744     8.7308     8.0789    77.6607    12.2072     2.4145    -0.0111     0.1581     0.2333    90.7485
  836.0000   -59.5396    11.5419     8.7231     8.0869    78.7734    12.2167     2.4174    -0.0088     0.1572     0.2453    90.7485
  836.5000   -59.5254    11.4892     8.7154     8.0745    79.4361    12.2263     2.4225    -0.0065     0.1538     0.2577    90.7485
  837.0000   -59.0509    11.4369     8.7077     8.0585    77.5448    12.2359     2.4275    -0.0021     0.1505     0.2672    90.7811
  837.5000   -58.4978    11.3846     8.6992     8.0424    74.3422    12.2455     2.4269     0.0023     0.1523     0.2666    90.9127
  838.0000   -57.9536    11.3327     8.6902     8.0264    73.5557    12.2551     2.4181     0.0069     0.1552     0.2617    91.0442
  838.5000   -57.4142    11.2809     8.6811     8.0105    73.2007    12.2590     2.4141     0.0178     0.1580     0.2543    91.1758
  839.0000   -56.8745    11.2294     8.6721     7.9945    73.2081    12.2573     2.4218     0.0288     0.1554     0.2411    91.4940
  839.5000   -56.3343    11.1781     8.6631     7.9786    73.2258    12.2555     2.4318     0.0325     0.1482     0.2345    92.0357
  840.0000   -55.7860    11.1270     8.6540     7.9626    74.1860    12.2537     2.4418     0.0220     0.1410     0.2472    92.5449
  840.5000   -55.3896    11.0547     8.6451     7.9402    77.5886    12.2520     2.4462     0.0065     0.1410     0.2602    92.1779
  841.0000   -55.4535    11.1567     8.6361     7.9530    80.0018    12.2502     2.4442     0.0061     0.1422     0.2598    91.6223
  841.5000   -55.7057    11.1878     8.6250     7.9872    79.6129    12.2484     2.4423     0.0079     0.1423     0.2456    91.4189
  842.0000   -55.9540    11.2198     8.7047     8.0215    78.3740    12.2466     2.4446     0.0099     0.1411     0.2413    91.5727
  842.5000   -56.3035    11.2520     8.9546     8.0560    77.1346    12.2449     2.4470     0.0069     0.1400     0.2459    91.7265
