~VERSION INFORMATION
 VERS.                2.0:   CWLS LOG ASCII STANDARD - VERSION 2.0
 WRAP.                 NO:   ONE LINE PER DEPTH STEP
~WELL INFORMATION
#MNEM.UNIT      DATA TYPE    INFORMATION
#----------   ------------   ------------------------------
 STRT.F           18.0000:   START DEPTH
 STOP.F         2312.0000:   STOP DEPTH
 STEP.F            0.5000:   STEP LENGTH
 NULL.          -999.2500:   NO VALUE
 COMP. FENIX & SCISSON INC:   COMPANY
 WELL.  NPR 3 #51 SHX -15:   WELL
 FLD .             TEAPOT:   FIELD
 LOC .      S15 T38N R78W:   LOCATION
 CNTY.            NATRONA:   COUNTY
 STAT.            WYOMING:   STATE
 CTRY. UNITED STATES OF AMERICA:   COUNTRY
 SRVC.            Unknown:   SERVICE COMPANY
 DATE.        14-MAR-1978:   LOGDATE
 API .       490251060000:   API NUMBER
~CURVE INFORMATION
#MNEM.UNIT       API CODE    CURVE DESCRIPTION
#----------   ------------   ------------------------------
 DEPT.F                  :   
 ILD .OHMM   05 120 46 00:   INDUCTION LOG DEEP
 CILD.MMHO   05 110 46 00:   CONDUCTIVITY INDUCTION LOG DEEP
 CALD.IN     45 280 60 00:   CALIPER FROM DENSITY LOG
 GRD .GAPI   45 310 01 00:   GAMMA RAY FROM DENSITY LOG
 CORR.G/C3   45 356 01 00:   DENSITY CORRECTION
 RHOB.G/C3   45 350 01 00:   BULK DENSITY
 DPHI.DEC    45 890 12 00:   DENSITY POROSITY SANDSTONE
~PARAMETER INFORMATION
#MNEM.UNIT          VALUE    DESCRIPTION
#----------   ------------   ------------------------------
 PD  .                 GL:   PERMANENT DATUM
 EPD .F              5223:   ELEVATION PERMANENT DATUM
 LMF .                 KB:   LOG MEASURED FROM
 DAPD.F                10:   FEET ABOVE PERMANENT DATUM
 DMF .                 KB:   DRILLING MEASURED FROM
 EKB .F              5233:   KELLING BUSHING
 EGL .F              5223:   GROUND LEVEL
 DATE.            3-14-78:   RUN DATE
 RUN .                  1:   RUN NUMBER
 DD  .F              2323:   DEPTH DRILLER
 DL  .F              2314:   DEPTH LOGGER
 BLI .F              2312:   BOTTOM LOG INTERVAL
 TLI .F                20:   TOP LOG INTERVAL
 CS  .IN                9:   CASING SIZE
 CBD .F               680:   CASING BOTTOM DRILLER
 CBL .F               682:   CASING BOTTOM LOGGER
 BS  .IN            7.875:   BIT SIZE
 BSD .F              2323:   BIT SIZE AT DEPTH
 DFT .           AIR MIST:   DRILLING FLUID TYPE
 TCS .HRS               2:   TIME CURCULATED STOPPED
 LUN .               2958:   LOGGING UNIT NUMBER
 LUL .               CASP:   LOGGING UNIT LOCATION
 ENGI.             MILLER:   RECORDING ENGINEER
 WITN.           MCGINLEY:   WITNESSED BY
 CLNT.            A2DTECH:   CLIENT CODE
 ORIG.       2", 5" PRINT:   ORIGIN OF DATA
 UWI .       490251060000:   UNIQUE WELL ID
 DICO. A2D Technologies, Inc.:   DIGITIZING COMPANY
~OTHER INFORMATION
~A   DEPT      ILD       CILD       CALD         GRD      CORR       RHOB       DPHI   
# ...
 1337.5000  -999.2500  -999.2500     9.7450    79.5217    -0.0067     2.5206     0.0874
 1338.0000  -999.2500  -999.2500     9.7450    83.0156    -0.0075     2.5151     0.0882
 1338.5000  -999.2500  -999.2500     9.7450    80.2254    -0.0075     2.5158     0.0888
 1339.0000  -999.2500  -999.2500     9.7450    73.0191    -0.0075     2.5171     0.0855
 1339.5000  -999.2500  -999.2500     9.7450    69.5973    -0.0075     2.5180     0.0840
 1340.0000  -999.2500  -999.2500     9.7450    73.0284    -0.0075     2.5150     0.0908
 1340.5000  -999.2500  -999.2500     9.7450    88.0422    -0.0071     2.5121     0.0901
 1341.0000  -999.2500  -999.2500     9.7450    86.0490    -0.0056     2.5131     0.0895
 1341.5000  -999.2500  -999.2500     9.7450    80.5919    -0.0108     2.5144     0.0888
 1342.0000  -999.2500  -999.2500     9.7450    80.5405    -0.0161     2.5086     0.0944
 1342.5000  -999.2500  -999.2500     9.7450    80.7448    -0.0220     2.4921     0.1000
 1343.0000  -999.2500  -999.2500     9.7450    81.0894    -0.0168     2.4882     0.0975
 1343.5000  -999.2500  -999.2500     9.7450    79.4563    -0.0111     2.4999     0.0900
 1344.0000  -999.2500  -999.2500     9.7450    77.3923    -0.0100     2.5124     0.0844
 1344.5000  -999.2500  -999.2500     9.7450    76.7776    -0.0072     2.5162     0.0783
 1345.0000  -999.2500  -999.2500     9.7444    80.2171    -0.0033     2.5184     0.0767
 1345.5000  -999.2500  -999.2500     9.7437    81.8598    -0.0024     2.5335     0.0798
 1346.0000  -999.2500  -999.2500     9.7431    76.1995    -0.0039     2.5309     0.0829
 1346.5000  -999.2500  -999.2500     9.7424    76.7421    -0.0054     2.5251     0.0798
 1347.0000  -999.2500  -999.2500     9.7417    77.3176    -0.0020     2.5199     0.0789
 1347.5000  -999.2500  -999.2500     9.7410    83.4380     0.0001     2.5335     0.0788
 1348.0000  -999.2500  -999.2500     9.7404    90.1204    -0.0032     2.5287     0.0802
 1348.5000  -999.2500  -999.2500     9.7397    86.9500    -0.0052     2.5460     0.0828
 1349.0000  -999.2500  -999.2500     9.7390    82.9036    -0.0027     2.5240     0.0827
 1349.5000  -999.2500  -999.2500     9.7384    78.8816    -0.0002     2.5337     0.0799
 1350.0000  -999.2500  -999.2500     9.7377    77.4204    -0.0001     2.5353     0.0816
 1350.5000  -999.2500  -999.2500     9.7370    81.2186    -0.0022     2.5240     0.0840
 1351.0000  -999.2500  -999.2500     9.7363    82.1828    -0.0043     2.5214     0.0845
 1351.5000  -999.2500  -999.2500     9.7357    81.8691    -0.0064     2.5184     0.0861
 1352.0000  -999.2500  -999.2500     9.7350    82.5118    -0.0043     2.5068     0.0859
 1352.5000  -999.2500  -999.2500     9.7343    86.2245     0.0026     2.5180     0.0855
 1353.0000  -999.2500  -999.2500     9.7337    89.8510     0.0044     2.5157     0.0868
 1353.5000  -999.2500  -999.2500     9.7330    90.9322     0.0048     2.5121     0.0864
 1354.0000  -999.2500  -999.2500     9.7323    92.7018     0.0126     2.5156     0.0880
 1354.5000  -999.2500  -999.2500     9.7316    93.2688     0.0187     2.5137     0.0892
 1355.0000  -999.2500  -999.2500     9.7310    87.6262     0.0184     2.5093     0.0864
 1355.5000  -999.2500  -999.2500     9.7303    81.7404     0.0190     2.5019     0.0734
 1356.0000  -999.2500  -999.2500     9.7296    67.2748     0.0348     2.5247     0.0604
 1356.5000  -999.2500  -999.2500     9.7290    70.3173     0.0396     2.5589     0.0641
 1357.0000  -999.2500  -999.2500     9.7283    76.3850    -0.0014     2.5516     0.0714
 1357.5000  -999.2500  -999.2500     9.7276    79.2051    -0.0101     2.5337     0.0767
 1358.0000  -999.2500  -999.2500     9.7269    83.2349    -0.0024     2.5302     0.0806
 1358.5000  -999.2500  -999.2500     9.7263    88.2808     0.0034     2.5194     0.0836
 1359.0000  -999.2500  -999.2500     9.7256    86.8836     0.0060     2.5266     0.0780
 1359.5000  -999.2500  -999.2500     9.7275    85.3129     0.0085     2.5336     0.0772
 1360.0000  -999.2500  -999.2500     9.7347    88.5548     0.0099     2.5303     0.0732
 1360.5000  -999.2500  -999.2500     9.7417    88.7203     0.0056     2.5344     0.0791
 1361.0000  -999.2500  -999.2500     9.7487    86.5218     0.0014     2.5289     0.0813
 1361.5000  -999.2500  -999.2500     9.7558    82.8170     0.0026     2.5291     0.0815
 1362.0000  -999.2500  -999.2500     9.7630    79.1048     0.0062     2.5298     0.0798
 1362.5000  -999.2500  -999.2500     9.7654    76.7104     0.0094     2.5364     0.0724
 1363.0000  -999.2500  -999.2500     9.7662    75.8753    -0.0002     2.5401     0.0819
 1363.5000  -999.2500  -999.2500     9.7670    76.7630    -0.0114     2.5167     0.0901
 1364.0000  -999.2500  -999.2500     9.7677    82.0981    -0.0116     2.5010     0.0948
 1364.5000  -999.2500  -999.2500     9.7685    87.5368    -0.0131     2.5057     0.0928
 1365.0000  -999.2500  -999.2500     9.7693    86.6009    -0.0188     2.5100     0.0932
 1365.5000  -999.2500  -999.2500     9.7701    85.8498    -0.0235     2.5054     0.0938
 1366.0000  -999.2500  -999.2500     9.7708    85.8436    -0.0235     2.5006     0.0943
 1366.5000  -999.2500  -999.2500     9.7716    86.9368    -0.0217     2.5012     0.0914
 1367.0000  -999.2500  -999.2500     9.7724    86.6835    -0.0149     2.5129     0.0856
 1367.5000  -999.2500  -999.2500     9.7731    84.6133    -0.0110     2.5191     0.0890
 1368.0000  -999.2500  -999.2500     9.7739    83.1678    -0.0100     2.5110     0.0912
 1368.5000  -999.2500  -999.2500     9.7747    80.8275    -0.0096     2.5172     0.0842
 1369.0000  -999.2500  -999.2500     9.7754    78.5776    -0.0115     2.5235     0.0856
 1369.5000  -999.2500  -999.2500     9.7762    77.5542    -0.0133     2.5148     0.0839
 1370.0000  -999.2500  -999.2500     9.7770    78.7981    -0.0151     2.5283     0.0808
 1370.5000  -999.2500  -999.2500     9.7778    84.0958    -0.0170     2.5234     0.0889
 1371.0000  -999.2500  -999.2500     9.7785    85.1625    -0.0128     2.5168     0.0720
 1371.5000  -999.2500  -999.2500     9.7793    82.6117    -0.0057     2.5318     0.0868
 1372.0000  -999.2500  -999.2500     9.7801    77.6578    -0.0007     2.5205     0.0814
 1372.5000  -999.2500  -999.2500     9.7808    72.6661     0.0013     2.5230     0.0816
 1373.0000  -999.2500  -999.2500     9.7816    72.2166     0.0034     2.5253     0.0790
 1373.5000  -999.2500  -999.2500     9.7824    72.3207     0.0075     2.5326     0.0731
 1374.0000  -999.2500  -999.2500     9.7831    78.1049     0.0148     2.5418     0.0697
 1374.5000  -999.2500  -999.2500     9.7839    77.1454     0.0210     2.5532     0.0660
 1375.0000  -999.2500  -999.2500     9.7848    75.6062     0.0218     2.5476     0.0728
 1375.5000  -999.2500  -999.2500     9.7973    80.6876     0.0221     2.5452     0.0666
 1376.0000  -999.2500  -999.2500     9.8110    86.2496     0.0087     2.5552     0.0720
 1376.5000  -999.2500  -999.2500     9.8281    85.3747    -0.0037     2.5377     0.0763
 1377.0000  -999.2500  -999.2500     9.8436    84.2746    -0.0001     2.5271     0.0796
 1377.5000  -999.2500  -999.2500     9.8445    80.2112     0.0054     2.5313     0.0815
 1378.0000  -999.2500  -999.2500     9.8444    74.4615     0.0112     2.5266     0.0692
 1378.5000  -999.2500  -999.2500     9.8444    75.5287     0.0021     2.5469     0.0722
 1379.0000  -999.2500  -999.2500     9.8444    73.4222    -0.0210     2.5355     0.0806
 1379.5000  -999.2500  -999.2500     9.8444    73.4441    -0.0224     2.5206     0.0869
 1380.0000  -999.2500  -999.2500     9.8444    76.3928    -0.0195     2.5138     0.0915
 1380.5000  -999.2500  -999.2500     9.8444    83.6637    -0.0210     2.4993     0.0968
 1381.0000  -999.2500  -999.2500     9.8444    81.3445    -0.0201     2.4893     0.0992
 1381.5000  -999.2500  -999.2500     9.8444    78.7126    -0.0085     2.5002     0.0921
 1382.0000  -999.2500  -999.2500     9.8444    80.8320     0.0044     2.5155     0.0847
 1382.5000  -999.2500  -999.2500     9.8444    83.6247     0.0007     2.5278     0.0824
