~VERSION INFORMATION
 VERS.                2.0:   CWLS LOG ASCII STANDARD - VERSION 2.0
 WRAP.                 NO:   ONE LINE PER DEPTH STEP
~WELL INFORMATION
#MNEM.UNIT      DATA TYPE    INFORMATION
#----------   ------------   ------------------------------
 STRT.F           80.0000:   START DEPTH
 STOP.F          964.0000:   STOP DEPTH
 STEP.F            0.5000:   STEP LENGTH
 NULL.          -999.2500:   NO VALUE
 COMP. U S NAVY-INTEX OIL:   COMPANY
 WELL. N.P.R. #3` #57-S-2:   WELL
 FLD .        TEAPOT DOME:   FIELD
 LOC .       S2 T38N R78W:   LOCATION
 CNTY.            NATRONA:   COUNTY
 STAT.            WYOMING:   STATE
 CTRY. UNITED STATES OF AMERICA:   COUNTRY
 SRVC.       Schlumberger:   SERVICE COMPANY
 DATE.        04-AUG-1961:   LOGDATE
 API .       490250640500:   API NUMBER
~CURVE INFORMATION
#MNEM.UNIT       API CODE    CURVE DESCRIPTION
#----------   ------------   ------------------------------
 DEPT.F                  :   
 GR  .GAPI   30 310 01 00:   GAMMA RAY
 ASN .OHMM   05 041 16 00:   AMPLIFIED SHORT NORMAL 16"
 CILD.MMHO   05 110 46 00:   CONDUCTIVITY INDUCTION LOG DEEP
 ILD .OHMM   05 120 46 00:   INDUCTION LOG DEEP
 SPR .MV     05 010 01 00:   SPONTANEOUS POTENTIAL FROM RES.
~PARAMETER INFORMATION
#MNEM.UNIT          VALUE    DESCRIPTION
#----------   ------------   ------------------------------
 LMF .                 KB:   LOG MEASURED FROM
 DMF .                 KB:   DRILLING MEASURED FROM
 EKB .F              5205:   KELLING BUSHING
 EGL .F              5200:   GROUND LEVEL
 DATE.        04-AUG-1961:   RUN DATE
 RUN .                  1:   RUN NUMBER
 DD  .F               965:   DEPTH DRILLER
 DL  .F               965:   DEPTH LOGGER
 BLI .F               954:   BOTTOM LOG INTERVAL
 TLI .F               150:   TOP LOG INTERVAL
 BS  .IN             6.75:   BIT SIZE
 BSD .F               965:   BIT SIZE AT DEPTH
 DFT .       OIL EMULSION:   DRILLING FLUID TYPE
 DFD .                9.4:   DRILLING FLUID DENSITY
 DFV .                 65:   DRILLING FLUID VISCOSITY
 MSS .           FLOWLINE:   MUD SAMPLE SOURCE
 RMS .OHMM            1.0:   RESISTIVITY MUD SAMPLE
 MST .F                80:   MUD SAMPLE TEMPERATURE
 TCS .HRS               1:   TIME CURCULATED STOPPED
 LUN .               2544:   LOGGING UNIT NUMBER
 LUL .                 NC:   LOGGING UNIT LOCATION
 ENGI.            EARNEST:   RECORDING ENGINEER
 WITN.          JORGENSEN:   WITNESSED BY
 CLNT.            A2DTECH:   CLIENT CODE
 ORIG.        2" 5" PRINT:   ORIGIN OF DATA
 UWI .       490250640500:   UNIQUE WELL ID
 DICO. A2D Technologies, Inc.:   DIGITIZING COMPANY
~OTHER INFORMATION
~A   DEPT       GR        ASN       CILD        ILD        SPR   
# ...
  263.0000  -999.2500     6.0598   186.3508     5.9375   -67.0422
  263.5000  -999.2500     6.1327   183.9464     5.9858   -66.7968
  264.0000  -999.2500     6.1572   181.4816     6.1205   -66.6824
  264.5000  -999.2500     6.2007   178.7741     6.1212   -66.4550
  265.0000  -999.2500     6.2676   175.0500     6.1973   -66.7163
  265.5000  -999.2500     6.3442   172.5851     6.2735   -67.2693
  266.0000  -999.2500     6.4096   169.6958     6.3313   -67.3244
  266.5000  -999.2500     6.5221   167.6552     6.4255   -67.4128
  267.0000  -999.2500     6.6245   166.6513     6.4747   -67.4098
  267.5000  -999.2500     6.6726   165.1276     6.5230   -67.4069
  268.0000  -999.2500     6.6870   166.9469     6.5784   -67.4037
  268.5000  -999.2500     6.6825   169.5851     6.3474   -67.5499
  269.0000  -999.2500     6.6126   176.2312     6.1905   -68.0159
  269.5000  -999.2500     6.4420   185.1975     5.9783   -68.4377
  270.0000  -999.2500     6.2421   199.5459     5.7304   -68.4948
  270.5000  -999.2500     5.9852   209.3169     5.4379   -68.4322
  271.0000  -999.2500     5.7166   223.5284     4.9263   -68.5266
  271.5000  -999.2500     5.3770   233.1958     4.5516   -68.4262
  272.0000  -999.2500     4.8347   245.9459     4.1747   -68.2740
  272.5000  -999.2500     4.6390   256.4922     4.1002   -67.9632
  273.0000  -999.2500     4.5211   262.4775     4.3773   -67.7735
  273.5000  -999.2500     4.5942   257.4102     4.7041   -67.3707
  274.0000  -999.2500     4.8735   245.9124     5.0040   -67.0959
  274.5000  -999.2500     5.2689   237.0843     5.2505   -66.9181
  275.0000  -999.2500     5.4335   223.3484     5.5348   -67.3125
  275.5000  -999.2500     5.6136   207.1700     5.7435   -67.3597
  276.0000  -999.2500     5.8374   192.1119     5.9147   -67.0580
  276.5000  -999.2500     6.0037   176.7326     6.1612   -66.9061
  277.0000  -999.2500     6.2586   170.6857     6.3323   -67.2270
  277.5000  -999.2500     6.4342   167.4800     6.5174   -67.4959
  278.0000  -999.2500     6.5722   163.1498     6.5121   -67.8549
  278.5000  -999.2500     6.6752   160.4679     6.5318   -68.1023
  279.0000  -999.2500     6.7916   157.0821     6.7456   -68.3815
  279.5000  -999.2500     6.9423   154.6171     6.8543   -68.5281
  280.0000  -999.2500     7.0463   150.6506     7.0582   -68.6735
  280.5000  -999.2500     7.1221   148.0240     7.3503   -68.5872
  281.0000  -999.2500     7.1552   147.2222     7.3509   -68.4908
  281.5000  -999.2500     7.1843   144.9775     7.2011   -68.0682
  282.0000  -999.2500     7.1845   144.9518     7.0818   -67.8510
  282.5000  -999.2500     7.1697   143.4309     6.8675   -67.6056
  283.0000  -999.2500     7.1202   144.9103     6.6010   -67.3139
  283.5000  -999.2500     7.0197   144.8874     6.5246   -67.1630
  284.0000  -999.2500     6.8562   148.2884     6.4337   -67.3085
  284.5000  -999.2500     6.6507   153.8501     6.2268   -67.4545
  285.0000  -999.2500     6.4380   162.3371     5.9902   -67.5112
  285.5000  -999.2500     6.1541   173.5063     5.6999   -67.8954
  286.0000  -999.2500     5.9390   191.3184     5.5291   -68.1768
  286.5000  -999.2500     5.5715   201.2887     5.3051   -68.4977
  287.0000  -999.2500     5.3779   211.0361     5.1009   -68.5266
  287.5000  -999.2500     5.1719   224.7877     4.8695   -68.2315
  288.0000  -999.2500     4.9591   244.3038     4.6114   -67.8807
  288.5000  -999.2500     4.7637   267.7842     4.1996   -67.5539
  289.0000  -999.2500     4.5306   287.8428     3.8758   -67.4277
  289.5000  -999.2500     4.1972   297.7726     3.7389   -67.4244
  290.0000  -999.2500     4.0837   291.7390     3.5994   -67.7198
  290.5000  -999.2500     4.0176   281.8697     3.8007   -67.6890
  291.0000  -999.2500     4.0329   263.9492     4.1280   -67.4153
  291.5000  -999.2500     4.2671   240.6187     4.4443   -67.2121
  292.0000  -999.2500     4.6463   230.3301     4.8584   -66.9627
  292.5000  -999.2500     4.9297   216.5531     5.1846   -66.7213
  293.0000  -999.2500     5.1587   203.1380     5.4849   -66.5097
  293.5000  -999.2500     5.3045   189.5822     5.6470   -66.3574
  294.0000  -999.2500     5.3692   184.6746     5.7140   -66.4262
  294.5000  -999.2500     5.4244   187.0946     5.7146   -66.6657
  295.0000  -999.2500     5.4245   189.5146     5.7154   -66.7958
  295.5000  -999.2500     5.3898   192.3907     5.6673   -67.1446
  296.0000  -999.2500     5.3650   193.3333     5.5661   -67.3860
  296.5000  -999.2500     5.3088   196.8536     5.4165   -67.6235
  297.0000  -999.2500     5.1845   199.1942     5.3353   -67.7139
  297.5000  -999.2500     4.9768   205.2175     5.0904   -67.8241
  298.0000  -999.2500     4.7928   216.3039     4.7411   -67.8212
  298.5000  -999.2500     4.6052   252.6803     4.4498   -67.8182
  299.0000  -999.2500     4.2598   324.9105     3.8878   -67.8147
  299.5000  -999.2500     3.9954   366.3848     3.0114   -67.5519
  300.0000  -999.2500     3.6323   393.7708     2.7025   -67.2131
  300.5000  -999.2500     3.1681   424.9027     2.6623   -66.6154
  301.0000  -999.2500     3.1095   430.8890     2.6363   -66.2320
  301.5000  -999.2500     3.1098   424.8550     2.7254   -66.1654
  302.0000  -999.2500     3.1236   407.9376     2.7877   -66.1637
  302.5000  -999.2500     3.1740   381.2813     3.1062   -66.5214
  303.0000  -999.2500     3.3497   332.0729     3.5485   -66.7606
  303.5000  -999.2500     3.6600   294.0307     4.0353   -66.9998
  304.0000  -999.2500     4.2469   256.5751     4.6165   -67.2389
  304.5000  -999.2500     4.5628   232.4547     5.1239   -67.4976
  305.0000  -999.2500     4.6231   210.7858     5.2723   -67.8664
  305.5000  -999.2500     4.6512   202.4512     5.1703   -68.0910
  306.0000  -999.2500     4.6717   206.4563     4.6733   -67.9401
  306.5000  -999.2500     4.6965   211.4182     4.5983   -67.9389
  307.0000  -999.2500     4.7441   216.0911     4.7493   -67.9374
  307.5000  -999.2500     4.7896   219.1441     4.8249   -67.7869
  308.0000  -999.2500     4.8018   221.8589     4.9006   -67.6364
  308.5000  -999.2500     4.7743   224.5370     4.9763   -67.6347
  309.0000  -999.2500     4.7251   227.8377     4.8406   -67.6334
  309.5000  -999.2500     4.6289   231.1687     4.5964   -67.4829
  310.0000  -999.2500     4.4868   235.9860     4.2796   -67.3870
  310.5000  -999.2500     4.2349   241.2666     3.9615   -67.3308
  311.0000  -999.2500     4.0193   285.9713     3.5475   -67.3292
  311.5000  -999.2500     3.8190   332.7509     3.2139   -67.3279
  312.0000  -999.2500     3.5480   386.8424     2.8494   -67.3264
  312.5000  -999.2500     3.3788   414.1640     2.4944   -67.3246
  313.0000  -999.2500     3.1897   437.8515     2.4194   -67.3234
  313.5000  -999.2500     3.0034   454.4366     2.4198   -67.1728
  314.0000  -999.2500     2.8314   453.7537     2.4619   -67.1714
  314.5000  -999.2500     3.0260   437.7816     2.5838   -67.1699
  315.0000  -999.2500     3.0680   418.9936     2.7222   -67.1682
  315.5000  -999.2500     3.1318   391.1932     2.9631   -67.2263
  316.0000  -999.2500     3.2753   357.0168     3.3283   -67.4655
  316.5000  -999.2500     3.6899   323.8071     3.7408   -67.7047
  317.0000  -999.2500     4.6115   283.0152     4.2093   -67.9078
  317.5000  -999.2500     4.9226   234.8216     4.7572   -67.9060
  318.0000  -999.2500     5.0502   209.1295     5.3519   -67.7556
  318.5000  -999.2500     5.1503   191.1212     5.6748   -67.4429
  319.0000  -999.2500     5.1792   183.8288     5.9632   -67.0072
  319.5000  -999.2500     5.2243   183.8043     5.9635   -66.8095
  320.0000  -999.2500     5.2407   186.6866     5.8133   -66.5573
  320.5000  -999.2500     5.2409   191.6219     5.6557   -66.1761
  321.0000  -999.2500     5.2112   201.7524     5.3130   -66.0830
  321.5000  -999.2500     5.1536   212.4124     4.8355   -65.8075
  322.0000  -999.2500     4.9874   245.2540     4.4458   -66.0139
  322.5000  -999.2500     4.7037   272.6357     4.1566   -66.4034
  323.0000  -999.2500     4.4500   304.2534     3.7922   -66.8833
  323.5000  -999.2500     4.0763   339.7788     3.4277   -67.2923
