~VERSION INFORMATION
 VERS.                2.0:   CWLS LOG ASCII STANDARD - VERSION 2.0
 WRAP.                 NO:   ONE LINE PER DEPTH STEP
~WELL INFORMATION
#MNEM.UNIT      DATA TYPE    INFORMATION
#----------   ------------   ------------------------------
 STRT.F            8.0000:   START DEPTH
 STOP.F          866.5000:   STOP DEPTH
 STEP.F            0.5000:   STEP LENGTH
 NULL.          -999.2500:   NO VALUE
 COMP. LAWRENCE/ALLISON INC:   COMPANY
 WELL.    42-11 SX #11-11:   WELL
 FLD .              NPR 3:   FIELD
 LOC .      S11 T38N R78W:   LOCATION
 CNTY.            NATRONA:   COUNTY
 STAT.            WYOMING:   STATE
 CTRY. UNITED STATES OF AMERICA:   COUNTRY
 SRVC.           Gearhart:   SERVICE COMPANY
 DATE.        17-MAY-1987:   LOGDATE
 API .       490251112700:   API NUMBER
~CURVE INFORMATION
#MNEM.UNIT       API CODE    CURVE DESCRIPTION
#----------   ------------   ------------------------------
 DEPT.F                  :   
 GRR .GAPI   07 310 01 00:   GAMMA RAY FROM RES. LOG.
 RILD.OHMM   07 120 46 00:   INDUCTION LOG DEEP RESISTIVITY
 RILM.OHMM   07 120 44 00:   INDUCTION LOG MEDIUM RESISTIVITY
~PARAMETER INFORMATION
#MNEM.UNIT          VALUE    DESCRIPTION
#----------   ------------   ------------------------------
 PD  .                 GL:   PERMANENT DATUM
 EPD .F              5166:   ELEVATION PERMANENT DATUM
 LMF .                 KB:   LOG MEASURED FROM
 DAPD.F                 8:   FEET ABOVE PERMANENT DATUM
 DMF .                 KB:   DRILLING MEASURED FROM
 EKB .F              5174:   KELLING BUSHING
 EDF .F              5174:   DRILLING FLOOR
 EGL .F              5166:   GROUND LEVEL
 DATE.            5-17-87:   RUN DATE
 RUN .                  1:   RUN NUMBER
 DD  .F               891:   DEPTH DRILLER
 DL  .F               874:   DEPTH LOGGER
 BLI .F               865:   BOTTOM LOG INTERVAL
 TLI .F                44:   TOP LOG INTERVAL
 CS  .IN            8.625:   CASING SIZE
 CBD .F                49:   CASING BOTTOM DRILLER
 CBL .F                44:   CASING BOTTOM LOGGER
 BS  .IN            7.875:   BIT SIZE
 BSD .F               891:   BIT SIZE AT DEPTH
 DFT .           AIR FOAM:   DRILLING FLUID TYPE
 TCS .HRS            0300:   TIME CURCULATED STOPPED
 TLAB.HRS            1255:   TIME LOGGER AT BOTTOM
 MRT .F                80:   MAXIMUM RECORDED TEMPERATURE
 LUN .               7597:   LOGGING UNIT NUMBER
 LUL .           GILLETTE:   LOGGING UNIT LOCATION
 ENGI.            WANGLER:   RECORDING ENGINEER
 WITN.             STRONG:   WITNESSED BY
 CLNT.            A2DTECH:   CLIENT CODE
 ORIG.       2", 5" PRINT:   ORIGIN OF DATA
 UWI .       490251112700:   UNIQUE WELL ID
 DICO. A2D Technologies, Inc.:   DIGITIZING COMPANY
~OTHER INFORMATION
~A    DEPT      GRR      RILD       RILM   
# ...
  281.0000    99.6238     7.2976     7.5040
  281.5000    98.9761     7.1951     7.3842
  282.0000    98.1304     7.0942     7.2664
  282.5000    96.8711     6.9946     7.1504
  283.0000    96.1254     6.8965     7.0362
  283.5000    96.3805     6.7997     6.9239
  284.0000    99.1783     6.7038     6.8134
  284.5000   102.1816     6.6744     6.7489
  285.0000   103.4657     6.6602     6.7626
  285.5000   101.2680     6.6463     6.7738
  286.0000    98.8716     6.6324     6.7851
  286.5000    96.8734     6.6124     6.7964
  287.0000    98.3678     6.5783     6.8127
  287.5000   100.6426     6.5443     6.7935
  288.0000   102.7813     6.5106     6.7570
  288.5000   103.2232     6.4770     6.7209
  289.0000   103.3437     6.4380     6.6855
  289.5000   104.2810     6.5392     6.7874
  290.0000   103.6167     6.6645     6.9137
  290.5000   101.7499     6.7930     7.0426
  291.0000   100.5420     6.9236     7.1739
  291.5000   101.9377     7.0568     7.3075
  292.0000   104.0565     7.1926     7.4436
  292.5000   105.1693     7.3309     7.5590
  293.0000   102.5867     7.4176     7.5943
  293.5000    99.1421     7.3999     7.6307
  294.0000    96.9131     7.3871     7.5827
  294.5000    97.1528     7.3744     7.5433
  295.0000    97.4931     7.3617     7.5040
  295.5000    97.8453     7.3478     7.4650
  296.0000    98.1946     7.2963     7.4262
  296.5000    98.5441     7.2242     7.3876
  297.0000    98.8956     7.1527     7.3479
  297.5000    99.2451     7.0819     7.2621
  298.0000    99.1603     7.0119     7.1747
  298.5000    97.8193     6.9426     7.0884
  299.0000    97.3315     6.8776     7.0031
  299.5000    98.0918     6.9682     6.9188
  300.0000    98.9765     7.0620     6.8356
  300.5000    99.8626     7.1570     6.7489
  301.0000   100.7382     7.2533     6.7489
  301.5000   101.5871     7.3478     6.9220
  302.0000   100.2984     7.4849     7.1926
  302.5000    98.4778     7.6203     7.3666
  303.0000    96.8326     7.7582     7.4960
  303.5000    96.6433     7.8985     7.6276
  304.0000    97.8872     8.0414     7.7803
  304.5000    98.9059     8.2298     7.9614
  305.0000    99.1952     8.1480     8.1468
  305.5000   101.2139     8.0174     8.2298
  306.0000   103.1754     7.8609     8.0782
  306.5000   103.5033     7.7073     7.9271
  307.0000   101.7651     7.5567     7.7787
  307.5000   100.4174     7.4092     7.6332
  308.0000   100.2247     7.2644     7.4904
  308.5000   100.5776     7.1226     7.3503
  309.0000   101.4799     6.9834     7.2128
  309.5000   102.7972     6.8471     7.0778
  310.0000   102.1305     6.7133     6.9429
  310.5000   100.9045     6.6530     6.8130
  311.0000   100.4447     6.6226     6.8776
  311.5000   100.9836     6.7362     6.9642
  312.0000   101.1391     6.8281     7.0465
  312.5000    98.9640     6.9211     7.1297
  313.0000    98.2597     7.0154     7.2139
  313.5000    99.5099     7.1110     7.2991
  314.0000   100.9275     7.2080     7.3853
  314.5000   102.3389     7.3062     7.4725
  315.0000   102.1189     7.4057     7.5590
  315.5000    99.7579     7.5067     7.6439
  316.0000    97.4489     7.5850     7.7283
  316.5000    97.7224     7.6386     7.8130
  317.0000    99.2290     7.6926     7.8695
  317.5000    98.8611     7.7236     7.9024
  318.0000    97.3501     7.7490     7.9359
  318.5000    98.3298     7.7745     7.9695
  319.0000   100.3068     7.8001     8.0033
  319.5000   102.1730     7.8258     8.0372
  320.0000   101.4871     7.8501     8.0758
  320.5000   100.7147     7.7644     7.9246
  321.0000   100.0724     7.6842     7.8557
  321.5000   100.5823     7.6049     7.7816
  322.0000   102.5724     7.4970     7.7077
  322.5000   104.4668     7.3506     7.6345
  323.0000   105.0750     7.2792     7.5620
  323.5000   102.5954     7.2859     7.4880
  324.0000    98.8378     7.2907     7.4875
  324.5000    95.2367     7.2955     7.4879
  325.0000    93.2479     7.3003     7.4880
  325.5000    93.0112     7.3051     7.4880
  326.0000    94.2942     7.3099     7.4880
  326.5000    96.1214     7.3147     7.4879
  327.0000    98.0428     7.3195     7.4880
  327.5000   100.3489     7.3243     7.4879
  328.0000   103.5697     7.3292     7.4916
  328.5000   106.7562     7.3340     7.4983
  329.0000   109.2959     7.3388     7.5050
  329.5000   106.2906     7.3437     7.5118
  330.0000    99.2339     7.3475     7.5185
  330.5000    91.7030     7.3350     7.5252
  331.0000    88.7851     7.3237     7.5320
  331.5000    91.0193     7.3124     7.5388
  332.0000    94.2306     7.3011     7.5455
  332.5000    97.3381     7.2899     7.5523
  333.0000    99.5341     7.2787     7.5559
  333.5000   101.7826     7.4381     7.6740
  334.0000   104.1723     7.6003     7.7911
  334.5000   103.8300     7.7763     7.9097
  335.0000    99.6402     7.8735     8.0300
  335.5000    94.8613     7.9783     8.1521
  336.0000    93.1398     8.0846     8.2761
  336.5000    96.7965     8.1923     8.4020
  337.0000   100.8988     8.3014     8.5298
  337.5000   103.0695     8.4119     8.6595
  338.0000   102.1175     8.5239     8.7504
  338.5000   101.3504     8.6278     8.8695
  339.0000   101.0418     8.5872     8.8321
  339.5000   101.8960     8.5499     8.7804
  340.0000   106.1286     8.5128     8.7471
  340.5000   110.5891     8.4759     8.7140
  341.0000   114.8973     8.4391     8.6810
  341.5000   111.4797     8.3861     8.6482
  342.0000   107.8327     8.3859     8.6278
  342.5000   105.4117     8.5307     8.7865
  343.0000   104.7877     8.6789     8.9033
  343.5000   105.0684     8.8290     9.0217
  344.0000   105.3193     8.9817     9.1416
  344.5000   103.9810     9.0995     9.2632
  345.0000   102.6631     9.1923     9.3863
  345.5000   102.6992     9.2861     9.5111
  346.0000   104.3325     9.3809     9.6375
  346.5000   104.1111     9.4766     9.7654
  347.0000   100.8483     9.5733     9.8956
  347.5000    94.8167     9.6635    10.0559
  348.0000    93.9821     9.8290    10.2346
  348.5000    98.0185     9.9854    10.4221
  349.0000   102.0932    10.1442    10.4610
  349.5000   104.6611    10.3055    10.5093
  350.0000   106.1231    10.4221    10.5598
  350.5000   106.7645    10.4225    10.6080
  351.0000   106.7114    10.4221    10.7216
  351.5000   105.4181    10.3567    10.6261
  352.0000   102.4602    10.2893    10.5562
  352.5000   101.0993    10.2225    10.4868
  353.0000   103.4314    10.1561    10.4178
  353.5000   105.6462    10.0902    10.3493
  354.0000   106.9272    10.0279    10.2812
  354.5000   106.1898     9.9838    10.2137
  355.0000   105.5374     9.9396    10.1474
  355.5000   105.8209     9.8954    10.0816
  356.0000   105.5145     9.8482    10.0161
  356.5000   104.6609     9.7706     9.9511
  357.0000   103.1916     9.6868     9.8865
  357.5000   102.3977     9.6038     9.8224
  358.0000   102.8621     9.5558     9.7586
  358.5000   103.3294     9.5296     9.6953
  359.0000   102.4891     9.5032     9.6635
  359.5000   101.0435     9.4768     9.6635
  360.0000   100.1825     9.4506     9.6635
  360.5000   103.3925     9.4244     9.6446
  361.0000   105.5326     9.3983     9.5977
  361.5000   106.7580     9.3722     9.5732
  362.0000   107.3932     9.3463     9.5574
  362.5000   107.2471     9.3204     9.5400
  363.0000   107.6910     9.2945     9.5228
  363.5000   108.0512     9.2688     9.5056
  364.0000   106.2996     9.2431     9.4884
  364.5000   103.6578     9.2175     9.4712
  365.0000   103.7266     9.1919     9.4541
  365.5000   105.3530     9.1664     9.4370
  366.0000   107.9370     9.1411     9.4201
  366.5000   110.4525     9.0927     9.4046
  367.0000   112.6624     8.9926     9.2919
  367.5000   112.9402     8.7836     9.0687
  368.0000   111.6788     8.5796     8.8499
  368.5000   108.3748     8.3801     8.6364
  369.0000   109.4036     8.1858     8.4281
  369.5000   111.9286     7.9998     8.2247
  370.0000   116.1274     7.7763     8.0263
  370.5000   115.8071     7.5001     7.8327
  371.0000   112.3805     7.2677     7.6438
  371.5000   108.8083     7.2103     7.5590
