~VERSION INFORMATION
 VERS.                2.0:   CWLS LOG ASCII STANDARD - VERSION 2.0
 WRAP.                 NO:   ONE LINE PER DEPTH STEP
~WELL INFORMATION
#MNEM.UNIT      DATA TYPE    INFORMATION
#----------   ------------   ------------------------------
 STRT.F          190.0000:   START DEPTH
 STOP.F         3246.0000:   STOP DEPTH
 STEP.F            0.5000:   STEP LENGTH
 NULL.          -999.2500:   NO VALUE
 COMP. BROWN JOHN E&C INC:   COMPANY
 WELL.      STX-15 #84-15:   WELL
 FLD .             TEAPOT:   FIELD
 LOC .      S15 T38N R78W:   LOCATION
 CNTY.            NATRONA:   COUNTY
 STAT.            WYOMING:   STATE
 CTRY. UNITED STATES OF AMERICA:   COUNTRY
 SRVC.           BIRDWELL:   SERVICE COMPANY
 DATE.        17-MAR-1978:   LOGDATE
 API .       490251111600:   API NUMBER
~CURVE INFORMATION
#MNEM.UNIT       API CODE    CURVE DESCRIPTION
#----------   ------------   ------------------------------
 DEPT.F                  :   
 ILD .OHMM   05 120 46 00:   INDUCTION LOG DEEP
 SN  .OHMM   05 040 16 00:   SHORT NORMAL 16"
 SPR .MV     05 010 01 00:   SPONTANEOUS POTENTIAL FROM RES.
 GRD .GAPI   45 310 01 00:   GAMMA RAY FROM DENSITY LOG
 CALD.IN     45 280 60 00:   CALIPER
 RHOB.G/C3   45 350 01 00:   BULK DENSITY
 CORR.G/C3   45 356 01 00:   DENSITY CORRECTION
 DPHI.DEC    45 890 12 00:   DENSITY POROSITY SANDSTONE
~PARAMETER INFORMATION
#MNEM.UNIT          VALUE    DESCRIPTION
#----------   ------------   ------------------------------
 PD  .                 GL:   PERMANENT DATUM
 EPD .F              5241:   ELEVATION PERMANENT DATUM
 LMF .                 KB:   LOG MEASURED FROM
 DAPD.F                10:   FEET ABOVE PERMANENT DATUM
 DMF .                 KB:   DRILLING MEASURED FROM
 EKB .F              5251:   KELLING BUSHING
 EGL .F              5241:   GROUND LEVEL
 DATE.            3-17-78:   RUN DATE
 RUN .                  1:   RUN NUMBER
 DD  .F              3250:   DEPTH DRILLER
 DL  .F              3250:   DEPTH LOGGER
 BLI .F              3244:   BOTTOM LOG INTERVAL
 TLI .F               224:   TOP LOG INTERVAL
 CS  .IN            8.625:   CASING SIZE
 CBL .F               224:   CASING BOTTOM LOGGER
 BS  .IN            7.875:   BIT SIZE
 BSD .F              3250:   BIT SIZE AT DEPTH
 DFD .                8.9:   DRILLING FLUID DENSITY
 DFV .                 31:   DRILLING FLUID VISCOSITY
 DFPH.               10.5:   DRILLING FLUID PH
 DFL .                  8:   DRILLING FLUID LOSS
 MSS .           FLOWLINE:   MUD SAMPLE SOURCE
 RMS .OHMM            1.3:   RESISTIVITY MUD SAMPLE
 MST .F                70:   MUD SAMPLE TEMPERATURE
 RMF .OHMM            1.1:   RESISTIVITY MUD FILTRATE SAMPLE
 MFST.F                70:   MUD FILTRATE SAMPLE TEMPERATURE
 RMC .OHMM            1.4:   RESISTIVITY MUD CAKE
 MCST.F                70:   MUD CAKE SAMPLE TEMPERATURE
 MFSS.               MEAS:   MUD FILTRATE SAMPLE SOURCE
 MCSS.               MEAS:   MUD CAKE SAMPLE SOURCE
 RMB .OHMM            .77:   RESISTIVITY MUD AT BHT
 BHT .F               118:   BOTTOM HOLE TEMPERATURE
 TCS .HRS               6:   TIME CURCULATED STOPPED
 MRT .F               118:   MAXIMUM RECORDED TEMPERATURE
 LUN .               2958:   LOGGING UNIT NUMBER
 LUL .               CASP:   LOGGING UNIT LOCATION
 ENGI.             MILLER:   RECORDING ENGINEER
 WITN.           MCGINLEY:   WITNESSED BY
 CLNT.            A2DTECH:   CLIENT CODE
 ORIG.     1", 2.5" PRINT:   ORIGIN OF DATA
 UWI .       490251111600:   UNIQUE WELL ID
 DICO. A2D Technologies, Inc.:   DIGITIZING COMPANY
~OTHER INFORMATION
~A   DEPT      ILD         SN        SPR         GRD      CALD       RHOB       CORR       DPHI   
# ...
  838.0000     9.8336     8.6448   -31.9533    81.0010    11.6092     2.5142     0.0143     0.0916
  838.5000     9.7475     8.5349   -32.1018    83.3723    11.6102     2.5081     0.0133     0.0932
  839.0000     9.6621     8.4261   -32.2452    85.6522    11.6101     2.4980     0.0116     0.0919
  839.5000     9.5775     8.3187   -32.3899    86.1722    11.6102     2.5024     0.0193     0.0901
  840.0000     9.4936     8.2126   -32.5362    86.6868    11.6104     2.5147     0.0355     0.0883
  840.5000     9.4104     8.1079   -32.6776    86.2149    11.6145     2.5266     0.0349     0.0865
  841.0000     9.3280     8.0046   -32.8241    84.7695    11.6186     2.5254     0.0329     0.0881
  841.5000     9.2463     7.9025   -32.8146    83.3480    11.6228     2.5143     0.0305     0.0908
  842.0000     9.0850     7.8018   -32.7387    81.8731    11.6270     2.5089     0.0284     0.0924
  842.5000     8.9266     7.7024   -32.6655    81.4218    11.6311     2.5107     0.0262     0.0904
  843.0000     8.7709     7.6041   -32.5943    83.0741    11.6353     2.5116     0.0241     0.0899
  843.5000     8.6179     7.5071   -32.5211    84.9104    11.6394     2.5132     0.0253     0.0916
  844.0000     8.4671     7.4114   -32.4486    86.8549    11.6436     2.5137     0.0274     0.0909
  844.5000     8.3182     7.3169   -32.3767    86.7432    11.6479     2.5092     0.0295     0.0892
  845.0000     8.1708     7.2236   -32.3031    85.7093    11.6500     2.5120     0.0314     0.0875
  845.5000     8.0253     7.1315   -32.2314    84.7878    11.6498     2.5152     0.0335     0.0858
  846.0000     7.8929     7.0407   -32.1609    86.3686    11.6498     2.5186     0.0364     0.0842
  846.5000     7.8184     6.9510   -32.0800    89.1198    11.6498     2.5221     0.0416     0.0837
  847.0000     7.5458     6.8800   -32.1043    90.9762    11.6498     2.5251     0.0435     0.0857
  847.5000     7.5500     6.8869   -32.2113    90.0439    11.6498     2.5283     0.0363     0.0878
  848.0000     7.5606     6.8927   -32.3085    88.1054    11.6498     2.5179     0.0300     0.0900
  848.5000     7.5713     6.8985   -32.4053    87.0434    11.6498     2.5066     0.0230     0.0922
  849.0000     7.5819     6.9044   -32.5045    87.7542    11.6498     2.4974     0.0157     0.0943
  849.5000     7.5925     6.9102   -32.6022    88.1902    11.6498     2.5010     0.0130     0.0936
  850.0000     7.6032     6.9159   -32.7004    88.4561    11.6498     2.5035     0.0173     0.0924
  850.5000     7.6139     6.9218   -32.7985    87.2114    11.6498     2.5066     0.0209     0.0931
  851.0000     7.6246     6.9276   -32.8969    85.8772    11.6498     2.5021     0.0245     0.0940
  851.5000     7.6353     6.9335   -32.9940    86.3484    11.6498     2.4967     0.0283     0.0949
  852.0000     7.6462     6.9393   -33.0930    87.7428    11.6498     2.4982     0.0320     0.0956
  852.5000     7.6567     6.9452   -33.1926    89.1534    11.6498     2.5052     0.0356     0.0936
  853.0000     7.6677     6.9510   -33.2498    90.6898    11.6498     2.5115     0.0393     0.0911
  853.5000     7.6837     6.9569   -33.1825    90.8170    11.6498     2.5149     0.0375     0.0885
  854.0000     7.6784     6.9627   -33.1176    88.9894    11.6498     2.5169     0.0338     0.0860
  854.5000     7.6443     6.9686   -33.0489    87.2670    11.6498     2.5162     0.0302     0.0852
  855.0000     7.6111     6.9745   -32.9814    86.1667    11.6498     2.5156     0.0266     0.0866
  855.5000     7.5778     6.9798   -32.9139    85.8986    11.6498     2.5148     0.0229     0.0880
  856.0000     7.5449     6.9867   -32.8460    87.7997    11.6498     2.5108     0.0194     0.0895
  856.5000     7.5126     6.9915   -32.7786    89.6332    11.6498     2.5065     0.0158     0.0909
  857.0000     7.4805     6.9959   -32.7101    88.9067    11.6498     2.5023     0.0121     0.0923
  857.5000     7.4484     7.0089   -32.6439    88.1198    11.6498     2.4977     0.0087     0.0940
  858.0000     7.4114     7.0083   -32.5755    87.4599    11.6498     2.4938     0.0050     0.0940
  858.5000     7.6233     7.1389   -32.5038    88.3176    11.6498     2.4901     0.0095     0.0918
  859.0000     7.7803     7.2420   -32.5083    88.9409    11.6498     2.5037     0.0175     0.0877
  859.5000     7.9443     7.3986   -32.6910    89.7819    11.6498     2.5198     0.0254     0.0836
  860.0000     8.1118     7.5587   -32.8683    88.4051    11.6498     2.5255     0.0322     0.0795
  860.5000     8.2829     7.7222   -33.0503    86.6342    11.6497     2.5291     0.0369     0.0754
  861.0000     8.4576     7.8893   -33.2315    84.7725    11.6497     2.5348     0.0409     0.0717
  861.5000     8.6359     8.1246   -33.4119    82.4049    11.6499     2.5411     0.0451     0.0748
  862.0000     8.8180     8.0667   -33.5933    78.1581    11.6494     2.5461     0.0499     0.0775
  862.5000     8.9109     7.9840   -33.7745    77.5086    11.6500     2.5385     0.0492     0.0803
  863.0000     8.9129     7.9022   -33.9540    77.5483    11.6514     2.5317     0.0372     0.0830
  863.5000     8.9125     7.8212   -34.1376    78.6276    11.6719     2.5241     0.0265     0.0857
  864.0000     8.9120     7.7410   -34.3165    79.5806    11.6894     2.5169     0.0164     0.0885
  864.5000     8.9116     7.6616   -34.4686    80.5934    11.7070     2.5096     0.0154     0.0912
  865.0000     8.8710     7.5831   -34.4386    81.3862    11.7275     2.5021     0.0118     0.0940
  865.5000     8.8149     7.5230   -34.4116    82.1350    11.7289     2.4976     0.0164     0.0937
  866.0000     8.7592     7.4795   -34.3771    81.6756    11.7294     2.5000     0.0196     0.0920
  866.5000     8.7040     7.4363   -34.3461    81.2415    11.7289     2.5021     0.0238     0.0900
  867.0000     8.6489     7.3933   -34.3146    80.6399    11.7291     2.5046     0.0241     0.0909
  867.5000     8.5945     7.3506   -34.2830    81.0843    11.7291     2.5067     0.0241     0.0919
  868.0000     8.5407     7.3081   -34.2519    81.6009    11.7291     2.5086     0.0241     0.0929
  868.5000     8.4873     7.2659   -34.2193    82.1115    11.7291     2.5045     0.0249     0.0940
  869.0000     8.4314     7.2239   -34.1907    81.0332    11.7290     2.5004     0.0257     0.0923
  869.5000     8.4064     7.1821   -34.1556    79.8477    11.7292     2.5006     0.0265     0.0904
  870.0000     8.3801     7.1406   -34.1238    79.4441    11.7292     2.5080     0.0272     0.0884
  870.5000     8.3538     7.0993   -34.1078    79.7900    11.7388     2.5152     0.0280     0.0869
  871.0000     8.3280     7.0583   -33.8456    79.2503    11.7513     2.5188     0.0281     0.0888
  871.5000     8.3023     7.0175   -33.1888    78.2029    11.7637     2.5103     0.0277     0.0910
  872.0000     8.2767     6.9712   -32.5411    77.1178    11.7761     2.5021     0.0268     0.0933
  872.5000     8.2512     6.9234   -31.9153    76.7276    11.7883     2.5006     0.0261     0.0956
  873.0000     8.2257     6.8760   -31.2722    77.8528    11.8006     2.5043     0.0252     0.0979
  873.5000     8.2003     6.8289   -31.3788    80.3917    11.8139     2.4943     0.0246     0.0980
  874.0000     8.1750     6.7822   -31.6150    82.6910    11.8239     2.4825     0.0246     0.1012
  874.5000     8.1491     6.7358   -31.8559    83.1150    11.8391     2.4840     0.0375     0.1052
  875.0000     8.1240     6.6896   -32.0821    80.7730    11.8561     2.4806     0.0458     0.1076
  875.5000     7.9994     6.6438   -32.3389    78.6868    11.9644     2.4689     0.0488     0.1135
  876.0000     7.8767     6.5984   -32.4193    77.0549    12.0544     2.4575     0.0532     0.1195
  876.5000     7.7559     6.5532   -32.2617    77.4559    12.1517     2.4485     0.0786     0.1254
  877.0000     7.6370     6.5090   -32.1285    77.9643    12.2457     2.4649     0.0925     0.1314
  877.5000     7.5197     6.3409   -31.9914    78.5175    12.3408     2.4543     0.0686     0.1373
  878.0000     7.4069     6.1796   -31.8513    79.1512    12.4379     2.4264     0.0548     0.1475
