~VERSION INFORMATION
 VERS.                2.0:   CWLS LOG ASCII STANDARD - VERSION 2.0
 WRAP.                 NO:   ONE LINE PER DEPTH STEP
~WELL INFORMATION
#MNEM.UNIT      DATA TYPE    INFORMATION
#----------   ------------   ------------------------------
 STRT.F           87.0000:   START DEPTH
 STOP.F          987.0000:   STOP DEPTH
 STEP.F            0.5000:   STEP LENGTH
 NULL.          -999.2500:   NO VALUE
 COMP.   FLUOR DANIEL INC:   COMPANY
 WELL. NAVAL PETROLEUM RESERVE 3 SH-2 #53-2:   WELL
 FLD .        TEAPOT DOME:   FIELD
 LOC .       S2 T38N R78W:   LOCATION
 CNTY.            NATRONA:   COUNTY
 STAT.            WYOMING:   STATE
 CTRY. UNITED STATES OF AMERICA:   COUNTRY
 SRVC. Schlumberger Well Surveying Corp:   SERVICE COMPANY
 DATE.        17-JUL-1963:   LOGDATE
 API .       490250645200:   API NUMBER
~CURVE INFORMATION
#MNEM.UNIT       API CODE    CURVE DESCRIPTION
#----------   ------------   ------------------------------
 DEPT.F                  :   
 GR  .GAPI   30 310 01 00:   GAMMA RAY
 SPR .MV     05 010 01 00:   SPONTANEOUS POTENTIAL
 CILD.MMHO   05 110 46 00:   CONDUCTIVITY INDUCTION LOG DEEP
 ILD .OHMM   05 120 46 00:   INDUCTION LOG DEEP
 ASN .OHMM   05 041 16 00:   AMPLIFIED SHORT NORMAL 16"
~PARAMETER INFORMATION
#MNEM.UNIT          VALUE    DESCRIPTION
#----------   ------------   ------------------------------
 PD  .                 GL:   PERMANENT DATUM
 EPD .F              5165:   ELEVATION PERMANENT DATUM
 LMF .                 KB:   LOG MEASURED FROM
 DAPD.F                 5:   FEET ABOVE PERMANENT DATUM
 DMF .                 KB:   DRILLING MEASURED FROM
 EKB .F              5170:   KELLING BUSHING
 EGL .F              5165:   GROUND LEVEL
 DATE.          7-17-1963:   RUN DATE
 RUN .                  1:   RUN NUMBER
 DD  .F               986:   DEPTH DRILLER
 DL  .F               987:   DEPTH LOGGER
 BLI .F               986:   BOTTOM LOG INTERVAL
 TLI .F                30:   TOP LOG INTERVAL
 CS  .IN            8.625:   CASING SIZE
 CBD .F                10:   CASING BOTTOM DRILLER
 BS  .IN            7.875:   BIT SIZE
 BSD .F               986:   BIT SIZE AT DEPTH
 DFT .            GEL-OIL:   DRILLING FLUID TYPE
 DFD .                9.4:   DRILLING FLUID DENSITY
 DFV .                 67:   DRILLING FLUID VISCOSITY
 DFPH.                8.5:   DRILLING FLUID PH
 DFL .                4.6:   DRILLING FLUID LOSS
 MSS .           FLOWLINE:   MUD SAMPLE SOURCE
 RMS .OHMM           3.37:   RESISTIVITY MUD SAMPLE
 MST .F                79:   MUD SAMPLE TEMPERATURE
 RMF .OHMM           1.49:   RESISTIVITY MUD FILTRATE SAMPLE
 MFST.F                83:   MUD FILTRATE SAMPLE TEMPERATURE
 MFSS.           MEASURED:   MUD FILTRATE SAMPLE SOURCE
 BHT .F                80:   BOTTOM HOLE TEMPERATURE
 TCS .HRS            0030:   TIME CURCULATED STOPPED
 MRT .F                80:   MAXIMUM RECORDED TEMPERATURE
 LUN .               4507:   LOGGING UNIT NUMBER
 LUL .              CSPR.:   LOGGING UNIT LOCATION
 ENGI.            WINKLER:   RECORDING ENGINEER
 WITN.          JORGENSON:   WITNESSED BY
 CLNT.            A2DTECH:   CLIENT CODE
 ORIG.      2" & 5" PRINT:   ORIGIN OF DATA
 UWI .       490250645200:   UNIQUE WELL ID
 DICO. A2D Technologies, Inc.:   DIGITIZING COMPANY
~OTHER INFORMATION
~A   DEPT       GR        SPR       CILD          ILD        ASN 
# ...
  880.0000   100.6976   -44.6853   193.1323     5.3345     6.7005
  880.5000    97.5767   -44.7460   194.4858     5.3177     6.7236
  881.0000   109.7568   -44.8142   195.8392     5.3005     6.6346
  881.5000   103.7070   -44.8864   195.4774     5.2799     6.7289
  882.0000   101.4137   -45.0733   180.5918     5.5755     8.0209
  882.5000    96.5882   -45.2590   152.9592     6.8342     9.6348
  883.0000   101.3395   -45.4440   126.7337     8.1955    10.1770
  883.5000   104.1078   -45.6353   105.7063     9.2726    10.4426
  884.0000    96.3150   -45.7510    97.8113    10.2717    10.7819
  884.5000    94.7409   -45.8484    92.9594    10.4323    11.0765
  885.0000    93.1205   -45.9446    95.0930    10.5550    11.2720
  885.5000    95.1751   -46.0418    97.8103    10.6872    11.3413
  886.0000    99.0459   -46.0835   100.5488    10.4466    11.3983
  886.5000    86.4934   -46.0846   101.0050    10.2467    11.4063
  887.0000    83.7074   -46.1221    98.6661    10.5113    11.4044
  887.5000    68.7236   -46.2286    94.9749    10.7705    11.4249
  888.0000    62.0509   -46.5303    90.4882    11.1923    11.8810
  888.5000    50.0807   -47.1383    85.0502    11.8282    12.4947
  889.0000    46.2870   -47.4760    79.6124    12.4617    13.1161
  889.5000    42.7297   -47.9346    74.1751    13.1075    14.1558
  890.0000    46.0365   -49.2337    68.7144    14.0586    15.6784
  890.5000    39.0655   -50.4757    62.8618    15.3852    17.3367
  891.0000    35.0025   -52.9413    57.2003    17.1619    18.4347
  891.5000    39.1763   -55.5141    51.0373    19.1153    19.7464
  892.0000    39.5770   -58.0860    45.0251    20.8444    21.4257
  892.5000    39.3385   -60.4386    42.2035    22.5976    22.2207
  893.0000    39.2766   -61.6066    40.8509    23.5235    22.7457
  893.5000    40.9100   -62.2925    39.6778    23.8447    23.2507
  894.0000    40.4783   -63.0200    39.7025    23.8208    24.0079
  894.5000    43.6277   -63.7391    41.7761    23.4132    25.2572
  895.0000    48.5396   -64.0796    43.9111    22.5696    24.5745
  895.5000    48.9088   -63.5989    46.0415    21.6889    22.7207
  896.0000    43.0924   -64.3311    48.1699    20.8062    23.2485
  896.5000    42.7199   -64.8243    50.2983    20.2957    24.3560
  897.0000    37.4872   -63.7862    52.4267    19.9868    24.1222
  897.5000    37.5870   -62.4377    52.7638    19.8527    23.7350
  898.0000    34.4341   -60.2895    51.0000    19.7383    23.3435
  898.5000    33.1540   -59.1945    48.3009    20.4228    23.7879
  899.0000    36.0577   -60.8901    45.6018    21.9996    24.4252
  899.5000    39.9780   -62.8752    42.9027    23.8116    25.3230
  900.0000    44.9044   -64.2627    40.2035    25.6432    27.0149
  900.5000    41.1835   -64.9720    37.5044    27.5223    28.6828
  901.0000    42.8609   -65.4346    35.0444    29.2581    30.3477
  901.5000    48.4991   -66.3188    33.0846    31.0266    32.0882
  902.0000    45.2112   -66.1359    31.1249    32.8133    34.3739
  902.5000    42.9295   -66.1001    29.1651    34.5721    34.7136
  903.0000    40.2991   -66.5001    27.2053    36.3790    35.4392
  903.5000    43.9470   -66.8955    25.6080    37.8198    35.7189
  904.0000    50.9150   -67.2996    25.6347    37.8748    35.3349
  904.5000    57.8061   -67.3815    26.8715    35.0648    34.9021
  905.0000    53.5158   -66.8568    28.9246    32.1856    33.7658
  905.5000    47.3138   -66.3727    30.9628    30.0710    31.7663
  906.0000    44.5770   -66.4705    33.0010    28.9025    30.4915
  906.5000    48.0433   -66.5651    34.1824    28.0467    30.0654
  907.0000    50.1834   -66.2726    34.9467    27.7588    28.5023
  907.5000    50.5875   -65.1541    35.7111    27.6870    27.9333
  908.0000    55.4957   -63.9901    36.4754    27.0996    27.8589
  908.5000    59.5167   -62.9338    37.7430    26.4413    27.6880
  909.0000    62.4719   -63.1423    39.1988    25.6511    26.9415
  909.5000    65.5488   -64.3253    40.7035    24.8048    26.1975
  910.0000    56.8515   -66.1376    42.1105    23.9916    25.4540
  910.5000    57.6348   -68.0135    43.5664    23.2495    24.7117
  911.0000    58.6309   -67.5589    45.1156    22.5157    23.9538
  911.5000    52.5322   -65.2968    47.0264    21.3621    22.8024
  912.0000    52.1859   -62.9158    49.6563    20.1282    21.6446
  912.5000    58.5542   -60.5388    52.7136    18.8921    20.9902
  913.0000    51.5011   -58.1572    55.7709    17.7353    20.4338
  913.5000    47.2567   -56.5342    58.8281    17.2621    19.8774
  914.0000    48.3438   -55.7588    60.0888    17.0233    19.3370
  914.5000    63.0500   -55.0146    60.5134    16.9802    18.9247
  915.0000    58.8511   -54.9709    60.7397    16.9362    18.8444
  915.5000    54.8203   -56.1460    60.5359    16.9165    18.4906
  916.0000    61.6841   -57.0382    60.3321    16.8590    18.1305
  916.5000    60.8675   -57.3106    60.1282    16.8348    18.1080
  917.0000    67.0225   -57.5243    59.9244    16.8329    18.0509
  917.5000    69.3784   -57.9171    59.6482    16.9623    18.0712
  918.0000    74.9228   -58.4018    59.2563    17.1798    18.1234
  918.5000    74.4090   -58.9087    58.8643    17.3986    18.1762
  919.0000    72.6554   -59.3516    58.4724    17.5414    18.2291
  919.5000    65.6850   -59.3460    58.0804    17.6424    18.2823
  920.0000    68.4318   -58.9613    57.6884    17.6871    18.3372
  920.5000    69.9192   -57.9202    57.2965    17.7303    18.2307
  921.0000    57.9115   -57.7309    56.9045    17.8950    18.1514
  921.5000    52.2672   -57.7290    56.5124    18.1192    18.3989
  922.0000    42.6360   -57.7355    56.1206    18.3458    18.6395
  922.5000    62.7830   -57.5502    55.7322    18.5487    18.8822
  923.0000    61.4030   -57.3315    55.3683    18.5461    19.2418
  923.5000    61.0549   -57.1289    55.0043    18.4306    19.6109
  924.0000    61.0220   -57.1446    54.9296    18.2812    19.8199
  924.5000  -999.2500   -57.4917    55.3543    18.1306    19.5451
  925.0000  -999.2500   -57.7324    55.7805    17.9406    19.0155
  925.5000  -999.2500   -57.1230    57.0901    17.6834    18.4774
  926.0000  -999.2500   -56.4436    58.4080    17.3746    17.9406
  926.5000  -999.2500   -55.7698    59.7238    16.9852    17.5101
  927.0000  -999.2500   -55.1833    61.0387    16.5972    17.2203
  927.5000  -999.2500   -54.9818    62.3537    16.2096    16.9288
  928.0000  -999.2500   -55.1711    63.6687    15.8849    16.6390
  928.5000  -999.2500   -55.2745    64.3205    15.7218    16.3813
  929.0000  -999.2500   -54.9623    64.8867    15.5599    16.1903
  929.5000  -999.2500   -54.6553    65.4528    15.3979    16.0034
  930.0000  -999.2500   -54.3512    66.2748    15.2296    15.8167
  930.5000  -999.2500   -54.1139    67.6041    14.9864    15.6298
  931.0000  -999.2500   -54.3003    68.9334    14.7315    15.4441
  931.5000  -999.2500   -54.7273    70.2626    14.4752    15.3016
  932.0000  -999.2500   -55.1203    71.5919    14.2287    15.2389
  932.5000  -999.2500   -55.2330    71.6412    14.2195    15.1750
  933.0000  -999.2500   -55.3056    71.3683    14.2203    15.1254
  933.5000  -999.2500   -55.0067    71.0953    14.2582    15.1541
  934.0000  -999.2500   -54.7188    70.8223    14.3159    15.1828
  934.5000  -999.2500   -54.6110    70.5493    14.3742    15.2126
  935.0000  -999.2500   -54.9279    70.2764    14.4325    15.3066
  935.5000  -999.2500   -55.2368    70.0034    14.4906    15.4779
  936.0000  -999.2500   -55.5480    69.7304    14.5487    15.5927
  936.5000  -999.2500   -55.8768    69.4597    14.6063    15.6849
  937.0000  -999.2500   -55.3607    69.1865    14.7578    15.7256
  937.5000  -999.2500   -54.7594    68.9115    14.9408    15.7345
  938.0000  -999.2500   -54.3539    66.1019    15.3548    16.0891
  938.5000  -999.2500   -53.9434    62.4623    15.9493    16.5802
  939.0000  -999.2500   -53.5132    58.8227    16.6469    17.3807
  939.5000  -999.2500   -52.4530    55.1831    17.8463    18.6432
  940.0000  -999.2500   -51.1361    51.5434    19.2065    20.2834
  940.5000  -999.2500   -49.8597    47.9038    20.5724    21.9140
