~VERSION INFORMATION
 VERS.                2.0:   CWLS LOG ASCII STANDARD - VERSION 2.0
 WRAP.                 NO:   ONE LINE PER DEPTH STEP
~WELL INFORMATION
#MNEM.UNIT      DATA TYPE    INFORMATION
#----------   ------------   ------------------------------
 STRT.F         1005.5000:   START DEPTH
 STOP.F         2315.0000:   STOP DEPTH
 STEP.F            0.5000:   STEP LENGTH
 NULL.          -999.2500:   NO VALUE
 COMP. LAWRENCE/ALLISON INC:   COMPANY
 WELL.  32 SHX 15 #32 -15:   WELL
 FLD .             TEAPOT:   FIELD
 LOC .      S15 T38N R78W:   LOCATION
 CNTY.            NATRONA:   COUNTY
 STAT.            WYOMING:   STATE
 CTRY. UNITED STATES OF AMERICA:   COUNTRY
 SRVC.            Unknown:   SERVICE COMPANY
 DATE.        10-SEP-1988:   LOGDATE
 API .       490251124500:   API NUMBER
~CURVE INFORMATION
#MNEM.UNIT       API CODE    CURVE DESCRIPTION
#----------   ------------   ------------------------------
 DEPT.F                  :   
 ROP .MIN/FT 91 810 01 00:   RATE OF DRILLING PENETRATION
 TGAS.UNITS  91 830 01 00:   TOTAL GAS FROM HOTWIRE
~PARAMETER INFORMATION
#MNEM.UNIT          VALUE    DESCRIPTION
#----------   ------------   ------------------------------
 EKB .F              5259:   KELLING BUSHING
 EGL .F              5249:   GROUND LEVEL
 DATE.        10-SEP-1988:   RUN DATE
 RUN .                  1:   RUN NUMBER
 DD  .F              2316:   DEPTH DRILLER
 TLI .F              1005:   TOP LOG INTERVAL
 CS  .IN                7:   CASING SIZE
 CBD .F               991:   CASING BOTTOM DRILLER
 ENGI. R. HUSK/D. PETERSON:   RECORDING ENGINEER
 CLNT.            A2DTECH:   CLIENT CODE
 ORIG.           5" PRINT:   ORIGIN OF DATA
 UWI .       490251124500:   UNIQUE WELL ID
 DICO. A2D Technologies, Inc.:   DIGITIZING COMPANY
~OTHER INFORMATION
~A  DEPT         ROP       TGAS 
# ...
 1856.0000     0.4657     8.2641
 1856.5000     0.4341     8.2623
 1857.0000     0.4236     8.2604
 1857.5000     0.3919     8.2586
 1858.0000     0.3920     8.2568
 1858.5000     0.4237     8.2549
 1859.0000     0.4555     8.2531
 1859.5000     0.4767     8.2512
 1860.0000     0.4873     8.2494
 1860.5000     0.4768     8.2476
 1861.0000     0.4769     8.2457
 1861.5000     0.4663     8.2439
 1862.0000     0.4664     8.2421
 1862.5000     0.4664     8.2402
 1863.0000     0.4559     8.2384
 1863.5000     0.4348     8.2366
 1864.0000     0.4243     8.2347
 1864.5000     0.4244     8.2329
 1865.0000     0.4138     8.2311
 1865.5000     0.3928     8.2292
 1866.0000     0.3928     8.2274
 1866.5000     0.3929     8.2256
 1867.0000     0.3929     8.2237
 1867.5000     0.3930     8.2219
 1868.0000     0.3930     8.2201
 1868.5000     0.3931     8.2182
 1869.0000     0.4248     8.2164
 1869.5000     0.4249     8.2146
 1870.0000     0.4355     8.2127
 1870.5000     0.4567     8.2109
 1871.0000     0.4673     8.2090
 1871.5000     0.4674     8.2072
 1872.0000     0.4780     8.2054
 1872.5000     0.4781     8.2035
 1873.0000     0.4781     8.2017
 1873.5000     0.4782     8.1999
 1874.0000     0.4782     8.1980
 1874.5000     0.4677     8.1962
 1875.0000     0.4678     8.1944
 1875.5000     0.4572     8.1925
 1876.0000     0.4361     8.1907
 1876.5000     0.4362     8.1889
 1877.0000     0.4257     8.1870
 1877.5000     0.4257     8.1852
 1878.0000     0.4258     8.1834
 1878.5000     0.4258     8.1815
 1879.0000     0.4259     8.1797
 1879.5000     0.4260     8.1779
 1880.0000     0.4154     8.1760
 1880.5000     0.3943     8.1742
 1881.0000     0.3944     8.1724
 1881.5000     0.4156     8.1705
 1882.0000     0.4262     8.1687
 1882.5000     0.4580     8.1668
 1883.0000     0.4792     8.1650
 1883.5000     0.5427     8.1632
 1884.0000     0.5956     8.1613
 1884.5000     0.6485     8.1595
 1885.0000     0.6802     8.1577
 1885.5000     0.6803     8.1558
 1886.0000     0.6803     8.1540
 1886.5000     0.6910     8.1522
 1887.0000     0.7650     8.1503
 1887.5000     0.8391     8.1485
 1888.0000     0.8814     8.1467
 1888.5000     0.8075     8.1448
 1889.0000     0.7335     8.1430
 1889.5000     0.6807     8.1412
 1890.0000     0.6385     8.1393
 1890.5000     0.6068     8.1375
 1891.0000     0.6069     8.1357
 1891.5000     0.6069     8.1338
 1892.0000     0.6070     8.1320
 1892.5000     0.6070     8.1302
 1893.0000     0.6177     8.1283
 1893.5000     0.5437     8.1265
 1894.0000     0.4803     8.1246
 1894.5000     0.4698     8.1228
 1895.0000     0.4699     8.1210
 1895.5000     0.4699     8.1191
 1896.0000     0.4700     8.1173
 1896.5000     0.4700     8.1155
 1897.0000     0.4278     8.1136
 1897.5000     0.3327     8.1118
 1898.0000     0.2905     8.1100
 1898.5000     0.3011     8.1081
 1899.0000     0.3540     8.1063
 1899.5000     0.4281     8.1045
 1900.0000     0.4704     8.1026
 1900.5000     0.5127     8.1008
 1901.0000     0.5234     8.0990
 1901.5000     0.5129     8.0971
 1902.0000     0.5023     8.0953
 1902.5000     0.4707     8.0935
 1903.0000     0.4390     8.0850
 1903.5000     0.4285     8.0723
 1904.0000     0.4285     8.0595
 1904.5000     0.4286     8.0468
 1905.0000     0.4392     8.0340
 1905.5000     0.4604     8.0213
 1906.0000     0.4605     8.0085
 1906.5000     0.4605     7.9958
 1907.0000     0.4394     7.9831
 1907.5000     0.4395     7.9703
 1908.0000     0.4290     7.9576
 1908.5000     0.4290     7.9448
 1909.0000     0.3974     7.9321
 1909.5000     0.3446     7.9193
 1910.0000     0.3129     7.9066
 1910.5000     0.3552     7.8939
 1911.0000     0.5139     7.8811
 1911.5000     0.6725     7.8684
 1912.0000     0.7359     7.8556
 1912.5000     0.7809     7.8429
 1913.0000     0.8128     7.8301
 1913.5000     0.8553     7.8174
 1914.0000     0.8554     7.8047
 1914.5000     0.8556     7.7919
 1915.0000     0.8557     7.7792
 1915.5000     0.8242     7.7664
 1916.0000     0.8243     7.7537
 1916.5000     0.8245     7.7410
 1917.0000     0.8035     7.7282
 1917.5000     0.6980     7.7155
 1918.0000     0.6558     7.7027
 1918.5000     0.6454     7.6900
 1919.0000     0.6456     7.6772
 1919.5000     0.6457     7.6645
 1920.0000     0.6459     7.6518
 1920.5000     0.6037     7.6390
 1921.0000     0.5616     7.6263
 1921.5000     0.5195     7.6135
 1922.0000     0.4985     7.6008
 1922.5000     0.4775     7.5880
 1923.0000     0.4671     7.5753
 1923.5000     0.4461     7.5626
 1924.0000     0.4463     7.5498
 1924.5000     0.4465     7.5371
 1925.0000     0.4572     7.5243
 1925.5000     0.4679     7.5116
 1926.0000     0.4681     7.4988
 1926.5000     0.4788     7.4861
 1927.0000     0.5213     7.4734
 1927.5000     0.5637     7.4606
 1928.0000     0.5744     7.4479
 1928.5000     0.5746     7.4351
 1929.0000     0.5536     7.4224
 1929.5000     0.5220     7.4097
 1930.0000     0.4799     7.3969
 1930.5000     0.4695     7.3842
 1931.0000     0.4591     7.3714
 1931.5000     0.4804     7.3587
 1932.0000     0.5229     7.3459
 1932.5000     0.5970     7.3332
 1933.0000     0.6923     7.3205
 1933.5000     0.7347     7.3077
 1934.0000     0.7455     7.2950
 1934.5000     0.6928     7.2822
 1935.0000     0.6401     7.2695
 1935.5000     0.5768     7.2567
 1936.0000     0.5347     7.2440
 1936.5000     0.4925     7.2313
 1937.0000     0.4504     7.2185
 1937.5000     0.4083     7.2058
 1938.0000     0.3979     7.1930
 1938.5000     0.3663     7.1803
 1939.0000     0.3665     7.1676
 1939.5000     0.3984     7.1548
 1940.0000     0.4408     7.1421
 1940.5000     0.4833     7.1293
 1941.0000     0.5257     7.1166
 1941.5000     0.5259     7.1038
 1942.0000     0.5260     7.0911
 1942.5000     0.5262     7.0784
 1943.0000     0.4946     7.0656
 1943.5000     0.4736     7.0529
 1944.0000     0.4315     7.0401
 1944.5000     0.3999     7.0274
 1945.0000     0.4001     7.0146
 1945.5000     0.4003     7.0019
 1946.0000     0.4004     6.9892
 1946.5000     0.4112     6.9764
 1947.0000     0.4113     6.9637
 1947.5000     0.4115     6.9509
 1948.0000     0.4117     6.9382
 1948.5000     0.4541     6.9254
 1949.0000     0.5388     6.9127
 1949.5000     0.6870     6.9000
 1950.0000     0.8668     6.8872
 1950.5000     0.9198     6.8745
 1951.0000     0.8671     6.8617
 1951.5000     0.8039     6.8490
 1952.0000     0.7829     6.8363
 1952.5000     0.7831     6.8235
 1953.0000     0.7832     6.8108
 1953.5000     0.7834     6.7980
 1954.0000     0.8153     6.7853
 1954.5000     0.9000     6.7725
 1955.0000     1.0481     6.7598
 1955.5000     1.2068     6.7471
 1956.0000     1.1013     6.7343
 1956.5000     0.9323     6.7216
 1957.0000     0.7422     6.7088
 1957.5000     0.5944     6.6961
 1958.0000     0.5522     6.6833
 1958.5000     0.5312     6.6706
 1959.0000     0.4997     6.6579
 1959.5000     0.5316     6.6451
 1960.0000     0.5423     6.6324
 1960.5000     0.5742     6.6196
 1961.0000     0.6166     6.6069
 1961.5000     0.6273     6.5941
 1962.0000     0.5852     6.5814
 1962.5000     0.5325     6.5687
 1963.0000     0.4904     6.5559
 1963.5000     0.4588     6.5432
 1964.0000     0.4167     6.5304
 1964.5000     0.4063     6.5177
 1965.0000     0.4065     6.5050
 1965.5000     0.4383     6.4922
 1966.0000     0.4596     6.4795
 1966.5000     0.4809     6.4667
 1967.0000     0.4071     6.4540
 1967.5000     0.3333     6.4412
 1968.0000     0.3334     6.4285
 1968.5000     0.3653     6.4158
 1969.0000     0.4183     6.4030
 1969.5000     0.4608     6.3903
 1970.0000     0.4821     6.3775
 1970.5000     0.4505     6.3648
 1971.0000     0.4189     6.3520
 1971.5000     0.4085     6.3393
 1972.0000     0.4087     6.3266
 1972.5000     0.3771     6.3138
 1973.0000     0.3667     6.3011
 1973.5000     0.3351     6.2883
 1974.0000     0.3247     6.2756
 1974.5000     0.3249     6.2628
 1975.0000     0.3356     6.2501
 1975.5000     0.3781     6.2374
 1976.0000     0.4417     6.2246
 1976.5000     0.5264     6.2119
 1977.0000     0.6006     6.1991
