~VERSION INFORMATION
 VERS.                2.0:   CWLS LOG ASCII STANDARD - VERSION 2.0
 WRAP.                 NO:   ONE LINE PER DEPTH STEP
~WELL INFORMATION
#MNEM.UNIT      DATA TYPE    INFORMATION
#----------   ------------   ------------------------------
 STRT.F            0.0000:   START DEPTH
 STOP.F         2838.0000:   STOP DEPTH
 STEP.F            0.5000:   STEP LENGTH
 NULL.          -999.2500:   NO VALUE
 COMP. INTEX OIL CO U S NAVY:   COMPANY
 WELL. NAVAL PETROLEUM RESERVE 3 29 #NPR #3 (204A29)-29:   WELL
 FLD .                N/A:   FIELD
 LOC .      S29 T39N R78W:   LOCATION
 CNTY.            NATRONA:   COUNTY
 STAT.            WYOMING:   STATE
 CTRY. UNITED STATES OF AMERICA:   COUNTRY
 SRVC.      NL McCullough:   SERVICE COMPANY
 DATE.        24-JUN-1965:   LOGDATE
 API .       490251021700:   API NUMBER
~CURVE INFORMATION
#MNEM.UNIT       API CODE    CURVE DESCRIPTION
#----------   ------------   ------------------------------
 DEPT.F                  :   
 GR  .GAPI   30 310 01 00:   GAMMA RAY
 HD  .IN     70 280 01 00:   DAIMETER
~PARAMETER INFORMATION
#MNEM.UNIT          VALUE    DESCRIPTION
#----------   ------------   ------------------------------
 PD  .                 GL:   PERMANENT DATUM
 LMF .                 GL:   LOG MEASURED FROM
 EDF .F              5016:   DRILLING FLOOR
 DATE.        24-JUN-1965:   RUN DATE
 RUN .                  1:   RUN NUMBER
 DD  .F              2838:   DEPTH DRILLER
 DL  .F              2838:   DEPTH LOGGER
 BLI .F              2836:   BOTTOM LOG INTERVAL
 TLI .F              2400:   TOP LOG INTERVAL
 CS  .IN            6.625:   CASING SIZE
 CBD .F              2820:   CASING BOTTOM DRILLER
 BSD .F              2838:   BIT SIZE AT DEPTH
 LUN .               1497:   LOGGING UNIT NUMBER
 ENGI.         COWLTHORPE:   RECORDING ENGINEER
 WITN.         MR. HUDSON:   WITNESSED BY
 CLNT.            A2DTECH:   CLIENT CODE
 ORIG.           5" PRINT:   ORIGIN OF DATA
 UWI .       490251021700:   UNIQUE WELL ID
 DICO. A2D Technologies, Inc.:   DIGITIZING COMPANY
~OTHER INFORMATION
~A    DEPT      GR           HD 
# ...
  486.0000  -999.2500     6.4922
  486.5000  -999.2500     6.4777
  487.0000  -999.2500     6.4935
  487.5000  -999.2500     6.4939
  488.0000  -999.2500     6.4947
  488.5000  -999.2500     6.4953
  489.0000  -999.2500     6.4958
  489.5000  -999.2500     6.4964
  490.0000  -999.2500     6.4970
  490.5000  -999.2500     6.4976
  491.0000  -999.2500     6.4982
  491.5000  -999.2500     6.4837
  492.0000  -999.2500     6.4843
  492.5000  -999.2500     6.4849
  493.0000  -999.2500     6.4857
  493.5000  -999.2500     6.4861
  494.0000  -999.2500     6.4868
  494.5000  -999.2500     6.4722
  495.0000  -999.2500     6.4730
  495.5000  -999.2500     6.4583
  496.0000  -999.2500     6.4439
  496.5000  -999.2500     6.4446
  497.0000  -999.2500     6.4301
  497.5000  -999.2500     6.4458
  498.0000  -999.2500     6.4464
  498.5000  -999.2500     6.4470
  499.0000  -999.2500     6.4450
  499.5000  -999.2500     6.4331
  500.0000  -999.2500     6.4338
  500.5000  -999.2500     6.4344
  501.0000  -999.2500     6.4350
  501.5000  -999.2500     6.4342
  502.0000  -999.2500     6.4326
  502.5000  -999.2500     6.4310
  503.0000  -999.2500     6.4294
  503.5000  -999.2500     6.4278
  504.0000  -999.2500     6.4262
  504.5000  -999.2500     6.4246
  505.0000  -999.2500     6.4230
  505.5000  -999.2500     6.4214
  506.0000  -999.2500     6.4199
  506.5000  -999.2500     6.4187
  507.0000  -999.2500     6.4187
  507.5000  -999.2500     6.4187
  508.0000  -999.2500     6.4187
  508.5000  -999.2500     6.4187
  509.0000  -999.2500     6.4187
  509.5000  -999.2500     6.4187
  510.0000  -999.2500     6.4187
  510.5000  -999.2500     6.4187
  511.0000  -999.2500     6.4187
  511.5000  -999.2500     6.4187
  512.0000  -999.2500     6.4187
  512.5000  -999.2500     6.4187
  513.0000  -999.2500     6.4187
  513.5000  -999.2500     6.4187
  514.0000  -999.2500     6.4337
  514.5000  -999.2500     6.4337
  515.0000  -999.2500     6.4337
  515.5000  -999.2500     6.4337
  516.0000  -999.2500     6.4337
  516.5000  -999.2500     6.4337
  517.0000  -999.2500     6.4337
  517.5000  -999.2500     6.4337
  518.0000  -999.2500     6.4337
  518.5000  -999.2500     6.4337
  519.0000  -999.2500     6.4337
  519.5000  -999.2500     6.4337
  520.0000  -999.2500     6.4187
  520.5000  -999.2500     6.4036
  521.0000  -999.2500     6.4036
  521.5000  -999.2500     6.4036
  522.0000  -999.2500     6.3886
  522.5000  -999.2500     6.4036
  523.0000  -999.2500     6.4036
  523.5000  -999.2500     6.4036
  524.0000  -999.2500     6.4036
  524.5000  -999.2500     6.4036
  525.0000  -999.2500     6.4036
  525.5000  -999.2500     6.4036
  526.0000  -999.2500     6.4036
  526.5000  -999.2500     6.4036
  527.0000  -999.2500     6.4036
  527.5000  -999.2500     6.4036
  528.0000  -999.2500     6.4034
  528.5000  -999.2500     6.3928
  529.0000  -999.2500     6.4036
  529.5000  -999.2500     6.4036
  530.0000  -999.2500     6.4036
  530.5000  -999.2500     6.4036
  531.0000  -999.2500     6.4036
  531.5000  -999.2500     6.4036
  532.0000  -999.2500     6.4036
  532.5000  -999.2500     6.4036
  533.0000  -999.2500     6.4036
  533.5000  -999.2500     6.4036
  534.0000  -999.2500     6.4036
  534.5000  -999.2500     6.4036
  535.0000  -999.2500     6.4036
  535.5000  -999.2500     6.4036
  536.0000  -999.2500     6.4036
  536.5000  -999.2500     6.4036
  537.0000  -999.2500     6.4036
  537.5000  -999.2500     6.4036
  538.0000  -999.2500     6.4036
  538.5000  -999.2500     6.3886
  539.0000  -999.2500     6.3945
  539.5000  -999.2500     6.4036
  540.0000  -999.2500     6.4036
  540.5000  -999.2500     6.3886
  541.0000  -999.2500     6.3886
  541.5000  -999.2500     6.3886
  542.0000  -999.2500     6.3886
  542.5000  -999.2500     6.3886
  543.0000  -999.2500     6.3886
  543.5000  -999.2500     6.3886
  544.0000  -999.2500     6.4036
  544.5000  -999.2500     6.4036
  545.0000  -999.2500     6.4036
  545.5000  -999.2500     6.4187
  546.0000  -999.2500     6.4187
  546.5000  -999.2500     6.4187
  547.0000  -999.2500     6.4187
  547.5000  -999.2500     6.4187
  548.0000  -999.2500     6.4187
  548.5000  -999.2500     6.4337
  549.0000  -999.2500     6.4337
  549.5000  -999.2500     6.4337
  550.0000  -999.2500     6.4337
  550.5000  -999.2500     6.4337
  551.0000  -999.2500     6.4337
  551.5000  -999.2500     6.4337
  552.0000  -999.2500     6.4338
  552.5000  -999.2500     6.4338
  553.0000  -999.2500     6.4338
  553.5000  -999.2500     6.4339
  554.0000  -999.2500     6.4339
  554.5000  -999.2500     6.4340
  555.0000  -999.2500     6.4340
  555.5000  -999.2500     6.4340
  556.0000  -999.2500     6.4341
  556.5000  -999.2500     6.4341
  557.0000  -999.2500     6.4342
  557.5000  -999.2500     6.4342
  558.0000  -999.2500     6.4343
  558.5000  -999.2500     6.4343
  559.0000  -999.2500     6.4343
  559.5000  -999.2500     6.4344
  560.0000  -999.2500     6.4344
  560.5000  -999.2500     6.4345
  561.0000  -999.2500     6.4345
  561.5000  -999.2500     6.4345
  562.0000  -999.2500     6.4346
  562.5000  -999.2500     6.4346
  563.0000  -999.2500     6.4347
  563.5000  -999.2500     6.4347
  564.0000  -999.2500     6.4348
  564.5000  -999.2500     6.4348
  565.0000  -999.2500     6.4348
  565.5000  -999.2500     6.4349
  566.0000  -999.2500     6.4349
  566.5000  -999.2500     6.4350
  567.0000  -999.2500     6.4350
  567.5000  -999.2500     6.4350
  568.0000  -999.2500     6.4351
  568.5000  -999.2500     6.4354
  569.0000  -999.2500     6.4359
  569.5000  -999.2500     6.4213
  570.0000  -999.2500     6.4217
  570.5000  -999.2500     6.4222
  571.0000  -999.2500     6.4226
  571.5000  -999.2500     6.4230
  572.0000  -999.2500     6.4235
  572.5000  -999.2500     6.4239
  573.0000  -999.2500     6.4244
  573.5000  -999.2500     6.4249
  574.0000  -999.2500     6.4103
  574.5000  -999.2500     6.4108
  575.0000  -999.2500     6.4112
  575.5000  -999.2500     6.4116
  576.0000  -999.2500     6.4096
  576.5000  -999.2500     6.3974
  577.0000  -999.2500     6.3979
  577.5000  -999.2500     6.3984
  578.0000  -999.2500     6.3988
  578.5000  -999.2500     6.3992
  579.0000  -999.2500     6.3997
  579.5000  -999.2500     6.4002
  580.0000  -999.2500     6.4006
  580.5000  -999.2500     6.4010
  581.0000  -999.2500     6.4015
  581.5000  -999.2500     6.4020
  582.0000  -999.2500     6.4024
  582.5000  -999.2500     6.4029
  583.0000  -999.2500     6.4033
  583.5000  -999.2500     6.4038
  584.0000  -999.2500     6.4042
  584.5000  -999.2500     6.4046
  585.0000  -999.2500     6.4051
  585.5000  -999.2500     6.4057
  586.0000  -999.2500     6.4061
  586.5000  -999.2500     6.4065
  587.0000  -999.2500     6.4069
  587.5000  -999.2500     6.4074
  588.0000  -999.2500     6.4079
  588.5000  -999.2500     6.4083
  589.0000  -999.2500     6.4088
  589.5000  -999.2500     6.4092
  590.0000  -999.2500     6.4096
  590.5000  -999.2500     6.4101
  591.0000  -999.2500     6.4105
  591.5000  -999.2500     6.3960
  592.0000  -999.2500     6.3964
  592.5000  -999.2500     6.3969
  593.0000  -999.2500     6.3972
  593.5000  -999.2500     6.3967
  594.0000  -999.2500     6.3963
  594.5000  -999.2500     6.3958
  595.0000  -999.2500     6.3954
  595.5000  -999.2500     6.3950
  596.0000  -999.2500     6.3945
  596.5000  -999.2500     6.3941
  597.0000  -999.2500     6.3937
  597.5000  -999.2500     6.3932
  598.0000  -999.2500     6.3928
  598.5000  -999.2500     6.3924
  599.0000  -999.2500     6.3919
  599.5000  -999.2500     6.3915
  600.0000  -999.2500     6.3910
  600.5000  -999.2500     6.3906
  601.0000  -999.2500     6.3902
  601.5000  -999.2500     6.3897
  602.0000  -999.2500     6.3890
  602.5000  -999.2500     6.3884
  603.0000  -999.2500     6.3877
  603.5000  -999.2500     6.3870
  604.0000  -999.2500     6.3863
  604.5000  -999.2500     6.3856
  605.0000  -999.2500     6.3850
  605.5000  -999.2500     6.3843
  606.0000  -999.2500     6.3836
  606.5000  -999.2500     6.3829
  607.0000  -999.2500     6.3823
