~VERSION INFORMATION
 VERS.                2.0:   CWLS LOG ASCII STANDARD - VERSION 2.0
 WRAP.                 NO:   ONE LINE PER DEPTH STEP
~WELL INFORMATION
#MNEM.UNIT      DATA TYPE    INFORMATION
#----------   ------------   ------------------------------
 STRT.F           80.0000:   START DEPTH
 STOP.F          964.0000:   STOP DEPTH
 STEP.F            0.5000:   STEP LENGTH
 NULL.          -999.2500:   NO VALUE
 COMP. U S NAVY-INTEX OIL:   COMPANY
 WELL. N.P.R. #3` #57-S-2:   WELL
 FLD .        TEAPOT DOME:   FIELD
 LOC .       S2 T38N R78W:   LOCATION
 CNTY.            NATRONA:   COUNTY
 STAT.            WYOMING:   STATE
 CTRY. UNITED STATES OF AMERICA:   COUNTRY
 SRVC.       Schlumberger:   SERVICE COMPANY
 DATE.        04-AUG-1961:   LOGDATE
 API .       490250640500:   API NUMBER
~CURVE INFORMATION
#MNEM.UNIT       API CODE    CURVE DESCRIPTION
#----------   ------------   ------------------------------
 DEPT.F                  :   
 GR  .GAPI   30 310 01 00:   GAMMA RAY
 ASN .OHMM   05 041 16 00:   AMPLIFIED SHORT NORMAL 16"
 CILD.MMHO   05 110 46 00:   CONDUCTIVITY INDUCTION LOG DEEP
 ILD .OHMM   05 120 46 00:   INDUCTION LOG DEEP
 SPR .MV     05 010 01 00:   SPONTANEOUS POTENTIAL FROM RES.
~PARAMETER INFORMATION
#MNEM.UNIT          VALUE    DESCRIPTION
#----------   ------------   ------------------------------
 LMF .                 KB:   LOG MEASURED FROM
 DMF .                 KB:   DRILLING MEASURED FROM
 EKB .F              5205:   KELLING BUSHING
 EGL .F              5200:   GROUND LEVEL
 DATE.        04-AUG-1961:   RUN DATE
 RUN .                  1:   RUN NUMBER
 DD  .F               965:   DEPTH DRILLER
 DL  .F               965:   DEPTH LOGGER
 BLI .F               954:   BOTTOM LOG INTERVAL
 TLI .F               150:   TOP LOG INTERVAL
 BS  .IN             6.75:   BIT SIZE
 BSD .F               965:   BIT SIZE AT DEPTH
 DFT .       OIL EMULSION:   DRILLING FLUID TYPE
 DFD .                9.4:   DRILLING FLUID DENSITY
 DFV .                 65:   DRILLING FLUID VISCOSITY
 MSS .           FLOWLINE:   MUD SAMPLE SOURCE
 RMS .OHMM            1.0:   RESISTIVITY MUD SAMPLE
 MST .F                80:   MUD SAMPLE TEMPERATURE
 TCS .HRS               1:   TIME CURCULATED STOPPED
 LUN .               2544:   LOGGING UNIT NUMBER
 LUL .                 NC:   LOGGING UNIT LOCATION
 ENGI.            EARNEST:   RECORDING ENGINEER
 WITN.          JORGENSEN:   WITNESSED BY
 CLNT.            A2DTECH:   CLIENT CODE
 ORIG.        2" 5" PRINT:   ORIGIN OF DATA
 UWI .       490250640500:   UNIQUE WELL ID
 DICO. A2D Technologies, Inc.:   DIGITIZING COMPANY
~OTHER INFORMATION
~A   DEPT       GR        ASN       CILD        ILD        SPR   
   80.0000  -999.2500  -999.2500  -999.2500  -999.2500   -65.3134
   80.5000  -999.2500  -999.2500  -999.2500  -999.2500   -65.3149
   81.0000  -999.2500  -999.2500  -999.2500  -999.2500   -65.4657
   81.5000  -999.2500  -999.2500  -999.2500  -999.2500   -65.4673
   82.0000  -999.2500  -999.2500  -999.2500  -999.2500   -65.4687
   82.5000  -999.2500  -999.2500  -999.2500  -999.2500   -65.4701
   83.0000  -999.2500  -999.2500  -999.2500  -999.2500   -65.4716
   83.5000  -999.2500  -999.2500  -999.2500  -999.2500   -65.4731
   84.0000  -999.2500  -999.2500  -999.2500  -999.2500   -65.4748
   84.5000  -999.2500  -999.2500  -999.2500  -999.2500   -65.4761
   85.0000  -999.2500  -999.2500  -999.2500  -999.2500   -65.4776
   85.5000  -999.2500  -999.2500  -999.2500  -999.2500   -65.4791
   86.0000  -999.2500  -999.2500  -999.2500  -999.2500   -65.4507
   86.5000  -999.2500  -999.2500  -999.2500  -999.2500   -65.3328
   87.0000  -999.2500  -999.2500  -999.2500  -999.2500   -65.1851
   87.5000  -999.2500  -999.2500  -999.2500  -999.2500   -65.1866
   88.0000  -999.2500  -999.2500  -999.2500  -999.2500   -65.1881
   88.5000  -999.2500  -999.2500  -999.2500  -999.2500   -65.1895
   89.0000  -999.2500  -999.2500  -999.2500  -999.2500   -65.3405
   89.5000  -999.2500  -999.2500  -999.2500  -999.2500   -65.4015
   90.0000  -999.2500  -999.2500  -999.2500  -999.2500   -65.7910
   90.5000  -999.2500  -999.2500  -999.2500  -999.2500   -65.8821
   91.0000  -999.2500  -999.2500  -999.2500  -999.2500   -65.9433
   91.5000  -999.2500  -999.2500  -999.2500  -999.2500   -65.7957
   92.0000  -999.2500  -999.2500  -999.2500  -999.2500   -65.6776
   92.5000  -999.2500  -999.2500  -999.2500  -999.2500   -65.5000
   93.0000  -999.2500  -999.2500  -999.2500  -999.2500   -65.2627
   93.5000  -999.2500  -999.2500  -999.2500  -999.2500   -65.1746
   94.0000  -999.2500  -999.2500  -999.2500  -999.2500   -65.0567
   94.5000  -999.2500  -999.2500  -999.2500  -999.2500   -64.9090
   95.0000  -999.2500  -999.2500  -999.2500  -999.2500   -64.9105
   95.5000  -999.2500  -999.2500  -999.2500  -999.2500   -64.9119
   96.0000  -999.2500  -999.2500  -999.2500  -999.2500   -64.9134
   96.5000  -999.2500  -999.2500  -999.2500  -999.2500   -64.7659
   97.0000  -999.2500  -999.2500  -999.2500  -999.2500   -64.7075
   97.5000  -999.2500  -999.2500  -999.2500  -999.2500   -64.6194
   98.0000  -999.2500  -999.2500  -999.2500  -999.2500   -64.6209
   98.5000  -999.2500  -999.2500  -999.2500  -999.2500   -64.6224
   99.0000  -999.2500  -999.2500  -999.2500  -999.2500   -64.7733
   99.5000  -999.2500  -999.2500  -999.2500  -999.2500   -64.8343
  100.0000  -999.2500  -999.2500  -999.2500  -999.2500   -64.9254
  100.5000  -999.2500  -999.2500  -999.2500  -999.2500   -65.2254
  101.0000  -999.2500  -999.2500  -999.2500  -999.2500   -65.5254
  101.5000  -999.2500  -999.2500  -999.2500  -999.2500   -58.7209
  102.0000  -999.2500     6.8106   165.1652     9.4006   -50.8418
  102.5000  -999.2500     6.4608   162.0871     7.7975   -60.1567
  103.0000  -999.2500     3.0716   163.5710     6.1793   -66.3373
  103.5000  -999.2500     3.0035   164.0690     6.3065   -66.7567
  104.0000  -999.2500     5.0845   165.0450     6.5572   -66.8778
  104.5000  -999.2500     5.0700   161.7868     6.7206   -65.7746
  105.0000  -999.2500     5.9372   157.2072     6.7997   -64.3433
  105.5000  -999.2500     6.1468   154.4878     6.8608   -63.7478
  106.0000  -999.2500     5.2755   152.3123     6.8614   -64.5552
  106.5000  -999.2500     4.3077   151.4565     6.8622   -66.2882
  107.0000  -999.2500     3.3399   151.4385     6.8631   -67.3940
  107.5000  -999.2500     8.1337   151.4264     6.8637   -68.6791
  108.0000  -999.2500    10.3424   151.4107     6.8645   -69.7851
  108.5000  -999.2500    10.9169   151.3964     6.8245   -70.7418
  109.0000  -999.2500    16.5955   153.1231     6.7786   -71.5196
  109.5000  -999.2500    18.3373   155.8688     6.5656   -63.2821
  110.0000  -999.2500    10.0822   158.5585     6.4307   -60.4776
  110.5000  -999.2500     8.6524   164.9399     6.2658   -60.3000
  111.0000  -999.2500     5.5672   171.2612     6.2937   -61.0478
  111.5000  -999.2500     3.2192   175.7207     6.1724   -61.8256
  112.0000  -999.2500  -999.2500   176.8168     6.0422   -61.5582
  112.5000  -999.2500  -999.2500   176.0511     6.0429   -61.0821
  113.0000  -999.2500  -999.2500   175.2853     6.0617   -60.7851
  113.5000  -999.2500  -999.2500   173.7664     6.2705   -60.4284
  114.0000  -999.2500  -999.2500   173.2132     6.2922   -60.0420
  114.5000  -999.2500  -999.2500   172.2370     6.2703   -59.8940
  115.0000  -999.2500  -999.2500   168.3183     6.3931   -59.5970
  115.5000  -999.2500  -999.2500   165.8709     6.5158   -59.5985
  116.0000  -999.2500  -999.2500   163.1817     6.6507   -59.6000
  116.5000  -999.2500  -999.2500   160.2853     6.8712   -59.4524
  117.0000  -999.2500  -999.2500   156.9069     7.0346   -59.4537
  117.5000  -999.2500  -999.2500   151.1234     7.1801   -59.4552
  118.0000  -999.2500  -999.2500   150.1502     7.2801   -59.3830
  118.5000  -999.2500  -999.2500   148.0925     7.4074   -59.3806
  119.0000  -999.2500  -999.2500   145.7357     7.5256   -59.6016
  119.5000  -999.2500  -999.2500   144.7898     7.5595   -59.8405
  120.0000  -999.2500  -999.2500   142.0402     7.5603   -60.2679
  120.5000  -999.2500  -999.2500   141.3964     7.5610   -60.6165
  121.0000  -999.2500  -999.2500   140.4505     7.4864   -60.8599
  121.5000  -999.2500  -999.2500   138.9940     7.4375   -60.8577
  122.0000  -999.2500  -999.2500   140.4831     7.4125   -60.8554
  122.5000  -999.2500  -999.2500   141.9660     7.4135   -60.8530
  123.0000  -999.2500  -999.2500   141.9520     7.3750   -60.7849
  123.5000  -999.2500  -999.2500   141.9369     7.3395   -60.5507
  124.0000  -999.2500  -999.2500   143.4212     7.4158   -60.5480
  124.5000  -999.2500  -999.2500   143.4084     7.3697   -60.8447
  125.0000  -999.2500  -999.2500   143.3934     7.4172   -60.3452
  125.5000  -999.2500  -999.2500   144.8799     7.4179   -59.7665
  126.0000  -999.2500  -999.2500   144.8649     7.4187   -59.3470
  126.5000  -999.2500  -999.2500   144.8486     7.4195   -59.1306
  127.0000  -999.2500  -999.2500   144.8348     7.4202   -59.0447
  127.5000  -999.2500  -999.2500   144.8198     7.4209   -59.0425
  128.0000  -999.2500  -999.2500   143.3007     7.4218   -59.4257
  128.5000  -999.2500  -999.2500   143.2883     7.4977   -59.9321
  129.0000  -999.2500  -999.2500   143.2729     7.4985   -60.5439
  129.5000  -999.2500  -999.2500   142.3874     7.4992   -61.3132
  130.0000  -999.2500  -999.2500   141.7417     7.5000   -61.7135
  130.5000  -999.2500     5.9721   141.7251     7.4255   -61.8607
  131.0000  -999.2500     4.9298   141.7117     7.4262   -61.8584
  131.5000  -999.2500     4.8619   143.1988     7.3516   -61.7635
  132.0000  -999.2500     4.9669   143.1802     7.2773   -61.7049
  132.5000  -999.2500     5.0364   144.6725     7.2779   -61.5535
  133.0000  -999.2500     5.1345   144.6539     7.2787   -61.4024
  133.5000  -999.2500     5.2900   146.9520     7.2794   -61.2370
  134.0000  -999.2500     5.5484   147.8678     7.2681   -60.9504
  134.5000  -999.2500     6.5229   149.1141     7.2056   -60.7007
  135.0000  -999.2500     7.5957   150.6006     7.2063   -60.2011
  135.5000  -999.2500     7.6595   150.5856     7.2071   -59.9652
  136.0000  -999.2500     7.5552   150.5706     7.1596   -60.0755
  136.5000  -999.2500     7.5968   150.5556     7.1332   -60.4923
  137.0000  -999.2500     7.6605   150.5394     7.1341   -60.9146
  137.5000  -999.2500     7.7149   151.2763     7.1348   -61.2394
  138.0000  -999.2500     7.7207   152.1922     7.1355   -61.5768
  138.5000  -999.2500     7.6464   153.4985     7.0611   -61.7173
  139.0000  -999.2500     7.5359   153.4835     6.9864   -61.8227
  139.5000  -999.2500     7.5673   151.9668     6.9872   -61.8204
  140.0000  -999.2500     7.6473   151.9520     7.0331   -61.6692
  140.5000  -999.2500     7.5313   151.9369     7.0806   -61.5175
