~VERSION INFORMATION
 VERS.                2.0:   CWLS LOG ASCII STANDARD - VERSION 2.0
 WRAP.                 NO:   ONE LINE PER DEPTH STEP
~WELL INFORMATION
#MNEM.UNIT      DATA TYPE    INFORMATION
#----------   ------------   ------------------------------
 STRT.F            0.0000:   START DEPTH
 STOP.F         2660.0000:   STOP DEPTH
 STEP.F            0.5000:   STEP LENGTH
 NULL.          -999.2500:   NO VALUE
 COMP. FENIX & SCISSON INC:   COMPANY
 WELL.     101-20 #101-20:   WELL
 FLD .        TEAPOT DOME:   FIELD
 LOC .      S20 T39N R78W:   LOCATION
 CNTY.            NATRONA:   COUNTY
 STAT.            WYOMING:   STATE
 CTRY. UNITED STATES OF AMERICA:   COUNTRY
 SRVC.      NL McCullough:   SERVICE COMPANY
 DATE.        19-SEP-1965:   LOGDATE
 API .       490251022100:   API NUMBER
~CURVE INFORMATION
#MNEM.UNIT       API CODE    CURVE DESCRIPTION
#----------   ------------   ------------------------------
 DEPT.F                  :   
 GR  .GAPI   30 310 01 00:   GAMMA RAY
 CALI.IN     30 280 01 00:   CALIPER
~PARAMETER INFORMATION
#MNEM.UNIT          VALUE    DESCRIPTION
#----------   ------------   ------------------------------
 PD  .                 GL:   PERMANENT DATUM
 LMF .                 GL:   LOG MEASURED FROM
 DMF .                 GL:   DRILLING MEASURED FROM
 DATE.          9-19-1965:   RUN DATE
 RUN .                  1:   RUN NUMBER
 DD  .F              2661:   DEPTH DRILLER
 DL  .F              2659:   DEPTH LOGGER
 BLI .F              2657:   BOTTOM LOG INTERVAL
 TLI .F              2000:   TOP LOG INTERVAL
 CS  .IN              6.5:   CASING SIZE
 CBD .F              2619:   CASING BOTTOM DRILLER
 BSD .F              2661:   BIT SIZE AT DEPTH
 DFT .              WATER:   DRILLING FLUID TYPE
 TCS .HRS               1:   TIME CURCULATED STOPPED
 ENGI.        FITZSIMMONS:   RECORDING ENGINEER
 WITN.          JORGENSEN:   WITNESSED BY
 CLNT.            A2DTECH:   CLIENT CODE
 ORIG.           5" PRINT:   ORIGIN OF DATA
 UWI .       490251022100:   UNIQUE WELL ID
 DICO. A2D Technologies, Inc.:   DIGITIZING COMPANY
~OTHER INFORMATION
~A    DEPT      GR         CALI 
# ...
 1336.5000  -999.2500     6.5711
 1337.0000  -999.2500     6.5673
 1337.5000  -999.2500     6.5664
 1338.0000  -999.2500     6.5664
 1338.5000  -999.2500     6.5664
 1339.0000  -999.2500     6.5666
 1339.5000  -999.2500     6.5758
 1340.0000  -999.2500     6.5964
 1340.5000  -999.2500     6.5872
 1341.0000  -999.2500     6.5550
 1341.5000  -999.2500     6.5518
 1342.0000  -999.2500     6.5477
 1342.5000  -999.2500     6.5526
 1343.0000  -999.2500     6.5621
 1343.5000  -999.2500     6.5718
 1344.0000  -999.2500     6.5732
 1344.5000  -999.2500     6.5672
 1345.0000  -999.2500     6.5611
 1345.5000  -999.2500     6.5568
 1346.0000  -999.2500     6.5594
 1346.5000  -999.2500     6.5619
 1347.0000  -999.2500     6.5643
 1347.5000  -999.2500     6.5665
 1348.0000  -999.2500     6.5662
 1348.5000  -999.2500     6.5918
 1349.0000  -999.2500     6.6333
 1349.5000  -999.2500     6.6429
 1350.0000  -999.2500     6.6125
 1350.5000  -999.2500     6.5848
 1351.0000  -999.2500     6.5780
 1351.5000  -999.2500     6.5706
 1352.0000  -999.2500     6.5631
 1352.5000  -999.2500     6.5564
 1353.0000  -999.2500     6.5564
 1353.5000  -999.2500     6.5564
 1354.0000  -999.2500     6.5564
 1354.5000  -999.2500     6.5564
 1355.0000  -999.2500     6.5564
 1355.5000  -999.2500     6.5564
 1356.0000  -999.2500     6.5564
 1356.5000  -999.2500     6.5564
 1357.0000  -999.2500     6.5585
 1357.5000  -999.2500     6.5618
 1358.0000  -999.2500     6.5651
 1358.5000  -999.2500     6.5685
 1359.0000  -999.2500     6.5719
 1359.5000  -999.2500     6.5751
 1360.0000  -999.2500     6.5917
 1360.5000  -999.2500     6.6155
 1361.0000  -999.2500     6.6348
 1361.5000  -999.2500     6.5785
 1362.0000  -999.2500     6.5666
 1362.5000  -999.2500     6.5715
 1363.0000  -999.2500     6.5768
 1363.5000  -999.2500     6.5820
 1364.0000  -999.2500     6.5904
 1364.5000  -999.2500     6.6164
 1365.0000  -999.2500     6.6555
 1365.5000  -999.2500     6.7014
 1366.0000  -999.2500     6.7026
 1366.5000  -999.2500     6.6634
 1367.0000  -999.2500     6.6536
 1367.5000  -999.2500     6.6653
 1368.0000  -999.2500     6.6481
 1368.5000  -999.2500     6.6368
 1369.0000  -999.2500     6.6362
 1369.5000  -999.2500     6.6084
 1370.0000  -999.2500     6.5951
 1370.5000  -999.2500     6.5923
 1371.0000  -999.2500     6.5897
 1371.5000  -999.2500     6.5871
 1372.0000  -999.2500     6.5831
 1372.5000  -999.2500     6.5786
 1373.0000  -999.2500     6.5742
 1373.5000  -999.2500     6.5697
 1374.0000  -999.2500     6.5652
 1374.5000  -999.2500     6.5607
 1375.0000  -999.2500     6.5562
 1375.5000  -999.2500     6.5517
 1376.0000  -999.2500     6.5472
 1376.5000  -999.2500     6.5428
 1377.0000  -999.2500     6.5382
 1377.5000  -999.2500     6.5438
 1378.0000  -999.2500     6.5567
 1378.5000  -999.2500     6.5697
 1379.0000  -999.2500     6.5829
 1379.5000  -999.2500     6.5959
 1380.0000  -999.2500     6.5905
 1380.5000  -999.2500     6.5838
 1381.0000  -999.2500     6.5773
 1381.5000  -999.2500     6.5766
 1382.0000  -999.2500     6.5765
 1382.5000  -999.2500     6.5678
 1383.0000  -999.2500     6.5180
 1383.5000  -999.2500     6.5240
 1384.0000  -999.2500     6.5323
 1384.5000  -999.2500     6.5404
 1385.0000  -999.2500     6.5484
 1385.5000  -999.2500     6.5564
 1386.0000  -999.2500     6.5644
 1386.5000  -999.2500     6.5723
 1387.0000  -999.2500     6.5729
 1387.5000  -999.2500     6.5658
 1388.0000  -999.2500     6.5588
 1388.5000  -999.2500     6.5517
 1389.0000  -999.2500     6.5459
 1389.5000  -999.2500     6.5442
 1390.0000  -999.2500     6.5424
 1390.5000  -999.2500     6.5407
 1391.0000  -999.2500     6.5390
 1391.5000  -999.2500     6.5373
 1392.0000  -999.2500     6.5363
 1392.5000  -999.2500     6.5363
 1393.0000  -999.2500     6.5363
 1393.5000  -999.2500     6.5363
 1394.0000  -999.2500     6.5363
 1394.5000  -999.2500     6.5363
 1395.0000  -999.2500     6.5363
 1395.5000  -999.2500     6.5363
 1396.0000  -999.2500     6.5363
 1396.5000  -999.2500     6.5363
 1397.0000  -999.2500     6.5363
 1397.5000  -999.2500     6.5391
 1398.0000  -999.2500     6.5431
 1398.5000  -999.2500     6.5471
 1399.0000  -999.2500     6.5511
 1399.5000  -999.2500     6.5551
 1400.0000  -999.2500     6.5590
 1400.5000  -999.2500     6.5630
 1401.0000  -999.2500     6.5696
 1401.5000  -999.2500     6.5895
 1402.0000  -999.2500     6.6100
 1402.5000  -999.2500     6.5935
 1403.0000  -999.2500     6.5582
 1403.5000  -999.2500     6.5531
 1404.0000  -999.2500     6.5500
 1404.5000  -999.2500     6.5467
 1405.0000  -999.2500     6.5433
 1405.5000  -999.2500     6.5399
 1406.0000  -999.2500     6.5365
 1406.5000  -999.2500     6.5410
 1407.0000  -999.2500     6.5462
 1407.5000  -999.2500     6.5514
 1408.0000  -999.2500     6.5566
 1408.5000  -999.2500     6.5618
 1409.0000  -999.2500     6.5665
 1409.5000  -999.2500     6.5663
 1410.0000  -999.2500     6.5668
 1410.5000  -999.2500     6.5822
 1411.0000  -999.2500     6.5986
 1411.5000  -999.2500     6.6151
 1412.0000  -999.2500     6.6036
 1412.5000  -999.2500     6.5931
 1413.0000  -999.2500     6.5862
 1413.5000  -999.2500     6.5795
 1414.0000  -999.2500     6.5729
 1414.5000  -999.2500     6.5662
 1415.0000  -999.2500     6.5595
 1415.5000  -999.2500     6.5524
 1416.0000  -999.2500     6.5487
 1416.5000  -999.2500     6.5642
 1417.0000  -999.2500     6.5593
 1417.5000  -999.2500     6.5507
 1418.0000  -999.2500     6.5420
 1418.5000  -999.2500     6.5333
 1419.0000  -999.2500     6.5279
 1419.5000  -999.2500     6.5386
 1420.0000  -999.2500     6.5490
 1420.5000  -999.2500     6.5555
 1421.0000  -999.2500     6.5507
 1421.5000  -999.2500     6.5468
 1422.0000  -999.2500     6.5588
 1422.5000  -999.2500     6.5661
 1423.0000  -999.2500     6.5464
 1423.5000  -999.2500     6.5064
 1424.0000  -999.2500     6.5061
 1424.5000  -999.2500     6.5062
 1425.0000  -999.2500     6.5063
 1425.5000  -999.2500     6.5063
 1426.0000  -999.2500     6.5063
 1426.5000  -999.2500     6.5063
 1427.0000  -999.2500     6.5063
 1427.5000  -999.2500     6.5063
 1428.0000  -999.2500     6.5063
 1428.5000  -999.2500     6.5063
 1429.0000  -999.2500     6.5063
 1429.5000  -999.2500     6.5064
 1430.0000  -999.2500     6.5005
 1430.5000  -999.2500     6.4926
 1431.0000  -999.2500     6.4864
 1431.5000  -999.2500     6.4884
 1432.0000  -999.2500     6.4902
 1432.5000  -999.2500     6.4921
 1433.0000  -999.2500     6.4939
 1433.5000  -999.2500     6.4957
 1434.0000  -999.2500     6.4976
 1434.5000  -999.2500     6.4994
 1435.0000  -999.2500     6.5012
 1435.5000  -999.2500     6.5030
 1436.0000  -999.2500     6.5049
 1436.5000  -999.2500     6.5067
 1437.0000  -999.2500     6.5085
 1437.5000  -999.2500     6.5104
 1438.0000  -999.2500     6.5122
 1438.5000  -999.2500     6.5140
 1439.0000  -999.2500     6.5157
 1439.5000  -999.2500     6.5232
 1440.0000  -999.2500     6.5322
 1440.5000  -999.2500     6.5413
 1441.0000  -999.2500     6.5504
 1441.5000  -999.2500     6.5595
 1442.0000  -999.2500     6.5686
 1442.5000  -999.2500     6.5778
 1443.0000  -999.2500     6.5856
 1443.5000  -999.2500     6.5668
 1444.0000  -999.2500     6.5544
 1444.5000  -999.2500     6.5503
 1445.0000  -999.2500     6.5461
 1445.5000  -999.2500     6.5420
 1446.0000  -999.2500     6.5378
 1446.5000  -999.2500     6.5364
 1447.0000  -999.2500     6.5363
 1447.5000  -999.2500     6.5363
 1448.0000  -999.2500     6.5363
 1448.5000  -999.2500     6.5363
 1449.0000  -999.2500     6.5363
 1449.5000  -999.2500     6.5363
 1450.0000  -999.2500     6.5363
 1450.5000  -999.2500     6.5363
 1451.0000  -999.2500     6.5344
 1451.5000  -999.2500     6.5310
 1452.0000  -999.2500     6.5276
 1452.5000  -999.2500     6.5242
 1453.0000  -999.2500     6.5208
 1453.5000  -999.2500     6.5174
 1454.0000  -999.2500     6.5139
 1454.5000  -999.2500     6.5105
 1455.0000  -999.2500     6.5069
 1455.5000  -999.2500     6.5096
 1456.0000  -999.2500     6.5141
 1456.5000  -999.2500     6.5186
 1457.0000  -999.2500     6.5231
 1457.5000  -999.2500     6.5276
