~VERSION INFORMATION
 VERS.                2.0:   CWLS LOG ASCII STANDARD - VERSION 2.0
 WRAP.                 NO:   ONE LINE PER DEPTH STEP
~WELL INFORMATION
#MNEM.UNIT      DATA TYPE    INFORMATION
#----------   ------------   ------------------------------
 STRT.F           16.0000:   START DEPTH
 STOP.F          716.0000:   STOP DEPTH
 STEP.F            0.5000:   STEP LENGTH
 NULL.          -999.2500:   NO VALUE
 COMP. BROWN JOHN E&C INC:   COMPANY
 WELL.   STX 10 #24-51-10:   WELL
 FLD .             NPR #3:   FIELD
 LOC .      S10 T38N R78W:   LOCATION
 CNTY.            NATRONA:   COUNTY
 STAT.            WYOMING:   STATE
 CTRY. UNITED STATES OF AMERICA:   COUNTRY
 SRVC.           Gearhart:   SERVICE COMPANY
 DATE.        01-JUL-1986:   LOGDATE
 API .       490251107800:   API NUMBER
~CURVE INFORMATION
#MNEM.UNIT       API CODE    CURVE DESCRIPTION
#----------   ------------   ------------------------------
 DEPT.F                  :   
 GRR .GAPI   07 310 01 00:   GAMMA RAY
 RILD.OHMM   07 120 46 00:   INDUCTION LOG DEEP RESISTIVITY
 RILM.OHMM   07 120 44 00:   INDUCTION LOG MEDIUM RESISTIVITY
~PARAMETER INFORMATION
#MNEM.UNIT          VALUE    DESCRIPTION
#----------   ------------   ------------------------------
 PD  .                 GL:   PERMANENT DATUM
 EPD .F              5235:   ELEVATION PERMANENT DATUM
 LMF .                 KB:   LOG MEASURED FROM
 DAPD.F               5.0:   FEET ABOVE PERMANENT DATUM
 DMF .                 KB:   DRILLING MEASURED FROM
 EKB .F              5240:   KELLING BUSHING
 EGL .F              5235:   GROUND LEVEL
 DATE.        01-JUL-1986:   RUN DATE
 RUN .                  1:   RUN NUMBER
 DD  .F               728:   DEPTH DRILLER
 DL  .F               726:   DEPTH LOGGER
 BLI .F               716:   BOTTOM LOG INTERVAL
 TLI .F                15:   TOP LOG INTERVAL
 CS  .IN            8.625:   CASING SIZE
 CBD .F                47:   CASING BOTTOM DRILLER
 CBL .F                47:   CASING BOTTOM LOGGER
 BS  .IN            7.875:   BIT SIZE
 BSD .F               728:   BIT SIZE AT DEPTH
 DFT .               FOAM:   DRILLING FLUID TYPE
 TCS .HRS            0800:   TIME CURCULATED STOPPED
 TLAB.HRS            0930:   TIME LOGGER AT BOTTOM
 MRT .F                85:   MAXIMUM RECORDED TEMPERATURE
 LUN .               7609:   LOGGING UNIT NUMBER
 LUL .           GILLETTE:   LOGGING UNIT LOCATION
 ENGI.              BAUER:   RECORDING ENGINEER
 WITN.              FIVAS:   WITNESSED BY
 CLNT.            A2DTECH:   CLIENT CODE
 ORIG.           5" PRINT:   ORIGIN OF DATA
 UWI .       490251107800:   UNIQUE WELL ID
 DICO. A2D Technologies, Inc.:   DIGITIZING COMPANY
~OTHER INFORMATION
~A   DEPT       GRR      RILD       RILM   
# ...
  562.0000    76.5978    13.4994    14.1284
  562.5000    81.7838    13.5070    14.0336
  563.0000    86.9698    13.5144    13.9394
  563.5000    89.1070    13.4275    13.8458
  564.0000    88.5003    13.4352    13.7529
  564.5000    88.1977    13.3486    13.6605
  565.0000    89.7259    13.2627    13.5698
  565.5000    90.3379    13.1775    13.5736
  566.0000    86.9881    13.0927    13.4815
  566.5000    84.8570    13.0085    13.3919
  567.0000    82.7259    13.0176    13.3011
  567.5000    81.2045    13.0249    13.3058
  568.0000    81.8173    12.9393    13.3095
  568.5000    83.9545    12.9484    13.2192
  569.0000    86.7015    13.0467    13.2238
  569.5000    88.2289    13.0540    13.2275
  570.0000    87.6214    13.1532    13.2312
  570.5000    87.9301    13.1605    13.3281
  571.0000    89.7625    13.2605    13.3318
  571.5000    91.2899    13.2679    13.3355
  572.0000    88.5490    13.2753    13.3392
  572.5000    83.9789    13.1881    13.3430
  573.0000    81.5429    13.1973    13.3467
  573.5000    81.2403    13.2047    13.3504
  574.0000    83.9881    13.2121    13.2608
  574.5000    88.8692    13.1253    13.2645
  575.0000    89.7868    13.0409    13.2682
  575.5000    90.0948    12.9588    13.1791
  576.0000    92.8417    12.9661    13.1828
  576.5000    96.1984    12.8827    13.0028
  577.0000    98.0307    12.7999    12.9155
  577.5000    98.6435    12.7158    12.9192
  578.0000    97.1222    12.7247    12.8324
  578.5000    94.0765    12.6411    12.7462
  579.0000    92.5551    12.6499    12.6607
  579.5000    92.5582    12.5668    12.6644
  580.0000    92.8661    12.4860    12.5792
  580.5000    93.7838    12.5826    12.5836
  581.0000    95.0063    12.5896    12.5871
  581.5000    96.5338    12.5967    12.5906
  582.0000    98.3661    12.6037    12.5941
  582.5000    98.9781    12.6107    12.5977
  583.0000    97.4576    12.6178    12.6012
  583.5000    95.9362    12.6248    12.6047
  584.0000    93.8051    12.6319    12.6082
  584.5000    91.3692    12.5507    12.6117
  585.0000    90.1527    12.5577    12.6153
  585.5000    89.5452    12.4766    12.4430
  586.0000    90.1588    12.3965    12.3586
  586.5000    92.9057    12.3170    12.2756
  587.0000    95.3478    12.2376    12.2799
  587.5000    95.9606    12.1590    12.1966
  588.0000    95.9637    12.0808    12.1147
  588.5000    97.1862    12.0031    12.0334
  589.0000    99.0185    11.8426    11.9526
  589.5000   102.0704    11.7666    11.8732
  590.0000   103.2922    11.6909    11.8765
  590.5000   101.1618    11.5333    11.7135
  591.0000    98.7259    11.3804    11.6349
  591.5000    96.2899    11.2244    11.5576
  592.0000    95.6824    11.0730    11.3990
  592.5000    95.6862    10.8537    11.2441
  593.0000    96.2990    10.5595    11.0130
  593.5000    96.9118    10.3455    10.7113
  594.0000    98.4393     9.9764    10.4912
  594.5000    99.9667     9.4354    10.1324
  595.0000   102.1039     8.8513     9.7175
  595.5000   104.2411     8.2067     9.3196
  596.0000   106.3783     7.6222     8.8135
  596.5000   106.6862     7.1603     8.3348
  597.0000   108.5185     6.8212     7.6641
  597.5000   114.0094     6.5439     6.9492
  598.0000   123.1588     6.3221     6.6180
  598.5000   128.6496     6.0651     6.1714
  599.0000   130.4820     5.8999     5.8363
  599.5000   127.1314     5.8620     5.7971
  600.0000   120.8865     6.1515     6.0905
  600.5000   112.6695     6.5647     6.7032
  601.0000   108.8049     6.9779     7.3124
  601.5000   104.5181     7.4555     7.9006
  602.0000   101.2032     8.1137     8.6568
  602.5000    99.0294     8.7683     9.1584
  603.0000    97.5792     9.3439     9.6214
  603.5000    98.2419     9.6143     9.9669
  604.0000    99.7764     9.8925    10.1810
  604.5000   103.6866    10.1076    10.3270
  605.0000   105.8238    10.2553    10.5489
  605.5000   105.5219    10.4784    10.7755
  606.0000   104.0005    10.7063    11.0844
  606.5000   103.3931    10.9392    11.3225
  607.0000   103.7017    11.1771    11.5657
  607.5000   105.8389    11.4202    11.7316
  608.0000   108.2810    11.6686    12.0680
  608.5000   107.9791    11.9224    12.2410
  609.0000   105.5431    12.0966    12.4166
  609.5000   103.1071    12.3597    12.5947
  610.0000   101.2809    12.5403    12.7753
  610.5000   101.5888    12.7236    12.8679
  611.0000   101.8967    12.9095    13.0524
  611.5000   101.8997    13.0981    13.1471
  612.0000   101.5979    13.1967    13.3356
  612.5000   100.9912    13.2960    13.5269
  613.0000    99.7747    13.3961    13.6250
  613.5000    98.8631    13.4969    13.7237
  614.0000    98.5605    13.5985    13.8233
  614.5000    98.5643    13.6052    13.8261
  615.0000    99.4819    13.6118    13.8291
  615.5000    98.8745    13.6185    13.8320
  616.0000    97.3539    13.7209    13.8349
  616.5000    96.7464    13.6318    13.8378
  617.0000    97.3599    13.6384    13.7432
  617.5000   101.3266    13.4551    13.7468
  618.0000   104.3784    13.3676    13.6535
  618.5000   101.3327    13.3742    13.5610
  619.0000    95.8479    13.2872    13.5638
  619.5000    94.0209    13.2938    13.5667
  620.0000    95.8540    13.3003    13.4746
  620.5000    98.6009    13.3068    13.4775
  621.0000   101.3478    13.2203    13.2924
  621.5000   103.4850    12.9515    13.2023
  622.0000   104.4019    12.7717    13.1127
  622.5000   101.6618    12.5986    12.9328
  623.0000   100.1404    12.3495    12.7553
  623.5000   102.2776    12.1835    12.5803
  624.0000   105.9392    12.0198    12.4076
  624.5000   107.1617    11.9417    12.1518
  625.0000   106.5550    11.7812    11.9850
  625.5000   104.1190    11.6228    11.8205
  626.0000   101.9879    11.4666    11.5768
  626.5000   101.0762    11.3139    11.4179
  627.0000   101.9940    11.2390    11.2612
  627.5000   104.7409    11.0119    11.1796
  628.0000   109.0122    10.9390    11.0252
  628.5000   111.7591    10.7920    10.8799
  629.0000   111.1524    10.6482    10.6556
  629.5000   111.7784    10.5051    10.5833
  630.0000   112.6829    10.4356    10.4381
  630.5000   110.8015    10.3677    10.3673
  631.0000   109.6402    10.2297    10.2970
  631.5000   109.6433    10.2347    10.2992
  632.0000   108.9390    10.1669    10.3014
  632.5000   106.8495    10.1731    10.3040
  633.0000   106.6035    10.1058    10.2336
  633.5000   109.0463     9.9712    10.1642
  634.0000   111.4884     9.9064    10.0952
  634.5000   111.7955     9.9112    10.0268
  635.0000   110.8847     9.8456     9.8897
  635.5000   110.2780     9.7133     9.8221
  636.0000   108.7566     9.6501     9.6878
  636.5000   107.2352     9.4551     9.5543
  637.0000   105.7139     9.3925     9.4237
  637.5000   104.1925     9.2674     9.2944
  638.0000   102.3663     9.1429     9.2308
  638.5000   101.4539     9.1473     9.1687
  639.0000   101.1521     9.0868     9.1061
  639.5000   102.9851     8.9646     8.9816
  640.0000   105.4272     8.8452     8.9206
  640.5000   107.2595     8.7253     8.7367
  641.0000   108.7869     8.6080     8.6168
  641.5000   109.3997     8.4330     8.4391
  642.0000   110.3174     8.2626     8.3229
  642.5000   112.1497     8.2079     8.2091
  643.0000   114.8966     8.1546     8.1530
  643.5000   116.1184     8.1595     8.1551
  644.0000   113.3783     8.2209     8.2721
  644.5000   112.1610     8.3998     8.4498
  645.0000   113.3843     8.5824     8.6313
  645.5000   114.3012     8.7691     8.8167
  646.0000   112.4758     9.0229     9.1976
  646.5000   110.3446     9.2840     9.5279
  647.0000   108.2135     9.6198     9.8011
  647.5000   106.0824     9.8290    10.0821
  648.0000   105.7805    10.1135    10.2987
  648.5000   106.0885    10.3334    10.4464
  649.0000   108.5305    10.4112    10.6708
  649.5000   110.3628    10.5633    10.9000
  650.0000   107.0122    10.5685    10.9785
  650.5000   103.3537    10.4713    10.9424
  651.0000   101.2195    10.4340    10.9139
  651.5000   100.9146    10.3677    10.8437
  652.0000   103.6585    10.1599    10.9277
  652.5000   106.4024    10.0937    10.8559
