~VERSION INFORMATION
 VERS.                2.0:   CWLS LOG ASCII STANDARD - VERSION 2.0
 WRAP.                 NO:   ONE LINE PER DEPTH STEP
~WELL INFORMATION
#MNEM.UNIT      DATA TYPE    INFORMATION
#----------   ------------   ------------------------------
 STRT.F           20.0000:   START DEPTH
 STOP.F          505.0000:   STOP DEPTH
 STEP.F            0.5000:   STEP LENGTH
 NULL.          -999.2500:   NO VALUE
 COMP.    FENIX & SCISSON:   COMPANY
 WELL.   NPR #3 #56-SX-10:   WELL
 FLD .             TEAPOT:   FIELD
 LOC .      S10 T38N R78W:   LOCATION
 CNTY.            NATRONA:   COUNTY
 STAT.            WYOMING:   STATE
 CTRY. UNITED STATES OF AMERICA:   COUNTRY
 SRVC.              Welex:   SERVICE COMPANY
 DATE.        01-MAY-1980:   LOGDATE
 API .       490251081300:   API NUMBER
~CURVE INFORMATION
#MNEM.UNIT       API CODE    CURVE DESCRIPTION
#----------   ------------   ------------------------------
 DEPT.F                  :   
 ILD .OHMM   07 120 46 00:   INDUCTION LOG DEEP
 ILM .OHMM   07 120 44 00:   INDUCTION LOG MEDIUM
 SGRD.OHMM   07 220 05 00:   SHALLOW GUARD RESISTIVITY
 SPR .MV     07 010 01 00:   SPONATANEOUS POTENTIAL FROM RES.
 CALD.IN     45 280 60 00:   CALIPER FROM DENSITY LOG
 DPHI.DEC    45 890 12 00:   DENSITY POROSITY SANDSTONE
 DRHO.G/C3   45 356 01 00:   DENSITY CORRECTION
 GRD .GAPI   45 310 01 00:   GAMMA RAY FROM DENSITY LOG
 RHOB.G/C3   45 350 01 00:   BULK DENSITY
~PARAMETER INFORMATION
#MNEM.UNIT          VALUE    DESCRIPTION
#----------   ------------   ------------------------------
 PD  .                 GL:   PERMANENT DATUM
 EPD .F              5180:   ELEVATION PERMANENT DATUM
 LMF .                 KB:   LOG MEASURED FROM
 DAPD.F                 4:   FEET ABOVE PERMANENT DATUM
 DMF .                 KB:   DRILLING MEASURED FROM
 EKB .F              5184:   KELLING BUSHING
 EGL .F              5180:   GROUND LEVEL
 DATE.        01-MAY-1980:   RUN DATE
 RUN .                  1:   RUN NUMBER
 DD  .F               489:   DEPTH DRILLER
 DL  .F               506:   DEPTH LOGGER
 BLI .F               504:   BOTTOM LOG INTERVAL
 TLI .F                30:   TOP LOG INTERVAL
 BS  .IN            7.875:   BIT SIZE
 BSD .F               489:   BIT SIZE AT DEPTH
 DFT .    WATER BASED MUD:   DRILLING FLUID TYPE
 DFD .                9.9:   DRILLING FLUID DENSITY
 DFV .                 46:   DRILLING FLUID VISCOSITY
 MSS .                PIT:   MUD SAMPLE SOURCE
 RMS .OHMM           0.99:   RESISTIVITY MUD SAMPLE
 MST .F                75:   MUD SAMPLE TEMPERATURE
 RMF .OHMM           0.78:   RESISTIVITY MUD FILTRATE SAMPLE
 MFST.F                75:   MUD FILTRATE SAMPLE TEMPERATURE
 RMC .OHMM           1.18:   RESISTIVITY MUD CAKE
 MCST.F                75:   MUD CAKE SAMPLE TEMPERATURE
 MFSS.               MEAS:   MUD FILTRATE SAMPLE SOURCE
 MCSS.               MEAS:   MUD CAKE SAMPLE SOURCE
 BHT .F               100:   BOTTOM HOLE TEMPERATURE
 TCS .HRS               1:   TIME CURCULATED STOPPED
 MRT .F               100:   MAXIMUM RECORDED TEMPERATURE
 LUN .               9685:   LOGGING UNIT NUMBER
 LUL .             CASPER:   LOGGING UNIT LOCATION
 ENGI.            TOTHILL:   RECORDING ENGINEER
 WITN.           DINSMORE:   WITNESSED BY
 CLNT.            A2DTECH:   CLIENT CODE
 ORIG.           5" PRINT:   ORIGIN OF DATA
 UWI .       490251081300:   UNIQUE WELL ID
 DICO. A2D Technologies, Inc.:   DIGITIZING COMPANY
~OTHER INFORMATION
~A   DEPT       ILD        ILM      SGRD        SPR       CALD       DPHI       DRHO        GRD       RHOB   
# ...
   93.0000     6.8057    10.1161     9.7047   -21.7578     7.9166     0.1136     0.0182   111.1503     2.4529
   93.5000     6.8066    10.1863     9.8399   -21.7517     7.8727     0.1142     0.0198   112.5212     2.4590
   94.0000     6.8076    10.3283     9.9082   -21.7459     7.8437     0.1147     0.0183   113.0151     2.4530
   94.5000     6.8085    10.3283     9.9770   -21.7399     7.8611     0.1205     0.0078   112.7779     2.4455
   95.0000     6.8121    10.3283    10.0463   -21.7339     8.0594     0.1237     0.0033   112.1009     2.4426
   95.5000     6.9055    10.3283    10.1161   -21.8778     8.1764     0.1285    -0.0011   111.1920     2.4261
   96.0000     7.0026    10.2571    10.1161   -21.8704     8.1622     0.1297    -0.0055   109.8914     2.4269
   96.5000     7.1012    10.3283    10.1863   -21.8646     8.1033     0.1276     0.0020   108.5515     2.4307
   97.0000     7.3015    10.6181    10.2571   -21.8587     8.0594     0.1323    -0.0070   107.4374     2.4182
   97.5000     7.5596    11.2225    10.3283   -21.8529     8.0455     0.1347    -0.0099   106.5492     2.4142
   98.0000     7.7728    11.5375    10.4722   -21.8470     8.1216     0.1314    -0.0054   105.8870     2.4248
   98.5000     7.9920    11.6983    10.6181   -21.8412     8.1076     0.1308     0.0051   104.3211     2.4203
   99.0000     8.2745    11.7795    10.7661   -21.8353     8.0610     0.1323     0.0172   102.9811     2.4331
   99.5000     8.6865    11.8613    11.0683   -21.8295     7.9899     0.1238     0.0292   101.1894     2.4489
  100.0000     8.9316    12.1101    11.3789   -21.2247     7.9760     0.1190     0.0112    99.1717     2.4257
  100.5000     9.1835    12.3642    11.6983   -21.3698     7.9772     0.1349     0.0053    97.5851     2.4099
  101.0000     9.4425    12.6235    11.8756   -21.6615     7.9631     0.1409    -0.0007    95.8179     2.4060
  101.5000     9.8441    12.9778    12.0375   -21.6556     7.9400     0.1385     0.0039    95.8334     2.4160
  102.0000    10.3341    13.2500    12.2789   -21.6498     7.9353     0.1322     0.0174    96.0792     2.4281
  102.5000    10.9997    13.6266    12.4500   -21.6439     7.9366     0.1265     0.0294    95.6493     2.4488
  103.0000    11.5472    14.0165    12.7994   -21.6381     7.9376     0.1184     0.0385    95.2151     2.4616
  103.5000    11.8728    14.5979    13.1587   -21.7818     7.9386     0.1082     0.0430    95.0060     2.4642
  104.0000    12.1235    15.3224    14.0042   -21.7758     7.9396     0.1088     0.0370    94.7982     2.4635
  104.5000    12.1252    15.9720    15.8618   -21.7698     7.9257     0.1070     0.0369    94.1205     2.4741
  105.0000    12.1130    15.3224    15.3224   -21.7627     7.8817     0.1001     0.0491    93.4824     2.4944
  105.5000    11.8793    14.5979    14.9041   -21.7568     7.8229     0.0869     0.0672    93.0482     2.5064
  106.0000    11.7990    14.1015    14.1994   -21.7510     7.8854     0.0845     0.0667    92.3880     2.4959
  106.5000    11.8010    13.6219    13.8955   -21.7451     7.9599     0.0965     0.0507    91.7278     2.4795
  107.0000    11.8026    13.3420    13.7165   -21.7392     7.9310     0.0926     0.0598    91.5151     2.4908
  107.5000    11.7224    13.0679    13.5280   -21.7334     7.9021     0.0941     0.0613    90.8593     2.4810
  108.0000    11.6431    12.8883    13.3420   -21.7275     7.8879     0.1072     0.0358    91.5546     2.4623
  108.5000    11.6451    12.7112    13.1587   -21.7217     7.8739     0.1134     0.0254    92.7018     2.4562
  109.0000    11.5663    12.7112    13.0679   -21.7160     7.8602     0.1282     0.0134    93.1717     2.4326
  109.5000    11.4881    12.7004    12.8883   -21.7100     7.8163     0.1312     0.0000    92.5152     2.4189
  110.0000    11.2536    12.6235    12.7112   -21.7040     7.8782     0.1288     0.0015    90.4996     2.4257
  110.5000    11.0941    12.6235    12.4500   -21.6981     7.9534     0.1276     0.0060    89.8351     2.4287
  111.0000    10.9369    12.5365    12.3642   -21.6910     7.9544     0.1252     0.0107    90.7606     2.4363
  111.5000    10.6523    12.3642    12.2789   -21.6851     7.9105     0.1174     0.0241    90.7782     2.4513
  112.0000    10.5799    12.2789    12.1942   -21.6801     7.9265     0.1147     0.0301    90.7957     2.4521
  112.5000    10.5084    12.1779    12.1101   -21.6734     8.0023     0.1216     0.0227    90.3614     2.4469
  113.0000    10.1526    12.1101    12.1101   -21.5891     8.0183     0.1234     0.0197    89.9272     2.4379
  113.5000    10.0839    12.0266    12.1101   -21.5127     8.0193     0.1282     0.0183    89.2714     2.4304
  114.0000    10.2259    12.0266    11.5822   -21.5064     8.0657     0.1278     0.0198    89.0587     2.4312
  114.5000    10.2983    11.9437    11.6646   -21.6500     8.1262     0.1248     0.0261    89.3065     2.4405
  115.0000    10.2879    11.9437    11.7472   -21.4948     8.1424     0.1191     0.0394    90.0018     2.4518
  115.5000    10.0894    11.8613    11.7488   -21.4888     8.1584     0.1152     0.0484    90.6970     2.4561
  116.0000     9.8156    11.8515    11.7504   -21.4828     8.0995     0.1170     0.0499    91.6182     2.4472
  116.5000     9.7493    11.6983    11.6705   -21.4767     8.0257     0.1215     0.0380    92.0875     2.4404
  117.0000     9.6752    11.6176    11.5916   -21.4673     7.9968     0.1227     0.0470    92.1054     2.4390
  117.5000     9.6113    11.6176    11.4342   -21.4579     7.9828     0.1224     0.0560    92.3529     2.4480
  118.0000     9.5526    11.5375    11.4358   -21.4485     8.0287     0.1193     0.0621    92.5964     2.4548
  118.5000     9.4884    11.6983    11.5214   -21.4392     8.0116     0.1179     0.0501    92.8398     2.4518
  119.0000     9.4897    11.8613    11.7600   -21.4298     7.9113     0.1206     0.0442    92.6314     2.4459
  119.5000     9.4909    12.1101    12.0086   -21.4204     7.7776     0.1239     0.0381    91.7454     2.4361
  120.0000     9.4922    12.2789    11.8452   -21.4110     7.7935     0.1278     0.0303    91.0808     2.4294
  120.5000     9.4935    11.9437    11.6034   -21.4016     7.9742     0.1314     0.0233    90.1988     2.4235
  121.0000     9.4948    11.6983    11.1330   -21.3923     8.0351     0.1266     0.0263    89.5301     2.4335
  121.5000     9.3656    11.5375    10.9815   -21.3829     8.0212     0.1251     0.0324    89.1047     2.4378
  122.0000     9.3023    11.5375    10.9068   -21.3735     8.0371     0.1248     0.0369    88.8964     2.4393
  122.5000     9.1072    11.6176    10.9087   -21.3641     8.0382     0.1304     0.0264    90.2737     2.4289
  123.0000     8.8547    11.6176    10.8349   -21.3547     7.9945     0.1400     0.0025    91.8726     2.4049
  123.5000     8.3310    11.6176    10.9874   -21.3454     8.0255     0.1493     0.0010    92.5678     2.3967
  124.0000     8.1044    11.5375    11.1062   -21.3360     8.0564     0.1478     0.0055    93.0372     2.3990
  124.5000     8.1620    11.3789    11.1435   -21.3266     8.0422     0.1442     0.0056    93.0547     2.4005
  125.0000     8.2198    11.2225    10.7664   -21.3172     7.9986     0.1541    -0.0051    93.0723     2.3893
  125.5000     8.2780    10.9920    10.4739   -21.3078     7.9844     0.1529    -0.0013    92.8639     2.3923
  126.0000     8.2791    10.8409    10.3310   -21.2985     7.9857     0.1457     0.0102    92.6295     2.3983
  126.5000     8.2802    10.6919    10.4767   -21.2891     7.9867     0.1478     0.0042    92.2213     2.3906
  127.0000     8.2814    10.4722    10.5509   -21.2797     8.0027     0.1553    -0.0032    92.0173     2.3817
  127.5000     8.2825    10.4000    10.4792   -21.2703     7.9887     0.1594    -0.0047    91.3572     2.3774
  128.0000     8.2837    10.3118    10.2653   -21.2610     7.9301     0.1601     0.0073    90.4711     2.3820
  128.5000     8.1146    10.2416    10.1259   -21.2516     7.9461     0.1573     0.0134    89.5850     2.3828
  129.0000     8.1157    10.1715    10.1976   -21.2422     8.0369     0.1513     0.0254    88.9249     2.3918
