~VERSION INFORMATION
 VERS.                2.0:   CWLS LOG ASCII STANDARD - VERSION 2.0
 WRAP.                 NO:   ONE LINE PER DEPTH STEP
~WELL INFORMATION
#MNEM.UNIT      DATA TYPE    INFORMATION
#----------   ------------   ------------------------------
 STRT.F          100.0000:   START DEPTH
 STOP.F          812.0000:   STOP DEPTH
 STEP.F            0.5000:   STEP LENGTH
 NULL.          -999.2500:   NO VALUE
 COMP.               NAVY:   COMPANY
 WELL. RES 3 TEAPOT DOM #42S-11:   WELL
 FLD .             TEAPOT:   FIELD
 LOC .      S11 T38N R78W:   LOCATION
 CNTY.            NATRONA:   COUNTY
 STAT.            WYOMING:   STATE
 CTRY. UNITED STATES OF AMERICA:   COUNTRY
 SRVC.       Schlumberger:   SERVICE COMPANY
 DATE.        02-AUG-1961:   LOGDATE
 API .       490250636700:   API NUMBER
~CURVE INFORMATION
#MNEM.UNIT       API CODE    CURVE DESCRIPTION
#----------   ------------   ------------------------------
 DEPT.F                  :   
 SPR .MV     05 010 01 00:   SPONTANEOUS POTENTIAL FROM RES.
 ILD .OHMM   05 120 46 00:   INDUCTION LOG DEEP
 ASN .OHMM   05 041 16 00:   AMPLIFIED SHORT NORMAL 16"
 CILD.MMHO   05 110 46 00:   CONDUCTIVITY INDUCTION LOG DEEP
 GR  .GAPI   30 310 01 00:   GAMMA RAY
~PARAMETER INFORMATION
#MNEM.UNIT          VALUE    DESCRIPTION
#----------   ------------   ------------------------------
 PD  .                 GL:   PERMANENT DATUM
 EPD .F              5172:   ELEVATION PERMANENT DATUM
 LMF .                 KB:   LOG MEASURED FROM
 DAPD.F                 5:   FEET ABOVE PERMANENT DATUM
 DMF .                 KB:   DRILLING MEASURED FROM
 EKB .F              5177:   KELLING BUSHING
 EGL .F              5172:   GROUND LEVEL
 DATE.             8-2-61:   RUN DATE
 RUN .                  1:   RUN NUMBER
 DD  .F               810:   DEPTH DRILLER
 DL  .F               813:   DEPTH LOGGER
 BLI .F               812:   BOTTOM LOG INTERVAL
 TLI .F               100:   TOP LOG INTERVAL
 BS  .IN             6.75:   BIT SIZE
 BSD .F               810:   BIT SIZE AT DEPTH
 DFT .       OIL EMULSION:   DRILLING FLUID TYPE
 DFD .                9.2:   DRILLING FLUID DENSITY
 DFV .                 56:   DRILLING FLUID VISCOSITY
 MFSS.                  M:   MUD FILTRATE SAMPLE SOURCE
 MCSS.                  M:   MUD CAKE SAMPLE SOURCE
 RMB .OHMM            .70:   RESISTIVITY MUD AT BHT
 BHT .F                80:   BOTTOM HOLE TEMPERATURE
 TCS .HRS               1:   TIME CURCULATED STOPPED
 MRT .F                80:   MAXIMUM RECORDED TEMPERATURE
 LUN .               2552:   LOGGING UNIT NUMBER
 LUL .                RIV:   LOGGING UNIT LOCATION
 ENGI.             RANDLE:   RECORDING ENGINEER
 WITN.          VORGENSON:   WITNESSED BY
 CLNT.            A2DTECH:   CLIENT CODE
 ORIG.       2", 5" PRINT:   ORIGIN OF DATA
 UWI .       490250636700:   UNIQUE WELL ID
 DICO. A2D Technologies, Inc.:   DIGITIZING COMPANY
~OTHER INFORMATION
~A   DEPT      SPR        ILD        ASN        CILD        GR   
# ...
  405.0000   -39.9651     9.2622    10.1583   120.1696  -999.2500
  405.5000   -39.7626     9.1875    10.0634   120.6492  -999.2500
  406.0000   -39.5910     9.1082    10.0090   121.1288  -999.2500
  406.5000   -39.4033     9.0334     9.7026   121.6084  -999.2500
  407.0000   -39.4210     8.9539     9.5815   122.1105  -999.2500
  407.5000   -39.4862     8.8621     9.6072   123.9384  -999.2500
  408.0000   -39.5357     8.5847     9.5751   126.7143  -999.2500
  408.5000   -39.5945     8.3115     9.4845   130.8826  -999.2500
  409.0000   -39.6171     8.0704     9.3872   135.0508  -999.2500
  409.5000   -39.6152     7.8189     9.2040   139.2191  -999.2500
  410.0000   -39.6161     7.5712     8.8446   143.3873  -999.2500
  410.5000   -39.6162     7.3243     8.5262   147.2362  -999.2500
  411.0000   -39.6213     7.0697     8.3442   149.6457  -999.2500
  411.5000   -39.7304     6.8728     8.1666   151.8838  -999.2500
  412.0000   -39.8654     6.9582     8.0929   154.2714  -999.2500
  412.5000   -40.0074     7.0759     8.0760   152.6801  -999.2500
  413.0000   -40.0709     7.1948     8.1068   150.9749  -999.2500
  413.5000   -40.0040     7.3032     8.2921   149.2462  -999.2500
  414.0000   -39.9403     7.4481     8.5102   147.2362  -999.2500
  414.5000   -39.8698     7.6032     8.7437   142.2111  -999.2500
  415.0000   -39.8284     7.7433     8.8837   139.0955  -999.2500
  415.5000   -39.7150     7.8866     8.9601   136.5377  -999.2500
  416.0000   -39.6393     8.0333     9.0339   133.9799  -999.2500
  416.5000   -39.7732     8.1443     9.0458   132.3250  -999.2500
  417.0000   -39.9630     8.0787     9.0624   132.8934  -999.2500
  417.5000   -40.0825     8.0021     9.0792   133.9268  -999.2500
  418.0000   -40.1283     7.9279     9.0930   135.3884  -999.2500
  418.5000   -40.1924     7.8507     9.0563   136.8500  -999.2500
  419.0000   -40.2587     7.7792     8.9618   138.3116  -999.2500
  419.5000   -40.2795     7.6954     8.8575   139.7731  -999.2500
  420.0000   -40.2115     7.6553     8.7578   141.2060  -999.2500
  420.5000   -40.1563     7.6428     8.6544   141.6802  -999.2500
  421.0000   -40.0910     7.6164     8.6153   142.1922  -999.2500
  421.5000   -40.0657     7.5842     8.6165   142.6759  -999.2500
  422.0000   -40.0685     7.5895     8.6405   143.1923  -999.2500
  422.5000   -40.0671     7.6607     8.7339   141.2246  -999.2500
  423.0000   -40.0679     7.6716     8.8187   139.4225  -999.2500
  423.5000   -40.0676     7.8518     8.9072   137.6173  -999.2500
  424.0000   -40.0684     8.0152     8.9939   135.8061  -999.2500
  424.5000   -40.0675     8.1938     9.0868   133.9911  -999.2500
  425.0000   -40.0694     8.2645     9.1175   132.2199  -999.2500
  425.5000   -40.0657     8.2360     9.1594   131.3558  -999.2500
  426.0000   -40.0732     8.2133     9.1958   131.8430  -999.2500
  426.5000   -40.0491     8.1849     9.1780   132.3302  -999.2500
  427.0000   -39.9277     8.1601     9.1491   132.8174  -999.2500
  427.5000   -39.6645     8.1322     9.1189   133.3046  -999.2500
  428.0000   -39.6051     8.1075     9.0477   133.7918  -999.2500
  428.5000   -39.6193     8.0789     8.9824   134.2790  -999.2500
  429.0000   -39.6197     8.0617     8.9794   134.7662  -999.2500
  429.5000   -39.6729     8.0239     8.9996   135.1759  -999.2500
  430.0000   -39.7182     7.9518     9.0306   135.1759  -999.2500
  430.5000   -39.7624     8.0026     9.0585   135.1759  -999.2500
  431.0000   -39.8154     8.0640     9.0890   135.1759  -999.2500
  431.5000   -39.8342     8.1844     9.0880   135.1759  -999.2500
  432.0000   -39.7926     8.1369     9.0492   136.0953  -999.2500
  432.5000   -39.7594     7.8527     8.9948   136.9849  -999.2500
  433.0000   -39.7187     7.7532     8.9455   137.8746  -999.2500
  433.5000   -39.6869     7.7590     8.8899   138.7643  -999.2500
  434.0000   -39.6412     7.7568     8.8321   139.1960  -999.2500
  434.5000   -39.6276     7.7583     8.7744   138.4070  -999.2500
  435.0000   -39.5212     7.7574     8.7609   137.5544  -999.2500
  435.5000   -39.3285     7.7579     8.7686   137.6985  -999.2500
  436.0000   -39.1557     7.7578     8.7735   138.6012  -999.2500
  436.5000   -38.9810     7.7584     8.7746   139.5040  -999.2500
  437.0000   -38.7934     7.7546     8.7296   141.2060  -999.2500
  437.5000   -38.7050     7.6895     8.6813   141.6557  -999.2500
  438.0000   -38.7125     7.6005     8.6312   142.1941  -999.2500
  438.5000   -38.7158     7.5162     8.5881   142.7326  -999.2500
  439.0000   -38.6999     7.3764     8.6012   143.2161  -999.2500
  439.5000   -38.7704     7.3532     8.6188   143.9678  -999.2500
  440.0000   -39.0503     7.3583     8.6397   144.6499  -999.2500
  440.5000   -39.1488     7.3563     8.6547   145.2368  -999.2500
  441.0000   -39.1806     7.3567     8.6438   145.2414  -999.2500
  441.5000   -39.3333     7.3595     8.6156   145.2475  -999.2500
  442.0000   -39.3755     7.3841     8.5623   145.2478  -999.2500
  442.5000   -39.1600     7.4065     8.5573   146.4184  -999.2500
  443.0000   -38.9922     7.4293     8.5522   147.3788  -999.2500
  443.5000   -38.7933     7.4517     8.5450   148.3387  -999.2500
  444.0000   -38.7116     7.4744     8.5433   149.2462  -999.2500
  444.5000   -38.7766     7.4965     8.5665   147.1318  -999.2500
  445.0000   -38.8267     7.5200     8.6393   145.1786  -999.2500
  445.5000   -38.8843     7.5405     8.7145   143.2254  -999.2500
  446.0000   -38.9319     7.5765     8.7883   141.2722  -999.2500
  446.5000   -38.8686     7.7261     8.9098   139.3190  -999.2500
  447.0000   -38.7682     7.8969     9.0234   137.3657  -999.2500
  447.5000   -38.6743     8.0748     9.1379   135.4125  -999.2500
  448.0000   -38.5779     8.2496     9.2516   133.4593  -999.2500
  448.5000   -38.4820     8.4284     9.3593   131.5061  -999.2500
  449.0000   -38.3872     8.5838     9.4193   129.5529  -999.2500
  449.5000   -38.2909     8.5366     9.4868   128.4421  -999.2500
  450.0000   -38.2650     8.4426     9.5148   129.5300  -999.2500
  450.5000   -38.3906     8.3385     9.4190   130.6179  -999.2500
  451.0000   -38.5311     8.2200     9.3325   131.7058  -999.2500
  451.5000   -38.6777     8.1085     9.2417   132.7937  -999.2500
  452.0000   -38.6827     7.9937     9.1612   133.8816  -999.2500
  452.5000   -38.5709     7.8798     9.0567   135.8973  -999.2500
  453.0000   -38.4729     7.7668     8.9479   138.2491  -999.2500
  453.5000   -38.3639     7.6515     8.8401   140.6009  -999.2500
  454.0000   -38.2770     7.5472     8.7317   142.9526  -999.2500
  454.5000   -38.3099     7.3576     8.6240   145.3044  -999.2500
  455.0000   -38.3720     7.1975     8.5155   147.2362  -999.2500
  455.5000   -38.4089     7.0620     8.4078   149.5104  -999.2500
  456.0000   -38.4897     6.9605     8.2883   151.4401  -999.2500
  456.5000   -38.3161     6.9519     8.1985   153.3697  -999.2500
  457.0000   -37.8931     6.9197     8.1160   155.2764  -999.2500
  457.5000   -37.4883     6.8715     8.0344   155.2764  -999.2500
  458.0000   -37.3483     6.8831     7.9621   155.2764  -999.2500
  458.5000   -37.3121     6.9491     7.9586   155.2764  -999.2500
  459.0000   -37.2172     7.0275     8.0030   154.4950  -999.2500
  459.5000   -37.1306     6.9935     8.1229   153.8618  -999.2500
  460.0000   -37.2480     7.0486     8.2459   153.2663  -999.2500
  460.5000   -37.4695     7.1576     8.3769   151.2218  -999.2500
  461.0000   -37.6481     7.2477     8.4631   149.2922  -999.2500
  461.5000   -37.8476     7.3528     8.4862   147.3625  -999.2500
  462.0000   -38.0202     7.4405     8.4957   145.4329  -999.2500
  462.5000   -38.0395     7.5364     8.5262   143.5032  -999.2500
  463.0000   -38.0361     7.6302     8.5817   141.5736  -999.2500
  463.5000   -38.0374     7.7262     8.6206   139.6439  -999.2500
  464.0000   -38.0367     7.8192     8.6793   137.7143  -999.2500
  464.5000   -38.0369     7.9172     8.7458   137.1859  -999.2500
  465.0000   -38.0365     7.9656     8.8073   137.1859  -999.2500
  465.5000   -38.0368     7.9294     8.8578   137.1859  -999.2500
