~VERSION INFORMATION
 VERS.                2.0:   CWLS LOG ASCII STANDARD - VERSION 2.0
 WRAP.                 NO:   ONE LINE PER DEPTH STEP
~WELL INFORMATION
#MNEM.UNIT      DATA TYPE    INFORMATION
#----------   ------------   ------------------------------
 STRT.F           30.0000:   START DEPTH
 STOP.F          547.0000:   STOP DEPTH
 STEP.F            0.5000:   STEP LENGTH
 NULL.          -999.2500:   NO VALUE
 COMP.   FINIX & SCISSION:   COMPANY
 WELL. SX-11 NPR #3 #11-11:   WELL
 FLD .             TEAPOT:   FIELD
 LOC .      S11 T38N R78W:   LOCATION
 CNTY.            NATRONA:   COUNTY
 STAT.            WYOMING:   STATE
 CTRY. UNITED STATES OF AMERICA:   COUNTRY
 SRVC.       Schlumberger:   SERVICE COMPANY
 DATE.        01-MAR-1977:   LOGDATE
 API .       490251058500:   API NUMBER
~CURVE INFORMATION
#MNEM.UNIT       API CODE    CURVE DESCRIPTION
#----------   ------------   ------------------------------
 DEPT.F                  :   
 ILD .OHMM               :   INDUCTION LOG DEEP
 ILM .OHMM   07 120 44 00:   INDUCTION LOG MEDIUM
 LL8 .OHMM   07 220 08 00:   
 SPR .MV     07 010 01 00:   SPONTANEOUS POTENTIAL
 CALD.IN     45 280 60 00:   CALIPER FROM DENSITY LOG
 CORR.G/C3   45 356 01 00:   DENSITY CORRECTION
 DPHI.DEC    45 890 12 00:   DENSITY POROSITY SANDSTONE
 GRD .GAPI   45 310 01 00:   GAMMA RAY FROM DENSITY LOG
 RHOB.G/C3   45 350 01 00:   BULK DENSITY
~PARAMETER INFORMATION
#MNEM.UNIT          VALUE    DESCRIPTION
#----------   ------------   ------------------------------
 PD  .                 GL:   PERMANENT DATUM
 EPD .F              5158:   ELEVATION PERMANENT DATUM
 LMF .                 GL:   LOG MEASURED FROM
 DMF .                 GL:   DRILLING MEASURED FROM
 EKB .F              5161:   KELLING BUSHING
 EGL .F              5158:   GROUND LEVEL
 DATE.        01-MAR-1977:   RUN DATE
 RUN .                  1:   RUN NUMBER
 DD  .F               575:   DEPTH DRILLER
 DL  .F               548:   DEPTH LOGGER
 BLI .F               547:   BOTTOM LOG INTERVAL
 TLI .F                45:   TOP LOG INTERVAL
 CS  .IN            8.625:   CASING SIZE
 CBD .F                40:   CASING BOTTOM DRILLER
 CBL .F                45:   CASING BOTTOM LOGGER
 BS  .IN            7.875:   BIT SIZE
 BSD .F               575:   BIT SIZE AT DEPTH
 DFT .                PIT:   DRILLING FLUID TYPE
 DFD .                8.7:   DRILLING FLUID DENSITY
 DFV .                 46:   DRILLING FLUID VISCOSITY
 DFPH.                  8:   DRILLING FLUID PH
 DFL .                6.8:   DRILLING FLUID LOSS
 MSS .                PIT:   MUD SAMPLE SOURCE
 RMS .OHMM          0.632:   RESISTIVITY MUD SAMPLE
 MST .F                65:   MUD SAMPLE TEMPERATURE
 RMF .OHMM          0.465:   RESISTIVITY MUD FILTRATE SAMPLE
 MFST.F                65:   MUD FILTRATE SAMPLE TEMPERATURE
 MFSS.               MEAS:   MUD FILTRATE SAMPLE SOURCE
 RMB .OHMM          0.635:   RESISTIVITY MUD AT BHT
 BHT .F                68:   BOTTOM HOLE TEMPERATURE
 TCS .HRS              12:   TIME CURCULATED STOPPED
 MRT .F                68:   MAXIMUM RECORDED TEMPERATURE
 LUN .               5642:   LOGGING UNIT NUMBER
 LUL .               CSPR:   LOGGING UNIT LOCATION
 ENGI.         JIM MARTIN:   RECORDING ENGINEER
 WITN.         STUEBINGER:   WITNESSED BY
 CLNT.            A2DTECH:   CLIENT CODE
 ORIG.           5" PRINT:   ORIGIN OF DATA
 UWI .       490251058500:   UNIQUE WELL ID
 DICO. A2D Technologies, Inc.:   DIGITIZING COMPANY
~OTHER INFORMATION
~A   DEPT      ILD        ILM        LL8        SPR       CALD       CORR       DPHI         GRD      RHOB   
# ...
  358.5000     8.4812     8.5892     8.3452   -30.4081     8.1261     0.0165     0.1065    91.4073     2.4908
  359.0000     8.5414     8.5898     8.4030   -30.2422     8.1420     0.0210     0.0989    92.0199     2.4983
  359.5000     8.6016     8.5904     8.6385   -30.0763     8.1428     0.0338     0.0917    89.7813     2.4938
  360.0000     8.6030     8.5316     8.9095   -29.8303     8.1437     0.0427     0.0866    88.1425     2.5148
  360.5000     8.5449     8.4735     9.1295   -29.7440     8.1446     0.0284     0.0926    87.4006     2.4953
  361.0000     8.5459     8.4158     9.1928   -29.7243     8.1455     0.0225     0.0980    89.6624     2.5005
  361.5000     8.5472     8.4164     9.0666   -29.7082     8.1358     0.0374     0.0896    92.9710     2.5126
  362.0000     8.5484     8.4170     8.9422   -29.6920     8.1323     0.0531     0.0857    92.2317     2.5066
  362.5000     8.5496     8.4224     8.8432   -29.8295     8.1332     0.0419     0.0824    91.0426     2.5088
  363.0000     8.6099     8.4863     8.7314   -29.5099     8.1493     0.0374     0.0922    90.6032     2.5171
  363.5000     8.6949     8.5952     8.5790   -29.1943     8.1500     0.0277     0.0989    90.3133     2.5021
  364.0000     8.7927     8.7153     8.5790   -28.9830     8.1509     0.0292     0.0935    88.0751     2.4991
  364.5000     8.9163     8.8372     8.9041   -28.6619     8.1519     0.0344     0.0863    85.9730     2.5103
  365.0000     9.1674     9.0855     9.8504   -28.3973     8.1527     0.0306     0.0833    85.6969     2.5074
  365.5000     9.6987     9.5364    10.5551   -28.6811     8.1536     0.0350     0.0788    87.2579     2.5150
  366.0000    10.2609     7.9688    12.1192   -28.8822     8.1395     0.0412     0.0971    88.8685     2.5043
  366.5000     8.5591     6.4774    16.8854   -29.2469     8.1405     0.0225     0.1140    90.8279     2.4646
  367.0000     6.9577     5.9213    21.8042   -29.2270     8.1413     0.0292     0.1176    93.2370     2.4556
  367.5000     6.0605     5.2292    12.7198   -28.9147     8.1423     0.0374     0.1218    95.7960     2.4151
  368.0000     4.8590     4.0779     4.4194   -28.5955     8.1431     0.0479     0.1530   101.0537     2.3896
  368.5000     3.8157     3.4312     3.4462   -27.9805     8.1440     0.0569     0.1614   100.0146     2.3836
  369.0000     3.4643     4.3369     3.8225   -27.6432     8.1450     0.0232     0.1441    94.1778     2.4234
  369.5000     4.7943     5.8019     5.5513   -27.4991     8.1458     0.0214     0.1165    86.9917     2.4939
  370.0000     6.2346     6.5255     6.6898   -27.7823     8.1467     0.0299     0.0980    82.3543     2.5202
  370.5000     7.2591     7.2386     7.9530   -28.0655     8.1478     0.0344     0.0944    80.8654     2.5367
  371.0000     7.9424     7.9743     9.0244   -28.1977     8.1485     0.0275     0.0980    80.5667     2.5149
  371.5000     8.7503     8.8457     9.8034   -28.1841     8.1465     0.0217     0.1005    82.0884     2.5037
  372.0000     9.5739     9.6777    10.5551   -28.1666     8.1353     0.0284     0.0941    83.1574     2.5151
  372.5000    10.3314    10.2993    11.1549   -28.3002     8.1363     0.0389     0.0794    82.9835     2.5288
  373.0000    11.0823    10.8105    11.5470   -28.4341     8.1220     0.0494     0.0665    82.7161     2.5390
  373.5000    11.6222    10.5894    11.6271   -28.8666     8.1231     0.0449     0.0794    84.6780     2.5165
  374.0000    11.1534    10.3014    11.3101   -29.0000     8.1240     0.0344     0.0854    86.6373     2.5097
  374.5000    10.7452    10.0156    10.9261   -29.1332     8.1249     0.0464     0.0821    87.9970     2.5022
  375.0000    10.1969     9.8844    10.6288   -29.0357     8.1258     0.0374     0.0899    86.2082     2.4940
  375.5000     9.8519    10.8143    10.3385   -28.9475     8.1267     0.0247     0.1056    79.9216     2.4700
  376.0000    10.0597    12.0793    10.4716   -28.6319     8.1276     0.0179     0.1187    72.8855     2.4490
  376.5000    11.4725    13.5857    10.9940   -28.0169     8.1135     0.0135     0.1248    66.2991     2.4385
  377.0000    12.7270    15.3860    12.0320   -27.6701     8.0994     0.0516     0.1284    60.4623     2.4295
  377.5000    13.8291    17.1857    14.9361   -27.3490     8.0636     0.0666     0.1410    55.5251     2.3958
  378.0000    16.1017    18.5440    21.5360   -27.0719     7.7421     0.0846     0.1527    51.9372     2.3433
  378.5000    18.8776    19.8720    24.2314   -26.9043     7.4585     0.1205     0.1644    50.5982     2.3215
  379.0000    21.9797    20.8582    24.9170   -26.7384     7.3546     0.1415     0.1818    52.8936     2.3153
  379.5000    24.0487    21.2965    25.2696   -26.6634     7.2657     0.1542     0.1983    54.3868     2.3073
  380.0000    23.2352    21.4456    25.1002   -26.4066     7.2217     0.1617     0.2055    55.2794     2.3005
  380.5000    23.0783    21.6083    25.1344   -26.2408     7.2074     0.1243     0.2121    56.3392     2.2938
  381.0000    24.2930    22.0750    25.4617   -26.2246     7.1935     0.1196     0.2223    57.3990     2.2878
  381.5000    25.7839    22.9848    25.4667   -26.1544     7.1944     0.1370     0.2314    57.7066     2.2713
  382.0000    25.2584    23.7943    27.1099   -26.0412     7.1953     0.1277     0.2419    55.9204     2.2503
  382.5000    24.7428    23.4694    28.2657   -25.8726     7.1962     0.1310     0.2454    56.9802     2.2676
  383.0000    24.4065    22.3628    28.2713   -25.7067     7.1820     0.1542     0.2223    57.7375     2.2968
  383.5000    25.0947    21.6049    27.8880   -25.5167     7.1530     0.1714     0.1938    52.8029     2.3186
  384.0000    26.3419    21.3094    27.8950   -25.2063     7.1389     0.1557     0.2163    50.5643     2.2863
  384.5000    27.8427    22.3673    29.2863   -24.9096     7.1099     0.1430     0.2253    49.5252     2.3013
  385.0000    28.0386    22.9957    29.4957   -24.8170     7.0958     0.1542     0.2097    50.5850     2.3141
  385.5000    27.1414    23.6417    29.5016   -24.7276     7.0817     0.1377     0.2046    52.9941     2.3079
  386.0000    26.4657    23.9723    29.5075   -24.7114     7.1427     0.1213     0.1861    55.8831     2.3389
  386.5000    26.0660    24.4761    29.5822   -24.6952     7.3082     0.1310     0.1515    58.4618     2.3801
  387.0000    26.0015    24.7472    29.9324   -24.9784     7.4588     0.1430     0.1407    59.9216     2.3989
  387.5000    26.9192    25.1658    29.5251   -25.4113     7.6394     0.1211     0.1740    57.5357     2.3629
  388.0000    28.2570    25.3420    28.3306   -25.6946     7.6999     0.0941     0.2046    56.0467     2.3277
  388.5000    26.8774    25.3437    27.1827   -25.9860     7.5812     0.1003     0.2118    55.3074     2.2992
  389.0000    25.1331    25.1709    27.1884   -26.1113     7.5520     0.0726     0.2052    56.5171     2.3209
  389.5000    24.7907    24.6562    28.5459   -26.0911     7.6579     0.0666     0.1917    59.3760     2.3427
  390.0000    26.9384    24.1516    29.9698   -26.0749     7.7486     0.0591     0.1791    62.5348     2.3569
  390.5000    27.8882    23.4952    27.0183   -26.0587     7.8093     0.0412     0.1659    65.2437     2.3659
  391.0000    26.3930    23.0148    25.5672   -26.0425     7.8701     0.0397     0.1491    65.8512     2.3772
  391.5000    25.1502    22.3889    25.3956   -26.4754     7.9009     0.0539     0.1362    62.5657     2.4006
  392.0000    24.1322    22.3904    29.1743   -27.0580     7.9317     0.0629     0.1518    61.2267     2.3793
  392.5000    23.6395    24.0357    29.3829   -27.3453     7.9326     0.0516     0.1673    60.3375     2.3512
  393.0000    26.5904    26.3423    28.7845   -27.4788     7.9335     0.0494     0.1725    59.7451     2.3577
  393.5000    30.5351    29.1197    31.0706   -27.0095     7.9194     0.0741     0.1512    56.5293     2.3908
  394.0000    34.5837    31.2049    40.9962   -26.5442     7.8756     0.0569     0.1350    53.7717     2.4193
  394.5000    37.8390    30.7788    35.9491   -25.9292     7.8017     0.0943     0.1218    55.4338     2.4418
