~VERSION INFORMATION
 VERS.                2.0:   CWLS LOG ASCII STANDARD - VERSION 2.0
 WRAP.                 NO:   ONE LINE PER DEPTH STEP
~WELL INFORMATION
#MNEM.UNIT      DATA TYPE    INFORMATION
#----------   ------------   ------------------------------
 STRT.F           30.0000:   START DEPTH
 STOP.F          547.0000:   STOP DEPTH
 STEP.F            0.5000:   STEP LENGTH
 NULL.          -999.2500:   NO VALUE
 COMP.   FINIX & SCISSION:   COMPANY
 WELL. SX-11 NPR #3 #11-11:   WELL
 FLD .             TEAPOT:   FIELD
 LOC .      S11 T38N R78W:   LOCATION
 CNTY.            NATRONA:   COUNTY
 STAT.            WYOMING:   STATE
 CTRY. UNITED STATES OF AMERICA:   COUNTRY
 SRVC.       Schlumberger:   SERVICE COMPANY
 DATE.        01-MAR-1977:   LOGDATE
 API .       490251058500:   API NUMBER
~CURVE INFORMATION
#MNEM.UNIT       API CODE    CURVE DESCRIPTION
#----------   ------------   ------------------------------
 DEPT.F                  :   
 ILD .OHMM               :   INDUCTION LOG DEEP
 ILM .OHMM   07 120 44 00:   INDUCTION LOG MEDIUM
 LL8 .OHMM   07 220 08 00:   
 SPR .MV     07 010 01 00:   SPONTANEOUS POTENTIAL
 CALD.IN     45 280 60 00:   CALIPER FROM DENSITY LOG
 CORR.G/C3   45 356 01 00:   DENSITY CORRECTION
 DPHI.DEC    45 890 12 00:   DENSITY POROSITY SANDSTONE
 GRD .GAPI   45 310 01 00:   GAMMA RAY FROM DENSITY LOG
 RHOB.G/C3   45 350 01 00:   BULK DENSITY
~PARAMETER INFORMATION
#MNEM.UNIT          VALUE    DESCRIPTION
#----------   ------------   ------------------------------
 PD  .                 GL:   PERMANENT DATUM
 EPD .F              5158:   ELEVATION PERMANENT DATUM
 LMF .                 GL:   LOG MEASURED FROM
 DMF .                 GL:   DRILLING MEASURED FROM
 EKB .F              5161:   KELLING BUSHING
 EGL .F              5158:   GROUND LEVEL
 DATE.        01-MAR-1977:   RUN DATE
 RUN .                  1:   RUN NUMBER
 DD  .F               575:   DEPTH DRILLER
 DL  .F               548:   DEPTH LOGGER
 BLI .F               547:   BOTTOM LOG INTERVAL
 TLI .F                45:   TOP LOG INTERVAL
 CS  .IN            8.625:   CASING SIZE
 CBD .F                40:   CASING BOTTOM DRILLER
 CBL .F                45:   CASING BOTTOM LOGGER
 BS  .IN            7.875:   BIT SIZE
 BSD .F               575:   BIT SIZE AT DEPTH
 DFT .                PIT:   DRILLING FLUID TYPE
 DFD .                8.7:   DRILLING FLUID DENSITY
 DFV .                 46:   DRILLING FLUID VISCOSITY
 DFPH.                  8:   DRILLING FLUID PH
 DFL .                6.8:   DRILLING FLUID LOSS
 MSS .                PIT:   MUD SAMPLE SOURCE
 RMS .OHMM          0.632:   RESISTIVITY MUD SAMPLE
 MST .F                65:   MUD SAMPLE TEMPERATURE
 RMF .OHMM          0.465:   RESISTIVITY MUD FILTRATE SAMPLE
 MFST.F                65:   MUD FILTRATE SAMPLE TEMPERATURE
 MFSS.               MEAS:   MUD FILTRATE SAMPLE SOURCE
 RMB .OHMM          0.635:   RESISTIVITY MUD AT BHT
 BHT .F                68:   BOTTOM HOLE TEMPERATURE
 TCS .HRS              12:   TIME CURCULATED STOPPED
 MRT .F                68:   MAXIMUM RECORDED TEMPERATURE
 LUN .               5642:   LOGGING UNIT NUMBER
 LUL .               CSPR:   LOGGING UNIT LOCATION
 ENGI.         JIM MARTIN:   RECORDING ENGINEER
 WITN.         STUEBINGER:   WITNESSED BY
 CLNT.            A2DTECH:   CLIENT CODE
 ORIG.           5" PRINT:   ORIGIN OF DATA
 UWI .       490251058500:   UNIQUE WELL ID
 DICO. A2D Technologies, Inc.:   DIGITIZING COMPANY
~OTHER INFORMATION
~A   DEPT      ILD        ILM        LL8        SPR       CALD       CORR       DPHI         GRD      RHOB   
# ...
  139.5000     8.8194     8.6510     9.2167   -31.8870     8.1669     0.0284     0.1119   103.2309     2.4723
  140.0000     8.5927     8.5317     8.9544   -31.7665     8.1678     0.0509     0.1071   102.3238     2.4806
  140.5000     8.4030     8.4011     8.7097   -31.6078     8.1686     0.0314     0.1170   102.6387     2.4566
  141.0000     8.2008     8.2754     8.5727   -31.4491     8.1695     0.0187     0.1203   102.9383     2.4476
  141.5000     8.0063     8.1736     8.3549   -31.4384     8.1705     0.0112     0.1233   100.4348     2.4401
  142.0000     7.8449     8.0387     8.1829   -31.4295     8.1714     0.0144     0.1260    96.5082     2.4349
  142.5000     7.6811     7.9356     8.0701   -31.2709     8.1722     0.0287     0.1119    94.2668     2.4649
  143.0000     7.6013     7.8496     7.9588   -31.2620     8.1732     0.0347     0.1050    93.3746     2.4814
  143.5000     7.5757     7.8168     7.8490   -31.1034     8.1740     0.0442     0.0960    92.0327     2.5054
  144.0000     7.5757     7.7408     7.9029   -30.7635     8.1749     0.0464     0.1014    90.0911     2.5002
  144.5000     7.6829     7.7623     8.4094   -30.4869     8.1758     0.0292     0.1083    88.4493     2.4815
  145.0000     7.8447     7.8474     8.7722   -30.3283     8.1766     0.0329     0.1104    89.3562     2.4710
  145.5000     8.0712     8.0112     9.1351   -30.0918     8.1775     0.0419     0.1125    90.7130     2.4717
  146.0000     8.4030     8.1764     9.3447   -30.0120     8.1784     0.0307     0.1146    86.2226     2.4726
  146.5000     8.6301     8.4075     9.5205   -29.8526     8.1795     0.0344     0.1110    84.7308     2.4650
  147.0000     8.8806     8.6421     9.5198   -29.6940     8.1802     0.0412     0.1052    83.8386     2.4780
  147.5000     9.0666     8.7617     9.5192   -29.6851     8.1811     0.0262     0.1093    84.1459     2.4815
  148.0000     9.1295     8.8219     9.5185   -29.6762     8.1822     0.0135     0.1137    88.8010     2.4677
  148.5000     9.0042     8.8904     9.5179   -29.5177     8.1831     0.0240     0.1116    94.5055     2.4741
  149.0000     8.8806     9.0054     9.5172   -29.3591     8.1838     0.0195     0.1221    96.7618     2.4531
  149.5000     8.8115     9.0047     9.5164   -29.3503     8.1847     0.0187     0.1257    97.9686     2.4396
  150.0000     8.7587     8.8656     9.5159   -29.1916     8.1856     0.0262     0.1138    94.2279     2.4606
  150.5000     8.7665     8.6829     9.4509   -28.9449     8.1864     0.0322     0.1097    94.3840     2.4839
  151.0000     8.7743     8.5002     9.3865   -28.6982     8.1720     0.0262     0.1136    92.1444     2.4711
  151.5000     8.7821     8.4630     9.3226   -28.2617     8.1578     0.0202     0.1166    90.3528     2.4599
  152.0000     8.7899     8.5224     9.2590   -27.9520     8.1587     0.0157     0.1139    89.0109     2.4622
  152.5000     8.7977     8.5821     9.1959   -27.6422     8.1595     0.0262     0.1091    90.2178     2.4764
  153.0000     8.8055     8.7021     9.2008   -27.6317     8.1602     0.0367     0.1040    92.4741     2.4907
  153.5000     8.8133     8.8238     9.2610   -27.6192     8.1609     0.0464     0.0992    93.8309     2.4770
  154.0000     8.8194     8.9472     9.3906   -27.7612     8.1617     0.0352     0.1064    95.4875     2.4963
  154.5000     9.2565     9.0723     9.6056   -28.1974     8.1625     0.0232     0.1121    95.7286     2.4758
  155.0000     9.7527     9.3271     9.9945   -28.3394     8.1632     0.0142     0.1172    92.8037     2.4630
  155.5000    10.1337     9.5892    10.2752   -28.3278     8.1639     0.0097     0.1205    90.8621     2.4495
  156.0000    10.3385     9.7907    10.4189   -28.4686     8.1647     0.0254     0.1112    91.0195     2.4604
  156.5000    10.0399     9.4569    10.2765   -28.4566     8.1654     0.0359     0.1104    94.0375     2.4743
  157.0000     9.6943     9.1942    10.0990   -28.4454     8.1662     0.0314     0.1055    94.4827     2.4817
  157.5000     9.3207     9.0011     9.9840   -28.4356     8.1220     0.0427     0.1106    92.3713     2.4765
  158.0000     9.1928     8.8292     9.8612   -28.4251     8.1228     0.0501     0.1151    92.0988     2.4601
  158.5000     9.3853     8.8299     9.8620   -28.4146     8.1235     0.0614     0.1013    93.6237     2.4886
  159.0000     9.8504     9.2043    10.1390   -28.4042     8.1093     0.0719     0.0872    91.4263     2.5044
  159.5000    10.1264     9.9318    10.7903   -28.3937     8.1100     0.0621     0.0785    89.6706     2.5179
  160.0000     9.8504    10.5697    11.4043   -28.2315     8.1108     0.0419     0.0825    88.3823     2.5149
  160.5000     9.7152    10.8667    10.9369   -28.0715     8.1115     0.0307     0.0898    88.5397     2.4984
  161.0000     9.5819    10.4261    10.4887   -27.9115     8.0973     0.0240     0.1017    89.4467     2.4835
  161.5000     9.3853    10.1543    10.0035   -26.8533     8.0980     0.0157     0.1119    90.8034     2.4685
  162.0000     9.2561     9.8724     9.7314   -25.4957     8.0678     0.0075     0.1223    92.4601     2.4520
  162.5000     9.1928     9.5984     9.5324   -25.0364     8.0546     0.0067     0.1178    93.9668     2.4482
  163.0000     9.1429     9.3375     9.4673   -24.8764     8.0404     0.0165     0.1124    94.7238     2.4633
  163.5000     9.0666     9.1366     9.4680   -25.0184     8.0412     0.0255     0.1073    94.2815     2.4730
  164.0000     9.0666     8.9523     9.4687   -25.0055     8.0419     0.0269     0.1115    93.8392     2.4805
  164.5000     9.0666     8.7764     9.4694   -24.9952     8.0427     0.0246     0.1151    93.6948     2.4663
  165.0000     9.0042     8.7770     9.4700   -24.8352     8.0473     0.0256     0.1079    94.3038     2.4723
  165.5000     9.0042     8.7170     9.4706   -24.9747     8.0591     0.0332     0.1004    94.7611     2.4896
  166.0000     9.0118     8.7781     9.4713   -25.1141     8.0599     0.0416     0.0908    95.3682     2.5091
  166.5000     9.0666     8.8397     9.4067   -25.7026     8.0606     0.0359     0.0877    95.8254     2.5279
  167.0000     9.0666     8.9015     9.4074   -26.2886     8.0492     0.0404     0.0907    94.6335     2.4986
  167.5000     9.0666     8.9321     9.4080   -26.5802     8.0621     0.0374     0.0865    92.0922     2.4904
  168.0000     9.0666     9.0267     9.4087   -26.8668     8.0630     0.0269     0.1066    89.7008     2.4732
  168.5000     9.0666     9.0272     9.4064   -26.8565     8.0636     0.0195     0.1162    88.3571     2.4604
  169.0000     9.1295     9.0266     9.3452   -26.9341     8.0644     0.0217     0.1129    91.9646     2.4642
  169.5000     9.1295     8.9589     9.2816   -27.7341     8.0652     0.0247     0.1108    94.9706     2.4725
  170.0000     9.1928     8.8378     9.2181   -28.3227     8.0660     0.0225     0.1072    96.9270     2.4845
  170.5000     9.1928     8.6631     9.0923   -28.7335     8.0666     0.0374     0.0934    98.4337     2.5019
  171.0000     9.1928     8.5447     9.0303   -29.1173     8.0675     0.0464     0.0853    99.3407     2.5270
  171.5000     9.2143     8.4833     8.9688   -29.4894     8.0530     0.0247     0.0807    98.8980     2.5475
  172.0000     9.2565     8.3706     8.8892   -29.9341     8.0540     0.0142     0.0809    98.3058     2.5070
  172.5000     9.1928     8.3135     8.7859   -30.2589     8.0546     0.0284     0.0763    98.4635     2.5214
  173.0000     9.1928     8.3141     8.6742   -30.5039     8.0555     0.0412     0.0816    99.0707     2.5138
  173.5000     9.1295     8.3147     8.5477   -30.6459     8.0562     0.0322     0.1037    95.6298     2.4883
  174.0000     9.0666     8.3729     8.4309   -30.7853     8.0719     0.0344     0.0989    93.2385     2.4906
  174.5000     9.0666     8.5489     8.3735   -30.6228     8.0876     0.0269     0.1034    91.8966     2.5109
  175.0000     9.0666     8.7285     8.3740   -30.4628     8.1034     0.0202     0.1128    92.6537     2.4884
  175.5000     9.0666     8.9762     8.6093   -30.3028     8.1041     0.0157     0.1162    94.4723     2.4734
