~VERSION INFORMATION
 VERS.                2.0:   CWLS LOG ASCII STANDARD - VERSION 2.0
 WRAP.                 NO:   ONE LINE PER DEPTH STEP
~WELL INFORMATION
#MNEM.UNIT      DATA TYPE    INFORMATION
#----------   ------------   ------------------------------
 STRT.F            0.0000:   START DEPTH
 STOP.F          795.0000:   STOP DEPTH
 STEP.F            0.5000:   STEP LENGTH
 NULL.          -999.2500:   NO VALUE
 COMP. BROWN JOHN E&C INC:   COMPANY
 WELL. NPR 3 SX-11 #41-11:   WELL
 FLD .             TEAPOT:   FIELD
 LOC .      S11 T38N R78W:   LOCATION
 CNTY.            NATRONA:   COUNTY
 STAT.            WYOMING:   STATE
 CTRY. UNITED STATES OF AMERICA:   COUNTRY
 SRVC.           Gearhart:   SERVICE COMPANY
 DATE.        19-AUG-1988:   LOGDATE
 API .       490251125300:   API NUMBER
~CURVE INFORMATION
#MNEM.UNIT       API CODE    CURVE DESCRIPTION
#----------   ------------   ------------------------------
 DEPT.F                  :   
 ILD .OHMM   07 120 46 00:   INDUCTION LOG DEEP
 ILM .OHMM   07 120 44 00:   INDUCTION LOG MEDIUM
 GRR .GAPI   07 310 01 00:   GAMMA RAY FROM RES. LOG.
~PARAMETER INFORMATION
#MNEM.UNIT          VALUE    DESCRIPTION
#----------   ------------   ------------------------------
 PD  .                 GL:   PERMANENT DATUM
 EPD .F              5093:   ELEVATION PERMANENT DATUM
 LMF .                 KB:   LOG MEASURED FROM
 DAPD.F                10:   FEET ABOVE PERMANENT DATUM
 DMF .                 KB:   DRILLING MEASURED FROM
 EKB .F              5103:   KELLING BUSHING
 EGL .F              5093:   GROUND LEVEL
 DATE.            8-19-88:   RUN DATE
 RUN .                  1:   RUN NUMBER
 DD  .F               800:   DEPTH DRILLER
 DL  .F             802.5:   DEPTH LOGGER
 BLI .F               794:   BOTTOM LOG INTERVAL
 CS  .IN            9.625:   CASING SIZE
 CBD .F                48:   CASING BOTTOM DRILLER
 CBL .F                48:   CASING BOTTOM LOGGER
 BS  .IN             8.75:   BIT SIZE
 BSD .F               800:   BIT SIZE AT DEPTH
 DFT .                AIR:   DRILLING FLUID TYPE
 TCS .HRS            1900:   TIME CURCULATED STOPPED
 TLAB.HRS            2000:   TIME LOGGER AT BOTTOM
 MRT .F                70:   MAXIMUM RECORDED TEMPERATURE
 LUN .               7597:   LOGGING UNIT NUMBER
 LUL .           GILLETTE:   LOGGING UNIT LOCATION
 ENGI.          HUCKFELDT:   RECORDING ENGINEER
 WITN.             STRONG:   WITNESSED BY
 CLNT.            A2DTECH:   CLIENT CODE
 ORIG.        2" 5" PRINT:   ORIGIN OF DATA
 UWI .       490251125300:   UNIQUE WELL ID
 DICO. A2D Technologies, Inc.:   DIGITIZING COMPANY
~OTHER INFORMATION
~A    DEPT     ILD        ILM         GRR  
# ...
  728.0000    13.1979    12.4183    85.2488
  728.5000    13.2033    12.3484    87.2899
  729.0000    13.2282    12.2787    87.5738
  729.5000    13.2522    12.2093    87.4421
  730.0000    13.2762    12.1404    85.1609
  730.5000    13.3001    12.1033    82.9643
  731.0000    13.3217    12.0698    81.4154
  731.5000    13.1189    12.0364    81.8621
  732.0000    12.8433    11.9974    83.2502
  732.5000    12.5736    11.9540    85.8478
  733.0000    12.3095    11.9093    88.2946
  733.5000    12.2475    11.8773    90.4190
  734.0000    12.2472    11.8446    90.0671
  734.5000    12.1829    11.8116    89.1041
  735.0000    12.0717    11.7456    88.1345
  735.5000    11.9620    11.6572    87.6034
  736.0000    11.8532    11.5696    87.7592
  736.5000    11.7455    11.4826    87.9033
  737.0000    11.6387    11.3963    88.1409
  737.5000    11.5790    11.3656    88.4234
  738.0000    11.6840    11.3897    88.7078
  738.5000    11.8067    11.4835    88.9924
  739.0000    11.9313    11.5781    89.2753
  739.5000    12.0571    11.6735    89.5431
  740.0000    12.1841    11.7696    90.1547
  740.5000    12.2475    11.7983    90.7868
  741.0000    12.1894    11.5825    91.5772
  741.5000    12.1373    11.3913    92.7321
  742.0000    12.0853    11.2032    93.3244
  742.5000    12.0336    11.1553    93.8508
  743.0000    11.9475    11.1828    94.3737
  743.5000    11.8507    11.2124    94.9179
  744.0000    11.7547    11.2423    95.4839
  744.5000    11.6595    11.2600    95.7104
  745.0000    11.5651    11.1901    95.7128
  745.5000    11.4723    11.0734    95.7144
  746.0000    11.4204    10.9576    95.8633
  746.5000    11.3692    10.8471    96.6571
  747.0000    11.3182    10.8466    97.4418
  747.5000    11.2600    10.8470    98.1001
  748.0000    11.3840    10.8470    96.8765
  748.5000    11.5314    10.8206    95.6274
  749.0000    11.6045    10.7462    94.4841
  749.5000    11.6411    10.8747    95.4386
  750.0000    11.6781    11.0655    96.8032
  750.5000    11.7006    11.2597    98.2453
  751.0000    11.7406    11.4723    98.0732
  751.5000    11.7802    11.4723    96.8740
  752.0000    11.7986    11.4436    96.1587
  752.5000    11.7170    11.3891    97.5824
  753.0000    11.5699    11.2653    98.9088
  753.5000    11.4247    11.0889    98.1370
  754.0000    11.2347    10.9154    97.7766
  754.5000    11.0155    10.7447    98.6982
  755.0000    10.8274    10.5763   100.8706
  755.5000    10.7374    10.5018   103.1097
  756.0000    10.6482    10.4468   102.8052
  756.5000    10.5598    10.3921   101.1487
  757.0000    10.5003    10.3377   100.3045
  757.5000    10.4296    10.2835   100.4643
  758.0000    10.3595    10.2296   100.7991
  758.5000    10.2898    10.1761   101.7078
  759.0000    10.2205    10.0422   104.1209
  759.5000    10.1518     9.8774   106.6010
  760.0000    10.0835     9.7154   106.6936
  760.5000     9.9343     9.5560   106.0963
  761.0000     9.7380     9.3824   105.4989
  761.5000     9.4359     9.2067   105.7887
  762.0000     9.1135     9.0565   107.7226
  762.5000     8.7562     8.9149   109.6577
  763.0000     8.4129     8.7774   110.0970
  763.5000     7.9475     8.6360   110.2213
  764.0000     7.3709     8.1179   110.3605
  764.5000     6.7060     7.4100   111.6133
  765.0000     6.1011     6.7123   114.3834
  765.5000     5.6902     5.9361   117.1726
  766.0000     5.4597     5.2496   121.3263
  766.5000     5.3833     4.7029   127.3071
  767.0000     5.4153     4.4804   138.3961
  767.5000     5.4797     4.3425   141.2106
  768.0000     5.5799     4.7080   136.0432
  768.5000     5.9259     5.2645   125.3054
  769.0000     6.3098     5.7862   114.7863
  769.5000     6.9265     6.2703   107.2163
  770.0000     7.6356     6.9353   105.4403
  770.5000     8.4215     7.7884   105.9146
  771.0000     8.9710     8.4588   105.9567
  771.5000     9.1923     8.7438   105.3843
  772.0000     9.2319     9.0347   104.7797
  772.5000     9.3659     9.1000   105.2496
  773.0000     9.6278     9.1205   106.1114
  773.5000     9.8797     9.1411   106.9889
  774.0000    10.0129     9.1617   107.8754
  774.5000    10.1400     9.3768   107.2118
  775.0000    10.2686     9.6923   106.3471
  775.5000    10.3988     9.9024   106.2879
  776.0000    10.5307    10.0676   106.9943
  776.5000    10.6928    10.2355   107.7107
  777.0000    11.0460    10.4062   108.4293
  777.5000    11.4121    10.6174   109.1231
  778.0000    11.7971    10.8457   108.7500
  778.5000    11.9167    11.0788   106.3562
  779.0000    12.0366    11.3170   104.0148
  779.5000    12.1412    11.5199   102.9145
  780.0000    12.1744    11.7160   104.4606
  780.5000    12.2083    11.9091   104.0430
  781.0000    12.2423    11.9900   103.0490
  781.5000    12.3053    12.0690   102.2031
  782.0000    12.3739    12.1485    93.9824
  782.5000    12.4429    12.2285    84.8263
  783.0000    12.5123    12.3091    76.0885
  783.5000    12.5820    12.3907    84.4741
  784.0000    12.6522    12.4799   100.7188
  784.5000    12.7138    12.4781  -999.2500
  785.0000    12.6015    12.3523  -999.2500
  785.5000    12.5027    12.1818  -999.2500
  786.0000    12.4045    12.0136  -999.2500
  786.5000    12.3070    11.9025  -999.2500
  787.0000    12.2107    11.8651  -999.2500
  787.5000    12.1333    11.8278  -999.2500
  788.0000    12.1781    11.7983  -999.2500
  788.5000    12.2460    12.0253  -999.2500
  789.0000    11.7181    12.2163  -999.2500
  789.5000    10.9258    12.2475  -999.2500
  790.0000    10.8470    12.0112  -999.2500
  790.5000  -999.2500    11.8501  -999.2500
  791.0000  -999.2500    11.6134  -999.2500
  791.5000  -999.2500    11.3399  -999.2500
  792.0000  -999.2500    11.0758  -999.2500
  792.5000  -999.2500    10.8167  -999.2500
  793.0000  -999.2500    10.7462  -999.2500
  793.5000  -999.2500    10.7462  -999.2500
  794.0000  -999.2500    10.7478  -999.2500
  794.5000  -999.2500    10.2816  -999.2500
  795.0000  -999.2500     9.9472  -999.2500
