~VERSION INFORMATION
 VERS.                2.0:   CWLS LOG ASCII STANDARD - VERSION 2.0
 WRAP.                 NO:   ONE LINE PER DEPTH STEP
~WELL INFORMATION
#MNEM.UNIT      DATA TYPE    INFORMATION
#----------   ------------   ------------------------------
 STRT.F          690.5000:   START DEPTH
 STOP.F         2366.0000:   STOP DEPTH
 STEP.F            0.5000:   STEP LENGTH
 NULL.          -999.2500:   NO VALUE
 COMP. LAWRENCE/ALLISON INC:   COMPANY
 WELL.  NPR 3 #26SHX10-10:   WELL
 FLD .             TEAPOT:   FIELD
 LOC .      S10 T38N R78W:   LOCATION
 CNTY.            NATRONA:   COUNTY
 STAT.            WYOMING:   STATE
 CTRY. UNITED STATES OF AMERICA:   COUNTRY
 SRVC.            Unknown:   SERVICE COMPANY
 DATE.        30-DEC-1992:   LOGDATE
 API .       490251113600:   API NUMBER
~CURVE INFORMATION
#MNEM.UNIT       API CODE    CURVE DESCRIPTION
#----------   ------------   ------------------------------
 DEPT.F                  :   
 ROP .MIN/FT 91 810 01 00:   RATE OF DRILLING PENETRATION
 TGAS.UNITS  91 830 01 00:   TOTAL GAS FROM HOTWIRE
~PARAMETER INFORMATION
#MNEM.UNIT          VALUE    DESCRIPTION
#----------   ------------   ------------------------------
 EKB .F              5235:   KELLING BUSHING
 EGL .F              5225:   GROUND LEVEL
 DATE.           12-30-92:   RUN DATE
 DD  .F              2365:   DEPTH DRILLER
 BLI .F              2360:   BOTTOM LOG INTERVAL
 TLI .F              2160:   TOP LOG INTERVAL
 CS  .IN            8.625:   CASING SIZE
 CBD .F               675:   CASING BOTTOM DRILLER
 TCS .HRS            0200:   TIME CURCULATED STOPPED
 TLAB.HRS            1700:   TIME LOGGER AT BOTTOM
 ENGI.               HUSK:   RECORDING ENGINEER
 WITN.              TOWER:   WITNESSED BY
 CLNT.            A2DTECH:   CLIENT CODE
 ORIG.           5" PRINT:   ORIGIN OF DATA
 UWI .       490251113600:   UNIQUE WELL ID
 DICO. A2D Technologies, Inc.:   DIGITIZING COMPANY
~OTHER INFORMATION
~A   DEPT      ROP         TGAS 
# ...
 1662.5000     1.9910    16.1557
 1663.0000     2.0015    16.2000
 1663.5000     2.0014    17.3183
 1664.0000     2.0012    17.3702
 1664.5000     1.9906    17.4221
 1665.0000     1.9905    17.4741
 1665.5000     1.9904    17.5259
 1666.0000     1.9797    17.5779
 1666.5000     1.9796    18.6886
 1667.0000     2.1272    18.7412
 1667.5000     2.2431    18.7941
 1668.0000     2.2852    18.8573
 1668.5000     2.2851    21.0268
 1669.0000     2.2850    21.0787
 1669.5000     2.2849    21.1306
 1670.0000     2.2848    21.1825
 1670.5000     2.2847    21.2344
 1671.0000     2.2846    21.2863
 1671.5000     2.2950    21.3382
 1672.0000     2.2844    21.3901
 1672.5000     2.2843    21.4420
 1673.0000     2.2842    21.4941
 1673.5000     2.2735    21.5471
 1674.0000     2.2523    21.6000
 1674.5000     2.1995    21.6626
 1675.0000     2.1150    21.7145
 1675.5000     2.0305    21.7664
 1676.0000     2.0093    21.8183
 1676.5000     2.0307    20.7984
 1677.0000     2.1416    21.9221
 1677.5000     2.3207    21.9741
 1678.0000     2.4519    22.0259
 1678.5000     2.5151    22.0779
 1679.0000     2.5255    22.1298
 1679.5000     2.5254    22.1824
 1680.0000     2.5253    22.2353
 1680.5000     2.4725    22.2984
 1681.0000     2.1664    22.3503
 1681.5000     2.0187    22.3941
 1682.0000     1.9869    22.4471
 1682.5000     1.9868    22.5104
 1683.0000     1.9867    22.5187
 1683.5000     2.0185    22.5104
 1684.0000     2.0172    22.5020
 1684.5000     1.9758    22.4937
 1685.0000     1.9757    22.4854
 1685.5000     1.9756    22.4770
 1686.0000     1.9755    22.4687
 1686.5000     2.0387    22.4604
 1687.0000     2.1546    22.4520
 1687.5000     2.2811    22.4437
 1688.0000     2.3127    22.4353
 1688.5000     2.3125    22.4270
 1689.0000     2.3124    22.4187
 1689.5000     2.3018    22.4103
 1690.0000     2.3017    22.4020
 1690.5000     2.3121    22.3937
 1691.0000     2.3120    22.3853
 1691.5000     2.3014    22.3770
 1692.0000     2.2801    22.3687
 1692.5000     2.1851    22.3603
 1693.0000     2.0901    22.3520
 1693.5000     2.0161    22.3437
 1694.0000     1.9844    22.3353
 1694.5000     1.9843    22.3270
 1695.0000     1.9947    22.3186
 1695.5000     2.0263    22.3103
 1696.0000     2.1844    22.3020
 1696.5000     2.2792    22.2936
 1697.0000     2.2686    22.2853
 1697.5000     2.2579    22.2770
 1698.0000     2.3234    22.2686
 1698.5000     2.5740    22.2603
 1699.0000     2.8694    22.2520
 1699.5000     3.0381    22.2436
 1700.0000     3.0095    22.2353
 1700.5000     2.8884    22.3592
 1701.0000     2.7227    22.4831
 1701.5000     2.5333    22.6070
 1702.0000     2.4811    22.7309
 1702.5000     2.5027    22.8548
 1703.0000     2.5349    22.9787
 1703.5000     2.5459    23.1026
 1704.0000     2.5148    23.2265
 1704.5000     2.4520    23.3504
 1705.0000     2.3667    23.4743
 1705.5000     2.2244    23.5982
 1706.0000     2.0739    23.7221
 1706.5000     2.0321    23.8460
 1707.0000     2.0960    23.9699
 1707.5000     2.1598    24.0939
 1708.0000     2.2236    24.2178
 1708.5000     2.2664    24.3417
 1709.0000     2.1877    24.4656
 1709.5000     2.0249    24.5895
 1710.0000     1.9937    24.7134
 1710.5000     2.0048    24.7998
 1711.0000     2.0159    25.8791
 1711.5000     2.0375    25.8997
 1712.0000     2.0485    24.8612
 1712.5000     1.9954    24.8824
 1713.0000     1.8914    23.8436
 1713.5000     1.7970    23.8693
 1714.0000     1.7658    22.8259
 1714.5000     1.7557    22.8516
 1715.0000     1.7564    22.8721
 1715.5000     1.7674    22.8927
 1716.0000     1.7570    22.9132
 1716.5000     1.7053    23.9929
 1717.0000     1.6108    24.0183
 1717.5000     1.5375    24.0388
 1718.0000     1.5168    24.0593
 1718.5000     1.4963    24.0799
 1719.0000     1.4969    24.1004
 1719.5000     1.4868    24.1210
 1720.0000     1.4768    24.1415
 1720.5000     1.4562    24.1624
 1721.0000     1.4885    24.1877
 1721.5000     1.5417    24.2083
 1722.0000     1.6266    24.2288
 1722.5000     1.7010    24.2494
 1723.0000     1.7331    24.2699
 1723.5000     1.7547    24.2922
 1724.0000     1.7447    24.3110
 1724.5000     1.7031    24.2859
 1725.0000     1.6298    23.2933
 1725.5000     1.5670    23.3153
 1726.0000     1.5358    23.3395
 1726.5000     1.5470    23.3600
 1727.0000     1.5897    23.3806
 1727.5000     1.6325    23.4011
 1728.0000     1.6963    23.4217
 1728.5000     1.7601    23.4424
 1729.0000     1.8239    23.4635
 1729.5000     1.8877    23.4884
 1730.0000     1.9304    23.5090
 1730.5000     1.9731    23.5295
 1731.0000     1.9842    23.5501
 1731.5000     2.0059    23.5706
 1732.0000     2.0064    23.5911
 1732.5000     2.0069    23.6118
 1733.0000     2.0074    23.6329
 1733.5000     2.0185    23.6579
 1734.0000     2.0401    23.6784
 1734.5000     2.0838    23.6990
 1735.0000     2.1678    23.7195
 1735.5000     2.2422    23.7401
 1736.0000     2.3165    23.7606
 1736.5000     2.3592    23.7812
 1737.0000     2.4230    23.8024
 1737.5000     2.5079    23.8274
 1738.0000     2.5401    23.8479
 1738.5000     2.5300    23.8685
 1739.0000     2.5412    23.8890
 1739.5000     2.5311    23.9096
 1740.0000     2.5528    23.9301
 1740.5000     2.6166    23.9506
 1741.0000     2.7120    23.9718
 1741.5000     2.8185    23.9969
 1742.0000     2.9799    24.0174
 1742.5000     2.9036    24.0379
 1743.0000     2.7775    24.0585
 1743.5000     2.6409    24.0790
 1744.0000     2.5254    24.1013
 1744.5000     2.4836    23.0612
 1745.0000     2.4947    23.0823
 1745.5000     2.5058    23.1075
 1746.0000     2.4852    23.1281
 1746.5000     2.4436    22.0846
 1747.0000     2.3703    21.0464
 1747.5000     2.3286    21.0720
 1748.0000     2.3079    21.0926
 1748.5000     2.2874    21.1131
 1749.0000     2.2774    20.0748
 1749.5000     2.2781    20.1005
 1750.0000     2.2824    20.1489
 1750.5000     2.3314    20.3635
 1751.0000     2.3947    20.5781
 1751.5000     2.4476    20.7927
 1752.0000     2.5215    21.0072
 1752.5000     2.3212    21.2218
 1753.0000     2.0998    21.4364
 1753.5000     2.0261    21.5519
 1754.0000     2.0248    21.6036
 1754.5000     2.1866    21.6554
 1755.0000     2.3463    21.7059
 1755.5000     2.5223    21.7588
 1756.0000     2.6806    21.8118
 1756.5000     2.8178    21.8647
 1757.0000     2.9656    21.9176
 1757.5000     2.9974    21.9706
 1758.0000     2.9869    22.0235
 1758.5000     2.9870    22.0765
 1759.0000     2.9987    22.1294
 1759.5000     3.0295    22.1824
 1760.0000     2.9135    22.2353
 1760.5000     2.7765    22.2882
 1761.0000     2.6711    22.3412
 1761.5000     2.5130    22.3941
 1762.0000     2.4498    22.4471
 1762.5000     2.6081    22.5000
 1763.0000     2.8635    22.5529
 1763.5000     2.9881    22.6059
 1764.0000     2.9566    22.6588
 1764.5000     2.9567    22.7118
 1765.0000     2.9990    22.7647
 1765.5000     3.0940    22.8176
 1766.0000     2.9886    22.8706
 1766.5000     2.7883    22.9235
 1767.0000     2.6196    22.9765
 1767.5000     2.5142    23.0294
 1768.0000     2.9574    23.0824
 1768.5000     3.1790    23.1353
 1769.0000     3.3901    23.1882
 1769.5000     3.5379    23.2412
 1770.0000     3.5380    23.2941
 1770.5000     3.5486    23.3471
 1771.0000     3.5487    23.4000
 1771.5000     3.5488    23.4529
 1772.0000     3.4920    23.5059
 1772.5000     3.3170    23.5588
 1773.0000     3.0850    23.6118
 1773.5000     3.0324    23.6647
 1774.0000     3.0852    23.7176
 1774.5000     3.2436    23.7706
 1775.0000     3.4546    23.8235
 1775.5000     3.3387    23.8765
 1776.0000     2.9485    23.9294
 1776.5000     2.6216    23.9823
 1777.0000     2.1892    24.0353
 1777.5000     2.0311    24.0882
 1778.0000     1.9890    24.1412
 1778.5000     1.9891    24.1941
 1779.0000     1.9892    24.2471
 1779.5000     1.9894    24.3000
 1780.0000     2.0000    24.3529
 1780.5000     2.0107    24.4026
 1781.0000     2.0319    24.4286
 1781.5000     2.0320    24.4545
 1782.0000     2.0215    24.4804
 1782.5000     2.0111    24.5064
 1783.0000     2.0006    24.5323
 1783.5000     2.0566    24.5582
