~VERSION INFORMATION
 VERS.                2.0:   CWLS LOG ASCII STANDARD - VERSION 2.0
 WRAP.                 NO:   ONE LINE PER DEPTH STEP
~WELL INFORMATION
#MNEM.UNIT      DATA TYPE    INFORMATION
#----------   ------------   ------------------------------
 STRT.F           43.0000:   START DEPTH
 STOP.F          973.0000:   STOP DEPTH
 STEP.F            0.5000:   STEP LENGTH
 NULL.          -999.2500:   NO VALUE
 COMP. LAWRENCE/ALLISON INC:   COMPANY
 WELL.    68-11 SX #11-11:   WELL
 FLD .           NPR NO 3:   FIELD
 LOC .      S11 T38N R78W:   LOCATION
 CNTY.            NATRONA:   COUNTY
 STAT.            WYOMING:   STATE
 CTRY. UNITED STATES OF AMERICA:   COUNTRY
 SRVC.           Gearhart:   SERVICE COMPANY
 DATE.        15-MAY-1986:   LOGDATE
 API .       490251105800:   API NUMBER
~CURVE INFORMATION
#MNEM.UNIT       API CODE    CURVE DESCRIPTION
#----------   ------------   ------------------------------
 DEPT.F                  :   
 GRN .GAPI   42 310 01 00:   GAMMA RAY FROM COMPENSATED NEUTRON LOG
 CNS .DEC    42 890 01 00:   NEUTRON POROSITY LIMESTONE
~PARAMETER INFORMATION
#MNEM.UNIT          VALUE    DESCRIPTION
#----------   ------------   ------------------------------
 PD  .                 GL:   PERMANENT DATUM
 LMF .                 KB:   LOG MEASURED FROM
 DMF .                 KB:   DRILLING MEASURED FROM
 DATE.        15-MAY-1986:   RUN DATE
 RUN .                  1:   RUN NUMBER
 DD  .F               974:   DEPTH DRILLER
 DL  .F               974:   DEPTH LOGGER
 BLI .F               973:   BOTTOM LOG INTERVAL
 TLI .F                39:   TOP LOG INTERVAL
 CS  .IN              4.5:   CASING SIZE
 BS  .IN             7.87:   BIT SIZE
 BSD .F               974:   BIT SIZE AT DEPTH
 DFT .              WATER:   DRILLING FLUID TYPE
 DFD .               8.34:   DRILLING FLUID DENSITY
 BHT .F                66:   BOTTOM HOLE TEMPERATURE
 LUN .               6084:   LOGGING UNIT NUMBER
 LUL .           GILLETTE:   LOGGING UNIT LOCATION
 ENGI.              BAUER:   RECORDING ENGINEER
 WITN.       STRONG/FIVAS:   WITNESSED BY
 CLNT.            A2DTECH:   CLIENT CODE
 ORIG.           5" PRINT:   ORIGIN OF DATA
 UWI .       490251105800:   UNIQUE WELL ID
 DICO. A2D Technologies, Inc.:   DIGITIZING COMPANY
 R1  . POROSITY WITH LIMESTONE:   REMARKS 1
~OTHER INFORMATION
~A   DEPT       GRN       CNS   
# ...
  529.0000    98.6282     0.2866
  529.5000    98.0383     0.2914
  530.0000    97.7478     0.2962
  530.5000    99.5939     0.2917
  531.0000    99.9158     0.2859
  531.5000    99.3258     0.2881
  532.0000    97.8240     0.2964
  532.5000    96.6261     0.3061
  533.0000    97.2523     0.3094
  533.5000    97.2299     0.3127
  534.0000    95.4686     0.3139
  534.5000    94.8742     0.3094
  535.0000    94.8966     0.3045
  535.5000    94.9145     0.3072
  536.0000    93.4127     0.3184
  536.5000    94.0386     0.3241
  537.0000    95.2723     0.3229
  537.5000    96.8100     0.3141
  538.0000    98.6516     0.2936
  538.5000    94.7182     0.2802
  539.0000    89.5690     0.2785
  539.5000    86.5474     0.2848
  540.0000    85.6535     0.2863
  540.5000    92.4599     0.2911
  541.0000    97.9697     0.3013
  541.5000   100.6054     0.3095
  542.0000   100.3194     0.3143
  542.5000    98.2097     0.3097
  543.0000    95.7960     0.2955
  543.5000    94.8976     0.2853
  544.0000    95.2240     0.2801
  544.5000    96.1538     0.2831
  545.0000    97.9954     0.2876
  545.5000    99.5331     0.2941
  546.0000   101.3748     0.3101
  546.5000   102.0006     0.3218
  547.0000   102.3225     0.3319
  547.5000   102.0365     0.3201
  548.0000   101.7306     0.3029
  548.5000   100.4721     0.2960
  549.0000    96.9276     0.2969
  549.5000    94.2100     0.3044
  550.0000    93.0076     0.2902
  550.5000    93.5661     0.2814
  551.0000    94.2796     0.2688
  551.5000    96.7841     0.2754
  552.0000   100.6589     0.2872
  552.5000   101.2758     0.2956
  553.0000    97.9474     0.3031
  553.5000    94.3120     0.2995
  554.0000    92.1963     0.2850
  554.5000    91.2965     0.2727
  555.0000    91.6124     0.2624
  555.5000    94.0561     0.2645
  556.0000    94.9799     0.2760
  556.5000    95.2929     0.2742
  557.0000    93.1802     0.2736
  557.5000    91.3685     0.2781
  558.0000    90.4657     0.2738
  558.5000    91.3925     0.2699
  559.0000    93.2283     0.2752
  559.5000    97.1916     0.2832
  560.0000    96.2918     0.2856
  560.5000    92.6106     0.2829
  561.0000    90.5407     0.2784
  561.5000    90.2488     0.2766
  562.0000    91.7836     0.2841
  562.5000    93.9232     0.2853
  563.0000    97.2787     0.2823
  563.5000   100.3302     0.2796
  564.0000    99.4304     0.2817
  564.5000    96.0989     0.2805
  565.0000    94.8921     0.2768
  565.5000    95.8190     0.2678
  566.0000    96.1319     0.2611
  566.5000    94.0193     0.2642
  567.0000    93.4204     0.2693
  567.5000    91.6117     0.2783
  568.0000    91.6237     0.2862
  568.5000    93.7634     0.2980
  569.0000    95.5991     0.3009
  569.5000    96.5229     0.2938
  570.0000    96.2310     0.2810
  570.5000    96.8664     0.2789
  571.0000    98.4135     0.2768
  571.5000    99.3065     0.2732
  572.0000    98.1057     0.2696
  572.5000    98.7257     0.2771
  573.0000   100.2574     0.2864
  573.5000   101.7892     0.2928
  574.0000   103.3210     0.2843
  574.5000   104.2448     0.2804
  575.0000   104.5578     0.2861
  575.5000   103.9619     0.2934
  576.0000   104.2808     0.3040
  576.5000   105.5086     0.3087
  577.0000   105.5207     0.3009
  577.5000   104.6208     0.2946
  578.0000   103.1131     0.3072
  578.5000   102.2132     0.3262
  579.0000   101.0094     0.3365
  579.5000    98.2859     0.3295
  580.0000    98.6018     0.3148
  580.5000    97.9754     0.2973
  581.0000    94.9180     0.2894
  581.5000    92.2095     0.2876
  582.0000    92.8778     0.2924
  582.5000    95.8512     0.2921
  583.0000    97.1541     0.2903
  583.5000    90.4822     0.2927
  584.0000    87.1507     0.2960
  584.5000    86.2479     0.2921
  585.0000    91.1261     0.2906
  585.5000    92.0500     0.2885
  586.0000    91.1471     0.2824
  586.5000    92.0740     0.2778
  587.0000    93.3018     0.2761
  587.5000    96.0494     0.2791
  588.0000    98.1890     0.2752
  588.5000    99.1129     0.2740
  589.0000    99.4289     0.2791
  589.5000    99.4409     0.2875
  590.0000    99.7568     0.2924
  590.5000   100.0883     0.2918
  591.0000   100.6930     0.2878
  591.5000   100.7051     0.2830
  592.0000    99.2000     0.2661
  592.5000    95.2606     0.2628
  593.0000    94.0568     0.2755
  593.5000    94.3728     0.2902
  594.0000    95.6006     0.2948
  594.5000    96.8284     0.2935
  595.0000    96.2325     0.2944
  595.5000    94.4208     0.2966
  596.0000    90.1775     0.3056
  596.5000    88.0588     0.3125
  597.0000    89.5936     0.3143
  597.5000    92.6451     0.3032
  598.0000    96.0006     0.2950
  598.5000    98.4442     0.2944
  599.0000    99.9760     0.2926
  599.5000    99.9880     0.2914
  600.0000    96.9605     0.2959
  600.5000    96.4442     0.2974
  601.0000    96.3766     0.2995
  601.5000    97.0485     0.3089
  602.0000    98.5312     0.3110
  602.5000    99.4550     0.3001
  603.0000   100.0719     0.2902
  603.5000    99.1751     0.2896
  604.0000    98.2752     0.2866
  604.5000    97.3723     0.2820
  605.0000    96.7764     0.2790
  605.5000    96.7914     0.2871
  606.0000    94.6757     0.3001
  606.5000    93.4689     0.3120
  607.0000    95.6116     0.3134
  607.5000    98.6631     0.3122
  608.0000    98.6750     0.3116
  608.5000    98.9910     0.3107
  609.0000    99.3128     0.3067
  609.5000   100.5819     0.2977
  610.0000   102.0669     0.2944
  610.5000   102.3824     0.2941
  611.0000    99.9658     0.2941
  611.5000    98.4580     0.2965
  612.0000    98.1631     0.3037
  612.5000    99.3938     0.3185
  613.0000   100.3177     0.3375
  613.5000   101.2415     0.3406
  614.0000   101.5545     0.3248
  614.5000    99.4418     0.3103
  615.0000    96.7182     0.2972
  615.5000    95.8154     0.2912
  616.0000    97.9580     0.2901
  616.5000   100.7056     0.2913
  617.0000   100.4134     0.2847
  617.5000   100.1215     0.2753
  618.0000    99.1978     0.2699
  618.5000    97.1061     0.2768
  619.0000    97.7731     0.2843
  619.5000   100.1726     0.2871
  620.0000   100.7925     0.2877
  620.5000   101.1084     0.2874
  621.0000   100.8135     0.2904
  621.5000   100.2205     0.3036
  622.0000    99.0167     0.3127
  622.5000    97.8129     0.3165
  623.0000    97.8249     0.3100
  623.5000    99.3566     0.3057
  624.0000   101.8002     0.3086
  624.5000   102.7241     0.3128
  625.0000   102.1282     0.3130
  625.5000   100.0125     0.3057
  626.0000    99.1126     0.2928
  626.5000    99.1246     0.2807
  627.0000    99.1368     0.2780
  627.5000    99.7924     0.2837
  628.0000   100.6808     0.2979
  628.5000   100.3884     0.3039
  629.0000    99.7924     0.3084
  629.5000    98.5916     0.2957
  630.0000    94.9562     0.2882
  630.5000    92.5366     0.2954
  631.0000    92.5486     0.3033
  631.5000    93.4724     0.3120
  632.0000    94.7002     0.3093
  632.5000    95.6240     0.3030
  633.0000    95.9400     0.2917
  633.5000    97.3721     0.2885
  634.0000    99.9067     0.2912
  634.5000   101.1411     0.3002
  635.0000    98.7245     0.3072
  635.5000    97.5207     0.3135
  636.0000    96.3169     0.3026
  636.5000    94.2012     0.2903
  637.0000    91.7816     0.2830
  637.5000    88.4501     0.2936
  638.0000    86.6383     0.2976
  638.5000    88.8240     0.2872
  639.0000    93.4286     0.2818
  639.5000    96.4008     0.2893
  640.0000    94.8960     0.3041
  640.5000    94.2971     0.3093
  641.0000    96.1358     0.2951
  641.5000   100.0992     0.2881
  642.0000   101.9349     0.2875
  642.5000    97.3876     0.2854
  643.0000    94.9679     0.2815
  643.5000    94.6730     0.2730
  644.0000    94.9919     0.2613
  644.5000    94.3960     0.2676
  645.0000    92.8882     0.2782
  645.5000    92.2918     0.2795
  646.0000    93.5201     0.2567
  646.5000    92.9242     0.2516
  647.0000    92.6322     0.2564
  647.5000    92.6444     0.2642
  648.0000    92.9605     0.2742
  648.5000    92.9231     0.2687
  649.0000    92.3762     0.2594
  649.5000    92.0873     0.2549
  650.0000    90.5765     0.2676
