~VERSION INFORMATION
 VERS.                2.0:   CWLS LOG ASCII STANDARD - VERSION 2.0
 WRAP.                 NO:   ONE LINE PER DEPTH STEP
~WELL INFORMATION
#MNEM.UNIT      DATA TYPE    INFORMATION
#----------   ------------   ------------------------------
 STRT.F          110.5000:   START DEPTH
 STOP.F         1944.0000:   STOP DEPTH
 STEP.F            0.5000:   STEP LENGTH
 NULL.          -999.2500:   NO VALUE
 COMP.    FENIX & SCISSON:   COMPANY
 WELL.   NPR 3 SHX #34-10:   WELL
 FLD .             TEAPOT:   FIELD
 LOC .      S10 T38N R78W:   LOCATION
 CNTY.            NATRONA:   COUNTY
 STAT.            WYOMING:   STATE
 CTRY. UNITED STATES OF AMERICA:   COUNTRY
 SRVC.            Unknown:   SERVICE COMPANY
 DATE.        14-APR-1978:   LOGDATE
 API .       490251061800:   API NUMBER
~CURVE INFORMATION
#MNEM.UNIT       API CODE    CURVE DESCRIPTION
#----------   ------------   ------------------------------
 DEPT.F                  :   
 ILD .OHMM   05 120 46 00:   INDUCTION LOG DEEP
 CILD.MMHO   05 110 00 00:   CONDUCTIVITY INDUCTION LOG
 NPHI.DEC    42 890 01 00:   NEUTRON POROSITY LIMESTONE
 GRD .GAPI   45 310 01 00:   GAMMA RAY FROM DENSITY LOG
~PARAMETER INFORMATION
#MNEM.UNIT          VALUE    DESCRIPTION
#----------   ------------   ------------------------------
 PD  .                 GL:   PERMANENT DATUM
 EPD .F              5244:   ELEVATION PERMANENT DATUM
 LMF .                 KB:   LOG MEASURED FROM
 DMF .                 KB:   DRILLING MEASURED FROM
 EKB .F              5252:   KELLING BUSHING
 EGL .F              5244:   GROUND LEVEL
 DATE.          4-14-1978:   RUN DATE
 RUN .                  1:   RUN NUMBER
 DD  .F              1953:   DEPTH DRILLER
 DL  .F              1950:   DEPTH LOGGER
 BLI .F              1944:   BOTTOM LOG INTERVAL
 TLI .F               715:   TOP LOG INTERVAL
 CS  .IN            9.625:   CASING SIZE
 CBD .F               708:   CASING BOTTOM DRILLER
 CBL .F               712:   CASING BOTTOM LOGGER
 BS  .IN             8.75:   BIT SIZE
 BSD .F              1953:   BIT SIZE AT DEPTH
 DFT .                OIL:   DRILLING FLUID TYPE
 TCS .HRS               5:   TIME CURCULATED STOPPED
 LUN .               2958:   LOGGING UNIT NUMBER
 LUL .               CASP:   LOGGING UNIT LOCATION
 ENGI.             MILLER:   RECORDING ENGINEER
 CLNT.            A2DTECH:   CLIENT CODE
 ORIG.           5" PRINT:   ORIGIN OF DATA
 UWI .       490251061800:   UNIQUE WELL ID
 DICO. A2D Technologies, Inc.:   DIGITIZING COMPANY
~OTHER INFORMATION
~A   DEPT      ILD       CILD       NPHI        GRD   
# ...
  621.5000  -999.2500  -999.2500     0.2255    50.0313
  622.0000  -999.2500  -999.2500     0.2262    49.8799
  622.5000  -999.2500  -999.2500     0.2198    49.7291
  623.0000  -999.2500  -999.2500     0.2135    49.5519
  623.5000  -999.2500  -999.2500     0.2101    50.5956
  624.0000  -999.2500  -999.2500     0.2164    52.0553
  624.5000  -999.2500  -999.2500     0.2202    53.5254
  625.0000  -999.2500  -999.2500     0.2184    54.9720
  625.5000  -999.2500  -999.2500     0.2162    55.9617
  626.0000  -999.2500  -999.2500     0.2174    55.8922
  626.5000  -999.2500  -999.2500     0.2327    55.8428
  627.0000  -999.2500  -999.2500     0.2544    55.7895
  627.5000  -999.2500  -999.2500     0.2273    55.3635
  628.0000  -999.2500  -999.2500     0.2060    54.5878
  628.5000  -999.2500  -999.2500     0.2078    53.8127
  629.0000  -999.2500  -999.2500     0.2119    53.0506
  629.5000  -999.2500  -999.2500     0.2162    52.7568
  630.0000  -999.2500  -999.2500     0.2270    52.8659
  630.5000  -999.2500  -999.2500     0.2329    54.5345
  631.0000  -999.2500  -999.2500     0.2435    56.3564
  631.5000  -999.2500  -999.2500     0.2303    55.8916
  632.0000  -999.2500  -999.2500     0.2203    55.3311
  632.5000  -999.2500  -999.2500     0.2236    54.7755
  633.0000  -999.2500  -999.2500     0.2269    54.2225
  633.5000  -999.2500  -999.2500     0.2295    54.2723
  634.0000  -999.2500  -999.2500     0.2262    54.4407
  634.5000  -999.2500  -999.2500     0.2303    54.6118
  635.0000  -999.2500  -999.2500     0.2285    54.7817
  635.5000  -999.2500  -999.2500     0.2321    54.9509
  636.0000  -999.2500  -999.2500     0.2399    55.1213
  636.5000  -999.2500  -999.2500     0.2447    55.1806
  637.0000  -999.2500  -999.2500     0.2391    55.8605
  637.5000  -999.2500  -999.2500     0.2427    56.5656
  638.0000  -999.2500  -999.2500     0.2463    57.2682
  638.5000  -999.2500  -999.2500     0.2378    57.9725
  639.0000  -999.2500  -999.2500     0.2266    58.6701
  639.5000  -999.2500  -999.2500     0.2142    59.0677
  640.0000  -999.2500  -999.2500     0.2262    58.5364
  640.5000  -999.2500  -999.2500     0.2432    58.0330
  641.0000  -999.2500  -999.2500     0.2517    57.5257
  641.5000  -999.2500  -999.2500     0.2543    57.2074
  642.0000  -999.2500  -999.2500     0.2797    58.2398
  642.5000  -999.2500  -999.2500     0.2571    59.2498
  643.0000  -999.2500  -999.2500     0.2764    60.2484
  643.5000  -999.2500  -999.2500     0.2746    61.0036
  644.0000  -999.2500  -999.2500     0.2445    60.9777
  644.5000  -999.2500  -999.2500     0.2270    60.3854
  645.0000  -999.2500  -999.2500     0.2282    58.6514
  645.5000  -999.2500  -999.2500     0.2358    57.3396
  646.0000  -999.2500  -999.2500     0.2439    57.3145
  646.5000  -999.2500  -999.2500     0.2364    57.2663
  647.0000  -999.2500  -999.2500     0.2298    57.2234
  647.5000  -999.2500  -999.2500     0.2407    57.1295
  648.0000  -999.2500  -999.2500     0.2370    56.1553
  648.5000  -999.2500  -999.2500     0.2259    55.1563
  649.0000  -999.2500  -999.2500     0.2166    54.9905
  649.5000  -999.2500  -999.2500     0.2179    55.0305
  650.0000  -999.2500  -999.2500     0.2147    55.0752
  650.5000  -999.2500  -999.2500     0.2173    55.1193
  651.0000  -999.2500  -999.2500     0.2132    55.1525
  651.5000  -999.2500  -999.2500     0.2155    54.7592
  652.0000  -999.2500  -999.2500     0.2130    54.3279
  652.5000  -999.2500  -999.2500     0.2098    54.2120
  653.0000  -999.2500  -999.2500     0.2166    54.3435
  653.5000  -999.2500  -999.2500     0.2223    54.4777
  654.0000  -999.2500  -999.2500     0.2286    54.6125
  654.5000  -999.2500  -999.2500     0.2259    54.7452
  655.0000  -999.2500  -999.2500     0.2228    54.7348
  655.5000  -999.2500  -999.2500     0.2197    54.7066
  656.0000  -999.2500  -999.2500     0.2165    54.6786
  656.5000  -999.2500  -999.2500     0.2134    54.6509
  657.0000  -999.2500  -999.2500     0.2135    54.6218
  657.5000  -999.2500  -999.2500     0.2154    54.5976
  658.0000  -999.2500  -999.2500     0.2150    54.5539
  658.5000  -999.2500  -999.2500     0.2146    55.6155
  659.0000  -999.2500  -999.2500     0.2175    57.1844
  659.5000  -999.2500  -999.2500     0.2209    57.9440
  660.0000  -999.2500  -999.2500     0.2203    57.9374
  660.5000  -999.2500  -999.2500     0.2214    57.9122
  661.0000  -999.2500  -999.2500     0.2282    57.8862
  661.5000  -999.2500  -999.2500     0.2270    57.8618
  662.0000  -999.2500  -999.2500     0.1933    57.8380
  662.5000  -999.2500  -999.2500     0.2029    57.8194
  663.0000  -999.2500  -999.2500     0.1945    57.7810
  663.5000  -999.2500  -999.2500     0.2110    57.2733
  664.0000  -999.2500  -999.2500     0.2232    55.2934
  664.5000  -999.2500  -999.2500     0.2208    55.2142
  665.0000  -999.2500  -999.2500     0.2234    55.7669
  665.5000  -999.2500  -999.2500     0.2194    56.8607
  666.0000  -999.2500  -999.2500     0.2275    57.9668
  666.5000  -999.2500  -999.2500     0.2347    58.3708
  667.0000  -999.2500  -999.2500     0.2355    58.3926
  667.5000  -999.2500  -999.2500     0.2473    58.2776
  668.0000  -999.2500  -999.2500     0.2552    56.1824
  668.5000  -999.2500  -999.2500     0.2371    54.3086
  669.0000  -999.2500  -999.2500     0.2512    55.2020
  669.5000  -999.2500  -999.2500     0.2327    56.1707
  670.0000  -999.2500  -999.2500     0.2485    56.3356
  670.5000  -999.2500  -999.2500     0.2457    56.2833
  671.0000  -999.2500  -999.2500     0.2568    56.2246
  671.5000  -999.2500  -999.2500     0.2411    56.1429
  672.0000  -999.2500  -999.2500     0.2228    57.1920
  672.5000  -999.2500  -999.2500     0.1893    57.6447
  673.0000  -999.2500  -999.2500     0.1937    57.8214
  673.5000  -999.2500  -999.2500     0.2181    58.0058
  674.0000  -999.2500  -999.2500     0.2256    59.1340
  674.5000  -999.2500  -999.2500     0.2355    60.0458
  675.0000  -999.2500  -999.2500     0.2285    60.1854
  675.5000  -999.2500  -999.2500     0.2246    60.0457
  676.0000  -999.2500  -999.2500     0.2282    59.5952
  676.5000  -999.2500  -999.2500     0.2319    57.6861
  677.0000  -999.2500  -999.2500     0.2265    55.8648
  677.5000  -999.2500  -999.2500     0.2250    54.4600
  678.0000  -999.2500  -999.2500     0.2399    55.7207
  678.5000  -999.2500  -999.2500     0.2274    58.2719
  679.0000  -999.2500  -999.2500     0.2252    58.3912
  679.5000  -999.2500  -999.2500     0.2126    58.3764
  680.0000  -999.2500  -999.2500     0.2218    58.3735
  680.5000  -999.2500  -999.2500     0.2282    58.3730
  681.0000  -999.2500  -999.2500     0.2174    58.3687
  681.5000  -999.2500  -999.2500     0.2258    58.4051
  682.0000  -999.2500  -999.2500     0.2175    58.6430
  682.5000  -999.2500  -999.2500     0.2234    58.9218
  683.0000  -999.2500  -999.2500     0.2121    58.8172
  683.5000  -999.2500  -999.2500     0.2173    58.6014
  684.0000  -999.2500  -999.2500     0.2181    58.3795
  684.5000  -999.2500  -999.2500     0.2236    58.1331
  685.0000  -999.2500  -999.2500     0.2222    59.7955
  685.5000  -999.2500  -999.2500     0.2231    61.7814
  686.0000  -999.2500  -999.2500     0.2234    63.5822
  686.5000  -999.2500  -999.2500     0.2148    63.6685
  687.0000  -999.2500  -999.2500     0.2124    63.7215
  687.5000  -999.2500  -999.2500     0.2094    63.7804
  688.0000  -999.2500  -999.2500     0.1853    63.8408
  688.5000  -999.2500  -999.2500     0.1658    63.9001
  689.0000  -999.2500  -999.2500     0.1636    63.9611
  689.5000  -999.2500  -999.2500     0.1617    63.9647
  690.0000  -999.2500  -999.2500     0.1599    65.4811
  690.5000  -999.2500  -999.2500     0.1481    67.4384
  691.0000  -999.2500  -999.2500     0.1447    69.0268
  691.5000  -999.2500  -999.2500     0.1412    68.0329
  692.0000  -999.2500  -999.2500     0.1360    63.5382
  692.5000  -999.2500  -999.2500     0.1235    59.5446
  693.0000  -999.2500  -999.2500     0.0871    58.9929
  693.5000  -999.2500  -999.2500     0.0996    58.9450
  694.0000  -999.2500  -999.2500     0.1263    62.0334
