~VERSION INFORMATION
 VERS.                2.0:   CWLS LOG ASCII STANDARD - VERSION 2.0
 WRAP.                 NO:   ONE LINE PER DEPTH STEP
~WELL INFORMATION
#MNEM.UNIT      DATA TYPE    INFORMATION
#----------   ------------   ------------------------------
 STRT.F            6.0000:   START DEPTH
 STOP.F         4020.0000:   STOP DEPTH
 STEP.F            0.5000:   STEP LENGTH
 NULL.          -999.2500:   NO VALUE
 COMP. LAWRENCE/ALLISON INC:   COMPANY
 WELL.       66 JX #33-33:   WELL
 FLD .              NPR-3:   FIELD
 LOC .      S33 T39N R78W:   LOCATION
 CNTY.            NATRONA:   COUNTY
 STAT.            WYOMING:   STATE
 CTRY. UNITED STATES OF AMERICA:   COUNTRY
 SRVC.      Dresser Atlas:   SERVICE COMPANY
 DATE.        02-DEC-1983:   LOGDATE
 API .       490251095100:   API NUMBER
~CURVE INFORMATION
#MNEM.UNIT       API CODE    CURVE DESCRIPTION
#----------   ------------   ------------------------------
 DEPT.F                  :   
 CALD.IN     45 280 60 00:   CALIPER
 CNC .DEC    42 890 03 00:   NEUTRON POROSITY SANDSTONE
 PORD.DEC    45 890 12 00:   POROSITY DENSITY SANDSTONE
 DEN .G/C3   45 350 01 00:   COMPENSATED BULK DENSTIY
 CORR.G/C3   45 356 01 00:   DENSITY CORRECTION
 RFOC.OHMM   07 220 04 00:   RESISTIVITY FOCUSED LOG
 RILD.OHMM   07 120 46 00:   INDUCTION LOG DEEP RESISTIVITY
 RILM.OHMM   07 120 44 00:   INDUCTION LOG MEDIUM RESISTIVITY
 GRR .GAPI   07 310 01 00:   GAMMA RAY FROM RES. LOG.
 DT  .US/F   60 520 00 00:   INTERVAL TRANSIT TIME
 SPR .MV     07 010 01 00:   SPONTANEOUS POTENTIAL
~PARAMETER INFORMATION
#MNEM.UNIT          VALUE    DESCRIPTION
#----------   ------------   ------------------------------
 PD  .                 GL:   PERMANENT DATUM
 EPD .F              5141:   ELEVATION PERMANENT DATUM
 LMF .                 KB:   LOG MEASURED FROM
 DAPD.F                10:   FEET ABOVE PERMANENT DATUM
 DMF .                 KB:   DRILLING MEASURED FROM
 EKB .F              5151:   KELLING BUSHING
 EGL .F              5141:   GROUND LEVEL
 DATE.            12-2-83:   RUN DATE
 RUN .                  1:   RUN NUMBER
 DD  .F              4025:   DEPTH DRILLER
 DL  .F              4020:   DEPTH LOGGER
 BLI .F              4018:   BOTTOM LOG INTERVAL
 TLI .F                10:   TOP LOG INTERVAL
 CS  .IN            8.625:   CASING SIZE
 CBD .F               718:   CASING BOTTOM DRILLER
 CBL .F               722:   CASING BOTTOM LOGGER
 BS  .IN            7.875:   BIT SIZE
 BSD .F              4025:   BIT SIZE AT DEPTH
 DFT .            GEL/KCL:   DRILLING FLUID TYPE
 DFD .                  9:   DRILLING FLUID DENSITY
 DFV .                 45:   DRILLING FLUID VISCOSITY
 DFPH.                8.5:   DRILLING FLUID PH
 DFL .                 12:   DRILLING FLUID LOSS
 MSS .           FLOWLINE:   MUD SAMPLE SOURCE
 RMS .OHMM            .37:   RESISTIVITY MUD SAMPLE
 MST .F                88:   MUD SAMPLE TEMPERATURE
 RMF .OHMM            .29:   RESISTIVITY MUD FILTRATE SAMPLE
 MFST.F                88:   MUD FILTRATE SAMPLE TEMPERATURE
 RMC .OHMM            .46:   RESISTIVITY MUD CAKE
 MCST.F                88:   MUD CAKE SAMPLE TEMPERATURE
 MFSS.               MEAS:   MUD FILTRATE SAMPLE SOURCE
 MCSS.               CALC:   MUD CAKE SAMPLE SOURCE
 RMB .OHMM            .26:   RESISTIVITY MUD AT BHT
 BHT .F               127:   BOTTOM HOLE TEMPERATURE
 TCS .HRS               4:   TIME CURCULATED STOPPED
 MRT .F               127:   MAXIMUM RECORDED TEMPERATURE
 LUN .               6264:   LOGGING UNIT NUMBER
 LUL .              WLSTN:   LOGGING UNIT LOCATION
 ENGI.            PANASUK:   RECORDING ENGINEER
 WITN.              SCOTT:   WITNESSED BY
 CLNT.            A2DTECH:   CLIENT CODE
 ORIG.       2", 5" PRINT:   ORIGIN OF DATA
 UWI .       490251095100:   UNIQUE WELL ID
 DICO. A2D Technologies, Inc.:   DIGITIZING COMPANY
~OTHER INFORMATION
~A    DEPT    CALD        CNC       PORD        DEN       CORR       RFOC       RILD       RILM          GRR       DT        SPR   
# ...
 2659.5000     8.4000     0.2157     0.0593     2.5543     0.0205     8.7742     7.4828     7.3247   106.7880    76.0332   -36.0295
 2660.0000     8.4037     0.2249     0.0636     2.5456     0.0172     8.4002     7.3505     7.1665   104.8970    76.6686   -36.1690
 2660.5000     8.4014     0.2258     0.0673     2.5383     0.0139     7.9463     7.2205     6.9421   104.3816    77.3040   -36.4877
 2661.0000     8.3989     0.2210     0.0660     2.5391     0.0107     7.5155     7.1042     6.9555   104.4288    77.9393   -36.7747
 2661.5000     8.3965     0.2178     0.0631     2.5431     0.0074     7.2778     7.0112     6.9802   106.3456    78.3921   -37.0242
 2662.0000     8.3940     0.2167     0.0629     2.5455     0.0042     7.4719     6.9195     7.0062   109.6485    78.2264   -36.9530
 2662.5000     8.3916     0.2111     0.0652     2.5415     0.0009     7.7746     6.8785     7.1539   111.6603    77.7254   -36.7910
 2663.0000     8.3891     0.2033     0.0636     2.5397    -0.0023     8.1080     7.0227     7.3131   112.7007    77.2224   -36.6446
 2663.5000     8.3867     0.1999     0.0571     2.5491    -0.0011     7.9996     7.1714     7.4757   113.8507    76.8156   -36.4909
 2664.0000     8.3843     0.2045     0.0532     2.5588     0.0048     7.8965     7.3232     7.6420   115.0220    76.7769   -36.3412
 2664.5000     8.3791     0.2086     0.0567     2.5625     0.0045     8.1747     7.4783     7.8120   113.2188    76.7366   -36.1888
 2665.0000     8.3740     0.2086     0.0625     2.5519     0.0039     8.4234     7.6367     7.9858   110.3036    76.4372   -36.0379
 2665.5000     8.3690     0.1910     0.0653     2.5408     0.0034     8.6796     7.7983     8.1635   108.4244    75.9661   -35.8862
 2666.0000     8.3639     0.1849     0.0617     2.5421     0.0062     8.8998     7.9695     8.3451   107.2939    75.4976   -35.7357
 2666.5000     8.3589     0.1864     0.0581     2.5507     0.0140     9.0929     8.0693     8.4997   108.6851    75.0293   -35.5832
 2667.0000     8.3538     0.1917     0.0585     2.5557     0.0217     9.2383     8.1730     8.5861   111.0998    74.5610   -35.4386
 2667.5000     8.3487     0.1982     0.0607     2.5513     0.0285     9.4870     8.2782     8.6765   110.4583    74.0927   -35.3858
 2668.0000     8.3437     0.1924     0.0629     2.5464     0.0190     9.4148     8.3841     8.7679   107.4106    74.0180   -35.3454
 2668.5000     8.3386     0.1808     0.0651     2.5415     0.0092     9.0587     8.4944     8.8603   103.2959    74.0180   -35.3014
 2669.0000     8.3336     0.1742     0.0658     2.5405    -0.0005     9.1140     8.9762     9.1059    98.8269    73.8707   -35.2599
 2669.5000     8.3285     0.1727     0.0640     2.5426    -0.0102     9.2410     9.1318     9.4757    93.0741    73.3166   -35.2151
 2670.0000     8.3234     0.1711     0.0611     2.5473    -0.0200    10.1176     9.3374     9.8605    88.1774    72.0131   -35.1761
 2670.5000     8.3184     0.1708     0.0586     2.5519    -0.0289    11.0966     9.5481    10.2610    88.7991    70.7785   -35.1269
 2671.0000     8.3133     0.1728     0.0586     2.5534    -0.0257    11.5668     9.7630    10.6076    90.3644    70.2767   -35.0963
 2671.5000     8.3083     0.1720     0.0573     2.5545    -0.0206    11.7461     9.9432    10.4160    90.5189    69.8898   -35.0301
 2672.0000     8.3032     0.1724     0.0559     2.5555    -0.0145    12.0755     9.8495    10.6113    89.3296    69.6092   -35.1853
 2672.5000     8.2981     0.1822     0.0561     2.5546    -0.0047    12.2812     9.5704    10.1843    90.5871    69.6894   -35.5218
 2673.0000     8.2931     0.1920     0.0575     2.5536    -0.0178    12.0573     9.3413     9.7666    93.6575    70.1102   -35.8115
 2673.5000     8.2880     0.1930     0.0578     2.5526    -0.0329    10.3798     9.1184     9.5192    96.9229    71.5821   -36.1282
 2674.0000     8.2854     0.1812     0.0560     2.5531    -0.0353     9.1489     8.9000     9.2152    99.8899    72.9616   -36.4013
 2674.5000     8.2843     0.1741     0.0536     2.5599    -0.0032     8.8998     8.5954     8.9204   101.2322    74.1373   -36.4038
 2675.0000     8.2827     0.1781     0.0550     2.5583     0.0248     9.0955     8.2998     8.6356   100.8293    74.5190   -36.3601
 2675.5000     8.2811     0.1849     0.0586     2.5536     0.0202     9.6048     8.0146     8.4159    97.4075    74.2055   -36.3248
 2676.0000     8.2796     0.1917     0.0590     2.5516     0.0182    10.0307     7.7391     8.0353    95.7837    73.7174   -36.2883
 2676.5000     8.2780     0.1984     0.0564     2.5556     0.0293     9.5491     7.4732     7.7321    98.1837    73.8480   -36.2464
 2677.0000     8.2764     0.2024     0.0477     2.5695     0.0406     8.8031     7.2689     7.4404   101.1504    74.3832   -36.2389
 2677.5000     8.2748     0.2036     0.0424     2.5819     0.0313     8.1153     7.0301     7.1602   101.5255    75.6486   -36.2774
 2678.0000     8.2732     0.2043     0.0438     2.5795     0.0176     7.6111     6.8155     7.0009    99.8925    77.2490   -36.3095
 2678.5000     8.2716     0.2102     0.0478     2.5714     0.0138     7.6397     6.3796     6.7468    98.8326    78.5937   -36.3452
 2679.0000     8.2700     0.2247     0.0518     2.5614     0.0211     7.6815     5.9763     6.3454   100.6419    79.4111   -36.3790
 2679.5000     8.2684     0.2393     0.0565     2.5554     0.0167     7.3187     5.7223     5.7093   103.7669    80.4235   -36.4136
 2680.0000     8.2669     0.2488     0.0656     2.5422     0.0134     6.8537     5.4221     5.1369   107.3313    81.5013   -36.4478
 2680.5000     8.2633     0.2531     0.0761     2.5231     0.0435     6.3619     5.0766     4.6219   118.0668    82.5132   -36.4822
 2681.0000     8.2474     0.2573     0.0890     2.5085     0.0765     5.8286     4.7530     4.1586   131.4020    83.6549   -36.5167
 2681.5000     8.2315     0.2594     0.0865     2.5086     0.0844     5.1027     4.4501     3.9410   149.4582    85.3509   -36.5506
 2682.0000     8.2160     0.2486     0.0832     2.5117     0.0600     4.1851     4.1665     3.8958   153.8971    86.8353   -36.5858
 2682.5000     8.2120     0.2366     0.0816     2.5149     0.0294     4.3925     3.9604     3.8525   145.0656    87.5751   -36.6322
 2683.0000     8.2312     0.2330     0.0896     2.5034    -0.0013     4.9164     3.6456     3.4992   136.0854    87.5631   -36.8389
 2683.5000     8.2498     0.2589     0.1082     2.4709    -0.0317     5.1241     3.2963     3.1163   139.3604    87.2309   -37.1052
 2684.0000     8.2663     0.2825     0.1277     2.4383    -0.0460     4.7606     3.0051     2.7754   144.3213    87.5451   -37.3641
 2684.5000     8.2822     0.3002     0.1473     2.4056    -0.0278     4.4849     2.6521     2.4717   149.0625    89.4032   -37.6223
 2685.0000     8.2995     0.3119     0.1668     2.3671    -0.0271     4.1851     2.3971     2.2013   159.9115    91.3527   -37.8947
 2685.5000     8.3168     0.3348     0.2036     2.3133    -0.0247     4.0712     2.1665     1.9605   174.5311    92.4091   -38.0339
 2686.0000     8.3338     0.3598     0.2256     2.2664     0.0055     3.4531     1.9582     1.7460   189.1352    93.8622   -37.4216
 2686.5000     8.3505     0.3659     0.2318     2.2536     0.1121     2.9483     1.7699     1.6085   197.2715    98.6562   -36.4747
 2687.0000     8.3673     0.3574     0.2372     2.2453     0.1969     2.6177     1.6074     1.5457   196.0141   103.5152   -35.5259
 2687.5000     8.5870     0.3642     0.2543     2.2108     0.1743     2.4096     1.5409     1.4854   188.7396   107.0591   -34.7729
 2688.0000     9.1063     0.3769     0.3128     2.0816     0.1148     2.7575     1.4800     1.4274   181.8180   109.0621   -34.2831
 2688.5000     9.6210     0.3845     0.4397     2.0066     0.1283     3.4182     1.4002     1.3747   176.4670   110.8918   -33.2799
 2689.0000     9.8133     0.3283     0.4652     2.0065     0.1490     3.0180     1.4394     1.5880   175.2128   116.3177   -31.9595
 2689.5000     8.9746     0.3020     0.4339     2.0065     0.1583     2.2195     1.6256     1.8210   166.8394   123.6799   -31.1444
