~VERSION INFORMATION
 VERS.                2.0:   CWLS LOG ASCII STANDARD - VERSION 2.0
 WRAP.                 NO:   ONE LINE PER DEPTH STEP
~WELL INFORMATION
#MNEM.UNIT      DATA TYPE    INFORMATION
#----------   ------------   ------------------------------
 STRT.F          648.0000:   START DEPTH
 STOP.F         2443.0000:   STOP DEPTH
 STEP.F            0.5000:   STEP LENGTH
 NULL.          -999.2500:   NO VALUE
 COMP.    FENIX & SCISSON:   COMPANY
 WELL.  NPR #3 SHX-11 #22:   WELL
 FLD .             TEAPOT:   FIELD
 LOC .      S11 T38N R78W:   LOCATION
 CNTY.            NATRONA:   COUNTY
 STAT.            WYOMING:   STATE
 CTRY. UNITED STATES OF AMERICA:   COUNTRY
 SRVC.           BIRDWELL:   SERVICE COMPANY
 DATE.        23-APR-1978:   LOGDATE
 API .       490251061300:   API NUMBER
~CURVE INFORMATION
#MNEM.UNIT       API CODE    CURVE DESCRIPTION
#----------   ------------   ------------------------------
 DEPT.F                  :   
 CALD.IN     45 280 60 00:   CALIPER FROM DENSITY LOG
 CORR.G/C3   45 356 01 00:   DENSITY CORRECTION
 DPHI.DEC    45 890 12 00:   DENSITY POROSITY SANDSTONE
 GRD .GAPI   45 310 01 00:   GAMMA RAY FROM DENSITY LOG
 RHOB.G/C3   45 350 01 00:   BULK DENSITY
~PARAMETER INFORMATION
#MNEM.UNIT          VALUE    DESCRIPTION
#----------   ------------   ------------------------------
 PD  .                 GL:   PERMANENT DATUM
 EPD .F              5166:   ELEVATION PERMANENT DATUM
 LMF .                 KB:   LOG MEASURED FROM
 DMF .                 KB:   DRILLING MEASURED FROM
 EKB .F              5176:   KELLING BUSHING
 EGL .F              5166:   GROUND LEVEL
 DATE.        23-APR-1978:   RUN DATE
 RUN .                  1:   RUN NUMBER
 DD  .F              2450:   DEPTH DRILLER
 DL  .F              2450:   DEPTH LOGGER
 BLI .F              2443:   BOTTOM LOG INTERVAL
 TLI .F               670:   TOP LOG INTERVAL
 CS  .IN            9.625:   CASING SIZE
 CBD .F               660:   CASING BOTTOM DRILLER
 CBL .F               670:   CASING BOTTOM LOGGER
 BS  .IN             8.75:   BIT SIZE
 BSD .F              2450:   BIT SIZE AT DEPTH
 DFT .               MIST:   DRILLING FLUID TYPE
 LUN .               2958:   LOGGING UNIT NUMBER
 LUL .             CASPER:   LOGGING UNIT LOCATION
 ENGI.             MILLER:   RECORDING ENGINEER
 WITN.          MC GINLEY:   WITNESSED BY
 CLNT.            A2DTECH:   CLIENT CODE
 ORIG.           5" PRINT:   ORIGIN OF DATA
 UWI .       490251061300:   UNIQUE WELL ID
 DICO. A2D Technologies, Inc.:   DIGITIZING COMPANY
~OTHER INFORMATION
~A   DEPT     CALD       CORR       DPHI        GRD       RHOB   
# ...
 1319.0000    10.3025     0.0348     0.0277    98.9355     2.4951
 1319.5000    10.3024     0.0392     0.0237    99.6852     2.4929
 1320.0000    10.3173     0.0391     0.0202    99.8351     2.4989
 1320.5000    10.3171     0.0391     0.0205    98.7856     2.5057
 1321.0000    10.3320     0.0390     0.0202    98.6357     2.5109
 1321.5000    10.3469     0.0389     0.0187    99.0855     2.5139
 1322.0000    10.3618     0.0358     0.0202   102.9835     2.5139
 1322.5000    10.3165     0.0328     0.0180   105.0825     2.5147
 1323.0000    10.3014     0.0297     0.0168   104.0330     2.5147
 1323.5000    10.3463     0.0281     0.0250   102.2339     2.5131
 1324.0000    10.3612     0.0280     0.0312   101.6342     2.5101
 1324.5000    10.2858     0.0279     0.0300   100.8846     2.5024
 1325.0000    10.3007     0.0279     0.0279   100.5847     2.4899
 1325.5000    10.3307     0.0293     0.0276   101.6342     2.4899
 1326.0000    10.3456     0.0307     0.0231   103.8831     2.4929
 1326.5000    10.3153     0.0291     0.0237   104.4828     2.4968
 1327.0000    10.2550     0.0291     0.0249   104.0330     2.5019
 1327.5000    10.2398     0.0275     0.0288   103.1334     2.5004
 1328.0000    10.2247     0.0289     0.0351   102.0840     2.4974
 1328.5000    10.2395     0.0288     0.0357    97.2864     2.4958
 1329.0000    10.2394     0.0318     0.0321    95.0375     2.4899
 1329.5000    10.2693     0.0332     0.0278    93.0885     2.4816
 1330.0000    10.2992     0.0377     0.0210    92.6387     2.4899
 1330.5000    10.3141     0.0316     0.0303    95.0375     2.5029
 1331.0000    10.3140     0.0209     0.0342    96.8366     2.5064
 1331.5000    10.3439     0.0148     0.0345    97.1364     2.4966
 1332.0000    10.3438     0.0253     0.0240    97.5862     2.4876
 1332.5000    10.3436     0.0373     0.0204    99.9850     2.4869
 1333.0000    10.3585     0.0432     0.0177   100.4348     2.4884
 1333.5000    10.3583     0.0371     0.0153   101.0345     2.4989
 1334.0000    10.2980     0.0325     0.0261   101.0345     2.5124
 1334.5000    10.2678     0.0279     0.0261    98.7856     2.5199
 1335.0000    10.2526     0.0263     0.0301    96.9865     2.5169
 1335.5000    10.2374     0.0263     0.0289    98.3358     2.4981
 1336.0000    10.2223     0.0277     0.0334   100.4348     2.4959
 1336.5000    10.1770     0.0341     0.0304   101.0345     2.4981
 1337.0000    10.1167     0.0381     0.0295   101.0345     2.4929
 1337.5000    10.1015     0.0456     0.0274   101.0345     2.4884
 1338.0000    10.1014     0.0485     0.0160   101.0345     2.4936
 1338.5000    10.1313     0.0499     0.0154    99.8351     2.5041
 1339.0000    10.1612     0.0423     0.0199    96.0870     2.5109
 1339.5000    10.1761     0.0347     0.0283    94.5877     2.5177
 1340.0000    10.1759     0.0346     0.0323    95.9370     2.5139
 1340.5000    10.1156     0.0451     0.0308    99.2354     2.4936
 1341.0000    10.1004     0.0556     0.0245   100.7346     2.4823
 1341.5000    10.0796     0.0661     0.0179   100.5847     2.4899
 1342.0000    10.0550     0.0660     0.0206   100.4348     2.5116
 1342.5000    10.0549     0.0674     0.0155   100.4348     2.5177
 1343.0000    10.0547     0.0673     0.0191   100.4348     2.5177
 1343.5000    10.0546     0.0492     0.0305   100.5847     2.5184
 1344.0000    10.0544     0.0250     0.0464   102.0840     2.5312
 1344.5000    10.0693     0.0234     0.0582   102.9835     2.4778
 1345.0000    10.0992     0.0249     0.0639   102.2339     2.4658
 1345.5000    10.1592     0.0353     0.0603    99.8351     2.4470
 1346.0000    10.2794     0.0473     0.0387    97.7361     2.4350
 1346.5000    10.2040     0.0502     0.0240    96.3868     2.4538
 1347.0000    10.0535     0.0426     0.0225    97.5862     2.4681
 1347.5000    10.1737     0.0290     0.0264   102.3838     2.4936
 1348.0000    10.2337     0.0289     0.0231   105.8321     2.5162
 1348.5000    10.0531     0.0288     0.0213   106.7316     2.5019
 1349.0000    10.0680     0.0288     0.0195   105.8321     2.5064
 1349.5000    10.0678     0.0333     0.0180   101.4843     2.5139
 1350.0000    10.0677     0.0346     0.0155    98.0360     2.5162
 1350.5000    10.0525     0.0300     0.0132    96.6867     2.5172
 1351.0000    10.0218     0.0285     0.0183    93.5382     2.5186
 1351.5000     9.9770     0.0301     0.0216    92.6387     2.5200
 1352.0000     9.9317     0.0373     0.0141    95.0375     2.5216
 1352.5000     9.9153     0.0448     0.0189    98.0360     2.5155
 1353.0000     9.8863     0.0402     0.0226    97.5862     2.5117
 1353.5000     9.8862     0.0311     0.0202    97.7361     2.5178
 1354.0000     9.9010     0.0340     0.0298    99.5352     2.5185
 1354.5000     9.9009     0.0445     0.0283   103.4333     2.5058
 1355.0000     9.9158     0.0474     0.0337   104.0330     2.5005
 1355.5000     9.9307     0.0519     0.0298   104.0330     2.5043
 1356.0000     9.9305     0.0608     0.0190   104.0330     2.4937
 1356.5000     9.9454     0.0578     0.0349   105.2324     2.4885
 1357.0000     9.9603     0.0592     0.0360   105.6822     2.5006
 1357.5000     9.9752     0.0651     0.0243   101.6342     2.4956
 1358.0000     9.9901     0.0726     0.0130    94.8147     2.4803
 1358.5000     9.9899     0.0710     0.0103    94.9605     2.4909
 1359.0000    10.0048     0.0553     0.0187    95.7060     2.5067
 1359.5000    10.0047     0.0633     0.0178    97.2001     2.5112
 1360.0000    10.0196     0.0452     0.0190    97.7956     2.5300
 1360.5000    10.0194     0.0331     0.0190    97.6415     2.5240
 1361.0000    10.0192     0.0300     0.0169    96.7368     2.5150
 1361.5000    10.0341     0.0284     0.0140    95.9831     2.5150
 1362.0000    10.0340     0.0283     0.0224    95.2293     2.5218
 1362.5000    10.0338     0.0222     0.0245    95.9737     2.5233
 1363.0000    10.0337     0.0161     0.0212    98.0685     2.5225
 1363.5000    10.0486     0.0281     0.0224   100.3133     2.5060
 1364.0000    10.0484     0.0265     0.0203   100.9088     2.5068
 1364.5000    10.0633     0.0264     0.0200   100.9037     2.5091
 1365.0000    10.0632     0.0263     0.0197   100.7496     2.5128
 1365.5000    10.0630     0.0278     0.0191    99.8449     2.5166
 1366.0000    10.0629     0.0337     0.0188    93.3939     2.5159
 1366.5000    10.0627     0.0401     0.0188    94.5892     2.5151
 1367.0000    10.0625     0.0486     0.0146    96.5330     2.5159
 1367.5000    10.0624     0.0501     0.0083    97.2785     2.5182
 1368.0000    10.0623     0.0515     0.0041    97.7242     2.5212
 1368.5000    10.0621     0.0499     0.0107    97.4191     2.5276
 1369.0000    10.0619     0.0393     0.0167    97.1151     2.5423
 1369.5000    10.0468     0.0317     0.0149    96.8027     2.5355
 1370.0000    10.0316     0.0316     0.0153    95.9064     2.5183
 1370.5000    10.0164     0.0315     0.0177    95.7524     2.5160
 1371.0000     9.9862     0.0315     0.0204    93.4477     2.5220
 1371.5000     9.9559     0.0314     0.0249    91.2453     2.5176
 1372.0000     9.9257     0.0330     0.0300    89.8918     2.5123
 1372.5000     9.8955     0.0448     0.0236    90.0900     2.5123
 1373.0000     9.8502     0.0493     0.0132    94.2303     2.5003
 1373.5000     9.8050     0.0582     0.0168    95.7254     2.4973
 1374.0000     9.7597     0.0562     0.0168    96.4699     2.5247
 1374.5000     9.7595     0.0249     0.0243    98.8645     2.5282
 1375.0000     9.7594     0.0128     0.0252    98.1108     2.5207
 1375.5000     9.7592     0.0111     0.0252    95.8567     2.5184
 1376.0000     9.7742     0.0202     0.0252    94.0535     2.5117
 1376.5000     9.7890     0.0231     0.0249    92.2502     2.4952
 1377.0000     9.8039     0.0260     0.0228    90.4460     2.5042
 1377.5000     9.8188     0.0320     0.0096    91.0425     2.5072
 1378.0000     9.8487     0.0485     0.0126    93.2862     2.5148
 1378.5000     9.8636     0.0529     0.0163    95.8298     2.5396
 1379.0000     9.8785     0.0333     0.0049    98.3744     2.5305
 1379.5000     9.8934     0.0257     0.0034    98.6701     2.5261
