~VERSION INFORMATION
 VERS.                2.0:   CWLS LOG ASCII STANDARD - VERSION 2.0
 WRAP.                 NO:   ONE LINE PER DEPTH STEP
~WELL INFORMATION
#MNEM.UNIT      DATA TYPE    INFORMATION
#----------   ------------   ------------------------------
 STRT.F            8.0000:   START DEPTH
 STOP.F          513.0000:   STOP DEPTH
 STEP.F            0.5000:   STEP LENGTH
 NULL.          -999.2500:   NO VALUE
 COMP. LAWRENCE-ALLISON &AS:   COMPANY
 WELL. NPR 3 #51-63SX10UP3:   WELL
 FLD .             TEAPOT:   FIELD
 LOC .      S10 T38N R78W:   LOCATION
 CNTY.            NATRONA:   COUNTY
 STAT.            WYOMING:   STATE
 CTRY. UNITED STATES OF AMERICA:   COUNTRY
 SRVC.      Dresser Atlas:   SERVICE COMPANY
 DATE.        09-DEC-1984:   LOGDATE
 API .       490251099400:   API NUMBER
~CURVE INFORMATION
#MNEM.UNIT       API CODE    CURVE DESCRIPTION
#----------   ------------   ------------------------------
 DEPT.F                  :   
 RFOC.OHMM   07 220 01 00:   RESISTIVITY FOCUSED LOG
 RILD.OHMM   07 120 46 00:   INDUCTION LOG DEEP RESISTIVITY
 RILM.OHMM   07 120 44 00:   RESITIVITY LONG MEDIUM
 SPR .MV     07 010 01 00:   SPONTANEOUS POTENTIAL
 CALD.IN     45 280 60 00:   CALIPER FROM DENSITY LOG
 CORR.none               :   
 DEN .G/C3   45 350 01 00:   COMPENSATED BULK DENSTIY
 GRD .GAPI   45 310 01 00:   GAMMA RAY FROM DENSITY LOG
 PORD.DEC    45 890 12 00:   POROSITY DENSITY SANDSTONE
 CNC .DEC    42 890 03 00:   NEUTRON POROSITY SANDSTONE
~PARAMETER INFORMATION
#MNEM.UNIT          VALUE    DESCRIPTION
#----------   ------------   ------------------------------
 PD  .                 GL:   PERMANENT DATUM
 EPD .F              5162:   ELEVATION PERMANENT DATUM
 LMF .                 GL:   LOG MEASURED FROM
 DMF .                 GL:   DRILLING MEASURED FROM
 EGL .F              5162:   GROUND LEVEL
 DATE.        09-DEC-1984:   RUN DATE
 RUN .                  1:   RUN NUMBER
 DD  .F               510:   DEPTH DRILLER
 DL  .F               515:   DEPTH LOGGER
 BLI .F               513:   BOTTOM LOG INTERVAL
 TLI .F                20:   TOP LOG INTERVAL
 CS  .IN            8.625:   CASING SIZE
 CBD .F                20:   CASING BOTTOM DRILLER
 CBL .F                20:   CASING BOTTOM LOGGER
 BS  .IN            7.875:   BIT SIZE
 BSD .F               510:   BIT SIZE AT DEPTH
 DFT .          KCL-WATER:   DRILLING FLUID TYPE
 MSS .            MUDTANK:   MUD SAMPLE SOURCE
 RMS .OHMM           0.41:   RESISTIVITY MUD SAMPLE
 MST .F                45:   MUD SAMPLE TEMPERATURE
 RMF .OHMM           0.31:   RESISTIVITY MUD FILTRATE SAMPLE
 MFST.F                45:   MUD FILTRATE SAMPLE TEMPERATURE
 RMC .OHMM           0.51:   RESISTIVITY MUD CAKE
 MCST.F                45:   MUD CAKE SAMPLE TEMPERATURE
 MFSS.               CALC:   MUD FILTRATE SAMPLE SOURCE
 MCSS.               CALC:   MUD CAKE SAMPLE SOURCE
 RMB .OHMM           0.22:   RESISTIVITY MUD AT BHT
 BHT .F                85:   BOTTOM HOLE TEMPERATURE
 TCS .HRS               2:   TIME CURCULATED STOPPED
 MRT .F               100:   MAXIMUM RECORDED TEMPERATURE
 LUN .               6270:   LOGGING UNIT NUMBER
 LUL .                 FM:   LOGGING UNIT LOCATION
 ENGI.          E. GOVETT:   RECORDING ENGINEER
 WITN.              LUERS:   WITNESSED BY
 CLNT.            A2DTECH:   CLIENT CODE
 ORIG.           5" PRINT:   ORIGIN OF DATA
 UWI .       490251099400:   UNIQUE WELL ID
 DICO. A2D Technologies, Inc.:   DIGITIZING COMPANY
~OTHER INFORMATION
~A    DEPT    RFOC       RILD       RILM        SPR       CALD       CORR        DEN        GRD       PORD          CNC 
# ...
  477.0000    10.0807     8.1444     8.2794   -38.3328     8.0389     0.0436     2.4942   103.2028     0.1093     0.2666
  477.5000    10.2296     8.0941     8.1717   -38.3233     8.0383     0.0374     2.5044   102.8821     0.1048     0.2719
  478.0000    10.3103     8.0991     8.0642   -38.4648     8.0229     0.0345     2.5119   106.2557     0.0996     0.2759
  478.5000    10.2447     7.9367     7.9580   -38.6039     8.0073     0.0390     2.5210   108.7975     0.0948     0.2735
  479.0000    10.0408     7.7775     7.8519   -38.8916     8.0069     0.0375     2.5263   108.1340     0.0960     0.2683
  479.5000     9.7746     7.6204     7.8026   -39.3255     7.9914     0.0299     2.5133   107.5252     0.1024     0.2756
  480.0000     9.5137     7.4676     7.7011   -39.4670     7.9909     0.0222     2.5027   108.2697     0.1067     0.2954
  480.5000     9.3244     7.3190     7.7061   -39.4551     7.9905     0.0268     2.4973   109.3168     0.1103     0.3142
  481.0000     9.2650     7.2223     7.7111   -39.4456     7.9901     0.0404     2.4935   106.4505     0.1115     0.3045
  481.5000     9.3384     7.2793     7.7704   -39.4361     7.9896     0.0511     2.4942   104.9394     0.1118     0.2799
  482.0000     9.6089     7.5458     7.8341   -39.4264     7.9979     0.0556     2.5025   104.0298     0.1064     0.2672
  482.5000     9.8873     7.7043     7.9210   -39.5658     8.0038     0.0495     2.5070   103.5713     0.1036     0.2614
  483.0000    10.1032     7.6544     8.0059   -39.8534     8.0032     0.0402     2.5070   103.1058     0.1030     0.2605
  483.5000    10.1831     7.5544     8.0111   -39.9925     8.0179     0.0326     2.5085   103.2987     0.1024     0.2682
  484.0000    10.1892     7.5055     8.0163   -40.2779     8.0175     0.0312     2.5099   103.0964     0.1012     0.2768
  484.5000    10.1263     7.4581     8.0215   -40.3027     8.0170     0.0312     2.5023   102.6379     0.1037     0.2782
  485.0000    10.1341     7.4638     7.9698   -40.4098     8.0166     0.0327     2.4970   102.6305     0.1088     0.2715
  485.5000    10.1432     7.5205     7.9762   -40.5489     8.0161     0.0327     2.4931   104.5781     0.1116     0.2682
  486.0000    10.2216     7.5251     7.9814   -40.6857     8.0307     0.0357     2.4984   107.2775     0.1098     0.2669
  486.5000    10.3006     7.5298     7.9300   -40.6762     8.0303     0.0448     2.5113   109.3754     0.1034     0.2654
  487.0000    10.3803     7.3788     7.7726   -40.6667     8.0297     0.0600     2.5219   111.3230     0.0961     0.2828
  487.5000    10.4606     7.2308     7.5644   -40.5086     8.0445     0.0706     2.5264   113.5713     0.0925     0.2934
  488.0000    10.2524     7.0367     7.1599   -40.4991     8.0440     0.0585     2.5248   113.4036     0.0926     0.2987
  488.5000     9.8410     6.8956     6.8554   -40.4869     8.0435     0.0417     2.5178   110.8000     0.0965     0.3081
  489.0000     9.3156     6.7573     6.5004   -40.1828     8.0431     0.0249     2.5092   109.0361     0.1022     0.3160
  489.5000     8.3996     6.7146     6.3743   -40.0245     8.0426     0.0189     2.5004   110.6829     0.1071     0.3120
  490.0000     7.5736     6.6722     6.3342   -39.8645     8.0422     0.0341     2.4943   114.4350     0.1104     0.3080
  490.5000     7.0703     6.6773     6.3836   -39.6595     8.0417     0.0493     2.4905   116.8355     0.1132     0.3008
  491.0000     7.7650     6.6814     6.4323   -39.5498     8.0413     0.0614     2.4882   111.4128     0.1141     0.2925
  491.5000     8.8900     6.7321     6.5266   -39.5401     8.0408     0.0583     2.4942   108.6987     0.1090     0.2874
  492.0000    10.1737     6.8783     6.6222   -39.5293     8.0404     0.0477     2.5017   105.3831     0.1047     0.2819
  492.5000    10.6890     7.0768     6.8609   -39.5198     8.0399     0.0386     2.5070   104.1727     0.1032     0.2768
  493.0000    10.6210     7.2809     7.2076   -39.5103     8.0395     0.0340     2.5047   103.4135     0.1035     0.2792
  493.5000    10.4115     7.5432     7.7315   -39.3523     8.0390     0.0370     2.5039   102.9550     0.1035     0.2807
  494.0000    10.2755     7.7631     8.3513   -39.3432     8.0385     0.0356     2.5031   106.0591     0.1078     0.2738
  494.5000    10.4272     8.0474     8.8346   -39.3333     8.0464     0.0186     2.4953   109.2543     0.1126     0.2628
  495.0000    11.1862     8.3315     8.9641   -39.2273     8.0527     0.0016     2.4868   110.7526     0.1160     0.2562
  495.5000    11.9173     8.5124     8.9699   -39.1657     8.0522    -0.0056     2.4810   109.9915     0.1181     0.2534
  496.0000    12.4342     8.6972     8.9758   -39.0074     8.0619     0.0248     2.4847   109.8356     0.1156     0.2579
  496.5000    12.6178     8.8861     8.9818   -38.8492     8.0664     0.0582     2.4923   112.3828     0.1112     0.2760
  497.0000    12.6272     9.0161     8.9888   -38.5405     8.0660     0.0749     2.4960   114.3304     0.1084     0.2808
  497.5000    12.4623     9.0846     8.9985   -38.3825     8.0655     0.0551     2.4968   113.7215     0.1078     0.2820
  498.0000    12.2099     9.0902     9.0633   -38.2244     8.0651     0.0369     2.4952   113.2631     0.1094     0.2772
  498.5000    11.9612     9.0958     9.0692   -38.2149     8.0646     0.0217     2.4937   111.0915     0.1103     0.2687
  499.0000    11.8148     9.1647     9.0743   -38.0568     8.0642     0.0141     2.4944   106.5263     0.1106     0.2608
  499.5000    11.8259     9.1069     9.0809   -38.0473     8.0636     0.0080     2.4966   103.6151     0.1094     0.2392
  500.0000    11.8348     9.1126     9.0868   -38.0378     8.0633     0.0156     2.5004   102.1059     0.1055     0.2226
  500.5000    11.8437     9.1183     9.0927   -38.3255     8.0612     0.0571     2.5089   106.6080     0.1015     0.2207
  501.0000    12.0185     9.1238     8.9730   -38.6132     8.0321     0.0611     2.5149   110.9615     0.0994     0.2457
  501.5000    12.1959     9.0661     8.4931   -38.6695     8.0317     0.0550     2.5063   113.9617     0.1009     0.2621
  502.0000    12.0366     9.0730     8.2656   -38.9624     8.0313     0.0428     2.4949   110.4957     0.1085     0.2634
  502.5000    11.6342     9.0143     8.1003   -39.1791     8.0309     0.0383     2.4865   106.2779     0.1158     0.2459
  503.0000    11.3236     8.9573     8.0494   -39.3182     8.0304     0.0352     2.4812   102.3607     0.1198     0.2371
  503.5000    11.0983     8.9006     8.0548   -39.3083     8.0299     0.0231     2.4788   101.7519     0.1216     0.2317
  504.0000    10.8774     8.8256     8.0611   -39.2969     8.0295     0.0154     2.4826   101.5940     0.1211     0.2542
  504.5000    10.7352     8.7480     8.1226   -39.2874     8.0140     0.0291     2.4886   101.4346     0.1165     0.2688
  505.0000    10.5950     8.6737     8.2417   -39.1317     8.0136     0.0338     2.4909   101.5795     0.1141     0.2718
  505.5000    10.6030     8.6187     8.4208   -39.2708     7.9980     0.0260     2.4927   101.2696     0.1125     0.2682
  506.0000    10.5375     8.5643     8.6639   -39.4099     7.9976     0.0199     2.4946   101.2622     0.1110     0.2646
  506.5000    10.6210     8.4796     8.9139   -39.5490     7.9971     0.0254     2.4969   101.2556     0.1098     0.2625
  507.0000    10.6289     8.4530     9.1712   -39.5379     7.9967     0.0533     2.5016   101.2475     0.1083     0.2628
  507.5000    10.7111     8.4029     9.5017   -39.5276     7.9962     0.0594     2.5097   101.3906     0.1065     0.2646
  508.0000    10.7939     8.4094     9.7083   -39.5181     7.9958     0.0654     2.5180   101.4496     0.1020     0.2667
  508.5000    10.8754     8.4145     9.8506   -39.5086     7.9953     0.0745     2.5263   101.5626     0.0962     0.2725
  509.0000    10.6609     8.3601     9.9257   -39.4992     7.9798     0.0806     2.5286   101.6693     0.0923     0.2825
  509.5000    10.5700     8.3665     9.9322   -39.4896     7.9794     0.0639     2.5103   101.6617     0.0929     0.2889
  510.0000    10.4547     8.3716     9.9388   -39.4799     7.9769     0.0563     2.4928   101.5024     0.1002     0.2917
