~VERSION INFORMATION
 VERS.                2.0:   CWLS LOG ASCII STANDARD - VERSION 2.0
 WRAP.                 NO:   ONE LINE PER DEPTH STEP
~WELL INFORMATION
#MNEM.UNIT      DATA TYPE    INFORMATION
#----------   ------------   ------------------------------
 STRT.F            0.0000:   START DEPTH
 STOP.F         3024.5000:   STOP DEPTH
 STEP.F            0.5000:   STEP LENGTH
 NULL.          -999.2500:   NO VALUE
 COMP. LAWRENCE/ALLISON INC:   COMPANY
 WELL.   NPR 3 77X #77-28:   WELL
 FLD .           N.P.R. 3:   FIELD
 LOC .      S28 T39N R78W:   LOCATION
 CNTY.            NATRONA:   COUNTY
 STAT.            WYOMING:   STATE
 CTRY. UNITED STATES OF AMERICA:   COUNTRY
 SRVC.      Dresser Atlas:   SERVICE COMPANY
 DATE.        19-OCT-1986:   LOGDATE
 API .       490251110400:   API NUMBER
~CURVE INFORMATION
#MNEM.UNIT       API CODE    CURVE DESCRIPTION
#----------   ------------   ------------------------------
 DEPT.F                  :   
 PORD.DEC    45 890 12 00:   DENSITY POROSITY SANDSTONE
 CNC .DEC    42 890 03 00:   NEUTRON POROSITY SANDSTONE
 DEN .G/C3   45 350 01 00:   COMPENSATED BULK DENSTIY
 CORR.G/C3   45 356 01 00:   DENSITY CORRECTION
 CALD.IN     45 280 60 00:   CALIPER FROM DENSITY LOG
 GRR .GAPI   07 310 01 00:   GAMMA RAY FROM RES. LOG.
 RFOC.OHMM   07 220 04 00:   RESISTIVITY FOCUSED LOG
 RILD.OHMM   07 120 46 00:   INDUCTION LOG DEEP RESISTIVITY
 RILM.OHMM   07 120 44 00:   INDUCTION LOG MEDIUM RESISTIVITY
 SPR .MV     07 010 01 00:   SPONTANEOUS POTENTIAL
~PARAMETER INFORMATION
#MNEM.UNIT          VALUE    DESCRIPTION
#----------   ------------   ------------------------------
 PD  .                 GL:   PERMANENT DATUM
 EPD .F              5074:   ELEVATION PERMANENT DATUM
 LMF .                 KB:   LOG MEASURED FROM
 DAPD.F                12:   FEET ABOVE PERMANENT DATUM
 DMF .                 KB:   DRILLING MEASURED FROM
 EKB .F              5086:   KELLING BUSHING
 EGL .F              5074:   GROUND LEVEL
 DATE.           10-19-86:   RUN DATE
 RUN .                  1:   RUN NUMBER
 DD  .F              3021:   DEPTH DRILLER
 DL  .F              3025:   DEPTH LOGGER
 BLI .F              3023:   BOTTOM LOG INTERVAL
 CS  .IN            8.625:   CASING SIZE
 CBD .F               620:   CASING BOTTOM DRILLER
 CBL .F               615:   CASING BOTTOM LOGGER
 BS  .IN            7.875:   BIT SIZE
 BSD .F              3021:   BIT SIZE AT DEPTH
 DFT .        KCL POLYMER:   DRILLING FLUID TYPE
 DFD .                8.9:   DRILLING FLUID DENSITY
 DFV .                 38:   DRILLING FLUID VISCOSITY
 DFPH.                9.5:   DRILLING FLUID PH
 DFL .               11.2:   DRILLING FLUID LOSS
 MSS .           FLOWLINE:   MUD SAMPLE SOURCE
 RMS .OHMM            .25:   RESISTIVITY MUD SAMPLE
 MST .F                65:   MUD SAMPLE TEMPERATURE
 RMF .OHMM           .203:   RESISTIVITY MUD FILTRATE SAMPLE
 MFST.F                65:   MUD FILTRATE SAMPLE TEMPERATURE
 RMC .OHMM            .31:   RESISTIVITY MUD CAKE
 MCST.F                65:   MUD CAKE SAMPLE TEMPERATURE
 MFSS.               MEAS:   MUD FILTRATE SAMPLE SOURCE
 MCSS.               CALC:   MUD CAKE SAMPLE SOURCE
 RMB .OHMM           .136:   RESISTIVITY MUD AT BHT
 BHT .F               119:   BOTTOM HOLE TEMPERATURE
 TCS .HRS               5:   TIME CURCULATED STOPPED
 MRT .F               119:   MAXIMUM RECORDED TEMPERATURE
 LUN .               6274:   LOGGING UNIT NUMBER
 LUL .               GLTE:   LOGGING UNIT LOCATION
 ENGI.             RAUTIO:   RECORDING ENGINEER
 WITN.             STRONG:   WITNESSED BY
 CLNT.            A2DTECH:   CLIENT CODE
 ORIG.       2", 5" PRINT:   ORIGIN OF DATA
 UWI .       490251110400:   UNIQUE WELL ID
 DICO. A2D Technologies, Inc.:   DIGITIZING COMPANY
~OTHER INFORMATION
~A    DEPT    PORD        CNC        DEN       CORR       CALD        GRR       RFOC       RILD       RILM        SPR   
# ...
 2345.0000     0.0892     0.2974     2.5017     0.0077    10.3457   128.9753     3.9970     3.3722     3.5602   -83.6033
 2345.5000     0.0901     0.2970     2.5001     0.0256    10.3485   128.8213     3.9970     3.3033     3.4759   -83.6125
 2346.0000     0.0914     0.2836     2.4984     0.0143    10.3513   126.5999     4.1503     3.2645     3.4498   -83.6225
 2346.5000     0.0928     0.2718     2.4967    -0.0047    10.3541   124.3784     4.3854     3.2645     3.4647   -83.6322
 2347.0000     0.0942     0.2768     2.4950    -0.0193    10.3569   122.2718     4.6309     3.2645     3.5615   -83.6421
 2347.5000     0.0956     0.2866     2.4935    -0.0190    10.3597   122.4396     4.4995     3.3564     3.6609   -83.6519
 2348.0000     0.0931     0.2892     2.4975    -0.0201    10.3625   124.5821     4.3023     3.4498     3.7633   -83.6617
 2348.5000     0.0888     0.2898     2.5051    -0.0287    10.3652   124.7013     4.4574     3.5458     3.8683   -83.6715
 2349.0000     0.0844     0.2884     2.5128    -0.0371    10.3680   122.3678     4.7654     3.6444     3.9764   -83.6814
 2349.5000     0.0801     0.2862     2.5205    -0.0212    10.3708   120.0301     5.0794     3.7458     4.0046   -83.6912
 2350.0000     0.0792     0.2801     2.5215     0.0001    10.3736   117.7276     5.0767     3.8501     4.0367   -83.7010
 2350.5000     0.0788     0.2702     2.5216     0.0150    10.3764   118.0561     4.9825     3.9572     4.0712   -83.7109
 2351.0000     0.0765     0.2602     2.5250     0.0249    10.3792   119.1716     4.9102     4.0712     4.1452   -83.7207
 2351.5000     0.0741     0.2691     2.5287     0.0386    10.3820   120.2441     4.8938     4.0712     4.2259   -83.7305
 2352.0000     0.0720     0.2794     2.5315     0.0438    10.3848   120.2849     4.8938     4.0712     4.3082   -83.7403
 2352.5000     0.0758     0.2773     2.5293     0.0131    10.3876   120.4402     4.9385     4.1834     4.3921   -83.7502
 2353.0000     0.0796     0.2750     2.5245    -0.0178    10.3904   121.1944     5.1205     4.2955     4.4774   -83.7600
 2353.5000     0.0772     0.2750     2.5217    -0.0151    10.3927   121.9280     5.3091     4.4107     4.5651   -83.7699
 2354.0000     0.0732     0.2750     2.5300     0.0193    10.3926   122.2578     5.5047     4.5290     4.7078   -83.7800
 2354.5000     0.0700     0.2673     2.5373     0.0323    10.3926   122.2764     5.7074     4.6505     4.8767   -83.7897
 2355.0000     0.0706     0.2594     2.5300     0.0145    10.3926   122.8666     5.9177     4.7752     5.0513   -83.7731
 2355.5000     0.0770     0.2541     2.5221    -0.0032    10.3926   124.3670     6.1361     4.9032     5.2321   -83.6418
 2356.0000     0.0788     0.2530     2.5217    -0.0109    10.3926   125.8620     6.3607     5.0347     5.4194   -83.5135
 2356.5000     0.0747     0.2549     2.5292    -0.0082    10.3926   127.3595     6.5692     5.1697     5.5156   -83.3853
 2357.0000     0.0700     0.2557     2.5368     0.0109    10.3926   128.7118     6.4943     5.3084     5.5297   -83.2571
 2357.5000     0.0653     0.2527     2.5435     0.0253    10.3926   126.6369     6.3923     5.4507     5.6290   -83.1158
 2358.0000     0.0644     0.2497     2.5435     0.0249    10.3947   123.9983     6.2920     5.6180     5.7301   -82.9634
 2358.5000     0.0644     0.2470     2.5437     0.0253    10.3983   121.4212     6.2164     5.6180     5.8286   -82.8113
 2359.0000     0.0613     0.2499     2.5525     0.0361    10.4020   121.0685     6.2164     5.6180     5.8286   -82.6588
 2359.5000     0.0552     0.2532     2.5616     0.0473    10.4057   121.0597     6.4241     5.6179     5.8286   -82.5085
 2360.0000     0.0503     0.2565     2.5647     0.0396    10.4094   121.0368     6.5702     5.6180     5.8286   -82.4184
 2360.5000     0.0549     0.2594     2.5549     0.0192    10.4130   121.7081     6.7196     5.6257     5.8286   -82.5303
 2361.0000     0.0608     0.2598     2.5484     0.0167    10.4167   123.5002     6.7531     5.6749     5.7752   -82.6401
 2361.5000     0.0605     0.2634     2.5510     0.0248    10.4204   126.7224     6.5209     5.7223     5.9399   -82.7503
 2362.0000     0.0563     0.2650     2.5590     0.0328    10.4241   129.9868     6.3331     5.9066     6.1085   -82.8602
 2362.5000     0.0531     0.2626     2.5616     0.0371    10.4277   133.3883     6.2164     6.0904     6.2820   -82.9770
 2363.0000     0.0571     0.2628     2.5546     0.0307    10.4315   132.8648     6.5995     6.2798     6.4604   -82.8803
 2363.5000     0.0629     0.2648     2.5450     0.0219    10.4356   130.3172     7.0544     6.4751     6.6438   -82.7117
 2364.0000     0.0688     0.2608     2.5354     0.0130    10.4424   128.1796     7.5425     6.6765     6.8325   -82.5934
 2364.5000     0.0707     0.2526     2.5346     0.0040    10.4491   128.0428     8.0431     6.8785     7.0265   -82.5355
 2365.0000     0.0737     0.2498     2.5221     0.0041    10.4558   127.0879     8.1925     6.8785     7.1364   -82.4771
 2365.5000     0.0830     0.2501     2.5041     0.0289    10.4625   126.2481     8.1925     6.7406     7.0307   -82.4192
 2366.0000     0.0952     0.2533     2.4858     0.0552    10.4691   126.2369     7.5898     6.5399     6.8759   -82.3611
 2366.5000     0.1075     0.2565     2.4690     0.0715    10.4759   126.2301     7.2024     6.3453     6.7246   -82.3030
 2367.0000     0.1092     0.2597     2.4798     0.0129    10.4826   126.2901     6.8348     6.1565     6.5766   -82.2449
 2367.5000     0.0962     0.2649     2.4975    -0.0130    10.4892   128.0976     6.4860     6.0122     6.4318   -82.1869
 2368.0000     0.0871     0.2721     2.5151    -0.0033    10.4939   130.0013     6.1549     5.9271     6.2903   -82.1288
 2368.5000     0.0781     0.2766     2.5266     0.0203    10.4952   130.0180     6.0471     5.8433     6.2164   -82.0703
 2369.0000     0.0736     0.2737     2.5257     0.0171    10.4966   127.4436     6.2108     5.7607     6.2164   -82.0107
 2369.5000     0.0780     0.2722     2.5213    -0.0121    10.4980   124.9550     6.5516     5.7223     6.2037   -82.0074
 2370.0000     0.0823     0.2722     2.5169    -0.0280    10.4994   124.5269     6.9110     5.7223     6.1160   -82.0079
 2370.5000     0.0866     0.2667     2.5083    -0.0344    10.5008   125.8216     7.2902     5.6446     6.0471   -82.0079
 2371.0000     0.0908     0.2568     2.4992    -0.0408    10.5022   126.2270     7.6901     5.5159     5.8683   -82.0079
 2371.5000     0.0951     0.2477     2.4900    -0.0365    10.5036   126.2316     7.7525     5.3902     5.6967   -82.0079
 2372.0000     0.0957     0.2477     2.4923    -0.0121    10.5049   127.4075     6.9452     5.2673     5.5302   -82.0079
 2372.5000     0.0921     0.2576     2.4986    -0.0089    10.5063   134.2565     6.3691     5.1472     5.3685   -82.0079
 2373.0000     0.0913     0.2665     2.4974    -0.0090    10.5077   141.1945     5.8387     5.0299     5.2115   -82.0079
 2373.5000     0.0944     0.2753     2.4965    -0.0089    10.5091   148.0977     5.3527     4.9152     5.0591   -82.0082
 2374.0000     0.0888     0.2781     2.5002    -0.0018    10.5105   152.1388     5.1691     4.8938     5.0307   -82.0099
 2374.5000     0.0772     0.2578     2.5202     0.0163    10.5119   148.9572     5.1685     4.8938     5.1980   -81.9976
 2375.0000     0.0656     0.2421     2.5407     0.0343    10.5133   138.3666     6.3411     5.1221     5.4675   -81.7509
 2375.5000     0.0611     0.2263     2.5455     0.0428    10.5147   128.1205     7.2519     5.3944     5.7509   -81.5061
 2376.0000     0.0637     0.2242     2.5450     0.0367    10.5161   117.8221     8.1175     5.6831     6.0493   -81.2630
 2376.5000     0.0640     0.2315     2.5448     0.0299    10.5175   112.8195     8.0227     5.9872     6.3633   -81.0201
 2377.0000     0.0625     0.2384     2.5455     0.0234    10.5189   114.3440     7.8617     6.3075     6.6925   -80.7770
 2377.5000     0.0616     0.2437     2.5463     0.0020    10.5202   116.4129     7.6809     6.6920     6.8155   -80.5341
 2378.0000     0.0631     0.2401     2.5445    -0.0252    10.5216   118.4933     7.6817     6.6912     6.8155   -80.2883
