~VERSION INFORMATION
 VERS.                2.0:   CWLS LOG ASCII STANDARD - VERSION 2.0
 WRAP.                 NO:   ONE LINE PER DEPTH STEP
~WELL INFORMATION
#MNEM.UNIT      DATA TYPE    INFORMATION
#----------   ------------   ------------------------------
 STRT.F           31.0000:   START DEPTH
 STOP.F          590.0000:   STOP DEPTH
 STEP.F            0.1000:   STEP LENGTH
 NULL.          -999.2500:   NO VALUE
 COMP. LAWRENCE/ALLISON INC:   COMPANY
 WELL. NPR 3 73-61 SX #3-3:   WELL
 FLD .             TEAPOT:   FIELD
 LOC .       S3 T38N R78W:   LOCATION
 CNTY.            NATRONA:   COUNTY
 STAT.            WYOMING:   STATE
 CTRY. UNITED STATES OF AMERICA:   COUNTRY
 SRVC.           Gearhart:   SERVICE COMPANY
 DATE.        14-AUG-1988:   LOGDATE
 API .       490251124200:   API NUMBER
~CURVE INFORMATION
#MNEM.UNIT       API CODE    CURVE DESCRIPTION
#----------   ------------   ------------------------------
 DEPT.F                  :   
 GRR .GAPI   07 310 01 00:   GAMMA RAY
 RILD.OHMM   07 120 46 00:   INDUCTION LOG DEEP RESISTIVITY
 RILM.OHMM   07 120 44 00:   INDUCTION LOG MEDIUM RESISTIVITY
~PARAMETER INFORMATION
#MNEM.UNIT          VALUE    DESCRIPTION
#----------   ------------   ------------------------------
 PD  .                 GL:   PERMANENT DATUM
 EPD .F              5136:   ELEVATION PERMANENT DATUM
 LMF .                 KB:   LOG MEASURED FROM
 DAPD.F                10:   FEET ABOVE PERMANENT DATUM
 DMF .                 KB:   DRILLING MEASURED FROM
 EKB .F              5146:   KELLING BUSHING
 EDF .F              5144:   DRILLING FLOOR
 EGL .F              5136:   GROUND LEVEL
 DATE.        14-AUG-1988:   RUN DATE
 RUN .                  1:   RUN NUMBER
 DD  .F               597:   DEPTH DRILLER
 DL  .F               598:   DEPTH LOGGER
 BLI .F               590:   BOTTOM LOG INTERVAL
 TLI .F                50:   TOP LOG INTERVAL
 CS  .IN            9.625:   CASING SIZE
 CBD .F                50:   CASING BOTTOM DRILLER
 CBL .F                50:   CASING BOTTOM LOGGER
 BS  .IN             8.75:   BIT SIZE
 BSD .F               597:   BIT SIZE AT DEPTH
 DFT .                AIR:   DRILLING FLUID TYPE
 TCS .HRS            1930:   TIME CURCULATED STOPPED
 TLAB.HRS            2030:   TIME LOGGER AT BOTTOM
 MRT .F                70:   MAXIMUM RECORDED TEMPERATURE
 LUN .               7597:   LOGGING UNIT NUMBER
 LUL .           GILLETTE:   LOGGING UNIT LOCATION
 ENGI.         WEATHERMON:   RECORDING ENGINEER
 WITN.             STRONG:   WITNESSED BY
 CLNT.            A2DTECH:   CLIENT CODE
 ORIG.           5" PRINT:   ORIGIN OF DATA
 UWI .       490251124200:   UNIQUE WELL ID
 DICO. A2D Technologies, Inc.:   DIGITIZING COMPANY
~OTHER INFORMATION
~A   DEPT       GRR      RILD       RILM   
# ...
  395.0000   114.4311     8.4190     8.2515
  395.1000   114.8541     8.6647     8.4250
  395.2000   115.5989     8.8592     8.5687
  395.3000   116.4179     9.0229     8.7353
  395.4000   117.0889     9.1771     8.8207
  395.5000   117.6666     9.3337     8.9207
  395.6000   118.2766     9.4883     9.0433
  395.7000   118.9650     9.6114     9.1874
  395.8000   119.4598     9.7049     9.2942
  395.9000   119.2154     9.8150     9.3967
  396.0000   118.5863     9.9262     9.5032
  396.1000   118.1260    10.0281     9.6399
  396.2000   117.7172    10.0868     9.7702
  396.3000   117.0083    10.1966     9.8295
  396.4000   116.4645    10.2692     9.9566
  396.5000   116.0290    10.3270     9.9558
  396.6000   115.7039    10.3682     9.9911
  396.7000   115.5704    10.3641    10.0471
  396.8000   115.5746    10.2953    10.0925
  396.9000   115.5789    10.2948    10.0915
  397.0000   115.5831    10.2942    10.0907
  397.1000   115.7779    10.3164    10.0899
  397.2000   116.0290    10.3649    10.0890
  397.3000   116.3605    10.3642    10.0709
  397.4000   116.8584    10.4189    10.0176
  397.5000   117.4174    10.4775    10.0167
  397.6000   118.0712    10.5365    10.0160
  397.7000   118.8160    10.5957     9.9792
  397.8000   119.6673    10.6578     9.9451
  397.9000   120.6595    10.8009     9.9442
  398.0000   121.6677    10.9010     9.9434
  398.1000   121.6719    10.9875     9.9426
  398.2000   121.3007    11.0724     9.9418
  398.3000   120.8111    11.1887     9.9410
  398.4000   120.3215    11.2568     9.9402
  398.5000   119.8317    11.4337     9.9393
  398.6000   119.2767    11.5832     9.9383
  398.7000   118.6385    11.7145     9.9376
  398.8000   118.0608    11.8472     9.9368
  398.9000   117.4677    11.9828     9.9592
  399.0000   116.7310    12.1878    10.0045
  399.1000   115.9741    12.3961    10.0034
  399.2000   115.2579    12.6079    10.0576
  399.3000   114.3367    12.8489    10.1140
  399.4000   113.4828    13.1326    10.2532
  399.5000   112.6715    13.3798    10.4688
  399.6000   111.6306    13.6550    10.6844
  399.7000   109.6556    13.9137    10.9000
  399.8000   108.6042    14.1879    11.1155
  399.9000   107.0619    14.4929    11.3311
  400.0000   105.2528    14.7401    11.5467
  400.1000   103.3219    15.0469    11.7623
  400.2000   101.3910    15.3537    11.9779
  400.3000    99.4601    15.6605    12.1935
  400.4000    97.5292    15.9673    12.4090
  400.5000    95.5983    16.2741    12.6246
  400.6000    93.6674    16.5809    12.8402
  400.7000    91.7365    16.8878    13.0916
  400.8000    89.7645    17.1946    13.4790
  400.9000    87.6775    17.5014    13.9035
  401.0000    85.4671    17.8082    14.2740
  401.1000    84.0417    18.1150    14.6297
  401.2000    82.2798    18.4218    15.0581
  401.3000    80.7732    18.7286    15.5612
  401.4000    78.8947    19.0354    15.9567
  401.5000    76.2180    19.3422    16.4904
  401.6000    73.3879    19.6490    17.0733
  401.7000    72.2880    19.9558    17.6173
  401.8000    70.2186    20.2855    18.0568
  401.9000    67.2162    20.6776    18.8855
  402.0000    64.1934    21.1612    19.2807
  402.1000    61.8324    21.6976    19.8133
  402.2000    60.3875    22.0469    20.3949
  402.3000    59.3259    22.4330    20.9932
  402.4000    58.8505    22.8973    21.5936
  402.5000    58.5398    23.3404    22.1388
  402.6000    58.2912    23.6313    22.4954
  402.7000    58.2305    24.0645    23.0849
  402.8000    58.4886    24.4660    23.6884
  402.9000    58.7505    24.8946    24.2423
  403.0000    59.0050    25.3306    24.7875
  403.1000    59.4643    25.7175    25.2424
  403.2000    59.8235    26.0431    25.6619
  403.3000    60.0817    26.5052    26.1107
  403.4000    60.3947    26.9630    26.4799
  403.5000    60.9003    27.3087    26.8441
  403.6000    61.2020    27.6257    27.2852
  403.7000    61.6272    27.8802    27.6080
  403.8000    61.9771    28.0057    27.9210
  403.9000    62.2354    28.0034    28.2446
  404.0000    62.5582    28.1955    28.5719
  404.1000    63.0695    28.1936    28.8363
  404.2000    63.6478    28.1912    29.0355
  404.3000    63.8722    28.1889    29.3704
  404.4000    64.3020    28.1865    29.5701
  404.5000    64.8138    28.1842    29.7077
  404.6000    65.3996    28.1815    29.8778
  404.7000    66.1642    28.0394    29.9016
  404.8000    66.9998    27.9824    29.7649
  404.9000    67.9240    27.9037    29.7620
  405.0000    68.9424    27.7844    29.7587
  405.1000    69.9610    27.7821    29.6114
  405.2000    70.8956    27.7795    29.5477
  405.3000    71.7302    27.7775    29.4675
  405.4000    73.0710    27.6629    29.2940
  405.5000    74.0347    27.5809    29.1111
  405.6000    74.6708    27.5287    28.7277
  405.7000    75.3245    27.3857    28.5808
  405.8000    76.1830    27.3833    28.3019
  405.9000    77.1563    27.3811    28.0501
  406.0000    77.9336    27.3788    27.8849
  406.1000    78.6866    27.3766    27.7208
  406.2000    79.4512    27.3743    27.5409
  406.3000    80.0643    27.4208    27.2531
  406.4000    80.4729    27.7520    27.0458
  406.5000    80.6223    27.9048    26.8866
  406.6000    80.3405    28.1908    26.7284
  406.7000    78.2703    28.5182    26.5524
  406.8000    77.2226    28.7852    26.2205
  406.9000    76.1224    28.9505    26.0775
  407.0000    75.1139    29.1180    26.1455
  407.1000    74.1692    29.2842    26.3780
  407.2000    73.4294    29.4525    26.7376
  407.3000    72.8611    29.6217    27.2044
  407.4000    72.4253    29.7918    27.7004
  407.5000    71.4099    29.9247    28.1637
  407.6000    70.2704    29.9223    28.6563
  407.7000    69.1877    30.1275    29.1573
  407.8000    67.9505    30.1254    29.6667
  407.9000    66.8476    30.1229    30.1526
  408.0000    65.9334    30.1205    30.5072
  408.1000    65.1058    30.1180    30.8555
  408.2000    64.2185    30.1155    31.3577
  408.3000    63.2099    30.1126    31.7945
  408.4000    62.2363    30.1104    32.1626
  408.5000    61.4383    30.1079    32.5350
  408.6000    60.4857    30.1054    32.9116
  408.7000    59.6674    30.1029    33.3624
  408.8000    59.1960    30.1004    33.5188
  408.9000    58.9475    30.0976    33.7108
  409.0000    58.6989    30.0953    33.9039
  409.1000    58.4460    29.9699    34.0980
  409.2000    58.2019    29.8824    34.2931
  409.3000    57.9533    29.8799    34.5196
  409.4000    57.8562    29.8774    34.6872
  409.5000    57.8610    29.8748    34.8857
  409.6000    57.9198    29.7112    34.9921
  409.7000    58.1781    29.6635    34.9887
  409.8000    58.4806    29.6611    34.9853
  409.9000    58.6945    29.5981    34.9815
  410.0000    59.1140    29.4511    34.8012
  410.1000    59.7380    29.4486    34.7334
  410.2000    60.3754    29.4463    34.6321
  410.3000    60.6486    29.4438    34.3700
  410.4000    61.2284    29.3426    33.9888
  410.5000    61.6717    29.2355    33.7696
  410.6000    62.1833    29.2330    33.5899
  410.7000    62.5728    29.2306    33.3922
  410.8000    62.8310    29.2277    33.0969
  410.9000    63.1138    29.2257    32.7720
  411.0000    63.6742    29.2233    32.5550
  411.1000    63.9077    29.2209    32.1507
  411.2000    64.3464    29.2185    31.9741
  411.3000    64.8579    29.2160    31.6505
  411.4000    65.3693    29.2132    31.2821
  411.5000    65.8810    29.2111    30.9177
  411.6000    66.4220    29.2086    30.5848
  411.7000    66.4266    29.2062    30.3978
  411.8000    66.6216    29.2038    29.8907
  411.9000    66.7384    29.2013    29.5026
  412.0000    66.7432    29.1986    29.2559
  412.1000    66.7480    29.1965    29.0201
  412.2000    66.7530    29.1940    28.6819
  412.3000    66.7577    29.1916    28.3445
  412.4000    66.7625    29.2390    28.0181
  412.5000    66.7673    29.3902    27.8199
  412.6000    66.7722    29.3873    27.6561
  412.7000    66.7235    29.5403    27.4933
  412.8000    66.4797    29.8338    27.3652
  412.9000    66.4854    30.0887    27.3625
  413.0000    66.4894    30.2615    27.3594
  413.1000    66.4943    30.4591    27.4888
