~VERSION INFORMATION
 VERS.                2.0:   CWLS LOG ASCII STANDARD - VERSION 2.0
 WRAP.                 NO:   ONE LINE PER DEPTH STEP
~WELL INFORMATION
#MNEM.UNIT      DATA TYPE    INFORMATION
#----------   ------------   ------------------------------
 STRT.F            0.0000:   START DEPTH
 STOP.F         2230.0000:   STOP DEPTH
 STEP.F            0.5000:   STEP LENGTH
 NULL.          -999.2500:   NO VALUE
 COMP. LAWRENCE/ALLISON INC:   COMPANY
 WELL. NPR 3 SH X 34 #48-34:   WELL
 FLD .            WILDCAT:   FIELD
 LOC .      S34 T39N R78W:   LOCATION
 CNTY.            NATRONA:   COUNTY
 STAT.            WYOMING:   STATE
 CTRY. UNITED STATES OF AMERICA:   COUNTRY
 SRVC.            Unknown:   SERVICE COMPANY
 DATE.        02-SEP-1991:   LOGDATE
 API .       490251110600:   API NUMBER
~CURVE INFORMATION
#MNEM.UNIT       API CODE    CURVE DESCRIPTION
#----------   ------------   ------------------------------
 DEPT.F                  :   
 ROP .MIN/FT 91 810 01 00:   RAT OF DRILLING PENETRATION
 TGAS.UNITS  91 830 01 00:   TOTAL GAS FROM HOTWIRE
 C1  .VF     91 831 01 00:   METHANE
 C2  .VF     91 832 01 00:   ETHANE
 C3  .VF     91 833 01 00:   PROPANE
 C4  .VF     91 834 01 00:   BUTANE
 TT  .US/F   81 520 00 00:   TRANSIT TIME
 GR  .GAPI   81 310 01 00:   GAMMA RAY FROM CEMENT BOND LOG
~PARAMETER INFORMATION
#MNEM.UNIT          VALUE    DESCRIPTION
#----------   ------------   ------------------------------
 EKB .F              5145:   KELLING BUSHING
 EGL .F              5135:   GROUND LEVEL
 DATE.          09-2-1991:   RUN DATE
 RUN .                  1:   RUN NUMBER
 BLI .F              2400:   BOTTOM LOG INTERVAL
 TLI .F              2200:   TOP LOG INTERVAL
 ENGI.           C. TOWER:   RECORDING ENGINEER
 WITN.            R. HUSK:   WITNESSED BY
 CLNT.            A2DTECH:   CLIENT CODE
 ORIG.           5" PRINT:   ORIGIN OF DATA
 UWI .       490251110600:   UNIQUE WELL ID
 DICO. A2D Technologies, Inc.:   DIGITIZING COMPANY
~OTHER INFORMATION
~A    DEPT     ROP       TGAS         C1         C2         C3         C4          TT         GR  
# ...
  850.5000     0.9162     2.7935     8.3779     2.0690  -999.2500  -999.2500  -999.2500  -999.2500
  851.0000     0.9189     2.7849     8.3589     2.0774  -999.2500  -999.2500  -999.2500  -999.2500
  851.5000     0.9216     2.7763     8.3400     2.0857  -999.2500  -999.2500  -999.2500  -999.2500
  852.0000     0.9226     2.7677     8.3211     2.0940  -999.2500  -999.2500  -999.2500  -999.2500
  852.5000     0.8957     2.7591     8.3022     2.1002  -999.2500  -999.2500  -999.2500  -999.2500
  853.0000     0.8682     2.7505     8.2832     2.1000  -999.2500  -999.2500  -999.2500  -999.2500
  853.5000     0.8403     2.7419     8.2643     2.1000  -999.2500  -999.2500  -999.2500  -999.2500
  854.0000     0.8125     2.7333     8.2454     2.1000  -999.2500  -999.2500  -999.2500  -999.2500
  854.5000     0.8112     2.7247     8.2264     2.1000  -999.2500  -999.2500  -999.2500  -999.2500
  855.0000     0.8125     2.7161     8.2075     2.1000  -999.2500  -999.2500  -999.2500  -999.2500
  855.5000     0.8136     2.7075     8.1886     2.1000  -999.2500  -999.2500  -999.2500  -999.2500
  856.0000     0.8147     2.6987     8.1697     2.1000  -999.2500  -999.2500  -999.2500  -999.2500
  856.5000     0.8158     2.6902     8.1507     2.1000  -999.2500  -999.2500  -999.2500  -999.2500
  857.0000     0.8168     2.6951     8.1318     2.1000  -999.2500  -999.2500  -999.2500  -999.2500
  857.5000     0.8179     2.7842     8.1129     2.1000  -999.2500  -999.2500  -999.2500  -999.2500
  858.0000     0.8189     2.8740     8.0940     2.1000  -999.2500  -999.2500  -999.2500  -999.2500
  858.5000     0.8200     2.9634     8.0750     2.1000  -999.2500  -999.2500  -999.2500  -999.2500
  859.0000     0.8211     3.0529     8.0561     2.1000  -999.2500  -999.2500  -999.2500  -999.2500
  859.5000     0.8221     3.1423     8.0372     2.1000  -999.2500  -999.2500  -999.2500  -999.2500
  860.0000     0.8234     3.2317     8.0182     2.1000  -999.2500  -999.2500  -999.2500  -999.2500
  860.5000     0.8251     3.3211     7.9993     2.1000  -999.2500  -999.2500  -999.2500  -999.2500
  861.0000     0.8269     3.4107     7.9804     2.1000  -999.2500  -999.2500  -999.2500  -999.2500
  861.5000     0.8286     3.5004     7.9615     2.1000  -999.2500  -999.2500  -999.2500  -999.2500
  862.0000     0.8304     3.5890     7.9425     2.1000  -999.2500  -999.2500  -999.2500  -999.2500
  862.5000     0.8321     3.6495     7.9236     2.1000  -999.2500  -999.2500  -999.2500  -999.2500
  863.0000     0.8339     3.5928     7.9047     2.1000  -999.2500  -999.2500  -999.2500  -999.2500
  863.5000     0.8354     3.5389     7.8857     2.1000  -999.2500  -999.2500  -999.2500  -999.2500
  864.0000     0.8354     3.4854     7.8668     2.1000  -999.2500  -999.2500  -999.2500  -999.2500
  864.5000     0.8354     3.4317     7.8479     2.1000  -999.2500  -999.2500  -999.2500  -999.2500
  865.0000     0.8354     3.3781     7.8289     2.1000  -999.2500  -999.2500  -999.2500  -999.2500
  865.5000     0.8354     3.3244     7.8100     2.1000  -999.2500  -999.2500  -999.2500  -999.2500
  866.0000     0.8354     3.2706     7.7911     2.1000  -999.2500  -999.2500  -999.2500  -999.2500
  866.5000     0.8354     3.2170     7.7721     2.1000  -999.2500  -999.2500  -999.2500  -999.2500
  867.0000     0.8354     3.1707     7.7525     2.1000  -999.2500  -999.2500  -999.2500  -999.2500
  867.5000     0.8354     3.1706     7.7674     2.1000  -999.2500  -999.2500  -999.2500  -999.2500
  868.0000     0.8354     3.1707     7.7881     2.1000  -999.2500  -999.2500  -999.2500  -999.2500
  868.5000     0.8332     3.1707     7.8091     2.1000  -999.2500  -999.2500  -999.2500  -999.2500
  869.0000     0.8307     3.1707     7.8300     2.1000  -999.2500  -999.2500  -999.2500  -999.2500
  869.5000     0.8281     3.1707     7.8509     2.1000  -999.2500  -999.2500  -999.2500  -999.2500
  870.0000     0.8256     3.1707     7.8719     2.1000  -999.2500  -999.2500  -999.2500  -999.2500
  870.5000     0.8230     3.1707     7.8927     2.1000  -999.2500  -999.2500  -999.2500  -999.2500
  871.0000     0.8191     3.1707     7.9137     2.1000  -999.2500  -999.2500  -999.2500  -999.2500
  871.5000     0.8149     3.1707     7.9346     2.1000  -999.2500  -999.2500  -999.2500  -999.2500
  872.0000     0.8103     3.1707     7.9555     2.1000  -999.2500  -999.2500  -999.2500  -999.2500
  872.5000     0.8177     3.1707     7.9764     2.1000  -999.2500  -999.2500  -999.2500  -999.2500
  873.0000     0.8280     3.1707     7.9973     2.1000  -999.2500  -999.2500  -999.2500  -999.2500
  873.5000     0.8326     3.1707     8.0182     2.0977  -999.2500  -999.2500  -999.2500  -999.2500
  874.0000     0.8208     3.1707     8.0391     2.0912  -999.2500  -999.2500  -999.2500  -999.2500
  874.5000     0.8096     3.1707     8.0600     2.0849  -999.2500  -999.2500  -999.2500  -999.2500
  875.0000     0.7984     3.1707     8.0809     2.0785  -999.2500  -999.2500  -999.2500  -999.2500
  875.5000     0.7870     3.1707     8.1018     2.0721  -999.2500  -999.2500  -999.2500  -999.2500
  876.0000     0.7754     3.1707     8.1227     2.0657  -999.2500  -999.2500  -999.2500  -999.2500
  876.5000     0.7800     3.1707     8.1436     2.0593  -999.2500  -999.2500  -999.2500  -999.2500
  877.0000     0.8551     3.1707     8.1645     2.0529  -999.2500  -999.2500  -999.2500  -999.2500
  877.5000     0.9379     3.1707     8.1854     2.0465  -999.2500  -999.2500  -999.2500  -999.2500
  878.0000     1.0201     3.1707     8.2063     2.0401  -999.2500  -999.2500  -999.2500  -999.2500
  878.5000     1.0813     3.1707     8.2274     2.0337  -999.2500  -999.2500  -999.2500  -999.2500
  879.0000     1.0833     3.1707     8.2493     2.0273  -999.2500  -999.2500  -999.2500  -999.2500
  879.5000     1.0770     3.1707     8.2648     2.0209  -999.2500  -999.2500  -999.2500  -999.2500
  880.0000     1.0704     3.1707     8.2808     2.0145  -999.2500  -999.2500  -999.2500  -999.2500
  880.5000     1.0638     3.1707     8.2970     2.0081  -999.2500  -999.2500  -999.2500  -999.2500
  881.0000     1.0573     3.1707     8.3131     2.0017  -999.2500  -999.2500  -999.2500  -999.2500
  881.5000     1.0503     3.1707     8.3293     1.9953  -999.2500  -999.2500  -999.2500  -999.2500
  882.0000     1.0607     3.1707     8.3454     1.9889  -999.2500  -999.2500  -999.2500  -999.2500
  882.5000     1.0744     3.1707     8.3615     1.9825  -999.2500  -999.2500  -999.2500  -999.2500
  883.0000     1.0628     3.1707     8.3777     1.9761  -999.2500  -999.2500  -999.2500  -999.2500
  883.5000     1.0480     3.1707     8.3938     1.9697  -999.2500  -999.2500  -999.2500  -999.2500
  884.0000     1.0331     3.1707     8.4100     1.9633  -999.2500  -999.2500  -999.2500  -999.2500
  884.5000     1.0266     3.1707     8.4261     1.9569  -999.2500  -999.2500  -999.2500  -999.2500
  885.0000     1.0343     3.1707     8.4423     1.9505  -999.2500  -999.2500  -999.2500  -999.2500
  885.5000     1.0417     3.1707     8.4584     1.9441  -999.2500  -999.2500  -999.2500  -999.2500
  886.0000     1.0487     3.1707     8.4745     1.9377  -999.2500  -999.2500  -999.2500  -999.2500
  886.5000     1.0358     3.1707     8.4907     1.9313  -999.2500  -999.2500  -999.2500  -999.2500
  887.0000     0.9975     3.1707     8.5068     1.9249  -999.2500  -999.2500  -999.2500  -999.2500
  887.5000     0.9560     3.1707     8.5230     1.9185  -999.2500  -999.2500  -999.2500  -999.2500
  888.0000     0.9144     3.1707     8.5391     1.9121  -999.2500  -999.2500  -999.2500  -999.2500
  888.5000     0.8729     3.1707     8.5553     1.9057  -999.2500  -999.2500  -999.2500  -999.2500
  889.0000     0.8313     3.1707     8.5714     1.8993  -999.2500  -999.2500  -999.2500  -999.2500
  889.5000     0.7870     3.1707     8.5875     1.8929  -999.2500  -999.2500  -999.2500  -999.2500
  890.0000     0.7757     3.1707     8.6037     1.8865  -999.2500  -999.2500  -999.2500  -999.2500
  890.5000     0.8377     3.1707     8.6198     1.8801  -999.2500  -999.2500  -999.2500  -999.2500
