~VERSION INFORMATION
 VERS.                2.0:   CWLS LOG ASCII STANDARD - VERSION 2.0
 WRAP.                 NO:   ONE LINE PER DEPTH STEP
~WELL INFORMATION
#MNEM.UNIT      DATA TYPE    INFORMATION
#----------   ------------   ------------------------------
 STRT.F           23.0000:   START DEPTH
 STOP.F         1106.0000:   STOP DEPTH
 STEP.F            0.5000:   STEP LENGTH
 NULL.          -999.2500:   NO VALUE
 COMP. FENIX & SCISSON INC:   COMPANY
 WELL.       NPR-3 #67-11:   WELL
 FLD . TEAPOT DOME NPR #3:   FIELD
 LOC .      S11 T38N R78W:   LOCATION
 CNTY.            NATRONA:   COUNTY
 STAT.            WYOMING:   STATE
 CTRY. UNITED STATES OF AMERICA:   COUNTRY
 SRVC.            Unknown:   SERVICE COMPANY
 DATE.        06-MAR-1978:   LOGDATE
 API .       490251059100:   API NUMBER
~CURVE INFORMATION
#MNEM.UNIT       API CODE    CURVE DESCRIPTION
#----------   ------------   ------------------------------
 DEPT.F                  :   
 ILD .OHMM   05 120 46 00:   INDUCTION LOG DEEP
 SN  .OHMM   05 040 16 00:   SHORT NORMAL 16"
 SPR .MV     05 010 01 00:   SPONTANEOUS POTENTIAL FROM RES.
 CALD.IN     45 280 60 00:   CALIPER
 GRD .GAPI   45 310 01 00:   GAMMA RAY FROM DENSITY LOG
 CORR.G/C3   45 356 01 00:   DENSITY CORRECTION
 DPHI.DEC    45 890 12 00:   DENSITY POROSITY SANDSTONE
 RHOB.G/C3   45 350 01 00:   BULK DENSITY
~PARAMETER INFORMATION
#MNEM.UNIT          VALUE    DESCRIPTION
#----------   ------------   ------------------------------
 PD  .                 GL:   PERMANENT DATUM
 EPD .F              5243:   ELEVATION PERMANENT DATUM
 LMF .                 KB:   LOG MEASURED FROM
 DAPD.F                 4:   FEET ABOVE PERMANENT DATUM
 DMF .                 KB:   DRILLING MEASURED FROM
 EKB .F              5247:   KELLING BUSHING
 EGL .F              5243:   GROUND LEVEL
 DATE.           3-6-1978:   RUN DATE
 RUN .                  1:   RUN NUMBER
 DD  .F              1104:   DEPTH DRILLER
 DL  .F              1108:   DEPTH LOGGER
 BLI .F              1102:   BOTTOM LOG INTERVAL
 TLI .F                40:   TOP LOG INTERVAL
 CS  .IN            8.625:   CASING SIZE
 CBD .F                40:   CASING BOTTOM DRILLER
 CBL .F                40:   CASING BOTTOM LOGGER
 BS  .IN            7.875:   BIT SIZE
 BSD .F              1104:   BIT SIZE AT DEPTH
 DFT .         LIGNO/SULF:   DRILLING FLUID TYPE
 DFD .                8.6:   DRILLING FLUID DENSITY
 DFV .                 31:   DRILLING FLUID VISCOSITY
 DFL .                  8:   DRILLING FLUID LOSS
 MSS .            MUD PIT:   MUD SAMPLE SOURCE
 RMS .OHMM              2:   RESISTIVITY MUD SAMPLE
 MST .F                58:   MUD SAMPLE TEMPERATURE
 RMF .OHMM            1.2:   RESISTIVITY MUD FILTRATE SAMPLE
 MFST.F                64:   MUD FILTRATE SAMPLE TEMPERATURE
 RMC .OHMM              3:   RESISTIVITY MUD CAKE
 MCST.F                64:   MUD CAKE SAMPLE TEMPERATURE
 MFSS.               MEAS:   MUD FILTRATE SAMPLE SOURCE
 RMB .OHMM            1.5:   RESISTIVITY MUD AT BHT
 BHT .F                78:   BOTTOM HOLE TEMPERATURE
 TCS .HRS               4:   TIME CURCULATED STOPPED
 MRT .F                78:   MAXIMUM RECORDED TEMPERATURE
 LUN .               2959:   LOGGING UNIT NUMBER
 LUL .               CASP:   LOGGING UNIT LOCATION
 ENGI.             MILLER:   RECORDING ENGINEER
 WITN.           MCGINLEY:   WITNESSED BY
 CLNT.            A2DTECH:   CLIENT CODE
 ORIG.       2", 5" PRINT:   ORIGIN OF DATA
 UWI .       490251059100:   UNIQUE WELL ID
 DICO. A2D Technologies, Inc.:   DIGITIZING COMPANY
~OTHER INFORMATION
~A   DEPT      ILD         SN        SPR       CALD         GRD      CORR       DPHI       RHOB   
# ...
  792.5000     5.1475     5.8585   -24.8375     7.6195    88.7755     0.0068     0.1416     2.4226
  793.0000     5.1560     5.6413   -24.8907     7.6195    89.6201     0.0096     0.1361     2.4234
  793.5000     5.1646     5.6413   -24.9443     7.6195    90.7017     0.0124     0.1307     2.4373
  794.0000     5.1731     5.7465   -24.9863     7.6195    91.2009     0.0149     0.1252     2.4509
  794.5000     5.1817     6.0222   -25.1608     7.6195    89.8321     0.0130     0.1222     2.4564
  795.0000     5.1902     6.2904   -24.9623     7.6195    88.7887     0.0111     0.1248     2.4545
  795.5000     5.3132     6.5704   -24.8022     7.6195    89.7672     0.0092     0.1262     2.4526
  796.0000     5.4975     6.7022   -24.8243     7.6193    89.9552     0.0072     0.1248     2.4506
  796.5000     5.6882     6.7578   -24.8472     7.6189    90.0121     0.0072     0.1234     2.4487
  797.0000     5.8851     6.8204   -24.8694     7.6185    90.0616     0.0074     0.1254     2.4504
  797.5000     6.0174     6.8908   -24.8915     7.6182    90.4546     0.0076     0.1254     2.4526
  798.0000     5.9555     6.9619   -24.9137     7.6178    94.2416     0.0077     0.1232     2.4548
  798.5000     5.8317     7.0416   -24.9358     7.6174    94.4467     0.0079     0.1210     2.4570
  799.0000     5.7462     7.0005   -24.9580     7.6170    94.1440     0.0081     0.1249     2.4587
  799.5000     5.7673     6.9419   -24.9801     7.6167    94.3968     0.0083     0.1288     2.4540
  800.0000     5.7868     6.9127   -24.9999     7.6163    94.3153     0.0085     0.1280     2.4495
  800.5000     5.7994     6.8913   -25.0003     7.6159    91.0782     0.0087     0.1285     2.4479
  801.0000     5.7115     6.8190   -24.9997     7.6156    89.7400     0.0089     0.1353     2.4431
  801.5000     5.6434     6.7474   -24.9990     7.6152    90.2279     0.0093     0.1310     2.4353
  802.0000     5.5763     6.6369   -24.8829     7.6148    90.9166     0.0098     0.1303     2.4394
  802.5000     5.5103     6.5428   -24.6352     7.6144    90.6710     0.0103     0.1308     2.4413
  803.0000     5.4871     6.4499   -24.3902     7.6141    90.3567     0.0109     0.1296     2.4413
  803.5000     5.4871     6.3612   -24.1989     7.6137    90.0382     0.0102     0.1286     2.4438
  804.0000     5.4871     6.1922   -24.2040     7.6133    89.8982     0.0091     0.1304     2.4426
  804.5000     5.4871     6.0325   -24.4510     7.6130    90.3215     0.0081     0.1330     2.4339
  805.0000     5.4116     5.8672   -24.8584     7.6126    93.7461     0.0070     0.1446     2.4253
  805.5000     5.1435     5.6700   -24.9988     7.6122    96.0162     0.0059     0.1509     2.4222
  806.0000     4.7740     5.4793   -25.1432     7.6118    92.1941     0.0053     0.1575     2.4168
  806.5000     4.4276     5.2131   -25.0768     7.6115    88.2450     0.0075     0.1640     2.4009
  807.0000     4.1064     4.9372   -24.8807     7.6111    87.6775     0.0097     0.1707     2.3851
  807.5000     3.9712     4.6452   -24.6947     7.6107    88.1013     0.0140     0.1749     2.3725
  808.0000     3.9793     4.2742   -24.5156     7.6104    88.7883     0.0218     0.1529     2.3880
  808.5000     3.9863     4.2742   -24.3121     7.6100    88.3609     0.0298     0.1306     2.4128
  809.0000     3.9933     4.2729   -24.0622     7.6096    87.4567     0.0253     0.1224     2.4375
  809.5000     4.0003     4.3976   -23.8147     7.6093    87.3638     0.0182     0.1235     2.4606
  810.0000     4.0074     4.7691   -23.8047     7.6089    88.8974     0.0111     0.1245     2.4555
  810.5000     4.1207     5.4025   -24.0190     7.6085    90.4828     0.0070     0.1256     2.4501
  811.0000     4.6810     5.9528   -24.4125     7.6081    91.8810     0.0051     0.1266     2.4482
  811.5000     5.1971     6.1137   -24.6573     7.6078    91.1957     0.0028     0.1247     2.4467
  812.0000     5.5843     6.2790   -24.7680     7.6074    90.1073     0.0007     0.1237     2.4504
  812.5000     5.6908     6.4648   -24.8791     7.6070    89.5186    -0.0003     0.1263     2.4523
  813.0000     5.7489     6.6590   -24.9874     7.6067    90.0691    -0.0014     0.1289     2.4488
  813.5000     5.8076     6.8590   -24.9689     7.6063    90.7157    -0.0024     0.1314     2.4458
  814.0000     5.8707     7.0416   -24.9335     7.6059   100.6474    -0.0011     0.1238     2.4522
  814.5000     5.9479     7.0768   -24.8972     7.6055    97.5276     0.0032     0.1146     2.4586
  815.0000     6.0261     7.1201   -24.8592     7.6052    92.7087     0.0070     0.1098     2.4649
  815.5000     6.1054     7.1636   -24.8317     7.6048    91.4431     0.0068     0.1146     2.4713
  816.0000     6.1873     7.3033   -25.1108     7.6044    90.7138     0.0065     0.1184     2.4741
  816.5000     6.2447     7.4490   -25.5596     7.6041    91.0355     0.0063     0.1218     2.4731
  817.0000     6.2447     7.4850   -25.5182     7.6037    92.1224     0.0060     0.1238     2.4699
  817.5000     6.2447     7.5211   -25.4680     7.6033    93.2340     0.0058     0.1258     2.4608
  818.0000     6.2447     7.5574   -25.4179     7.6030    91.5186     0.0056     0.1227     2.4550
  818.5000     6.2447     7.6521   -25.3683     7.6026    89.7962     0.0053     0.1199     2.4606
  819.0000     6.2447     7.6527   -25.3189     7.6022    91.8791     0.0050     0.1208     2.4640
  819.5000     6.2447     7.6517   -25.2695     7.6018    94.4872     0.0064     0.1214     2.4626
  820.0000     6.2447     7.8481   -25.2201     7.6015    97.0875     0.0083     0.1167     2.4693
  820.5000     6.2429     7.9408   -25.1707     7.6011    99.7267     0.0102     0.1115     2.4764
  821.0000     6.2357     7.9401   -25.1213     7.6007   101.1732     0.0121     0.1095     2.4818
  821.5000     6.2288     7.9552   -25.0721     7.6004    99.6330     0.0130     0.1078     2.4874
  822.0000     6.2218     7.9692   -25.0226     7.6000    88.6679     0.0130     0.1097     2.4842
  822.5000     6.2149     7.9833   -25.0197     7.5994    88.5273     0.0130     0.1101     2.4787
  823.0000     6.2080     7.9983   -25.0546     7.5904    88.6119     0.0132     0.1087     2.4774
  823.5000     6.2011     8.0128   -25.0897     7.5808    88.6207     0.0141     0.1074     2.4760
  824.0000     6.1941     7.8746   -25.1251     7.5717    91.4665     0.0150     0.1060     2.4789
  824.5000     6.1873     7.7067   -25.1609     7.5645    92.5593     0.0159     0.1046     2.4846
  825.0000     6.1479     7.5444   -25.1973     7.4752    92.0624     0.0170     0.1009     2.4904
  825.5000     6.0833     7.3851   -25.1626     7.2253    95.8984     0.0125     0.0935     2.4962
  826.0000     6.0195     7.1729   -25.1212     6.9676    95.8340     0.0069     0.0919     2.5020
  826.5000     5.9563     7.1236   -25.0798     6.9298    94.4899     0.0014     0.1029     2.5034
  827.0000     5.8938     7.0737   -25.0376     7.2937    95.2562    -0.0032     0.1106     2.4864
  827.5000     5.8355     7.0037   -24.9967     7.5573    96.4181     0.0009     0.1167     2.4756
  828.0000     5.7167     6.8784   -25.0211     7.6391    97.1156     0.0071     0.1226     2.4661
  828.5000     5.6002     6.6406   -25.5712     7.6591    93.3197     0.0128     0.1285     2.4566
  829.0000     5.4861     6.4108   -26.0072     7.6566    91.4805     0.0113     0.1362     2.4470
  829.5000     5.3867     6.1553   -25.9919     7.6545    91.2761     0.0096     0.1462     2.4313
  830.0000     5.1889     5.8801   -25.7214     7.6523    92.2028     0.0079     0.1562     2.4156
  830.5000     4.9797     5.5153   -25.1539     7.6501    93.5591     0.0070     0.1662     2.4000
  831.0000     4.5947     5.0768   -25.0278     7.6480    94.8890     0.0070     0.1761     2.3844
  831.5000     4.2188     4.6730   -24.8869     7.6458    94.6858     0.0069     0.1945     2.3770
  832.0000     3.8736     4.2434   -24.6913     7.6436    92.0170     0.0096     0.2142     2.3515
  832.5000     3.3180     3.7094   -24.4076     7.6414    89.7277     0.0132     0.2338     2.3201
