~VERSION INFORMATION
 VERS.                2.0:   CWLS LOG ASCII STANDARD - VERSION 2.0
 WRAP.                 NO:   ONE LINE PER DEPTH STEP
~WELL INFORMATION
#MNEM.UNIT      DATA TYPE    INFORMATION
#----------   ------------   ------------------------------
 STRT.F           20.0000:   START DEPTH
 STOP.F          505.0000:   STOP DEPTH
 STEP.F            0.5000:   STEP LENGTH
 NULL.          -999.2500:   NO VALUE
 COMP.    FENIX & SCISSON:   COMPANY
 WELL.   NPR #3 #56-SX-10:   WELL
 FLD .             TEAPOT:   FIELD
 LOC .      S10 T38N R78W:   LOCATION
 CNTY.            NATRONA:   COUNTY
 STAT.            WYOMING:   STATE
 CTRY. UNITED STATES OF AMERICA:   COUNTRY
 SRVC.              Welex:   SERVICE COMPANY
 DATE.        01-MAY-1980:   LOGDATE
 API .       490251081300:   API NUMBER
~CURVE INFORMATION
#MNEM.UNIT       API CODE    CURVE DESCRIPTION
#----------   ------------   ------------------------------
 DEPT.F                  :   
 ILD .OHMM   07 120 46 00:   INDUCTION LOG DEEP
 ILM .OHMM   07 120 44 00:   INDUCTION LOG MEDIUM
 SGRD.OHMM   07 220 05 00:   SHALLOW GUARD RESISTIVITY
 SPR .MV     07 010 01 00:   SPONATANEOUS POTENTIAL FROM RES.
 CALD.IN     45 280 60 00:   CALIPER FROM DENSITY LOG
 DPHI.DEC    45 890 12 00:   DENSITY POROSITY SANDSTONE
 DRHO.G/C3   45 356 01 00:   DENSITY CORRECTION
 GRD .GAPI   45 310 01 00:   GAMMA RAY FROM DENSITY LOG
 RHOB.G/C3   45 350 01 00:   BULK DENSITY
~PARAMETER INFORMATION
#MNEM.UNIT          VALUE    DESCRIPTION
#----------   ------------   ------------------------------
 PD  .                 GL:   PERMANENT DATUM
 EPD .F              5180:   ELEVATION PERMANENT DATUM
 LMF .                 KB:   LOG MEASURED FROM
 DAPD.F                 4:   FEET ABOVE PERMANENT DATUM
 DMF .                 KB:   DRILLING MEASURED FROM
 EKB .F              5184:   KELLING BUSHING
 EGL .F              5180:   GROUND LEVEL
 DATE.        01-MAY-1980:   RUN DATE
 RUN .                  1:   RUN NUMBER
 DD  .F               489:   DEPTH DRILLER
 DL  .F               506:   DEPTH LOGGER
 BLI .F               504:   BOTTOM LOG INTERVAL
 TLI .F                30:   TOP LOG INTERVAL
 BS  .IN            7.875:   BIT SIZE
 BSD .F               489:   BIT SIZE AT DEPTH
 DFT .    WATER BASED MUD:   DRILLING FLUID TYPE
 DFD .                9.9:   DRILLING FLUID DENSITY
 DFV .                 46:   DRILLING FLUID VISCOSITY
 MSS .                PIT:   MUD SAMPLE SOURCE
 RMS .OHMM           0.99:   RESISTIVITY MUD SAMPLE
 MST .F                75:   MUD SAMPLE TEMPERATURE
 RMF .OHMM           0.78:   RESISTIVITY MUD FILTRATE SAMPLE
 MFST.F                75:   MUD FILTRATE SAMPLE TEMPERATURE
 RMC .OHMM           1.18:   RESISTIVITY MUD CAKE
 MCST.F                75:   MUD CAKE SAMPLE TEMPERATURE
 MFSS.               MEAS:   MUD FILTRATE SAMPLE SOURCE
 MCSS.               MEAS:   MUD CAKE SAMPLE SOURCE
 BHT .F               100:   BOTTOM HOLE TEMPERATURE
 TCS .HRS               1:   TIME CURCULATED STOPPED
 MRT .F               100:   MAXIMUM RECORDED TEMPERATURE
 LUN .               9685:   LOGGING UNIT NUMBER
 LUL .             CASPER:   LOGGING UNIT LOCATION
 ENGI.            TOTHILL:   RECORDING ENGINEER
 WITN.           DINSMORE:   WITNESSED BY
 CLNT.            A2DTECH:   CLIENT CODE
 ORIG.           5" PRINT:   ORIGIN OF DATA
 UWI .       490251081300:   UNIQUE WELL ID
 DICO. A2D Technologies, Inc.:   DIGITIZING COMPANY
~OTHER INFORMATION
~A   DEPT       ILD        ILM      SGRD        SPR       CALD       DPHI       DRHO        GRD       RHOB   
# ...
  421.5000     8.9846    13.7165    13.6422   -30.1091     7.7664     0.0996     0.0599    84.5201     2.4732
  422.0000     8.9861    13.7165    13.6427   -30.2604     7.7227     0.1014     0.0419    84.3052     2.4612
  422.5000     8.9872    13.6219    13.5491   -30.2616     7.7088     0.1038     0.0494    83.8672     2.4657
  423.0000     8.9885    13.4347    13.5495   -30.2945     7.6652     0.1025     0.0614    83.6521     2.4830
  423.5000     8.9274    13.3420    13.4566   -30.4142     7.6512     0.0903     0.0704    82.9856     2.4958
  424.0000     8.9289    13.2500    13.5505   -30.4157     7.6220     0.0894     0.0599    82.7707     2.4958
  424.5000     8.9301    13.1587    13.5509   -30.3625     7.7131     0.1094     0.0420    82.3327     2.4714
  425.0000     8.8698    13.0679    13.6455   -30.2691     7.8040     0.1058     0.0325    81.8919     2.4636
  425.5000     8.8037    13.0679    13.8362   -30.2706     7.8799     0.1028     0.0450    81.6743     2.4741
  426.0000     8.6899    13.1587    13.8367   -30.1226     7.9108     0.1139     0.0345    81.0076     2.4666
  426.5000     8.5716    13.2500    13.8372   -30.1241     7.8969     0.1244     0.0207    80.5695     2.4464
  427.0000     8.5136    13.4347    13.5532   -30.1258     7.8829     0.1319     0.0061    80.1260     2.4239
  427.5000     8.4561    13.6219    13.2753   -30.1273     7.8775     0.1376    -0.0089    79.9134     2.4119
  428.0000     8.4574    13.4347    13.0933   -30.1287     7.8852     0.1439    -0.0074    79.9249     2.4037
  428.5000     8.4000    13.0679    12.8247   -30.1302     7.8863     0.1445    -0.0014    80.1694     2.4104
  429.0000     8.3432    12.8883    12.7366   -30.1317     7.8723     0.1438    -0.0164    80.8509     2.4045
  429.5000     8.2871    12.6235    12.4755   -30.1330     7.8581     0.1411    -0.0194    81.7679     2.4105
  430.0000     8.2882    12.3642    12.3406   -30.1346     7.8594     0.1268     0.0002    82.6826     2.4308
  430.5000     8.1698    12.1942    12.1357   -30.1360     7.8754     0.1294    -0.0118    83.8231     2.4237
  431.0000     8.0088    11.9437    11.9416   -30.1375     7.8612     0.1330    -0.0178    84.7377     2.4148
  431.5000     7.8995    11.7952    11.7990   -30.1324     7.7876     0.1345    -0.0178    85.6524     2.4218
  432.0000     7.7920    11.5938    11.5572   -29.9909     7.6838     0.1282    -0.0071    86.3411     2.4354
  432.5000     7.6329    11.5375    11.4045   -29.9928     7.8056     0.1243    -0.0028    86.8039     2.4429
  433.0000     7.4258    11.3745    11.2762   -29.9942     7.9129     0.1255    -0.0058    87.2668     2.4384
  433.5000     7.2240    11.2118    11.0940   -30.0396     8.0315     0.1258    -0.0012    87.2779     2.4354
  434.0000     6.9793    10.8915    10.8665   -30.1466     8.0624     0.1270     0.0123    87.2892     2.4370
  434.5000     6.7897    10.4000    10.6436   -30.1481     8.0335     0.1126     0.0243    87.0739     2.4565
  435.0000     6.4695    10.0463    10.3534   -30.1495     7.9447     0.1066     0.0213    88.4431     2.4693
  435.5000     6.2375     9.6377    10.1667   -30.1510     7.7511     0.1102     0.0168    90.2614     2.4663
  436.0000     5.8334     9.2458     9.9330   -30.1525     7.8270     0.1240     0.0063    91.6278     2.4483
  436.5000     5.5200     8.8086     9.7291   -30.1542     7.9179     0.1258     0.0003    92.9942     2.4400
  437.0000     5.1874     8.2197     9.4639   -30.1557     7.8591     0.1249     0.0064    94.3607     2.4394
  437.5000     4.8749     7.6172     9.2059   -30.1572     7.8149     0.1252     0.0126    95.5012     2.4431
  438.0000     4.6130     7.0102     8.9549   -30.1586     7.9060     0.1207     0.0171    96.4158     2.4567
  438.5000     4.3051     6.2755     7.9400   -30.0102     7.9520     0.1173     0.0244    96.6529     2.4612
  439.0000     4.1021     5.6568     6.9326   -30.0121     7.9530     0.1087     0.0394    96.6340     2.4732
  439.5000     4.0463     6.5235     7.2770   -30.1630     7.8936     0.0931     0.0514    95.7712     2.4883
  440.0000     4.0189     7.6701     9.0810   -30.3139     7.9271     0.0856     0.0544    94.8814     2.5033
  440.5000     3.9642     8.1067    10.0746   -30.4649     7.9563     0.0835     0.0514    93.9860     2.5063
  441.0000     4.1330     8.3921    10.5749   -30.6158     7.9124     0.0826     0.0470    91.2889     2.5048
  441.5000     4.3387     8.6276    10.8721   -30.6176     7.8536     0.0805     0.0530    88.5891     2.5116
  442.0000     4.6502     8.8698    11.1776   -30.6191     7.8244     0.0784     0.0470    84.7598     2.5177
  442.5000     5.1595     9.3100    11.4125   -30.9195     7.7958     0.0802     0.0380    85.9003     2.5032
  443.0000     5.5299     9.7720    11.4921   -31.2199     7.8866     0.0894     0.0304    87.4927     2.4932
  443.5000     5.8861    10.1161    11.6527   -31.2214     7.9325     0.0960     0.0290    89.1001     2.4839
  444.0000     6.2219    10.4722    11.8155   -31.5218     7.9336     0.0945     0.0336    90.4518     2.4892
  444.5000     6.5770    10.9162    11.8159   -31.6727     7.8897     0.1020     0.0246    91.5947     2.4742
  445.0000     6.9043    10.9162    11.8163   -31.8236     7.8298     0.1050     0.0186    92.5094     2.4705
  445.5000     7.2030    10.8409    11.8167   -31.9746     7.7696     0.0984     0.0321    93.6499     2.4803
  446.0000     7.4013    10.7528    11.8991   -31.9761     7.6685     0.0891     0.0441    94.3386     2.4953
  446.5000     7.5054    10.6919    12.0654   -31.9778     7.7892     0.0969     0.0351    95.0264     2.4848
  447.0000     7.6639    10.6919    12.1497   -31.9793     7.8801     0.0987     0.0306    95.7161     2.4825
  447.5000     7.8257    10.6919    12.4911   -32.1300     7.8961     0.0969     0.0292    95.9530     2.4826
  448.0000     7.9358    11.0683    12.9313   -32.1317     7.7923     0.0993     0.0217    95.9789     2.4796
  448.5000     8.1034    11.6176    13.2030   -32.2826     7.7335     0.1065     0.0141    95.0640     2.4727
  449.0000     8.3320    11.8613    13.3874   -32.2841     7.7944     0.1103     0.0080    93.6671     2.4607
  449.5000     8.5079    12.0266    13.2039   -32.4350     7.8403     0.1076     0.0067    91.2559     2.4639
  450.0000     8.6877    12.1942    13.2043   -31.9880     7.7516     0.1052     0.0142    89.5805     2.4715
  450.5000     8.8159    12.2789    13.2964   -32.2870     7.7677     0.1037     0.0175    88.3425     2.4730
  451.0000     9.0586    12.0266    13.6701   -32.4365     7.7689     0.1028     0.0203    88.8075     2.4753
  451.5000     9.1227    11.6176    14.0542   -32.7354     7.7549     0.1034     0.0188    89.2982     2.4790
  452.0000     9.2511    11.5375    14.3495   -32.8849     7.6647     0.0976     0.0399    91.3219     2.4941
  452.5000     9.3166    11.6176    14.3500   -33.0344     7.6526     0.0876     0.0549    90.8800     2.5038
  453.0000     9.3178    11.8613    14.5534   -33.1839     7.7589     0.0831     0.0684    91.8000     2.5129
  453.5000     9.3838    11.9437    14.7538   -33.4828     7.7747     0.0792     0.0729    92.7168     2.5069
  454.0000     9.4502    12.1942    14.9600   -33.4828     7.7313     0.0887     0.0715    93.4076     2.5031
  454.5000     9.4515    12.2789    14.9605   -33.6323     7.7923     0.0938     0.0622    92.5171     2.4941
  455.0000     9.4528    12.5365    15.1054   -33.6323     7.8381     0.0953     0.0520    90.9489     2.4859
  455.5000     9.4607    12.8883    15.1700   -33.6323     7.7647     0.0998     0.0446    90.4887     2.4761
  456.0000     9.5213    12.2789    15.4888   -33.6323     7.6760     0.0974     0.0506    90.0715     2.4832
  456.5000     9.5887    11.6176    15.5969   -33.6323     7.7264     0.0914     0.0686    90.0880     2.4949
  457.0000     9.4581    11.3005    15.7057   -33.4828     7.7835     0.0839     0.0761    89.8719     2.5062
  457.5000     9.4593    11.7891    15.5978   -33.4828     7.7846     0.0878     0.0702    89.4365     2.4972
