~VERSION INFORMATION
 VERS.                2.0:   CWLS LOG ASCII STANDARD - VERSION 2.0
 WRAP.                 NO:   ONE LINE PER DEPTH STEP
~WELL INFORMATION
#MNEM.UNIT      DATA TYPE    INFORMATION
#----------   ------------   ------------------------------
 STRT.F           30.0000:   START DEPTH
 STOP.F          440.0000:   STOP DEPTH
 STEP.F            0.5000:   STEP LENGTH
 NULL.          -999.2500:   NO VALUE
 COMP. LAWRENCE/ALLISON INC:   COMPANY
 WELL. NPR #3 #52-31 SX 10:   WELL
 FLD .             TEAPOT:   FIELD
 LOC .      S10 T38N R78W:   LOCATION
 CNTY.            NATRONA:   COUNTY
 STAT.            WYOMING:   STATE
 CTRY. UNITED STATES OF AMERICA:   COUNTRY
 SRVC.           Gearhart:   SERVICE COMPANY
 DATE.        27-SEP-1988:   LOGDATE
 API .       490251124800:   API NUMBER
~CURVE INFORMATION
#MNEM.UNIT       API CODE    CURVE DESCRIPTION
#----------   ------------   ------------------------------
 DEPT.F                  :   
 GRR .GAPI   07 310 01 00:   GAMMA RAY FROM RES. LOG.
 RLL .OHMM   07 220 00 00:   LATEROLOG RESISTIVITY
 ILD .OHMM   07 120 46 00:   INDUCTION LOG DEEP
 ILM .OHMM   07 120 44 00:   INDUCTION LOG MEDIUM
 SPR .MV     07 010 01 00:   SPONTANEOUS POTENTIAL
~PARAMETER INFORMATION
#MNEM.UNIT          VALUE    DESCRIPTION
#----------   ------------   ------------------------------
 PD  .                 GL:   PERMANENT DATUM
 EPD .F              5179:   ELEVATION PERMANENT DATUM
 LMF .                 KB:   LOG MEASURED FROM
 DAPD.F                 8:   FEET ABOVE PERMANENT DATUM
 DMF .                 KB:   DRILLING MEASURED FROM
 EKB .F              5187:   KELLING BUSHING
 EDF .F              5185:   DRILLING FLOOR
 EGL .F              5179:   GROUND LEVEL
 DATE.            9-27-88:   RUN DATE
 RUN .                  1:   RUN NUMBER
 DD  .F               441:   DEPTH DRILLER
 DL  .F               442:   DEPTH LOGGER
 BLI .F               441:   BOTTOM LOG INTERVAL
 TLI .F                40:   TOP LOG INTERVAL
 CS  .IN            9.625:   CASING SIZE
 CBD .F                50:   CASING BOTTOM DRILLER
 CBL .F                50:   CASING BOTTOM LOGGER
 BS  .IN             8.75:   BIT SIZE
 BSD .F               441:   BIT SIZE AT DEPTH
 DFT .                MUD:   DRILLING FLUID TYPE
 MSS .           MUD TANK:   MUD SAMPLE SOURCE
 RMS .OHMM              2:   RESISTIVITY MUD SAMPLE
 MST .F                64:   MUD SAMPLE TEMPERATURE
 RMF .OHMM            2.4:   RESISTIVITY MUD FILTRATE SAMPLE
 MFST.F                66:   MUD FILTRATE SAMPLE TEMPERATURE
 RMC .OHMM              3:   RESISTIVITY MUD CAKE
 MCST.F                67:   MUD CAKE SAMPLE TEMPERATURE
 MFSS.                  M:   MUD FILTRATE SAMPLE SOURCE
 MCSS.                  M:   MUD CAKE SAMPLE SOURCE
 RMB .OHMM            1.3:   RESISTIVITY MUD AT BHT
 BHT .F                70:   BOTTOM HOLE TEMPERATURE
 TCS .HRS            0910:   TIME CURCULATED STOPPED
 TLAB.HRS            1113:   TIME LOGGER AT BOTTOM
 MRT .F                70:   MAXIMUM RECORDED TEMPERATURE
 LUN .               7597:   LOGGING UNIT NUMBER
 LUL .           GILLETTE:   LOGGING UNIT LOCATION
 ENGI.         WEATHERMON:   RECORDING ENGINEER
 WITN.             STRONG:   WITNESSED BY
 CLNT.            A2DTECH:   CLIENT CODE
 ORIG.       2", 5" PRINT:   ORIGIN OF DATA
 UWI .       490251124800:   UNIQUE WELL ID
 DICO. A2D Technologies, Inc.:   DIGITIZING COMPANY
~OTHER INFORMATION
~A   DEPT       GRR       RLL        ILD        ILM        SPR   
# ...
  152.0000   109.6359     6.7094     7.7102     7.0780   -91.4140
  152.5000   108.6555     6.8372     7.7951     7.1991   -91.5804
  153.0000   108.7290     6.9972     7.8810     7.3224   -91.3480
  153.5000   110.6259     6.9876     7.9678     7.4429   -91.4921
  154.0000   112.9386     6.9759     8.0556     7.5578   -92.1231
  154.5000   113.3344     6.9636     8.1751     7.6745   -92.4551
  155.0000   111.8868     6.9516     8.3758     7.7930   -92.4549
  155.5000   110.3111     6.9396     8.5815     7.8691   -92.4553
  156.0000   109.6262     6.9325     8.8274     7.9525   -92.4555
  156.5000   110.3946     7.3843     8.8112     8.0368   -92.4563
  157.0000   109.0262     7.7504     8.7918     8.1219   -92.4054
  157.5000   107.6754     7.7403     8.7724     8.1957   -91.9882
  158.0000   107.0869     7.7216     8.7531     8.1500   -91.7365
  158.5000   108.5767     7.7029     8.5504     8.1036   -92.2450
  159.0000   110.0866     7.6842     8.2714     8.0440   -92.1979
  159.5000   110.9313     7.6656     8.4944     8.1700   -92.1271
  160.0000   111.5983     7.6470     8.8298     8.3522   -92.0580
  160.5000   112.2607     7.6285     8.8022     8.4510   -91.9895
  161.0000   112.8694     7.6100     8.7560     8.5053   -91.9210
  161.5000   112.8779     7.5916     8.7111     8.4678   -91.8525
  162.0000   112.8754     7.5732     8.6667     8.4132   -91.7837
  162.5000   113.0593     7.5548     8.6226     8.3590   -91.7137
  163.0000   114.1325     7.5373     8.5785     8.2734   -91.6578
  163.5000   115.1925     7.4459     8.5375     8.1813   -91.8369
  164.0000   114.8100     7.3592     8.4126     8.0902   -92.0195
  164.5000   114.2584     7.2735     8.3302     8.0001   -92.2008
  165.0000   113.7135     7.1888     8.2455     7.9111   -92.3818
  165.5000   113.1571     7.1051     8.1618     7.8230   -92.5649
  166.0000   112.3435     7.0303     8.0788     7.7359   -92.7303
  166.5000   110.1618     6.9220     7.9967     7.6370   -92.8431
  167.0000   108.7936     6.8153     7.9155     7.5145   -92.7075
  167.5000   110.8034     6.7104     7.8350     7.3939   -92.5752
  168.0000   114.3613     6.6070     7.3337     7.1440   -92.4443
  168.5000   116.4144     6.4410     6.9398     6.7587   -92.3133
  169.0000   115.7859     6.2187     6.6296     6.3942   -92.4254
  169.5000   115.1077     6.0040     5.9875     6.0493   -92.7524
  170.0000   116.4671     5.7967     5.4075     5.7230   -91.8021
  170.5000   118.8582     5.5966     4.8837     5.3730   -90.6249
  171.0000   120.4018     5.3940     4.3942     4.7071   -90.6442
  171.5000   119.9158     4.9456     3.8402     4.1196   -90.6436
  172.0000   119.4954     4.5156     3.4691     3.7088   -90.6443
  172.5000   117.4961     4.1162     3.2820     3.2675   -90.6435
  173.0000   114.7650     3.6907     3.1050     2.8787   -90.2103
  173.5000   112.0088     3.2728     2.9375     2.5583   -89.3605
  174.0000   110.4930     2.9209     2.8405     2.4481   -88.8460
  174.5000   111.6927     3.0113     2.9384     2.4481   -88.7516
  175.0000   112.9633     3.2935     3.1172     2.5764   -89.1898
  175.5000   113.4838     3.8232     3.3818     2.7680   -89.7102
  176.0000   114.2624     4.1918     3.7006     3.0598   -90.2292
  176.5000   117.8198     4.8463     4.0495     3.4661   -90.8072
  177.0000   120.6899     5.3258     4.4357     3.9321   -91.1772
  177.5000   122.5966     5.6400     5.0925     4.4607   -91.5569
  178.0000   122.5302     5.9217     6.0822     5.0604   -91.9346
  178.5000   123.9611     5.9368     6.3172     5.7033   -92.3148
  179.0000   126.3700     5.9520     6.3172     5.9247   -92.5267
  179.5000   128.6028     5.9746     6.4233     6.1375   -92.6453
  180.0000   129.5946     5.9532     6.5492     6.2588   -92.7617
  180.5000   129.4129     5.9121     6.6795     6.2217   -92.8480
  181.0000   128.9336     5.8643     6.5218     6.1882   -92.7698
  181.5000   128.7832     5.8647     6.3655     6.1522   -92.6908
  182.0000   129.7802     5.8640     6.2130     6.0156   -92.4667
  182.5000   130.4982     5.8618     6.0713     5.7866   -92.0806
  183.0000   129.7193     5.8671     5.9412     5.4738   -91.5242
  183.5000   128.9500     5.3288     5.6885     5.0424   -90.9135
  184.0000   128.6805     4.9667     5.2996     4.6449   -90.2961
  184.5000   131.0062     4.8452     5.0247     4.5208   -90.8225
  185.0000   133.2563     4.7933     4.9152     4.4778   -91.6182
  185.5000   134.6337     4.7362     4.9388     4.6263   -91.5345
  186.0000   133.4674     4.7908     5.0108     4.7569   -91.4061
  186.5000   131.7579     4.8576     5.2091     4.8908   -91.2760
  187.0000   130.5401     4.9254     5.4332     5.0282   -91.4345
  187.5000   131.4059     4.9942     5.7033     5.1696   -91.7839
  188.0000   133.6970     5.0733     5.9868     5.4227   -92.1352
  188.5000   135.9725     5.1561     6.2844     5.7153   -92.4497
  189.0000   136.2750     5.3817     6.5968     6.0237   -92.5386
  189.5000   134.0725     5.7632     6.9247     6.3488   -92.6301
  190.0000   131.1799     6.1718     7.2017     6.6573   -92.7228
  190.5000   128.2756     6.4958     7.3871     6.8484   -92.8156
  191.0000   127.1526     6.6438     7.5775     7.0450   -92.9085
  191.5000   129.0967     6.7863     7.7737     7.2472   -92.9997
  192.0000   131.0261     6.9336     7.8977     7.4552   -93.0209
  192.5000   132.1010     6.9321     7.8603     7.5373   -92.9169
  193.0000   131.8654     6.9326     7.8236     7.4309   -92.8147
  193.5000   130.2409     6.9325     7.7877     7.3564   -92.7121
  194.0000   128.4998     6.9326     7.7504     7.2828   -92.6096
  194.5000   127.3157     6.9337     7.5952     7.2101   -92.5070
  195.0000   128.6180     6.9339     7.4389     7.1381   -92.4048
  195.5000   130.1765     6.8386     7.2858     7.0331   -92.3022
  196.0000   132.0909     6.7018     7.1359     6.8940   -92.2544
  196.5000   134.1907     6.5677     6.9890     6.7576   -92.2534
  197.0000   136.2981     6.4362     6.8452     6.6289   -92.2534
  197.5000   138.3927     6.3172     6.6547     6.5094   -92.2536
  198.0000   138.6628     5.9957     6.3438     6.2034   -92.2537
  198.5000   137.6045     5.7118     6.0770     5.8887   -92.2559
  199.0000   136.1996     5.4413     5.8215     5.5901   -92.1576
  199.5000   134.8020     5.1091     5.5768     5.3065   -92.0349
  200.0000   133.7801     4.7819     5.3423     5.0374   -91.9111
  200.5000   135.1140     4.4756     5.1014     4.7613   -91.8744
  201.0000   137.6814     4.3466     5.1908     4.4790   -91.9161
  201.5000   140.1537     4.3295     5.3152     4.4376   -91.9592
  202.0000   139.2777     4.3161     5.4443     4.6860   -92.0013
  202.5000   136.0952     4.7698     5.6405     5.1295   -92.0317
  203.0000   133.0290     5.1875     5.8463     5.5611   -92.5515
  203.5000   130.9823     5.6419     6.1435     5.8468   -93.1466
  204.0000   130.6796     5.9201     6.4889     6.1471   -93.6679
  204.5000   131.6964     6.2009     6.8360     6.4629   -92.9567
  205.0000   133.7570     6.2371     7.2017     6.6971   -92.6108
  205.5000   135.8295     6.2768     7.5870     6.8430   -93.0632
  206.0000   137.8994     6.3172     7.6988     6.9977   -93.5063
  206.5000   139.9681     6.4827     7.7256     7.2954   -93.5441
  207.0000   142.0386     6.6546     7.7515     7.5370   -93.2869
  207.5000   144.1983     6.8311     7.7777     7.5649   -93.0290
  208.0000   144.6191     6.9972     7.8042     7.5975   -92.7683
  208.5000   141.9893     6.9880     7.8308     7.6305   -92.7372
  209.0000   139.7803     6.9795     7.8576     7.6635   -92.8754
  209.5000   139.9225     6.9710     7.8954     7.6787   -93.0172
  210.0000   142.2165     6.9625     7.8888     7.6341   -93.1595
  210.5000   143.2105     6.9540     7.8759     7.6011   -93.2530
  211.0000   142.1360     6.9455     7.8632     7.5683   -93.0630
  211.5000   141.4702     6.9370     7.8505     7.5356   -92.8784
  212.0000   143.3994     6.8942     7.8379     7.5031   -92.6866
  212.5000   145.4725     6.8086     7.8252     7.3985   -92.8565
