~VERSION INFORMATION
 VERS.                2.0:   CWLS LOG ASCII STANDARD - VERSION 2.0
 WRAP.                 NO:   ONE LINE PER DEPTH STEP
~WELL INFORMATION
#MNEM.UNIT      DATA TYPE    INFORMATION
#----------   ------------   ------------------------------
 STRT.F            0.0000:   START DEPTH
 STOP.F          556.0000:   STOP DEPTH
 STEP.F            0.5000:   STEP LENGTH
 NULL.          -999.2500:   NO VALUE
 COMP.       F D SERV INC:   COMPANY
 WELL. NAVAL PETROLEUM RESERVE NPR #3 #86-3 SX 3:   WELL
 FLD .             TEAPOT:   FIELD
 LOC .       S3 T38N R78W:   LOCATION
 CNTY.            NATRONA:   COUNTY
 STAT.            WYOMING:   STATE
 CTRY. UNITED STATES OF AMERICA:   COUNTRY
 SRVC.      Western Atlas:   SERVICE COMPANY
 DATE.        24-OCT-1992:   LOGDATE
 API .       490252255300:   API NUMBER
~CURVE INFORMATION
#MNEM.UNIT       API CODE    CURVE DESCRIPTION
#----------   ------------   ------------------------------
 DEPT.F                  :   
 GRR .GAPI   07 310 01 00:   GAMMA RAY
 RILD.OHMM   07 120 46 00:   INDUCTION LOG DEEP RESISTIVITY
 RILM.OHMM   07 120 44 00:   RESITIVITY LONG MEDIUM
~PARAMETER INFORMATION
#MNEM.UNIT          VALUE    DESCRIPTION
#----------   ------------   ------------------------------
 PD  .                 GL:   PERMANENT DATUM
 EPD .F              5157:   ELEVATION PERMANENT DATUM
 LMF .                 KB:   LOG MEASURED FROM
 DAPD.F                10:   FEET ABOVE PERMANENT DATUM
 DMF .                 KB:   DRILLING MEASURED FROM
 EKB .F              5167:   KELLING BUSHING
 EDF .F              5166:   DRILLING FLOOR
 EGL .F              5157:   GROUND LEVEL
 DATE.        24-OCT-1992:   RUN DATE
 RUN .                  1:   RUN NUMBER
 DD  .F               565:   DEPTH DRILLER
 DL  .F               564:   DEPTH LOGGER
 BLI .F               564:   BOTTOM LOG INTERVAL
 TLI .F                 0:   TOP LOG INTERVAL
 CS  .IN            8.625:   CASING SIZE
 CBD .F                85:   CASING BOTTOM DRILLER
 CBL .F                56:   CASING BOTTOM LOGGER
 BS  .IN            7.875:   BIT SIZE
 BSD .F               565:   BIT SIZE AT DEPTH
 DFT .           AIR FOAM:   DRILLING FLUID TYPE
 DFD .                   :   DRILLING FLUID DENSITY
 DFV .                   :   DRILLING FLUID VISCOSITY
 DFPH.                   :   DRILLING FLUID PH
 DFL .                   :   DRILLING FLUID LOSS
 MSS .                   :   MUD SAMPLE SOURCE
 RMS .OHMM               :   RESISTIVITY MUD SAMPLE
 MST .F                  :   MUD SAMPLE TEMPERATURE
 RMF .OHMM               :   RESISTIVITY MUD FILTRATE SAMPLE
 MFST.F                  :   MUD FILTRATE SAMPLE TEMPERATURE
 RMC .OHMM               :   RESISTIVITY MUD CAKE
 MCST.F                  :   MUD CAKE SAMPLE TEMPERATURE
 MFSS.                   :   MUD FILTRATE SAMPLE SOURCE
 MCSS.                   :   MUD CAKE SAMPLE SOURCE
 RMB .OHMM               :   RESISTIVITY MUD AT BHT
 BHT .F                  :   BOTTOM HOLE TEMPERATURE
 TCS .HRS               1:   TIME CURCULATED STOPPED
 TLAB.HRS                :   TIME LOGGER AT BOTTOM
 MRT .F                76:   MAXIMUM RECORDED TEMPERATURE
 LUN .            HL-6274:   LOGGING UNIT NUMBER
 LUL .             CASPER:   LOGGING UNIT LOCATION
 ENGI.             RAUTIO:   RECORDING ENGINEER
 WITN.        GARY STRONG:   WITNESSED BY
 CLNT.            A2DTECH:   CLIENT CODE
 ORIG.           5" PRINT:   ORIGIN OF DATA
 UWI .       490252255300:   UNIQUE WELL ID
 DICO. A2D Technologies, Inc.:   DIGITIZING COMPANY
 OS  .                   :   OTHER SERVICES
 PWI .                   :   PRIMARY WELL IDENTIFIER
 R1  .                   :   REMARKS 1
 R2  .                   :   REMARKS 2
 LSRV.                   :   LOG MNEMONIC
~OTHER INFORMATION
~A    DEPT      GRR      RILD       RILM   
# ...
  455.0000    98.0029    19.7640    20.3082
  455.5000    98.0000    19.4877    19.6095
  456.0000    99.5300    19.3497    19.3344
  456.5000   100.7165    19.2126    19.1964
  457.0000   101.3194    19.0765    19.0593
  457.5000   102.5260    18.9414    19.0554
  458.0000   103.4308    18.8066    19.0507
  458.5000   100.7047    18.8041    18.9147
  459.0000    96.7684    18.8015    18.9108
  459.5000    96.1603    18.9312    18.9070
  460.0000    97.9728    19.0610    19.0362
  460.5000   101.7066    19.1918    19.2982
  461.0000   103.4132    19.1885    20.2578
  461.5000    97.0555    18.7845    20.1001
  462.0000    85.5548    18.1258    19.4202
  462.5000    80.4082    17.6407    18.2371
  463.0000    81.0104    17.2732    17.3661
  463.5000    86.1511    16.9133    17.1225
  464.0000    93.1074    16.4459    17.0003
  464.5000    94.3147    15.9914    16.6455
  465.0000    92.9500    15.4415    15.9613
  465.5000    90.0721    14.9104    15.5141
  466.0000    91.5820    14.5930    15.0723
  466.5000    93.0927    14.2952    14.6724
  467.0000    92.1813    14.1939    14.4666
  467.5000    90.3629    14.0934    14.2637
  468.0000    87.0317    13.9936    14.0636
  468.5000    84.9107    13.7979    13.9632
  469.0000    85.8457    13.7002    13.8635
  469.5000    87.3247    13.6032    13.7646
  470.0000    88.5320    13.6013    13.6662
  470.5000    89.1350    13.5994    13.5681
  471.0000    88.8287    13.5027    13.4712
  471.5000    88.5232    13.5009    13.4685
  472.0000    87.9151    13.3121    13.3723
  472.5000    86.3993    13.3103    13.4637
  473.0000    85.7912    13.3085    13.4603
  473.5000    86.4387    13.3998    13.3642
  474.0000    88.2059    13.3980    13.3614
  474.5000    89.4126    13.3962    13.3581
  475.0000    90.3173    13.3788    13.2627
  475.5000    92.4324    13.2990    13.2600
  476.0000    96.0603    13.2972    13.2573
  476.5000    95.4522    13.2031    13.2547
  477.0000    89.3979    13.2013    13.1600
  477.5000    85.7640    13.1995    13.1574
  478.0000    87.2732    13.1060    13.1547
  478.5000    88.7839    13.0132    13.0607
  479.0000    89.0835    13.0114    12.9669
  479.5000    88.7773    12.9188    12.8743
  480.0000    89.3795    12.8273    12.7824
  480.5000    90.8894    12.7365    12.6912
  481.0000    92.3993    12.6463    12.6886
  481.5000    91.4836    12.4695    12.5980
  482.0000    91.4857    12.4678    12.5943
  482.5000    92.0872    12.4264    12.5055
  483.0000    92.6894    12.3778    12.5024
  483.5000    95.1070    12.3760    12.4998
  484.0000    96.9203    12.3740    12.4973
  484.5000    97.2199    12.3723    12.4948
  485.0000    95.4008    12.3707    12.4922
  485.5000    94.4901    12.4559    12.4897
  486.0000    94.1846    12.4538    12.4872
  486.5000    96.6015    12.4522    12.4846
  487.0000    98.1114    12.3640    12.4815
  487.5000    97.8059    12.2764    12.3924
  488.0000    98.1063    12.2743    12.3899
  488.5000    98.4059    12.1874    12.3873
  489.0000    99.0081    12.1011    12.2989
  489.5000    99.6096    12.0154    12.2111
  490.0000   100.5144    12.0137    12.1239
  490.5000   100.8140    11.9286    12.1215
  491.0000   100.2052    11.9270    12.1189
  491.5000   100.8074    11.8425    12.1160
  492.0000   101.4103    11.6769    11.9460
  492.5000   100.4989    11.5133    11.8607
  493.0000    95.6549    11.4318    11.6944
  493.5000    93.2313    11.2719    11.5303
  494.0000    94.7412    11.1921    11.5280
  494.5000    97.8396    11.0356    11.4457
  495.0000   103.4089    10.9575    11.3639
  495.5000   106.8346    10.8043    11.2040
  496.0000   106.5291    10.6483    10.9702
  496.5000   103.1978    10.5039    10.6668
  497.0000   100.7743    10.3571    10.2998
  497.5000    99.5611    10.1413    10.0849
  498.0000   100.1633     9.8610     9.8744
  498.5000   103.1861     9.5885     9.6013
  499.0000   106.5719     9.1305     9.3236
  499.5000   108.6257     8.6944     8.8278
  500.0000   109.5305     7.9955     8.4062
  500.5000   110.1187     6.9691     7.3632
  501.0000   111.3071     5.8814     6.4048
  501.5000   112.8024     5.4858     5.3433
  502.0000   115.5081     5.4473     4.8461
  502.5000   121.8446     5.4469     5.0571
  503.0000   129.0888     5.5231     5.3097
  503.5000   133.9125     5.6002     5.6530
  504.0000   126.6289     5.7631     6.2752
  504.5000   115.4162     6.1306     7.0146
  505.0000   108.4396     6.6652     7.7490
  505.5000   102.9758     7.5034     8.7650
  506.0000   101.4454     8.5062     9.3970
  506.5000   102.9408     9.2478     9.7298
  507.0000   105.1014     9.5753    10.0046
  507.5000   105.3264     9.9212    10.1448
  508.0000   105.3045    10.1940    10.2871
  508.5000   106.4973    10.4086    10.3664
  509.0000   107.6901    10.6279    10.5042
  509.5000   113.1189    10.7766    10.6515
  510.0000   114.3117    11.0036    10.8412
  510.5000   113.3404    11.1572    11.1058
  511.0000   113.0664    11.3194    11.2615
  511.5000   112.4394    11.4712    11.4194
  512.0000   107.8833    11.6315    11.5882
  512.5000   105.1426    11.7938    11.8239
  513.0000   105.1251    11.8757    11.9897
  513.5000   104.5023    12.0417    12.0734
  514.0000   104.1780    12.1249    12.0734
  514.5000   104.7701    12.2141    12.1578
  515.0000   105.6603    12.3795    12.3283
  515.5000   105.6384    12.4653    12.4239
  516.0000   105.9235    12.4643    12.5884
  516.5000   106.8137    12.5508    12.6764
  517.0000   108.3091    12.5498    12.7649
  517.5000   104.9589    12.5489    12.7649
  518.0000    98.8900    12.6359    12.8541
  518.5000   100.3853    12.7234    12.8541
  519.0000   102.4858    12.8116    12.7649
  519.5000   104.2838    12.7215    12.7649
  520.0000   106.0817    12.7206    12.8541
  520.5000   106.6693    12.7198    12.8541
  521.0000   106.9544    12.7189    12.8541
  521.5000   106.0248    12.8071    12.7649
  522.0000   104.7970    12.7919    12.6764
  522.5000   103.2667    12.7162    12.5782
  523.0000   102.0389    12.7153    12.5011
  523.5000   101.1135    12.6261    12.4144
  524.0000   101.7013    12.5375    12.3283
  524.5000   103.1923    12.4496    12.2427
  525.0000   104.9902    12.3622    12.0734
  525.5000   106.1830    12.1784    11.9065
  526.0000   107.0776    11.8540    11.8141
  526.5000   107.3737    11.6078    11.6604
  527.0000   107.0378    11.2878    11.4992
  527.5000   108.8318    11.1307    11.2615
  528.0000   111.8400    11.0526    11.1058
  528.5000   113.6380    10.8989    10.9522
  529.0000   115.4359    10.8134    10.8008
  529.5000   115.5098    10.6716    10.7259
  530.0000   114.7958    10.5232    10.6515
  530.5000   113.8699    10.3767    10.5042
  531.0000   113.8487    10.2324    10.3589
  531.5000   113.8312    10.1606    10.2157
  532.0000   112.9060    10.0893    10.0745
  532.5000   111.3756     9.9489     9.9352
  533.0000   110.7530     9.8790     9.8662
  533.5000   112.3088     9.8783     9.7978
  534.0000   118.2779     9.8090     9.7978
  534.5000   118.5673     9.7402     9.7978
  535.0000   118.5455     9.7396     9.8662
  535.5000   118.2254     9.6712     9.7978
  536.0000   114.8796     9.6705     9.7298
  536.5000   113.9544     9.6026     9.6623
  537.0000   114.5420     9.6019     9.5287
  537.5000   115.7305     9.5346     9.4626
  538.0000   117.7128     9.4677     9.4626
  538.5000  -999.2500     9.3359     9.3318
  539.0000  -999.2500     9.2704     9.2670
  539.5000  -999.2500     9.2016     9.1389
  540.0000  -999.2500     8.9515     9.0755
  540.5000  -999.2500     8.7656     8.7650
  541.0000  -999.2500     8.6436     8.6438
  541.5000  -999.2500     8.4641     8.5243
  542.0000  -999.2500     8.3464     8.4065
  542.5000  -999.2500     8.1731     8.2327
  543.0000  -999.2500     8.0011     8.1189
  543.5000  -999.2500     7.7826     7.8337
  544.0000  -999.2500     7.5680     7.4164
  544.5000  -999.2500     7.4108     6.9176
  545.0000  -999.2500     7.2570     6.5886
  545.5000  -999.2500     7.1560     6.6346
