~VERSION INFORMATION
 VERS.                2.0:   CWLS LOG ASCII STANDARD - VERSION 2.0
 WRAP.                 NO:   ONE LINE PER DEPTH STEP
~WELL INFORMATION
#MNEM.UNIT      DATA TYPE    INFORMATION
#----------   ------------   ------------------------------
 STRT.F            8.0000:   START DEPTH
 STOP.F         2320.0000:   STOP DEPTH
 STEP.F            0.5000:   STEP LENGTH
 NULL.          -999.2500:   NO VALUE
 COMP.    FENIX & SCISSON:   COMPANY
 WELL. N.P.R #3 #77-SHX-10:   WELL
 FLD .             TEAPOT:   FIELD
 LOC .      S10 T38N R78W:   LOCATION
 CNTY.            NATRONA:   COUNTY
 STAT.            WYOMING:   STATE
 CTRY. UNITED STATES OF AMERICA:   COUNTRY
 SRVC.              Welex:   SERVICE COMPANY
 DATE.        05-JUN-1980:   LOGDATE
 API .       490251064900:   API NUMBER
~CURVE INFORMATION
#MNEM.UNIT       API CODE    CURVE DESCRIPTION
#----------   ------------   ------------------------------
 DEPT.F                  :   
 GRD .GAPI   45 310 01 00:   GAMMA RAY FROM DENSITY LOG
 CALD.IN     45 280 60 00:   CALIPER FROM DENSITY LOG
 RHOB.G/C3   45 350 01 00:   BULK DENSITY
 DPHI.DEC    45 890 12 00:   DENSITY POROSITY SANDSTONE
 ILD .OHMM   05 120 46 00:   INDUCTION LOG DEEP
 CORR.G/C3   45 356 01 00:   DENSITY CORRECTION
~PARAMETER INFORMATION
#MNEM.UNIT          VALUE    DESCRIPTION
#----------   ------------   ------------------------------
 PD  .                 GL:   PERMANENT DATUM
 EPD .F              5210:   ELEVATION PERMANENT DATUM
 LMF .                 KB:   LOG MEASURED FROM
 DAPD.F                10:   FEET ABOVE PERMANENT DATUM
 DMF .                 KB:   DRILLING MEASURED FROM
 EKB .F              5220:   KELLING BUSHING
 EGL .F              5210:   GROUND LEVEL
 DATE.        05-JUN-1980:   RUN DATE
 RUN .                  1:   RUN NUMBER
 DD  .F              2358:   DEPTH DRILLER
 DL  .F              2322:   DEPTH LOGGER
 BLI .F              2320:   BOTTOM LOG INTERVAL
 TLI .F               900:   TOP LOG INTERVAL
 CS  .IN                7:   CASING SIZE
 BS  .IN             6.25:   BIT SIZE
 BSD .F              2358:   BIT SIZE AT DEPTH
 DFT .        AIR DRILLED:   DRILLING FLUID TYPE
 MRT .F               107:   MAXIMUM RECORDED TEMPERATURE
 ENGI.               REIN:   RECORDING ENGINEER
 WITN.              AMEND:   WITNESSED BY
 CLNT.            A2DTECH:   CLIENT CODE
 ORIG.           5" PRINT:   ORIGIN OF DATA
 UWI .       490251064900:   UNIQUE WELL ID
 DICO. A2D Technologies, Inc.:   DIGITIZING COMPANY
~OTHER INFORMATION
~A    DEPT      GRD      CALD       RHOB       DPHI        ILD       CORR   
# ...
 1672.0000   104.8119     7.2106     2.4933     0.0363  -999.2500     0.1616
 1672.5000   104.9552     7.2698     2.4904     0.0295  -999.2500     0.1647
 1673.0000   104.9483     7.3138     2.4994     0.0222  -999.2500     0.1677
 1673.5000   104.7940     7.3132     2.5068     0.0207  -999.2500     0.1586
 1674.0000   104.9370     7.2530     2.5158     0.0249  -999.2500     0.1465
 1674.5000   104.9313     7.2077     2.5266     0.0150  -999.2500     0.1647
 1675.0000   104.7637     7.1474     2.5382     0.0081  -999.2500     0.1737
 1675.5000   103.7245     7.1320     2.5270     0.0231  -999.2500     0.1615
 1676.0000   103.8695     7.1463     2.5059     0.0265  -999.2500     0.1556
 1676.5000   103.7145     7.1756     2.5014     0.0280  -999.2500     0.1571
 1677.0000   104.3045     7.2048     2.5126     0.0195  -999.2500     0.1677
 1677.5000   104.8958     7.2191     2.5306     0.0046  -999.2500     0.1843
 1678.0000   105.5443     7.2035     2.5530     0.0010  -999.2500     0.2090
 1678.5000   106.0770     7.2029     2.5380     0.0148  -999.2500     0.2054
 1679.0000   106.2220     7.1875     2.5185     0.0289  -999.2500     0.1828
 1679.5000   106.2149     7.1720     2.4960     0.0356  -999.2500     0.1571
 1680.0000   105.9093     7.1713     2.4697     0.0509  -999.2500     0.1435
 1680.5000   105.3066     7.1707     2.4794     0.0437  -999.2500     0.1360
 1681.0000   104.2562     7.1702     2.4996     0.0275  -999.2500     0.1556
 1681.5000   103.2057     7.1802     2.5071     0.0308  -999.2500     0.1647
 1682.0000   102.1493     7.1839     2.5183     0.0279  -999.2500     0.1526
 1682.5000   101.2526     7.1832     2.5093     0.0305  -999.2500     0.1677
 1683.0000   102.5902     7.1827     2.4988     0.0362  -999.2500     0.1435
 1683.5000   103.4801     7.1821     2.4905     0.0395  -999.2500     0.1405
 1684.0000   103.7743     7.1815     2.5097     0.0182  -999.2500     0.1556
 1684.5000   103.6135     7.1809     2.5452     0.0063  -999.2500     0.1798
 1685.0000   103.4616     7.1802     2.5369     0.0071  -999.2500     0.1751
 1685.5000   103.6052     7.1797     2.5324     0.0060  -999.2500     0.1843
 1686.0000   104.0473     7.1642     2.5698    -0.0132  -999.2500     0.2100
 1686.5000   104.6386     7.2381     2.5833    -0.0156  -999.2500     0.2145
 1687.0000   105.2367     7.0736     2.5555    -0.0042  -999.2500     0.2100
 1687.5000   105.9691     6.7748     2.5450     0.0012  -999.2500     0.2039
 1688.0000   106.2619     6.5507     2.5577    -0.0054  -999.2500     0.2069
 1688.5000   106.4069     6.5800     2.5547     0.0048  -999.2500     0.1918
 1689.0000   106.2507     6.6539     2.5357     0.0248  -999.2500     0.1722
 1689.5000   106.2448     6.7577     2.5246     0.0463  -999.2500     0.1511
 1690.0000   106.2378     6.9588     2.4759     0.0535  -999.2500     0.1321
 1690.5000   106.2328     7.0992     2.4623     0.0529  -999.2500     0.1224
 1691.0000   106.2269     7.1583     2.4668     0.0547  -999.2500     0.1405
 1691.5000   106.2207     7.0235     2.4818     0.0519  -999.2500     0.1511
 1692.0000   106.2149     7.1273     2.4907     0.0416  -999.2500     0.1571
 1692.5000   105.9094     7.2906     2.4772     0.0473  -999.2500     0.1662
 1693.0000   105.6052     7.3050     2.4757     0.0476  -999.2500     0.1677
 1693.5000   104.8533     7.2893     2.4794     0.0452  -999.2500     0.1616
 1694.0000   104.1013     7.2441     2.4831     0.0479  -999.2500     0.1647
 1694.5000   103.6406     7.1690     2.4816     0.0536  -999.2500     0.1738
 1695.0000   102.8945     7.0929     2.4561     0.0647  -999.2500     0.1631
 1695.5000   102.2918     7.0485     2.4441     0.0672  -999.2500     0.1692
 1696.0000   101.6891     7.0479     2.4740     0.0519  -999.2500     0.1843
 1696.5000   101.2357     7.0324     2.4507     0.0645  -999.2500     0.1949
 1697.0000   101.0806     6.9723     2.4417     0.0705  -999.2500     0.1732
 1697.5000   101.2229     6.6582     2.4304     0.0747  -999.2500     0.1571
 1698.0000   101.6664     6.7623     2.4649     0.0453  -999.2500     0.1692
 1698.5000   102.2563     7.0300     2.5185     0.0240  -999.2500     0.1828
 1699.0000   102.8368     7.1487     2.4978     0.0258  -999.2500     0.1832
 1699.5000   103.6075     7.1781     2.4813     0.0294  -999.2500     0.1405
 1700.0000   104.0303     7.1475     2.4918     0.0309  -999.2500     0.1511
 1700.5000   104.4724     7.1319     2.5082     0.0267  -999.2500     0.1647
 1701.0000   104.4653     7.1016     2.5188     0.0231  -999.2500     0.1737
 1701.5000   104.0119     7.0563     2.5067     0.0247  -999.2500     0.1798
 1702.0000   103.7075     7.0259     2.4871     0.0262  -999.2500     0.1903
 1702.5000   103.8682     6.9359     2.5186     0.0145  -999.2500     0.2054
 1703.0000   103.9940     6.9377     2.5373     0.0031  -999.2500     0.2190
 1703.5000   104.3430     6.9996     2.5532    -0.0027  -999.2500     0.2387
 1704.0000   104.5791     7.0574     2.5552     0.0085  -999.2500     0.2295
 1704.5000   104.8838     7.0827     2.5312     0.0160  -999.2500     0.1888
 1705.0000   105.1642     7.0522     2.5094     0.0238  -999.2500     0.1450
 1705.5000   105.1576     7.0516     2.4907     0.0299  -999.2500     0.1284
 1706.0000   104.7383     7.0807     2.5169     0.0251  -999.2500     0.1480
 1706.5000   104.2507     7.1546     2.5289     0.0137  -999.2500     0.1616
 1707.0000   103.7836     7.2286     2.5288     0.0200  -999.2500     0.1465
 1707.5000   103.6409     7.2280     2.5101     0.0191  -999.2500     0.1344
 1708.0000   104.0830     7.2125     2.5010     0.0287  -999.2500     0.1299
 1708.5000   105.4206     7.1671     2.5100     0.0233  -999.2500     0.1359
 1709.0000   105.4149     7.1367     2.5197     0.0182  -999.2500     0.1608
 1709.5000   104.3630     7.1014     2.5257     0.0161  -999.2500     0.1774
 1710.0000   103.0141     7.0462     2.5286     0.0175  -999.2500     0.1773
 1710.5000   102.5606     7.0149     2.5151     0.0267  -999.2500     0.1803
 1711.0000   103.3026     6.9853     2.5031     0.0285  -999.2500     0.1926
 1711.5000   104.1924     6.9998     2.4978     0.0306  -999.2500     0.2044
 1712.0000   105.6765     7.0439     2.4955     0.0336  -999.2500     0.2134
 1712.5000   106.5663     7.0731     2.4910     0.0354  -999.2500     0.2224
 1713.0000   106.8606     7.0724     2.4925     0.0373  -999.2500     0.2254
 1713.5000   107.1534     7.0121     2.5494     0.0030  -999.2500     0.2341
 1714.0000   106.9970     6.9519     2.5631    -0.0036  -999.2500     0.2616
 1714.5000   106.5422     6.8619     2.5567     0.0001  -999.2500     0.2389
 1715.0000   104.3574     6.7421     2.5523    -0.0044  -999.2500     0.2298
 1715.5000   104.6495     6.6820     2.5298     0.0385  -999.2500     0.1844
 1716.0000   105.2418     6.6216     2.4840     0.0403  -999.2500     0.1602
 1716.5000   105.8223     6.8844     2.4983     0.0310  -999.2500     0.1737
 1717.0000   106.1144     6.9880     2.5074     0.0244  -999.2500     0.1827
 1717.5000   106.4045     7.0024     2.5139     0.0259  -999.2500     0.1857
 1718.0000   106.6925     7.0164     2.5154     0.0212  -999.2500     0.1766
 1718.5000   106.6836     7.0156     2.4936     0.0311  -999.2500     0.1554
 1719.0000   106.5240     7.0148     2.4890     0.0395  -999.2500     0.1463
 1719.5000   105.3215     6.9992     2.5063     0.0302  -999.2500     0.1523
 1720.0000   103.6712     6.9240     2.4988     0.0323  -999.2500     0.1538
 1720.5000   103.7418     6.8636     2.4838     0.0362  -999.2500     0.1522
 1721.0000   104.6969     6.8778     2.4987     0.0341  -999.2500     0.1461
 1721.5000   103.9421     6.9664     2.5025     0.0363  -999.2500     0.1431
 1722.0000   103.7844     7.0402     2.4934     0.0357  -999.2500     0.1430
 1722.5000   104.3582     7.0693     2.4822     0.0435  -999.2500     0.1415
 1723.0000   105.1581     7.1133     2.4739     0.0483  -999.2500     0.1338
 1723.5000   105.7492     7.1124     2.4791     0.0426  -999.2500     0.1308
