~VERSION INFORMATION
 VERS.                2.0:   CWLS LOG ASCII STANDARD - VERSION 2.0
 WRAP.                 NO:   ONE LINE PER DEPTH STEP
~WELL INFORMATION
#MNEM.UNIT      DATA TYPE    INFORMATION
#----------   ------------   ------------------------------
 STRT.F          648.0000:   START DEPTH
 STOP.F         2443.0000:   STOP DEPTH
 STEP.F            0.5000:   STEP LENGTH
 NULL.          -999.2500:   NO VALUE
 COMP.    FENIX & SCISSON:   COMPANY
 WELL.  NPR #3 SHX-11 #22:   WELL
 FLD .             TEAPOT:   FIELD
 LOC .      S11 T38N R78W:   LOCATION
 CNTY.            NATRONA:   COUNTY
 STAT.            WYOMING:   STATE
 CTRY. UNITED STATES OF AMERICA:   COUNTRY
 SRVC.           BIRDWELL:   SERVICE COMPANY
 DATE.        23-APR-1978:   LOGDATE
 API .       490251061300:   API NUMBER
~CURVE INFORMATION
#MNEM.UNIT       API CODE    CURVE DESCRIPTION
#----------   ------------   ------------------------------
 DEPT.F                  :   
 CALD.IN     45 280 60 00:   CALIPER FROM DENSITY LOG
 CORR.G/C3   45 356 01 00:   DENSITY CORRECTION
 DPHI.DEC    45 890 12 00:   DENSITY POROSITY SANDSTONE
 GRD .GAPI   45 310 01 00:   GAMMA RAY FROM DENSITY LOG
 RHOB.G/C3   45 350 01 00:   BULK DENSITY
~PARAMETER INFORMATION
#MNEM.UNIT          VALUE    DESCRIPTION
#----------   ------------   ------------------------------
 PD  .                 GL:   PERMANENT DATUM
 EPD .F              5166:   ELEVATION PERMANENT DATUM
 LMF .                 KB:   LOG MEASURED FROM
 DMF .                 KB:   DRILLING MEASURED FROM
 EKB .F              5176:   KELLING BUSHING
 EGL .F              5166:   GROUND LEVEL
 DATE.        23-APR-1978:   RUN DATE
 RUN .                  1:   RUN NUMBER
 DD  .F              2450:   DEPTH DRILLER
 DL  .F              2450:   DEPTH LOGGER
 BLI .F              2443:   BOTTOM LOG INTERVAL
 TLI .F               670:   TOP LOG INTERVAL
 CS  .IN            9.625:   CASING SIZE
 CBD .F               660:   CASING BOTTOM DRILLER
 CBL .F               670:   CASING BOTTOM LOGGER
 BS  .IN             8.75:   BIT SIZE
 BSD .F              2450:   BIT SIZE AT DEPTH
 DFT .               MIST:   DRILLING FLUID TYPE
 LUN .               2958:   LOGGING UNIT NUMBER
 LUL .             CASPER:   LOGGING UNIT LOCATION
 ENGI.             MILLER:   RECORDING ENGINEER
 WITN.          MC GINLEY:   WITNESSED BY
 CLNT.            A2DTECH:   CLIENT CODE
 ORIG.           5" PRINT:   ORIGIN OF DATA
 UWI .       490251061300:   UNIQUE WELL ID
 DICO. A2D Technologies, Inc.:   DIGITIZING COMPANY
~OTHER INFORMATION
~A   DEPT     CALD       CORR       DPHI        GRD       RHOB   
# ...
  892.0000    10.7737    -0.0008     0.0371    96.9083     2.4974
  892.5000    10.7740    -0.0008     0.0401    99.7526     2.4906
  893.0000    10.7743    -0.0054     0.0407   103.4954     2.4838
  893.5000    10.7746    -0.0024     0.0356   103.9420     2.4801
  894.0000    10.7749     0.0052     0.0317   103.4869     2.4808
  894.5000    10.7752     0.0080     0.0287   101.2338     2.4891
  895.0000    10.7904     0.0050     0.0275   100.6297     2.4989
  895.5000    10.7907     0.0004     0.0269   100.6245     2.5004
  896.0000    10.7911    -0.0011     0.0282   100.4703     2.4996
  896.5000    10.7764    -0.0012     0.0300    98.2171     2.5011
  897.0000    10.7766    -0.0012     0.0303    92.3658     2.5019
  897.5000    10.7769    -0.0013     0.0330    92.6603     2.5019
  898.0000    10.7922    -0.0013     0.0378    94.4552     2.4987
  898.5000    10.7926    -0.0014     0.0333    96.2511     2.4899
  899.0000    10.8078    -0.0029     0.0297    95.7960     2.4929
  899.5000    10.8081    -0.0060     0.0390    95.6418     2.4989
  900.0000    10.8305    -0.0045     0.0414    99.8344     2.4929
  900.5000    10.8610    -0.0016     0.0384   100.8807     2.4808
  901.0000    10.9001     0.0031     0.0361   100.4256     2.4816
  901.5000    10.9286     0.0059     0.0382    99.0706     2.4869
  902.0000    10.9437    -0.0017     0.0445    95.9182     2.4892
  902.5000    10.9588    -0.0078     0.0409    93.8150     2.4836
  903.0000    10.9590    -0.0078     0.0463    93.9607     2.4778
  903.5000    10.9592    -0.0079     0.0535    94.7060     2.4808
  904.0000    10.9593    -0.0019     0.0535    95.0016     2.4741
  904.5000    10.9594     0.0041     0.0535    94.9963     2.4606
  905.0000    10.9446     0.0086     0.0535    97.6907     2.4568
  905.5000    10.9597     0.0131     0.0475   100.2188     2.4658
  906.0000    10.9599     0.0205     0.0446    99.7231     2.4568
  906.5000    10.9600     0.0265     0.0404    98.5568     2.4598
  907.0000    10.9752     0.0340     0.0293    98.1014     2.4688
  907.5000    10.9903     0.0370     0.0308    97.4960     2.4808
  908.0000    11.0204     0.0293     0.0332    97.3403     2.4974
  908.5000    11.0385     0.0278     0.0341    97.3333     2.4996
  909.0000    11.0955     0.0278     0.0353    97.9274     2.4966
  909.5000    11.1256     0.0262     0.0311    99.2710     2.4943
  910.0000    11.1407     0.0277     0.0269   102.1139     2.4936
  910.5000    11.1409     0.0309     0.0227   104.5057     2.4951
  911.0000    11.1111     0.0382     0.0212   105.1011     2.4989
  911.5000    11.1112     0.0366     0.0230   103.2949     2.5079
  912.0000    11.0964     0.0275     0.0441    98.9414     2.5199
  912.5000    11.0966     0.0215     0.0465    96.2357     2.5041
  913.0000    11.0967     0.0194     0.0444    95.4804     2.4914
  913.5000    11.0969     0.0173     0.0417    94.8750     2.4756
  914.0000    11.1120     0.0172     0.0477    93.6700     2.4778
  914.5000    11.1421     0.0172     0.0510    92.4648     2.4816
  915.0000    11.1722     0.0172     0.0507    94.4069     2.4748
  915.5000    11.2023     0.0186     0.0583    96.6501     2.4681
  916.0000    11.2174     0.0218     0.0558   100.2426     2.4598
  916.5000    11.2325     0.0291     0.0498    99.6372     2.4536
  917.0000    11.2487     0.0336     0.0484    99.6301     2.4478
  917.5000    11.2627     0.0215     0.0520    99.7758     2.4463
  918.0000    11.2779     0.0078     0.0562   100.3684     2.4793
  918.5000    11.2780     0.0034     0.0576   100.8126     2.4628
  919.0000    11.2781    -0.0011     0.0585   100.8055     2.4538
  919.5000    11.2783    -0.0012     0.0591   100.7998     2.4478
  920.0000    11.2785    -0.0027     0.0594   101.5438     2.4455
  920.5000    11.2636    -0.0043     0.0603   102.8874     2.4456
  921.0000    11.2488    -0.0073     0.0663   103.9510     2.4448
  921.5000    11.2190    -0.0103     0.0702   104.0755     2.4448
  922.0000    11.1892    -0.0134     0.0720   104.2197     2.4358
  922.5000    11.1594    -0.0224     0.0750   104.0627     2.4298
  923.0000    11.1296    -0.0255     0.0760   100.1189     2.4260
  923.5000    11.1147    -0.0105     0.0495    97.0035     2.4162
  924.0000    11.0850     0.0332     0.0363    94.1493     2.4305
  924.5000    11.0553     0.0347     0.0339    92.0446     2.4808
  925.0000    11.0404     0.0346     0.0297    93.5382     2.4921
  925.5000    11.0256     0.0346     0.0258    97.7290     2.4959
  926.0000    10.9942     0.0361     0.0255    99.0727     2.5019
  926.5000    10.9361     0.0361     0.0240   101.0161     2.5086
  927.0000    10.8913     0.0345     0.0234   102.3597     2.5162
  927.5000    10.8166     0.0360     0.0247   102.6539     2.5153
  928.0000    10.7868     0.0390     0.0256   102.6468     2.5071
  928.5000    10.7570     0.0359     0.0253   102.7925     2.5049
  929.0000    10.7722     0.0329     0.0244   102.9355     2.5026
  929.5000    10.7723     0.0314     0.0265   102.9446     2.5026
  930.0000    10.8174     0.0298     0.0301   103.0739     2.5034
  930.5000    10.8937     0.0328     0.0301   100.2183     2.5034
  931.0000    10.9824     0.0343     0.0256   100.0627     2.5019
  931.5000    11.0424     0.0342     0.0208   100.6666     2.5004
  932.0000    11.0874     0.0327     0.0256   104.3978     2.4989
  932.5000    11.0876     0.0327     0.0289   106.0413     2.5079
  933.0000    11.1476     0.0311     0.0345   106.3369     2.5139
  933.5000    11.1927     0.0311     0.0421   104.8305     2.5019
  934.0000    11.2377     0.0296     0.0437   101.2253     2.4944
  934.5000    11.2955     0.0265     0.0467   100.6199     2.4838
  935.0000    11.3438     0.0235     0.0491   100.7641     2.4778
  935.5000    11.4029     0.0204     0.0539   101.2084     2.4718
  936.0000    11.4479     0.0189     0.0554   101.5024     2.4598
  936.5000    11.4930     0.0174     0.0593    99.3964     2.4582
  937.0000    11.5231     0.0204     0.0653    98.1913     2.4485
  937.5000    11.5681     0.0339     0.0705    98.6354     2.4373
  938.0000    11.5982     0.0459     0.0719   100.6187     2.4298
  938.5000    11.6283     0.0685     0.0605   104.7696     2.4260
  939.0000    11.6284     0.0865     0.0521   105.3651     2.4313
  939.5000    11.6286     0.0416     0.0311   104.1586     2.4530
  940.0000    11.5839     0.0187     0.0293   100.1049     2.4718
  940.5000    11.5540     0.0156     0.0323    97.8504     2.4876
  941.0000    11.5242     0.0156     0.0338   103.5405     2.5004
  941.5000    11.4945     0.0156     0.0332   106.6847     2.4974
  942.0000    11.4796     0.0171     0.0311   105.3282     2.4944
  942.5000    11.4798     0.0185     0.0377   104.2731     2.4929
  943.0000    11.4800     0.0170     0.0438   106.2150     2.4959
  943.5000    11.4801     0.0139     0.0471   107.2603     2.4966
  944.0000    11.4653     0.0109     0.0447   105.4541     2.4906
  944.5000    11.4505     0.0274     0.0327   102.8997     2.4688
  945.0000    11.4356     0.0485     0.0285   106.4908     2.4733
  945.5000    11.4157     0.0635     0.0246   110.0833     2.4849
  946.0000    11.3910     0.0761     0.0195   110.2290     2.5019
  946.5000    11.3593     0.0800     0.0162   110.0422     2.5184
  947.0000    11.3315     0.0800     0.0189   107.0664     2.5237
  947.5000    11.3016     0.0739     0.0207   107.3606     2.5206
  948.0000    11.2718     0.0633     0.0216   107.6562     2.5169
  948.5000    11.2421     0.0528     0.0225   107.3493     2.5154
  949.0000    11.2123     0.0528     0.0201   105.6930     2.5184
  949.5000    11.1791     0.0527     0.0156   103.8883     2.5116
  950.0000    11.1461     0.0557     0.0168   101.6337     2.5079
  950.5000    11.1045     0.0559     0.0222   100.4286     2.5222
  951.0000    11.0629     0.0561     0.0299   100.4428     2.5169
  951.5000    11.0180     0.0563     0.0319   101.9151     2.5079
  952.0000    10.9880     0.0565     0.0319   103.4092     2.4988
  952.5000    10.9581     0.0567     0.0337   104.4516     2.4974
