~VERSION INFORMATION
 VERS.                2.0:   CWLS LOG ASCII STANDARD - VERSION 2.0
 WRAP.                 NO:   ONE LINE PER DEPTH STEP
~WELL INFORMATION
#MNEM.UNIT      DATA TYPE    INFORMATION
#----------   ------------   ------------------------------
 STRT.F           80.0000:   START DEPTH
 STOP.F         1056.0000:   STOP DEPTH
 STEP.F            0.5000:   STEP LENGTH
 NULL.          -999.2500:   NO VALUE
 COMP. U S NAVY-INTEX OIL:   COMPANY
 WELL.      NPR 3 #68-S-2:   WELL
 FLD .        TEAPOT DOME:   FIELD
 LOC .       S2 T38N R78W:   LOCATION
 CNTY.            NATRONA:   COUNTY
 STAT.            WYOMING:   STATE
 CTRY. UNITED STATES OF AMERICA:   COUNTRY
 SRVC.       Schlumberger:   SERVICE COMPANY
 DATE.        21-JUL-1964:   LOGDATE
 API .       490250638800:   API NUMBER
~CURVE INFORMATION
#MNEM.UNIT       API CODE    CURVE DESCRIPTION
#----------   ------------   ------------------------------
 DEPT.F                  :   
 SPR .MV     05 010 01 00:   SPONTANEOUS POTENTIAL FROM RES.
 ASN .OHMM   05 041 16 00:   AMPLIFIED SHORT NORMAL 16"
 ILD .OHMM   05 120 46 00:   INDUCTION LOG DEEP
 CILD.MMHO   05 110 46 00:   CONDUCTIVITY INDUCTION LOG DEEP
 GR  .GAPI   30 310 01 00:   GAMMA RAY
 CALS.IN     60 280 50 00:   CALIPER FROM SONIC LOG
 DT  .US/F   60 520 00 00:   INTERVAL TRANSIT TIME
~PARAMETER INFORMATION
#MNEM.UNIT          VALUE    DESCRIPTION
#----------   ------------   ------------------------------
 PD  .                 GL:   PERMANENT DATUM
 EPD .F              5201:   ELEVATION PERMANENT DATUM
 LMF .                 KB:   LOG MEASURED FROM
 DAPD.F                 5:   FEET ABOVE PERMANENT DATUM
 DMF .                 KB:   DRILLING MEASURED FROM
 EKB .F              5206:   KELLING BUSHING
 EGL .F              5201:   GROUND LEVEL
 DATE.          8-12-1964:   RUN DATE
 RUN .                  1:   RUN NUMBER
 DD  .F              1055:   DEPTH DRILLER
 DL  .F              1057:   DEPTH LOGGER
 BLI .F              1055:   BOTTOM LOG INTERVAL
 TLI .F               450:   TOP LOG INTERVAL
 CS  .IN              4.5:   CASING SIZE
 BS  .IN             6.75:   BIT SIZE
 DFT .            GEL OIL:   DRILLING FLUID TYPE
 DFD .                9.3:   DRILLING FLUID DENSITY
 DFV .                 48:   DRILLING FLUID VISCOSITY
 DFPH.                 10:   DRILLING FLUID PH
 DFL .                 10:   DRILLING FLUID LOSS
 MSS .           FLOWLINE:   MUD SAMPLE SOURCE
 RMS .OHMM           1.07:   RESISTIVITY MUD SAMPLE
 MST .F                95:   MUD SAMPLE TEMPERATURE
 RMF .OHMM            .67:   RESISTIVITY MUD FILTRATE SAMPLE
 MFST.F                95:   MUD FILTRATE SAMPLE TEMPERATURE
 RMC .OHMM           1.44:   RESISTIVITY MUD CAKE
 MCST.F                95:   MUD CAKE SAMPLE TEMPERATURE
 MFSS.                 FP:   MUD FILTRATE SAMPLE SOURCE
 MCSS.                 FP:   MUD CAKE SAMPLE SOURCE
 TCS .HRS               1:   TIME CURCULATED STOPPED
 LUN .               4507:   LOGGING UNIT NUMBER
 LUL .               CSPR:   LOGGING UNIT LOCATION
 ENGI.             DANNER:   RECORDING ENGINEER
 WITN.         JORGENESEN:   WITNESSED BY
 CLNT.            A2DTECH:   CLIENT CODE
 ORIG.           2" PRINT:   ORIGIN OF DATA
 UWI .       490250638800:   UNIQUE WELL ID
 DICO. A2D Technologies, Inc.:   DIGITIZING COMPANY
~OTHER INFORMATION
~A   DEPT      SPR          ASN        ILD      CILD        GR       CALS         DT   
# ...
  398.5000   -35.3204     4.6966     2.8687   321.3958  -999.2500  -999.2500  -999.2500
  399.0000   -35.0994     4.1978     2.4701   379.6201  -999.2500  -999.2500  -999.2500
  399.5000   -34.8621     3.8149     2.2593   420.7031  -999.2500  -999.2500  -999.2500
  400.0000   -34.6571     3.4183     2.1707   432.3873  -999.2500  -999.2500  -999.2500
  400.5000   -34.4967     3.3100     2.1957   430.7997  -999.2500  -999.2500  -999.2500
  401.0000   -34.3363     3.3041     2.2206   428.8244  -999.2500  -999.2500  -999.2500
  401.5000   -34.1759     3.4254     2.2433   424.0158  -999.2500  -999.2500  -999.2500
  402.0000   -34.1252     3.4186     2.2424   412.9310  -999.2500  -999.2500  -999.2500
  402.5000   -34.1243     3.2332     2.3703   398.7906  -999.2500  -999.2500  -999.2500
  403.0000   -34.2727     3.3438     2.8398   376.4657  -999.2500  -999.2500  -999.2500
  403.5000   -34.2720     3.8761     3.7986   342.5909  -999.2500  -999.2500  -999.2500
  404.0000   -34.4203     4.3632     4.6736   279.1347  -999.2500  -999.2500  -999.2500
  404.5000   -34.4195     4.7083     4.9333   232.1089  -999.2500  -999.2500  -999.2500
  405.0000   -34.5677     4.8253     5.1110   215.7380  -999.2500  -999.2500  -999.2500
  405.5000   -34.5670     4.8435     5.2313   207.4922  -999.2500  -999.2500  -999.2500
  406.0000   -34.5663     4.8677     5.2305   204.8413  -999.2500  -999.2500  -999.2500
  406.5000   -34.7146     4.9068     5.2298   214.7520  -999.2500  -999.2500  -999.2500
  407.0000   -34.7139     4.9636     5.2290   220.1857  -999.2500  -999.2500  -999.2500
  407.5000   -34.7130     4.9916     5.1229   223.4375  -999.2500  -999.2500  -999.2500
  408.0000   -34.7124     5.0387     5.0020   225.4860  -999.2500  -999.2500  -999.2500
  408.5000   -34.8607     4.9709     4.8348   227.3735  -999.2500  -999.2500  -999.2500
  409.0000   -34.9563     4.6862     4.5938   228.9882  -999.2500  -999.2500  -999.2500
  409.5000   -35.2337     4.5592     4.1773   232.8160  -999.2500  -999.2500  -999.2500
  410.0000   -35.7525     4.4413     3.6077   243.2292  -999.2500     6.7914  -999.2500
  410.5000   -35.9009     4.3289     2.8920   276.3117  -999.2500     6.7468  -999.2500
  411.0000   -35.8873     4.1696     2.4589   322.0901  -999.2500     6.7320  -999.2500
  411.5000   -35.4522     4.0539     2.1911   367.0273  -999.2500     6.7173  -999.2500
  412.0000   -35.2569     3.8549     2.0029   403.1844  -999.2500     6.7026  -999.2500
  412.5000   -34.8547     3.6375     1.9679   423.3631  -999.2500     6.7027  -999.2500
  413.0000   -34.7049     3.3844     1.9267   447.2240  -999.2500     6.7029  -999.2500
  413.5000   -34.3858     3.0005     1.9259   450.0235  -999.2500     6.7030  -999.2500
  414.0000   -34.1072     3.1781     1.9456   429.4339  -999.2500     6.7032  -999.2500
  414.5000   -34.1066     3.4055     2.1489   406.8861  -999.2500     6.7033  -999.2500
  415.0000   -34.1058     3.4046     2.3678   396.3414  -999.2500     6.7184  -999.2500
  415.5000   -34.1051     3.3456     2.8541   366.8047  -999.2500     6.7185  -999.2500
  416.0000   -34.2534     3.6756     3.7184   304.1960  -999.2500     6.7336  -999.2500
  416.5000   -34.4015     4.1018     4.5255   262.4403  -999.2500     6.7337  -999.2500
  417.0000   -34.6105     4.7252     5.0643   228.0478  -999.2500     6.7488  -999.2500
  417.5000   -34.7007     5.1485     5.2133   205.9715  -999.2500     6.7489  -999.2500
  418.0000   -34.9399     5.2703     5.2875   191.1858  -999.2500     6.7640  -999.2500
  418.5000   -35.1791     5.3401     5.2865   185.1298  -999.2500     6.7641  -999.2500
  419.0000   -35.2921     5.4025     5.2111   186.3913  -999.2500     6.8063  -999.2500
  419.5000   -35.3594     5.4602     5.2103   193.4372  -999.2500     6.7644  -999.2500
  420.0000   -35.4397     5.5143     4.9751   197.5201  -999.2500     6.7646  -999.2500
  420.5000   -35.4389     5.5503     3.9928   213.2966  -999.2500     6.7796  -999.2500
  421.0000   -35.2465     5.1306     3.1122   243.8911  -999.2500     6.7798  -999.2500
  421.5000   -34.8412     4.9139     2.9097   297.1719  -999.2500     6.7799  -999.2500
  422.0000   -34.6160     4.4954     2.7365   346.5629  -999.2500     6.7801  -999.2500
  422.5000   -34.2263     4.1108     2.6192   371.1117  -999.2500     6.7653  -999.2500
  423.0000   -34.0938     3.7156     2.4983   371.1086  -999.2500     6.7654  -999.2500
  423.5000   -34.0429     3.4818     2.4348   372.5928  -999.2500     6.7656  -999.2500
  424.0000   -33.9433     3.5091     2.3593   374.4742  -999.2500     6.7657  -999.2500
  424.5000   -34.0916     3.6064     2.4334   374.8180  -999.2500     6.7659  -999.2500
  425.0000   -34.4386     3.6769     2.7133   365.1408  -999.2500     6.7660  -999.2500
  425.5000   -34.8352     3.5692     3.0589   355.2979  -999.2500     6.7811  -999.2500
  426.0000   -34.8922     3.5871     3.4041   346.5327  -999.2500     6.7812  -999.2500
  426.5000   -34.9829     4.0483     3.7175   306.2779  -999.2500     6.7814  -999.2500
  427.0000   -34.7427     4.3753     4.0020   242.6808  -999.2500     6.7815  -999.2500
  427.5000   -34.6510     4.5319     4.2415   230.4497  -999.2500     6.7817  -999.2500
  428.0000   -34.3844     4.6299     4.4651   228.3632  -999.2500     6.7669  -999.2500
  428.5000   -34.1696     4.8019     4.5980   225.2220  -999.2500     6.7671  -999.2500
  429.0000   -34.0850     4.9765     4.5973   223.7426  -999.2500     6.7523  -999.2500
  429.5000   -34.0842     5.1433     4.5966   223.7388  -999.2500     6.7525  -999.2500
  430.0000   -34.3120     5.1999     4.5958   223.7347  -999.2500     6.7526  -999.2500
  430.5000   -34.6788     5.1317     4.5773   223.7314  -999.2500     6.7528  -999.2500
  431.0000   -34.8271     5.0421     4.4445   224.6573  -999.2500     6.7529  -999.2500
  431.5000   -34.6630     4.9159     4.0852   232.1074  -999.2500     6.7531  -999.2500
  432.0000   -34.3784     4.7208     3.6078   242.6681  -999.2500     6.7532  -999.2500
  432.5000   -34.0797     4.5026     3.2467   257.9424  -999.2500     6.7534  -999.2500
  433.0000   -33.9299     4.3547     3.0195   280.7823  -999.2500     6.7535  -999.2500
  433.5000   -33.7802     4.2179     3.0187   301.1026  -999.2500     6.7537  -999.2500
  434.0000   -33.6304     4.1291     3.0180   319.6868  -999.2500     6.7389  -999.2500
  434.5000   -33.4805     3.9879     3.0114   321.4014  -999.2500     6.7391  -999.2500
  435.0000   -33.4799     3.7684     2.9415   322.6560  -999.2500     6.7392  -999.2500
  435.5000   -33.4791     3.7024     2.8445   329.8879  -999.2500     6.7394  -999.2500
  436.0000   -33.4784     3.6612     2.7904   344.2753  -999.2500     6.7395  -999.2500
  436.5000   -33.4776     3.4652     2.6775   353.1504  -999.2500     6.7397  -999.2500
  437.0000   -33.4768     3.4940     2.5566   354.4122  -999.2500     6.7398  -999.2500
  437.5000   -33.4761     3.5439     2.4886   356.1197  -999.2500     6.7549  -999.2500
  438.0000   -33.4754     3.5625     2.3897   358.4475  -999.2500     6.7550  -999.2500
  438.5000   -33.4747     3.4349     2.2627   363.1065  -999.2500     6.7551  -999.2500
  439.0000   -33.4739     3.3198     2.1480   377.6855  -999.2500     6.7553  -999.2500
  439.5000   -33.4731     3.2476     2.0366   408.0046  -999.2500     6.7704  -999.2500
  440.0000   -33.4724     3.1244     2.0358   434.9702  -999.2500     6.7705  -999.2500
  440.5000   -33.4717     2.9998     2.0352   453.4067  -999.2500     6.7706  -999.2500
  441.0000   -33.6198     2.8847     2.1093   443.0433  -999.2500     6.7708  -999.2500
  441.5000   -33.6193     2.8848     2.1834   430.1145  -999.2500     6.7709  -999.2500
  442.0000   -33.6184     2.9518     2.3553   412.4847  -999.2500     6.7562  -999.2500
  442.5000   -33.6947     3.1098     2.6309   376.1712  -999.2500     6.7563  -999.2500
  443.0000   -33.7849     3.2380     2.8615   345.8381  -999.2500     6.7565  -999.2500
  443.5000   -33.9143     3.3784     3.1534   306.9678  -999.2500     6.7417  -999.2500
