~VERSION INFORMATION
 VERS.                2.0:   CWLS LOG ASCII STANDARD - VERSION 2.0
 WRAP.                 NO:   ONE LINE PER DEPTH STEP
~WELL INFORMATION
#MNEM.UNIT      DATA TYPE    INFORMATION
#----------   ------------   ------------------------------
 STRT.F           32.0000:   START DEPTH
 STOP.F          757.0000:   STOP DEPTH
 STEP.F            0.5000:   STEP LENGTH
 NULL.          -999.2500:   NO VALUE
 COMP. FENIX & SCISSON INC:   COMPANY
 WELL.     88 S 34 #88-34:   WELL
 FLD .             NPR #3:   FIELD
 LOC .      S34 T39N R78W:   LOCATION
 CNTY.            NATRONA:   COUNTY
 STAT.            WYOMING:   STATE
 CTRY. UNITED STATES OF AMERICA:   COUNTRY
 SRVC.              Welex:   SERVICE COMPANY
 DATE.        10-MAY-1977:   LOGDATE
 API .       490251035800:   API NUMBER
~CURVE INFORMATION
#MNEM.UNIT       API CODE    CURVE DESCRIPTION
#----------   ------------   ------------------------------
 DEPT.F                  :   
 GURD.OHMM   07 220 05 00:   SHALLOW GUARD RESISTIVITY
 ILD .OHMM   07 120 46 00:   INDUCTION LOG DEEP
 ILM .OHMM   07 120 44 00:   INDUCTION LOG MEDIUM
 SPR .MV     07 010 01 00:   SPONTANEOUS POTENTIAL FROM RES.
 CALD.IN     45 280 60 00:   CALIPER FROM DENSITY LOG
 CORR.G/C3   45 356 01 00:   DENSITY CORRECTION
 DPHI.DEC    45 890 12 00:   DENSITY POROSITY SANDSTONE
 GRD .GAPI   45 310 01 00:   GAMMA RAY FROM DENSITY LOG
 RHOB.G/C3   45 350 01 00:   BULK DENSITY
~PARAMETER INFORMATION
#MNEM.UNIT          VALUE    DESCRIPTION
#----------   ------------   ------------------------------
 PD  .                 GL:   PERMANENT DATUM
 EPD .F              5094:   ELEVATION PERMANENT DATUM
 LMF .                 GL:   LOG MEASURED FROM
 DMF .                 GL:   DRILLING MEASURED FROM
 EGL .F              5094:   GROUND LEVEL
 DATE.        10-MAY-1977:   RUN DATE
 RUN .                  1:   RUN NUMBER
 DD  .F               760:   DEPTH DRILLER
 DL  .F               759:   DEPTH LOGGER
 BLI .F               757:   BOTTOM LOG INTERVAL
 TLI .F                30:   TOP LOG INTERVAL
 CS  .IN            8.625:   CASING SIZE
 CBD .F                40:   CASING BOTTOM DRILLER
 CBL .F                45:   CASING BOTTOM LOGGER
 BS  .IN            7.875:   BIT SIZE
 BSD .F               760:   BIT SIZE AT DEPTH
 DFT .            KCL MUD:   DRILLING FLUID TYPE
 DFD .                9.0:   DRILLING FLUID DENSITY
 DFV .                 33:   DRILLING FLUID VISCOSITY
 DFPH.                7.5:   DRILLING FLUID PH
 DFL .                7.4:   DRILLING FLUID LOSS
 MSS .           FLOWLINE:   MUD SAMPLE SOURCE
 RMS .OHMM           0.33:   RESISTIVITY MUD SAMPLE
 MST .F                70:   MUD SAMPLE TEMPERATURE
 RMF .OHMM           0.28:   RESISTIVITY MUD FILTRATE SAMPLE
 MFST.F                70:   MUD FILTRATE SAMPLE TEMPERATURE
 RMC .OHMM           0.40:   RESISTIVITY MUD CAKE
 MCST.F                70:   MUD CAKE SAMPLE TEMPERATURE
 MFSS.           FANN KIT:   MUD FILTRATE SAMPLE SOURCE
 MCSS.           FANN KIT:   MUD CAKE SAMPLE SOURCE
 RMB .OHMM           0.26:   RESISTIVITY MUD AT BHT
 BHT .F                86:   BOTTOM HOLE TEMPERATURE
 TCS .HRS             1.5:   TIME CURCULATED STOPPED
 MRT .F                86:   MAXIMUM RECORDED TEMPERATURE
 LUN .               8611:   LOGGING UNIT NUMBER
 LUL .             CASPER:   LOGGING UNIT LOCATION
 ENGI.            C. DOAK:   RECORDING ENGINEER
 WITN.         D. RHOADES:   WITNESSED BY
 CLNT.            A2DTECH:   CLIENT CODE
 ORIG.           5" PRINT:   ORIGIN OF DATA
 UWI .       490251035800:   UNIQUE WELL ID
 DICO. A2D Technologies, Inc.:   DIGITIZING COMPANY
~OTHER INFORMATION
~A   DEPT     GURD        ILD        ILM        SPR         CALD      CORR      DPHI         GRD        RHOB 
# ...
  178.0000    18.0541    13.9791    15.8981   -15.4814     7.7528     0.0309     0.1918    97.7477     2.3570
  178.5000    18.4359    14.3724    16.2367   -15.3502     7.7830     0.0294     0.1909    97.7477     2.3555
  179.0000    18.6961    14.7768    16.6976   -15.2012     7.8148     0.0310     0.1921    99.2493     2.3539
  179.5000    18.5711    15.2979    17.1932   -15.3502     7.8585     0.0310     0.1978   100.3003     2.3465
  180.0000    18.0684    15.9470    17.7830   -15.4993     7.8737     0.0295     0.2083    92.4925     2.3240
  180.5000    18.8805    16.4083    18.4147   -15.5032     7.8738     0.0221     0.2087    89.4895     2.3315
  181.0000    20.3295    16.8577    18.8069   -15.7973     7.8740     0.0176     0.1936    88.8889     2.3541
  181.5000    20.9034    16.9767    19.2075   -15.7973     7.8741     0.0191     0.1750    95.3453     2.3714
  182.0000    21.0525    16.8621    19.6165   -15.9463     7.8592     0.0252     0.1687    98.8348     2.3954
  182.5000    20.6247    16.8644    19.6233   -15.9463     7.8443     0.0283     0.1717    97.7477     2.3939
  183.0000    22.7240    16.8666    19.3599   -15.9463     7.8295     0.0297     0.1786    96.6967     2.3849
  183.5000    24.5245    16.6375    19.1004   -15.9463     7.8296     0.0312     0.1774    97.4474     2.3789
  184.0000    24.0261    16.4120    18.5870   -16.0954     7.8298     0.0313     0.1753    99.5496     2.3849
  184.5000    19.5320    16.3013    18.0860   -16.2444     7.8149     0.0313     0.1777   100.9009     2.3774
  185.0000    17.4913    15.9692    17.7165   -16.4663     7.8151     0.0283     0.1927   101.9520     2.3541
  185.5000    17.8612    15.6439    17.1254   -16.6915     7.8224     0.0208     0.2047   101.6306     2.3211
  186.0000    18.4928    15.1040    16.8958   -16.8405     7.8304     0.0134     0.2155    99.5496     2.3046
  186.5000    18.3690    14.4043    16.6679   -17.1386     7.8305     0.0104     0.2233    98.4985     2.3008
  187.0000    18.1214    14.1104    16.4458   -17.2876     7.8156     0.0060     0.2202    97.4474     2.3136
  187.5000    16.7985    14.1128    16.4512   -17.4367     7.8007     0.0075     0.2140    96.0961     2.3211
  188.0000    16.5704    14.3109    16.5710   -17.7347     7.7859     0.0120     0.2118    94.2943     2.3219
  188.5000    17.7602    14.4119    16.6927   -17.8838     7.7710     0.0121     0.2109    93.2162     2.3242
  189.0000    18.1502    14.5138    16.4689   -18.3308     7.7711     0.0136     0.2094    93.6937     2.3295
  189.5000    17.6458    14.5161    15.9145   -18.4799     7.7562     0.0151     0.2064    95.9459     2.3384
  190.0000    16.5852    14.4176    14.8562   -19.0760     7.7414     0.0181     0.1992    97.8979     2.3467
  190.5000    15.6964    14.3203    13.7727   -19.3741     7.7415     0.0197     0.1944    99.5496     2.3535
  191.0000    15.9180    14.2242    12.6405   -19.6721     7.7266     0.0212     0.1908   100.7507     2.3587
  191.5000    16.3673    13.9344    11.9201   -20.1431     7.7268     0.0212     0.1905   102.2853     2.3595
  192.0000    16.4849    13.4638    11.7593   -21.0134     7.7269     0.0228     0.1933   103.9039     2.3542
  192.5000    16.1499    13.0988    11.8458   -21.6095     7.7421     0.0243     0.1890   104.9550     2.3610
  193.0000    15.7120    12.6560    11.9319   -22.6528     7.7573     0.0242     0.1896   105.4054     2.3580
  193.5000    15.8249    11.9775    11.1391   -23.6960     7.7875     0.0228     0.1947   105.5556     2.3513
  194.0000    15.9378    11.4930    10.3266   -24.9021     7.8027     0.0244     0.2004   105.7057     2.3438
  194.5000    15.7161    10.7111     9.6399   -26.2295     7.8329     0.0304     0.2028   106.3649     2.3393
  195.0000    14.3751     9.2813     9.1242   -27.4218     7.8331     0.0334     0.2007   111.2613     2.3490
  195.5000    10.8309     8.0853     8.7471   -28.0179     7.8325     0.0350     0.1915   118.3183     2.3595
  196.0000     8.4474     7.3413     8.3460   -29.0611     7.8033     0.0320     0.1854   127.4775     2.3663
  196.5000     7.8307     6.7120     8.1210   -29.8142     7.7734     0.0318     0.1860   129.5796     2.3641
  197.0000     7.8323     6.3521     7.9562   -30.4024     7.7585     0.0276     0.1866   130.1802     2.3641
  197.5000     7.8339     6.2178     7.7955   -30.7004     7.7286     0.0201     0.1851   129.0166     2.3650
  198.0000     7.9999     6.1807     7.7449   -30.7004     7.7137     0.0141     0.1809   123.7237     2.3723
  198.5000     8.1129     6.0970     7.7476   -30.9985     7.7138     0.0097     0.1725   125.0751     2.3874
  199.0000     8.2844     6.0978     7.8045   -30.9985     7.7441     0.0082     0.1641   124.7748     2.4031
  199.5000     8.5773     6.1409     7.9707   -31.2966     7.7893     0.0085     0.1581   123.5736     2.4122
  200.0000     8.9422     6.1417     8.0287   -31.2846     7.8346     0.0115     0.1513   120.7207     2.4219
  200.5000     9.0063     6.1275     7.8665   -31.1339     7.8693     0.0173     0.1449   119.9714     2.4370
  201.0000     8.8233     6.1133     7.6534   -30.9920     7.9193     0.0249     0.1427   120.5738     2.4422
  201.5000     8.4084     6.1470     7.5004   -30.9891     7.9045     0.0235     0.1439   121.6262     2.4370
  202.0000     8.1245     6.1486     7.5549   -31.1360     7.9047     0.0205     0.1478   124.9310     2.4287
  202.5000     8.0701     6.1503     7.6099   -30.9834     7.9048     0.0131     0.1580   128.7462     2.4197
  203.0000     8.1845     6.1519     7.7719   -30.8314     7.9050     0.0072     0.1649   130.3396     2.4062
  203.5000     8.3576     6.1536     7.9375   -30.8285     7.9051     0.0043     0.1701   130.4912     2.3943
  204.0000     8.5935     6.2449     8.0552   -30.6766     7.9052     0.0073     0.1616   129.7418     2.4018
  204.5000     8.8361     6.3735     8.2228   -30.6736     7.9054     0.0119     0.1553   127.3408     2.4183
  205.0000     9.0230     6.5087     8.2826   -30.5211     7.9056     0.0150     0.1529   124.4898     2.4228
  205.5000     9.0873     6.6009     8.4590   -30.3692     7.9057     0.0181     0.1514   123.1398     2.4251
  206.0000     9.0892     6.6945     8.6568   -30.3663     7.9058     0.0181     0.1505   116.0842     2.4274
  206.5000     9.0911     6.6963     8.2379   -30.2144     7.9060     0.0212     0.1517   113.2328     2.4281
  207.0000     9.0302     6.6520     7.2824   -30.2115     7.9062     0.0213     0.1547   114.0090     2.4251
  207.5000     8.9703     6.6080     7.0846   -30.0596     7.9063     0.0184     0.1583   115.9387     2.4188
  208.0000     8.7876     6.6102     7.3857   -30.0566     7.9065     0.0154     0.1598   117.1413     2.4132
  208.5000     8.3747     6.5665     7.5937   -30.0537     7.8766     0.0125     0.1601   118.4941     2.4132
  209.0000     7.9809     6.5226     7.5947   -30.0502     7.8168     0.0081     0.1631   120.7478     2.4094
  209.5000     8.2062     6.4349     7.0886   -30.1971     7.7869     0.0037     0.1676   121.4999     2.4019
  210.0000     8.6226     6.3927     6.7548   -30.3432     7.7871    -0.0022     0.1729   117.1474     2.3929
  210.5000     8.5570     6.2633     6.7620   -30.7867     7.8326    -0.0037     0.1792   120.3019     2.3809
  211.0000     8.2116     6.2652     6.8983   -31.2310     7.7874    -0.0036     0.1783   124.5076     2.3825
  211.5000     8.0447     6.3102     7.0926   -31.5261     7.7276    -0.0035     0.1690   121.4249     2.3930
  212.0000     8.1021     6.2684     7.3429   -31.9881     7.6977    -0.0019     0.1666   119.2555     2.4028
  212.5000     8.3308     6.3139     7.4461   -32.1164     7.7729    -0.0019     0.1672   120.3080     2.3983
  213.0000     8.7454     6.3156     7.5507   -32.4116     7.8480    -0.0048     0.1693   121.5106     2.3915
  213.5000     9.0547     6.4051     7.6534   -32.5577     7.9081    -0.0092     0.1731   123.0135     2.3810
  214.0000     9.1197     6.4959     7.8182   -32.5541     7.9382    -0.0107     0.1780   124.3667     2.3818
