~VERSION INFORMATION
 VERS.                2.0:   CWLS LOG ASCII STANDARD - VERSION 2.0
 WRAP.                 NO:   ONE LINE PER DEPTH STEP
~WELL INFORMATION
#MNEM.UNIT      DATA TYPE    INFORMATION
#----------   ------------   ------------------------------
 STRT.F            0.0000:   START DEPTH
 STOP.F          962.0000:   STOP DEPTH
 STEP.F            0.5000:   STEP LENGTH
 NULL.          -999.2500:   NO VALUE
 COMP. FENIX & SCISSON INC:   COMPANY
 WELL.      NPR #3 #51-14:   WELL
 FLD .             TEAPOT:   FIELD
 LOC .      S14 T38N R78W:   LOCATION
 CNTY.            NATRONA:   COUNTY
 STAT.            WYOMING:   STATE
 CTRY. UNITED STATES OF AMERICA:   COUNTRY
 SRVC.              Welex:   SERVICE COMPANY
 DATE.        03-MAR-1977:   LOGDATE
 API .       490251029700:   API NUMBER
~CURVE INFORMATION
#MNEM.UNIT       API CODE    CURVE DESCRIPTION
#----------   ------------   ------------------------------
 DEPT.F                  :   
 SGRD.OHMM   07 220 05 00:   SHALLOW RESISTIVITY
 ILM .OHMM   07 120 44 00:   INDUCTION LOG MEDIUM
 ILD .OHMM   07 120 46 00:   INDUCTION LOG DEEP
 SPR .MV     07 010 01 00:   SPONTANEOUS POTENTIAL
 DPHI.DEC    45 890 12 00:   DENSITY POROSITY SANDSTONE
 RHOB.G/C3   45 350 01 00:   BULK DENSITY
 CORR.G/C3   45 356 01 00:   DENSITY CORRECTION
 CALD.IN     45 280 60 00:   CALIPER
 GRD .GAPI   45 310 01 00:   GAMMA RAY FROM DENSITY LOG
~PARAMETER INFORMATION
#MNEM.UNIT          VALUE    DESCRIPTION
#----------   ------------   ------------------------------
 PD  .                 GL:   PERMANENT DATUM
 EPD .F            5221.8:   ELEVATION PERMANENT DATUM
 LMF .                 GL:   LOG MEASURED FROM
 DMF .                 GL:   DRILLING MEASURED FROM
 EGL .F            5221.8:   GROUND LEVEL
 DATE.             3-3-77:   RUN DATE
 RUN .                  1:   RUN NUMBER
 DD  .F               967:   DEPTH DRILLER
 DL  .F               964:   DEPTH LOGGER
 BLI .F               962:   BOTTOM LOG INTERVAL
 TLI .F                42:   TOP LOG INTERVAL
 CS  .IN            8.625:   CASING SIZE
 CBD .F                42:   CASING BOTTOM DRILLER
 CBL .F                42:   CASING BOTTOM LOGGER
 BS  .IN            7.875:   BIT SIZE
 BSD .F               967:   BIT SIZE AT DEPTH
 DFT .           CHEM-GEL:   DRILLING FLUID TYPE
 DFD .                8.7:   DRILLING FLUID DENSITY
 DFV .                 33:   DRILLING FLUID VISCOSITY
 DFPH.                7.2:   DRILLING FLUID PH
 DFL .                 10:   DRILLING FLUID LOSS
 MSS .          FLOW LINE:   MUD SAMPLE SOURCE
 RMS .OHMM           .422:   RESISTIVITY MUD SAMPLE
 MST .F                56:   MUD SAMPLE TEMPERATURE
 RMF .OHMM           .372:   RESISTIVITY MUD FILTRATE SAMPLE
 MFST.F                56:   MUD FILTRATE SAMPLE TEMPERATURE
 RMC .OHMM           .484:   RESISTIVITY MUD CAKE
 MCST.F                56:   MUD CAKE SAMPLE TEMPERATURE
 MFSS.           MEASURED:   MUD FILTRATE SAMPLE SOURCE
 MCSS.           MEASURED:   MUD CAKE SAMPLE SOURCE
 RMB .OHMM           .284:   RESISTIVITY MUD AT BHT
 BHT .F                83:   BOTTOM HOLE TEMPERATURE
 TCS .HRS               2:   TIME CURCULATED STOPPED
 MRT .F                83:   MAXIMUM RECORDED TEMPERATURE
 LUN .               8611:   LOGGING UNIT NUMBER
 LUL .           GILLETTE:   LOGGING UNIT LOCATION
 ENGI.          D. LAWSON:   RECORDING ENGINEER
 WITN.         STUEBINGER:   WITNESSED BY
 CLNT.            A2DTECH:   CLIENT CODE
 ORIG.        2" 5" PRINT:   ORIGIN OF DATA
 UWI .       490251029700:   UNIQUE WELL ID
 DICO. A2D Technologies, Inc.:   DIGITIZING COMPANY
~OTHER INFORMATION
~A    DEPT    SGRD        ILM        ILD        SPR       DPHI       RHOB       CORR       CALD        GRD   
# ...
  109.5000     9.6020     7.5588     5.7948   -27.4900     0.1124     2.4595     0.0537     8.3414   116.7090
  110.0000     9.3170     7.3136     5.7092   -27.8308     0.1151     2.4493     0.0500     8.3311   115.1280
  110.5000     9.0404     6.9567     5.6248   -28.0117     0.1160     2.4476     0.0463     8.3208   112.6153
  111.0000     8.6720     6.9995     5.5417   -28.1953     0.1139     2.4522     0.0470     8.3156   111.1005
  111.5000     8.7923     7.0749     5.4792   -28.3791     0.1118     2.4568     0.0488     8.3139   109.5884
  112.0000     8.9901     7.1511     5.5340   -28.5627     0.1097     2.4614     0.0505     8.3122   108.5446
  112.5000     9.1924     7.2170     5.5786   -28.7465     0.1076     2.4661     0.0506     8.3105   107.4972
  113.0000     9.3992     7.1256     5.6236   -28.9334     0.1098     2.4658     0.0478     8.3089   106.4445
  113.5000     9.6822     7.0308     5.6842   -29.2386     0.1120     2.4624     0.0462     8.3072   105.5678
  114.0000     9.4799     6.8931     5.6125   -29.5961     0.1113     2.4634     0.0497     8.3056   106.9229
  114.5000     9.1843     6.8998     5.5067   -29.9543     0.1105     2.4650     0.0531     8.3039   108.3636
  115.0000     8.8979     6.9127     5.4029   -30.3125     0.1100     2.4636     0.0527     8.3022   109.8465
  115.5000     8.6204     6.9255     5.3011   -30.6705     0.1104     2.4624     0.0516     8.3006   109.2418
  116.0000     8.3516     6.9383     5.2011   -31.0289     0.1164     2.4482     0.0505     8.2989   107.6659
  116.5000     8.0911     6.9567     5.1031   -31.3658     0.1202     2.4459     0.0494     8.2973   106.0756
  117.0000     7.8388     6.8616     5.0068   -31.6898     0.1176     2.4528     0.0483     8.2956   104.4857
  117.5000     8.0830     6.6982     4.9340   -32.0130     0.1157     2.4539     0.0472     8.2940   102.8915
  118.0000     8.3592     6.5386     4.8903   -32.3365     0.1149     2.4539     0.0460     8.2923   101.3085
  118.5000     8.5142     6.3829     4.8471   -32.6600     0.1122     2.4595     0.0476     8.2906   100.2030
  119.0000     8.0579     6.2305     4.8042   -32.9703     0.1071     2.4689     0.0505     8.2890   101.7424
  119.5000     7.6285     6.0608     4.7617   -33.1684     0.1020     2.4781     0.0535     8.2873   103.4171
  120.0000     7.9507     6.1069     4.7196   -33.3582     0.0952     2.4875     0.0560     8.2857   105.2126
  120.5000     8.5142     6.1773     4.6779   -33.3138     0.0974     2.4938     0.0570     8.2840   107.0066
  121.0000     8.2071     6.2477     4.6444   -33.2544     0.0995     2.4854     0.0581     8.2823   108.7956
  121.5000     7.9111     6.3190     4.6904   -33.1962     0.1001     2.4752     0.0591     8.2807   110.6050
  122.0000     8.1883     6.3913     4.7293   -33.1383     0.1007     2.4726     0.0586     8.2790   110.9437
  122.5000     8.3592     6.4643     4.7685   -33.0802     0.1070     2.4710     0.0562     8.2774   110.3382
  123.0000     8.3592     6.5240     4.8081   -33.0211     0.1098     2.4670     0.0539     8.2773   110.3492
  123.5000     8.3592     6.4369     4.8480   -32.9750     0.1108     2.4589     0.0516     8.2797   111.4407
  124.0000     8.3592     6.3512     4.9075   -33.1243     0.1143     2.4507     0.0493     8.2821   112.5574
  124.5000     8.3592     6.2667     4.8536   -33.2745     0.1213     2.4425     0.0485     8.2845   111.5301
  125.0000     8.5136     6.2302     4.7523   -33.4235     0.1185     2.4494     0.0520     8.2869   110.0362
  125.5000     8.6742     6.2589     4.6529   -33.5722     0.1146     2.4580     0.0553     8.2893   108.5997
  126.0000     8.3349     6.2793     4.6017   -33.7273     0.1107     2.4667     0.0576     8.2917   109.9778
  126.5000     8.0528     6.2912     4.6248   -33.7781     0.1064     2.4755     0.0571     8.2942   113.0654
  127.0000     7.9058     5.7519     4.6427   -33.7971     0.1063     2.4752     0.0567     8.2966   115.6998
  127.5000     7.9133     5.2432     4.6607   -33.8153     0.1061     2.4743     0.0563     8.2990   115.3640
  128.0000     7.9111     4.9075     4.6787   -33.8339     0.1065     2.4734     0.0560     8.3014   114.5439
  128.5000     7.9111     4.9380     4.6968   -33.8525     0.1069     2.4726     0.0561     8.3038   114.6739
  129.0000     7.9111     4.9619     4.7149   -33.8711     0.1074     2.4717     0.0575     8.3062   114.8578
  129.5000     8.4635     4.9859     4.7331   -33.8897     0.1078     2.4709     0.0588     8.3086   114.0809
  130.0000     8.9964     5.0100     4.7514   -33.9083     0.1082     2.4700     0.0602     8.3110   112.7675
  130.5000     8.5789     5.0342     4.7698   -33.9268     0.1087     2.4692     0.0615     8.3134   111.4509
  131.0000     8.2852     5.0585     4.7882   -33.9449     0.1091     2.4683     0.0629     8.3158   110.0557
  131.5000     8.2794     5.0829     4.8067   -33.9666     0.1080     2.4729     0.0642     8.3182   106.8379
  132.0000     8.6207     5.1075     4.8253   -34.0742     0.1036     2.4819     0.0656     8.3207   103.5789
  132.5000     8.8314     5.1381     4.8439   -34.1855     0.0988     2.4909     0.0670     8.3231   100.3263
  133.0000     8.5632     5.1219     4.8626   -34.2964     0.0941     2.5002     0.0683     8.3255    99.2377
  133.5000     8.3341     5.0936     4.7827   -34.4073     0.0895     2.5020     0.0697     8.3279   101.3843
  134.0000     8.1321     5.0655     4.7041   -34.5181     0.0884     2.4955     0.0697     8.3303   103.7860
  134.5000     7.5561     5.0376     4.6268   -34.6289     0.0980     2.4849     0.0683     8.3327   106.2051
  135.0000     7.6609     5.0098     4.5508   -34.7399     0.1079     2.4709     0.0595     8.3354   106.3816
  135.5000     7.8388     4.9821     4.4760   -34.8514     0.1151     2.4569     0.0507     8.3179   106.1502
  136.0000     7.6875     4.9546     4.3955   -34.9588     0.1205     2.4434     0.0440     8.2903   105.5727
  136.5000     7.5438     4.9273     4.3955   -34.9117     0.1141     2.4537     0.0476     8.2624   105.0019
  137.0000     7.4035     4.9001     4.3981   -34.8510     0.1088     2.4672     0.0510     8.2345   104.5610
  137.5000     7.3143     4.8731     4.4123   -34.7906     0.1092     2.4666     0.0544     8.2063   104.5606
  138.0000     7.1456     4.8462     4.4265   -34.7305     0.1097     2.4662     0.0575     8.1980   105.0105
  138.5000     6.9567     4.8182     4.4408   -34.6704     0.1097     2.4671     0.0566     8.1995   105.5876
  139.0000     7.1675     4.9218     4.4551   -34.6103     0.1087     2.4701     0.0554     8.2011   102.1664
  139.5000     7.5518     5.0611     4.4694   -34.5502     0.1078     2.4728     0.0543     8.2027    98.4292
  140.0000     7.8388     5.2043     4.4838   -34.4900     0.1072     2.4728     0.0540     8.2044    96.8758
  140.5000     7.7625     5.3516     4.4982   -34.4300     0.1074     2.4725     0.0548     8.2060    94.2679
  141.0000     7.7029     5.5032     4.5127   -34.3686     0.1075     2.4723     0.0556     8.2076    94.2657
  141.5000     7.6282     5.6595     4.5272   -34.4349     0.1069     2.4719     0.0564     8.2092    97.1568
  142.0000     7.8244     5.8185     4.5418   -34.5378     0.1037     2.4763     0.0571     8.2108    98.9925
  142.5000     8.2071     5.8987     4.5601   -34.6423     0.1004     2.4822     0.0579     8.2125   100.5721
  143.0000     8.0504     5.7473     4.5576   -34.7466     0.0976     2.4881     0.0587     8.2141   101.6583
  143.5000     7.6346     5.6374     4.5537   -34.8511     0.0981     2.4869     0.0595     8.2157   102.1152
  144.0000     7.3508     5.4792     4.5498   -34.9575     0.0978     2.4856     0.0603     8.2173   102.3138
  144.5000     7.6258     5.5348     4.5459   -35.0458     0.0966     2.4886     0.0611     8.2189   101.9571
  145.0000     7.3508     5.6425     4.5420   -35.1353     0.0964     2.4878     0.0613     8.2205   101.6030
  145.5000     7.7553     5.7523     4.5381   -35.2251     0.1019     2.4793     0.0593     8.2222   102.0856
