~VERSION INFORMATION
 VERS.                2.0:   CWLS LOG ASCII STANDARD - VERSION 2.0
 WRAP.                 NO:   ONE LINE PER DEPTH STEP
~WELL INFORMATION
#MNEM.UNIT      DATA TYPE    INFORMATION
#----------   ------------   ------------------------------
 STRT.F            0.0000:   START DEPTH
 STOP.F         3139.0000:   STOP DEPTH
 STEP.F            0.5000:   STEP LENGTH
 NULL.          -999.2500:   NO VALUE
 COMP. BROWN JOHN E&C INC:   COMPANY
 WELL.       TX-10 #63-10:   WELL
 FLD .             TEAPOT:   FIELD
 LOC .      S10 T38N R78W:   LOCATION
 CNTY.            NATRONA:   COUNTY
 STAT.            WYOMING:   STATE
 CTRY. UNITED STATES OF AMERICA:   COUNTRY
 SRVC.       Schlumberger:   SERVICE COMPANY
 DATE.        05-OCT-1982:   LOGDATE
 API .       490251090100:   API NUMBER
~CURVE INFORMATION
#MNEM.UNIT       API CODE    CURVE DESCRIPTION
#----------   ------------   ------------------------------
 DEPT.F                  :   
 DPHI.DEC    45 890 12 00:   DENSITY POROSITY  SANDSTONE
 GRD .GAPI   45 310 01 00:   GAMMA RAY FROM DENSITY LOG
 NPHI.DEC    42 890 03 00:   NEUTRON POROSITY SANDSTONE
 CALD.IN     45 280 60 00:   CALIPER FROM DENSITY LOG
 CORR.G/C3   45 356 01 00:   DENSITY CORRECTION
 RHOB.G/C3   45 350 01 00:   BULK DENSITY
 ILD .OHMM   07 120 46 00:   INDUCTION LOG DEEP
 ILM .OHMM   07 120 44 00:   INDUCTION LOG MEDIUM
 SFLU.OHMM   07 220 01 00:   SPHERICALLY FOCUSED LOG UNAVERAGED RESISTIVITY
 SPR .MV     07 010 01 00:   SPONTANEOUS POTENTIAL
~PARAMETER INFORMATION
#MNEM.UNIT          VALUE    DESCRIPTION
#----------   ------------   ------------------------------
 PD  .                 GL:   PERMANENT DATUM
 EPD .F              5189:   ELEVATION PERMANENT DATUM
 LMF .                 KB:   LOG MEASURED FROM
 DAPD.F                10:   FEET ABOVE PERMANENT DATUM
 DMF .                 KB:   DRILLING MEASURED FROM
 EKB .F              5199:   KELLING BUSHING
 EGL .F              5189:   GROUND LEVEL
 DATE.        05-OCT-1982:   RUN DATE
 RUN .                  1:   RUN NUMBER
 DD  .F              3200:   DEPTH DRILLER
 DL  .F              3142:   DEPTH LOGGER
 BLI .F              3139:   BOTTOM LOG INTERVAL
 TLI .F               484:   TOP LOG INTERVAL
 CS  .IN            9.625:   CASING SIZE
 CBD .F               482:   CASING BOTTOM DRILLER
 CBL .F               484:   CASING BOTTOM LOGGER
 BS  .IN            7.875:   BIT SIZE
 BSD .F              3200:   BIT SIZE AT DEPTH
 DFT .        KCL/POLYMER:   DRILLING FLUID TYPE
 DFD .                8.6:   DRILLING FLUID DENSITY
 DFV .                 38:   DRILLING FLUID VISCOSITY
 DFPH.                8.5:   DRILLING FLUID PH
 DFL .                6.8:   DRILLING FLUID LOSS
 MSS .           MUD TANK:   MUD SAMPLE SOURCE
 RMS .OHMM            .40:   RESISTIVITY MUD SAMPLE
 MST .F                64:   MUD SAMPLE TEMPERATURE
 RMF .OHMM            .34:   RESISTIVITY MUD FILTRATE SAMPLE
 MFST.F                64:   MUD FILTRATE SAMPLE TEMPERATURE
 RMC .OHMM            .36:   RESISTIVITY MUD CAKE
 MCST.F                64:   MUD CAKE SAMPLE TEMPERATURE
 MFSS.               MEAS:   MUD FILTRATE SAMPLE SOURCE
 MCSS.               CALC:   MUD CAKE SAMPLE SOURCE
 RMB .OHMM             .2:   RESISTIVITY MUD AT BHT
 BHT .F               125:   BOTTOM HOLE TEMPERATURE
 TCS .HRS            2300:   TIME CURCULATED STOPPED
 TLAB.HRS            0500:   TIME LOGGER AT BOTTOM
 MRT .F               125:   MAXIMUM RECORDED TEMPERATURE
 LUN .               8043:   LOGGING UNIT NUMBER
 LUL .                GLT:   LOGGING UNIT LOCATION
 ENGI.            NEUFFER:   RECORDING ENGINEER
 WITN.             STRONG:   WITNESSED BY
 CLNT.            A2DTECH:   CLIENT CODE
 ORIG.           5" PRINT:   ORIGIN OF DATA
 UWI .       490251090100:   UNIQUE WELL ID
 DICO. A2D Technologies, Inc.:   DIGITIZING COMPANY
~OTHER INFORMATION
~A    DEPT    DPHI          GRD     NPHI       CALD       CORR       RHOB        ILD        ILM       SFLU        SPR   
# ...
 2948.0000     0.1071   116.8027     0.2584     7.7785     0.0420     2.4766     4.1818     4.1541     4.4809   -25.0456
 2948.5000     0.1041   116.8054     0.2599     7.7776     0.0435     2.4825     4.2108     4.1826     4.5120   -24.9010
 2949.0000     0.1003   116.2182     0.2611     7.7768     0.0434     2.4863     4.2721     4.2406     4.5120   -24.9098
 2949.5000     0.1018   114.7467     0.2625     7.7761     0.0403     2.4877     4.4194     4.2993     4.5748   -24.9169
 2950.0000     0.0988   114.3384     0.2590     7.7602     0.0372     2.4901     4.5433     4.4194     4.7684   -24.9240
 2950.5000     0.0935   113.5662     0.2500     7.7746     0.0296     2.4966     4.6384     4.5117     5.2784   -24.8837
 2951.0000     0.0929   114.7433     0.2386     7.7739     0.0258     2.5041     4.7684     4.8008     5.7612   -24.8289
 2951.5000     0.0950   114.4138     0.2351     7.7730     0.0250     2.4973     4.9159     5.0383     5.9896   -24.7741
 2952.0000     0.0994   112.3771     0.2318     7.7738     0.0242     2.4860     5.1791     5.2513     5.9484   -24.7192
 2952.5000     0.0975   110.8993     0.2286     7.7748     0.0226     2.4905     5.3608     5.4006     5.9930   -24.6655
 2953.0000     0.0956   111.1914     0.2256     7.7758     0.0203     2.4965     5.3236     5.4351     6.2431   -24.8283
 2953.5000     0.0979   111.1886     0.2229     7.7768     0.0188     2.4966     5.2502     5.3601     6.3300   -24.9889
 2954.0000     0.1000   112.0707     0.2215     7.7778     0.0188     2.4926     5.1016     5.2137     6.3300   -24.9975
 2954.5000     0.0982   113.2478     0.2218     7.7788     0.0202     2.4904     4.8652     5.0362     6.2431   -25.0062
 2955.0000     0.0929   114.4642     0.2262     7.7798     0.0263     2.4926     4.7323     4.9057     6.0311   -25.0170
 2955.5000     0.0882   116.4862     0.2348     7.7808     0.0407     2.4986     4.6030     4.6670     5.7823   -25.0256
 2956.0000     0.0861   117.6633     0.2447     7.7818     0.0528     2.5069     4.5066     4.5378     5.1095   -25.0343
 2956.5000     0.0932   118.5454     0.2557     7.7828     0.0612     2.5136     4.4154     4.3850     4.8015   -25.0429
 2957.0000     0.1132   120.0175     0.2625     7.7838     0.0520     2.5023     4.3545     4.3245     4.6384   -25.0517
 2957.5000     0.1194   121.1946     0.2661     7.7848     0.0413     2.4745     4.3243     4.2945     4.6065   -25.0624
 2958.0000     0.1209   122.3717     0.2624     7.7857     0.0276     2.4610     4.3240     4.2942     4.6706   -25.0344
 2958.5000     0.1209   122.3687     0.2542     7.7867     0.0170     2.4572     4.4142     4.3236     4.7684   -24.7758
 2959.0000     0.1200   119.4154     0.2469     7.7877     0.0124     2.4572     4.5376     4.3835     4.9020   -24.7844
 2959.5000     0.1181   114.1029     0.2415     7.7887     0.0123     2.4579     4.6644     4.5060     5.0744   -24.7933
 2960.0000     0.1147   112.6251     0.2404     7.7897     0.0131     2.4594     4.7618     4.6641     5.2891   -24.8039
 2960.5000     0.1088   112.3273     0.2395     7.7907     0.0161     2.4624     4.8278     4.8309     5.5513   -24.8115
 2961.0000     0.1005   112.6195     0.2392     7.7917     0.0214     2.4676     4.8945     4.9286     5.7068   -24.8207
 2961.5000     0.0887   113.2184     0.2386     7.7927     0.0289     2.4773     4.9282     4.9282     5.7862   -24.8298
 2962.0000     0.0884   114.6779     0.2377     7.7937     0.0426     2.4983     4.8939     4.8939     5.7464   -24.8406
 2962.5000     0.0993   118.8048     0.2371     7.7947     0.0494     2.5111     4.8264     4.7932     5.6253   -25.0013
 2963.0000     0.1070   122.6368     0.2374     7.7957     0.0463     2.5038     4.7270     4.6622     5.3627   -25.1619
 2963.5000     0.1108   125.2888     0.2407     7.7966     0.0394     2.4840     4.6618     4.5979     5.1806   -25.1705
 2964.0000     0.1114   119.9762     0.2457     7.7976     0.0371     2.4750     4.5976     4.5345     5.1095   -25.1793
 2964.5000     0.1055   115.5486     0.2513     7.7986     0.0379     2.4720     4.5342     4.5030     5.0394   -25.3420
 2965.0000     0.0960   114.0708     0.2552     7.7996     0.0409     2.4766     4.4409     4.4409     5.0394   -25.3506
 2965.5000     0.0920   116.1322     0.2557     7.8006     0.0424     2.4974     4.4099     4.3796     5.0744   -25.3593
 2966.0000     0.0946   122.9140     0.2554     7.8016     0.0454     2.5057     4.3491     4.3491     5.1095   -25.3679
 2966.5000     0.0984   127.6309     0.2551     7.8026     0.0469     2.5019     4.3367     4.3189     5.1095   -25.5289
 2967.0000     0.1002   130.5779     0.2548     7.8036     0.0491     2.4959     4.2889     4.2889     5.0394   -25.5394
 2967.5000     0.1046   129.3951     0.2548     7.8046     0.0476     2.4911     4.2885     4.2885     4.9360   -25.5480
 2968.0000     0.1111   125.8525     0.2550     7.8056     0.0453     2.4853     4.2587     4.2587     4.8348   -25.5562
 2968.5000     0.1199   123.7572     0.2551     7.8066     0.0390     2.4718     4.2291     4.2291     4.7684   -25.5653
 2969.0000     0.1232   123.4862     0.2557     7.8074     0.0270     2.4553     4.1997     4.2150     4.7356   -25.4220
 2969.5000     0.1232   124.0740     0.2593     7.8065     0.0186     2.4507     4.1705     4.1705     4.7684   -25.5848
 2970.0000     0.1146   126.1354     0.2658     7.8058     0.0163     2.4560     4.1130     4.1130     4.6706   -25.5934
 2970.5000     0.1067   127.6074     0.2720     7.8049     0.0209     2.4754     4.0844     4.0283     4.5748   -25.6021
 2971.0000     0.1030   128.1953     0.2793     7.8042     0.0268     2.4859     4.0281     3.9454     4.5433   -25.6109
 2971.5000     0.1025   127.0118     0.2760     7.8035     0.0276     2.4882     3.9979     3.8889     4.5748   -25.6201
 2972.0000     0.1131   124.5078     0.2734     7.8027     0.0268     2.4776     3.9448     3.8109     4.5748   -25.6302
 2972.5000     0.1175   122.2863     0.2723     7.8019     0.0267     2.4649     3.8904     3.7325     4.5748   -25.7908
 2973.0000     0.1175   123.7577     0.2711     7.8011     0.0298     2.4618     3.8368     3.7065     4.4809   -25.7994
 2973.5000     0.1152   124.0505     0.2699     7.8004     0.0343     2.4648     3.7578     3.6302     4.2736   -25.8103
 2974.0000     0.1143   123.7520     0.2873     7.7997     0.0388     2.4678     3.6804     3.5801     3.9843   -25.8189
 2974.5000     0.1234   121.6843     0.2994     7.7988     0.0357     2.4573     3.6297     3.5552     3.7962   -25.8276
 2975.0000     0.1270   120.5015     0.3031     7.7981     0.0274     2.4460     3.5550     3.5305     3.7701   -25.9287
 2975.5000     0.1264   120.2036     0.3024     7.7974     0.0174     2.4460     3.4818     3.4818     3.8757   -25.9970
 2976.0000     0.1211   122.2650     0.2906     7.7967     0.0197     2.4474     3.4338     3.4338     3.9569   -26.0077
 2976.5000     0.1125   124.0321     0.2882     7.7958     0.0292     2.4579     3.3864     3.4099     3.8490   -26.0163
 2977.0000     0.1063   126.3891     0.2965     7.7950     0.0447     2.4729     3.3397     3.3629     3.7962   -26.0250
 2977.5000     0.1016   125.7963     0.2991     7.7943     0.0492     2.4834     3.2846     3.3395     3.7441   -25.9869
 2978.0000     0.1078   124.3185     0.3027     7.7936     0.0446     2.4879     3.2483     3.3157     3.6927   -25.8705
 2978.5000     0.1196   123.7257     0.3038     7.7927     0.0376     2.4666     3.2034     3.2480     3.6673   -25.7477
 2979.0000     0.1246   124.0171     0.3032     7.7920     0.0294     2.4518     3.1812     3.2254     3.6673   -25.7578
 2979.5000     0.1184   126.0792     0.3021     7.7913     0.0278     2.4525     3.1810     3.2030     3.6927   -25.6123
 2980.0000     0.1143   128.1419     0.3012     7.7602     0.0377     2.4623     3.1808     3.1589     3.6420   -25.5471
 2980.5000     0.1140   127.2534     0.3003     7.7443     0.0475     2.4697     3.1586     3.1586     3.5673   -25.4798
 2981.0000     0.1234   125.1857     0.3027     7.7283     0.0391     2.4532     3.1366     3.1366     3.5184   -25.4906
