~VERSION INFORMATION
 VERS.                2.0:   CWLS LOG ASCII STANDARD - VERSION 2.0
 WRAP.                 NO:   ONE LINE PER DEPTH STEP
~WELL INFORMATION
#MNEM.UNIT      DATA TYPE    INFORMATION
#----------   ------------   ------------------------------
 STRT.F          100.0000:   START DEPTH
 STOP.F          872.0000:   STOP DEPTH
 STEP.F            0.5000:   STEP LENGTH
 NULL.          -999.2500:   NO VALUE
 COMP. U S NAVY/INTEX OIL CO:   COMPANY
 WELL. 53 S 11 #N P R 3-11:   WELL
 FLD .             TEAPOT:   FIELD
 LOC .      S11 T38N R78W:   LOCATION
 CNTY.            NATRONA:   COUNTY
 STAT.            WYOMING:   STATE
 CTRY. UNITED STATES OF AMERICA:   COUNTRY
 SRVC.       Schlumberger:   SERVICE COMPANY
 DATE.        07-AUG-1961:   LOGDATE
 API .       490250635800:   API NUMBER
~CURVE INFORMATION
#MNEM.UNIT       API CODE    CURVE DESCRIPTION
#----------   ------------   ------------------------------
 DEPT.F                  :   
 CILD.MMHO   05 110 46 00:   CONDUCTIVITY INDUCTION LOG DEEP
 ILD .OHMM   05 120 46 00:   INDUCTION LOG DEEP
 SPR .MV     05 010 01 00:   SPONTANEOUS POTENTIAL FROM RES.
 ASN .OHMM   05 041 16 00:   AMPLIFIED SHORT NORMAL 16"
~PARAMETER INFORMATION
#MNEM.UNIT          VALUE    DESCRIPTION
#----------   ------------   ------------------------------
 PD  .                 GL:   PERMANENT DATUM
 EPD .F              5192:   ELEVATION PERMANENT DATUM
 LMF .                 KB:   LOG MEASURED FROM
 DAPD.F                 6:   FEET ABOVE PERMANENT DATUM
 DMF .                 KB:   DRILLING MEASURED FROM
 EKB .F              5198:   KELLING BUSHING
 EGL .F              5192:   GROUND LEVEL
 DATE.             8-7-61:   RUN DATE
 RUN .                  1:   RUN NUMBER
 DD  .F               870:   DEPTH DRILLER
 DL  .F               873:   DEPTH LOGGER
 BLI .F               872:   BOTTOM LOG INTERVAL
 TLI .F               100:   TOP LOG INTERVAL
 BS  .IN            7.875:   BIT SIZE
 BSD .F               870:   BIT SIZE AT DEPTH
 DFT .            GEL/OIL:   DRILLING FLUID TYPE
 DFD .               10.4:   DRILLING FLUID DENSITY
 DFV .                 43:   DRILLING FLUID VISCOSITY
 RMS .OHMM            .02:   RESISTIVITY MUD SAMPLE
 MST .F                70:   MUD SAMPLE TEMPERATURE
 TCS .HRS               1:   TIME CURCULATED STOPPED
 LUN .               2544:   LOGGING UNIT NUMBER
 LUL .                 NC:   LOGGING UNIT LOCATION
 ENGI.             QUINCY:   RECORDING ENGINEER
 WITN.          JORGENSON:   WITNESSED BY
 CLNT.            A2DTECH:   CLIENT CODE
 ORIG.       2", 5" PRINT:   ORIGIN OF DATA
 UWI .       490250635800:   UNIQUE WELL ID
 DICO. A2D Technologies, Inc.:   DIGITIZING COMPANY
~OTHER INFORMATION
~A   DEPT      CILD         ILD      SPR          ASN 
  100.0000   189.9498     3.9778   -21.7172     6.1732
  100.5000   189.9498     3.9778   -21.9192     6.1732
  101.0000   189.9498     4.1792   -21.8963     6.1732
  101.5000   189.9498     3.9990   -21.8669     6.2451
  102.0000   182.8423     4.0154   -21.8375     6.3353
  102.5000   179.8995     4.0318   -21.8082     6.4110
  103.0000   180.6711     4.0482   -21.7788     6.4588
  103.5000   181.4189     4.0653   -21.8036     6.4930
  104.0000   182.0346     4.0715   -21.7260     6.5282
  104.5000   182.9436     4.0895   -21.7318     6.4965
  105.0000   183.9196     4.1055   -21.5785     6.4461
  105.5000   182.0251     4.1212   -21.2342     6.4002
  106.0000   179.9799     4.1396   -20.8690     6.4066
  106.5000   177.9347     4.1524   -20.7066     6.4214
  107.0000   175.8895     4.1754   -20.9477     6.4377
  107.5000   173.8442     4.1731   -21.1988     6.4940
  108.0000   171.7990     4.2551   -21.3288     6.5502
  108.5000   169.7538     4.2868   -21.2602     6.6143
  109.0000   167.8392     4.2773   -21.1465     6.6362
  109.5000   170.1809     4.2822   -21.1681     6.6453
  110.0000   174.2714     4.2792   -21.9143     6.6158
  110.5000   177.8895     4.2817   -22.4345     6.5252
  111.0000   179.8040     4.2732   -21.9900     6.4765
  111.5000   182.8719     4.2101   -21.4752     6.4608
  112.0000   185.9397     4.1492   -21.3073     6.4036
  112.5000   189.0075     4.0859   -21.2107     6.3012
  113.0000   192.0754     4.0268   -20.9904     6.2348
  113.5000   195.1432     3.9725   -20.8151     6.2549
  114.0000   190.0302     4.0341   -20.6241     6.2971
  114.5000   181.8492     4.1289   -20.4229     6.3320
  115.0000   176.0176     4.2242   -20.2763     6.3696
  115.5000   176.5289     4.2845   -20.4158     6.4061
  116.0000   177.0402     4.2827   -20.7770     6.4423
  116.5000   177.5515     4.3070   -21.1503     6.4800
  117.0000   177.1960     4.3257   -21.5167     6.5140
  117.5000   175.1508     4.3461   -21.9048     6.5561
  118.0000   171.8325     4.3661   -22.2972     6.5770
  118.5000   166.3786     4.4087   -22.3149     6.5903
  119.0000   160.9246     4.8389   -22.0846     6.5832
  119.5000   155.4707     5.1255   -21.8018     6.7083
  120.0000   150.0168     5.3745   -21.5434     7.0038
  120.5000   144.5628     5.6315   -21.5121     7.2816
  121.0000   139.1089     5.8939   -21.5212     7.5671
  121.5000   133.6683     6.0351   -21.4904     7.8547
  122.0000   132.6231     6.0901   -21.1971     8.1099
  122.5000   131.6583     6.0522   -20.8744     8.1622
  123.0000   136.2529     5.9286   -20.5508     8.0592
  123.5000   140.6842     5.8504   -20.2407     7.8637
  124.0000   145.1156     5.6198   -19.9281     7.6871
  124.5000   149.5469     5.4114   -19.9100     7.4997
  125.0000   153.9782     5.2740   -20.0728     7.3376
  125.5000   157.7889     5.1066   -20.2516     7.2106
  126.0000   160.1206     4.9930   -20.2874     7.0914
  126.5000   162.1658     4.9534   -20.5062     6.9990
  127.0000   163.8191     4.8941   -20.9161     6.9736
  127.5000   162.3193     4.8927   -21.2541     6.9530
  128.0000   161.0607     5.0091   -21.6220     6.9711
  128.5000   159.8021     5.1030   -21.7328     7.0661
  129.0000   158.5435     5.2234   -21.7841     7.1309
  129.5000   157.2849     5.3013   -21.8294     7.3064
  130.0000   155.7789     5.5964   -21.9029     7.5111
  130.5000   151.1231     6.0248   -21.8757     7.6744
  131.0000   145.3283     6.4500   -21.6746     7.8701
  131.5000   139.5335     6.6120   -21.5760     8.0449
  132.0000   133.7387     6.7299   -21.5159     8.2472
  132.5000   127.9439     6.8644   -21.3780     8.3885
  133.0000   121.6080     6.9874   -20.9142     8.4618
  133.5000   123.2066     7.0021   -20.6815     8.5445
  134.0000   127.0565     6.9013   -20.7752     8.6334
  134.5000   130.9063     6.8219   -20.9217     8.6743
  135.0000   134.7561     6.6653   -21.0854     8.6755
  135.5000   138.6060     6.3424   -21.2278     8.5521
  136.0000   142.4558     6.0412   -21.4722     8.3118
  136.5000   146.3056     5.7306   -21.5200     8.0937
  137.0000   150.1555     5.4212   -21.5541     7.8615
  137.5000   153.7688     5.1942   -22.0963     7.6416
  138.0000   158.6945     5.1935   -22.3589     7.4086
  138.5000   156.7569     5.2942   -22.2052     7.3060
  139.0000   154.8194     5.3978   -22.0056     7.3502
  139.5000   152.8818     5.5017   -21.8905     7.5857
  140.0000   150.9442     5.6032   -22.1567     7.7795
  140.5000   149.0066     5.7102   -22.5358     7.9423
  141.0000   147.0690     5.7876   -22.3860     8.0671
  141.5000   145.1315     5.8286   -22.1425     8.0763
  142.0000   143.1939     5.9078   -21.9111     8.0353
  142.5000   141.7085     5.7514   -21.6922     8.0283
  143.0000   149.0470     5.5010   -21.3649     7.8807
  143.5000   154.9968     5.2844   -21.3000     7.6581
  144.0000   160.9465     5.0603   -21.3221     7.4694
  144.5000   166.8963     4.8225   -21.4782     7.2683
  145.0000   173.8694     4.5886   -21.7132     7.0590
  145.5000   177.8895     4.4980   -21.9270     6.9623
  146.0000   176.1608     4.3889   -22.1573     6.8694
  146.5000   174.1237     4.3794   -22.3684     6.8004
  147.0000   171.8255     4.4027   -22.6142     6.8200
  147.5000   170.0430     4.4300   -22.7245     6.8835
  148.0000   170.6605     4.4568   -22.6580     6.9425
  148.5000   171.2898     4.4839   -22.6267     7.0099
  149.0000   171.9194     4.5107   -22.5658     7.0373
  149.5000   172.5478     4.5379   -22.5446     7.0123
  150.0000   173.1694     4.5640   -22.3957     6.9303
  150.5000   173.7840     4.5923   -22.0914     6.8359
  151.0000   174.3873     4.6163   -21.8091     6.7431
  151.5000   174.9861     4.6483   -21.5190     6.6616
  152.0000   175.5882     4.6654   -21.2283     6.6588
  152.5000   175.8490     4.7614   -21.0869     6.6928
  153.0000   173.0882     4.7888   -21.2141     6.7270
  153.5000   170.5616     4.7847   -21.4144     6.7621
  154.0000   167.9899     4.7813   -21.6009     6.7954
  154.5000   165.8291     4.7945   -21.7939     6.8324
  155.0000   170.7777     4.6785   -21.9816     6.8527
  155.5000   175.0629     4.4718   -22.1763     6.8125
  156.0000   179.3482     4.2959   -22.3251     6.7691
  156.5000   183.6334     4.1054   -22.2892     6.6864
  157.0000   187.9186     3.9307   -21.9934     6.4369
  157.5000   192.2039     3.8313   -21.9149     6.1819
  158.0000   196.4891     3.6930   -21.9665     6.0468
  158.5000   200.7744     3.5447   -22.0226     5.9110
  159.0000   205.0596     3.3902   -22.0862     5.8662
  159.5000   210.0502     3.3715   -22.1165     5.8489
  160.0000   212.0603     3.4332   -21.8749     5.8494
  160.5000   210.0502     3.5070   -21.5897     5.8597
  161.0000   207.6784     3.5805   -21.2620     5.8906
  161.5000   204.9514     3.6538   -21.1451     5.9190
  162.0000   202.2245     3.7273   -21.3093     5.9515
  162.5000   199.4975     3.8011   -21.4327     5.9969
  163.0000   196.7705     3.8714   -21.5764     6.0475
  163.5000   193.9698     3.8773   -21.7124     6.0970
  164.0000   193.7357     3.8884   -21.8467     6.1471
  164.5000   193.4951     3.9159   -22.0291     6.1965
  165.0000   193.2545     3.9405   -22.2652     6.2474
  165.5000   193.0139     3.9666   -22.4905     6.2893
  166.0000   192.7733     3.9919   -22.7236     6.2729
  166.5000   192.5327     4.0172   -22.9231     6.2527
  167.0000   192.2921     4.0434   -22.9062     6.2324
  167.5000   192.0514     4.0676   -22.6330     6.2538
  168.0000   191.9598     4.0961   -22.3573     6.3094
  168.5000   189.1920     4.1163   -22.0820     6.3570
  169.0000   186.7377     4.1513   -21.8072     6.4069
  169.5000   184.2834     4.1577   -21.5323     6.4562
  170.0000   181.8291     4.2994   -21.2558     6.4992
  170.5000   179.8995     4.4010   -20.9901     6.5437
  171.0000   177.2261     4.4460   -20.8860     6.5603
  171.5000   175.0236     4.5146   -21.0262     6.5643
  172.0000   172.8210     4.5705   -21.2285     6.5703
  172.5000   170.6185     4.6400   -21.4065     6.5759
