~VERSION INFORMATION
 VERS.                2.0:   CWLS LOG ASCII STANDARD - VERSION 2.0
 WRAP.                 NO:   ONE LINE PER DEPTH STEP
~WELL INFORMATION
#MNEM.UNIT      DATA TYPE    INFORMATION
#----------   ------------   ------------------------------
 STRT.F           36.0000:   START DEPTH
 STOP.F          700.0000:   STOP DEPTH
 STEP.F            0.5000:   STEP LENGTH
 NULL.          -999.2500:   NO VALUE
 COMP. FENIX & SCISSON INC:   COMPANY
 WELL. NPR #3 13SX14 #13-14:   WELL
 FLD .             TEAPOT:   FIELD
 LOC .      S14 T38N R78W:   LOCATION
 CNTY.            NATRONA:   COUNTY
 STAT.            WYOMING:   STATE
 CTRY. UNITED STATES OF AMERICA:   COUNTRY
 SRVC.              Welex:   SERVICE COMPANY
 DATE.        28-FEB-1977:   LOGDATE
 API .       490251029600:   API NUMBER
~CURVE INFORMATION
#MNEM.UNIT       API CODE    CURVE DESCRIPTION
#----------   ------------   ------------------------------
 DEPT.F                  :   
 CALD.IN     45 280 60 00:   CALIPER FROM DENSITY LOG
 GRD .GAPI   45 310 01 00:   GAMMA RAY FROM DENSITY LOG
 CORR.G/C3   45 356 01 00:   DENSITY CORRECTION
 RHOB.G/C3   45 350 01 00:   BULK DENSITY
 DPHI.DEC    45 890 12 00:   DENSITY POROSITY SANDSTONE
 SPR .MV     07 010 01 00:   SPONTANEOUS POTENTIAL
 SGRD.OHMM   07 220 05 00:   SHALLOW RESISTIVITY
 ILD .OHMM   07 120 46 00:   INDUCTION LOG DEEP
 ILM .OHMM   07 120 44 00:   INDUCTION LOG MEDIUM
~PARAMETER INFORMATION
#MNEM.UNIT          VALUE    DESCRIPTION
#----------   ------------   ------------------------------
 PD  .                 GL:   PERMANENT DATUM
 EPD .F              5238:   ELEVATION PERMANENT DATUM
 LMF .                 GL:   LOG MEASURED FROM
 DMF .                 GL:   DRILLING MEASURED FROM
 EGL .F              5238:   GROUND LEVEL
 DATE.            2-28-77:   RUN DATE
 RUN .                  1:   RUN NUMBER
 DD  .F               710:   DEPTH DRILLER
 DL  .F               706:   DEPTH LOGGER
 BLI .F               704:   BOTTOM LOG INTERVAL
 TLI .F                42:   TOP LOG INTERVAL
 CS  .IN            8.625:   CASING SIZE
 CBD .F                42:   CASING BOTTOM DRILLER
 CBL .F                42:   CASING BOTTOM LOGGER
 BS  .IN            7.875:   BIT SIZE
 BSD .F               710:   BIT SIZE AT DEPTH
 DFT .           CHEM-GEL:   DRILLING FLUID TYPE
 DFD .                8.7:   DRILLING FLUID DENSITY
 DFV .                 33:   DRILLING FLUID VISCOSITY
 DFPH.                  7:   DRILLING FLUID PH
 DFL .                  8:   DRILLING FLUID LOSS
 MSS .          FLOW LINE:   MUD SAMPLE SOURCE
 RMS .OHMM           .382:   RESISTIVITY MUD SAMPLE
 MST .F                54:   MUD SAMPLE TEMPERATURE
 RMF .OHMM           .342:   RESISTIVITY MUD FILTRATE SAMPLE
 MFST.F                54:   MUD FILTRATE SAMPLE TEMPERATURE
 RMC .OHMM           .821:   RESISTIVITY MUD CAKE
 MCST.F                54:   MUD CAKE SAMPLE TEMPERATURE
 MFSS.           MEASURED:   MUD FILTRATE SAMPLE SOURCE
 MCSS.           MEASURED:   MUD CAKE SAMPLE SOURCE
 RMB .OHMM           .333:   RESISTIVITY MUD AT BHT
 BHT .F                62:   BOTTOM HOLE TEMPERATURE
 TCS .HRS               3:   TIME CURCULATED STOPPED
 MRT .F                62:   MAXIMUM RECORDED TEMPERATURE
 LUN .               8611:   LOGGING UNIT NUMBER
 LUL .           GILLETTE:   LOGGING UNIT LOCATION
 ENGI.               DOAK:   RECORDING ENGINEER
 WITN.               JAPP:   WITNESSED BY
 CLNT.            A2DTECH:   CLIENT CODE
 ORIG.       2", 5" PRINT:   ORIGIN OF DATA
 UWI .       490251029600:   UNIQUE WELL ID
 DICO. A2D Technologies, Inc.:   DIGITIZING COMPANY
~OTHER INFORMATION
~A   DEPT       CALD       GRD       CORR        RHOB     DPHI         SPR        SGRD      ILD        ILM   
# ...
  364.5000     7.9974   118.8675     0.0090     2.5019     0.0837   -41.8077    11.5438     8.1790     8.8854
  365.0000     8.0005   121.1869     0.0090     2.5067     0.0811   -42.0299    11.1898     8.1631     9.1693
  365.5000     8.0036   123.5269     0.0090     2.5115     0.0789   -41.6450    12.2692     8.0649     9.4219
  366.0000     8.0066   125.8444     0.0090     2.5147     0.0767   -41.5061    11.7304     7.9679     9.6814
  366.5000     8.0097   127.9008     0.0090     2.5088     0.0794   -41.7195    10.8309     7.8724     9.7436
  367.0000     8.0128   128.1908     0.0090     2.5031     0.0841   -42.0065    10.3777     7.7378     9.3842
  367.5000     8.0158   128.1769     0.0095     2.4974     0.0888   -41.8796    11.2923     7.7642     9.0262
  368.0000     8.0189   125.5359     0.0111     2.4915     0.0922   -41.7152    10.1096     7.8363     8.6819
  368.5000     8.0220   122.7613     0.0128     2.4894     0.0926   -41.5534    10.5896     7.8822     8.4072
  369.0000     8.0250   119.9832     0.0144     2.4896     0.0902   -41.3915    11.2449     7.8444     8.7509
  369.5000     8.0281   117.2114     0.0160     2.4968     0.0870   -41.2696    11.6269     7.7949     9.0549
  370.0000     8.0312   114.8419     0.0176     2.5044     0.0837   -41.6497    12.0451     7.7454     9.3694
  370.5000     8.0343   115.2429     0.0192     2.5104     0.0803   -42.0311    11.6329     7.6696     9.6947
  371.0000     8.0373   117.1311     0.0208     2.5097     0.0824   -41.9956    11.2268     7.8000     9.8785
  371.5000     8.0404   118.9764     0.0195     2.5042     0.0853   -41.9306    11.0274     7.9177     9.4533
  372.0000     8.0408   120.8194     0.0179     2.4985     0.0883   -41.8632    11.3945     8.0359     9.1264
  372.5000     8.0389   122.6603     0.0163     2.4926     0.0914   -41.9771    10.8851     8.1556     8.8108
  373.0000     8.0370   124.5020     0.0147     2.4923     0.0909   -42.1530    11.1023     8.2536     8.5637
  373.5000     8.0350   125.5908     0.0131     2.4939     0.0901   -42.1459    11.5024     8.0612     9.0483
  374.0000     8.0331   125.5819     0.0115     2.4954     0.0894   -41.7503    11.3046     7.9032     9.3908
  374.5000     8.0312   125.5204     0.0100     2.4957     0.0886   -41.7355    10.9795     7.7378     8.9985
  375.0000     8.0293   125.4517     0.0084     2.4926     0.0890   -41.8981    10.6639     7.6933     8.6830
  375.5000     8.0273   125.3878     0.0070     2.4894     0.0914   -42.0664    10.2977     7.6491     8.3785
  376.0000     8.0254   124.4108     0.0074     2.4861     0.0939   -42.2376    10.3476     7.6050     8.0285
  376.5000     8.0235   122.4414     0.0078     2.4830     0.0963   -42.0663    10.4102     7.5612     8.2226
  377.0000     8.0216   121.1712     0.0083     2.4850     0.0952   -41.8612    10.4731     7.5267     8.4704
  377.5000     8.0196   122.7415     0.0087     2.4876     0.0935   -42.1463    10.5364     7.3102     8.7231
  378.0000     8.0177   124.9498     0.0091     2.4891     0.0941   -42.4403    10.5865     7.1318     8.4333
  378.5000     8.0158   127.1665     0.0095     2.4906     0.0932   -42.2398     9.8713     6.9577     8.1559
  379.0000     8.0139   129.3811     0.0099     2.4920     0.0910   -42.0115     9.2192     6.7880     7.8877
  379.5000     8.0119   131.1329     0.0104     2.4935     0.0890   -41.8982     9.7098     6.6223     7.6285
  380.0000     8.0100   128.4761     0.0108     2.4953     0.0922   -42.1170    10.2032     6.4607     7.3792
  380.5000     8.0081   124.4642     0.0112     2.4985     0.0896   -42.4011     9.5174     6.3030     7.0596
  381.0000     8.0062   121.1361     0.0116     2.5014     0.0872   -42.1813     8.9895     6.1492     7.1385
  381.5000     8.0042   118.6960     0.0120     2.4966     0.0855   -42.1060     8.4910     6.0327     7.3276
  382.0000     8.0022   116.2811     0.0125     2.4909     0.0901   -42.2139     8.4072     6.0603     7.5962
  382.5000     8.0030   114.2045     0.0128     2.4926     0.0934   -42.3249     9.4655     6.0890     7.5026
  383.0000     8.0043   113.8142     0.0144     2.5042     0.0821   -42.4388    10.3871     6.1561     7.2542
  383.5000     8.0055   115.1920     0.0160     2.5155     0.0730   -42.3362     9.9447     6.2396     7.3534
  384.0000     8.0068   117.3884     0.0177     2.5238     0.0726   -42.2895     9.4227     6.3240     7.5875
  384.5000     8.0080   119.6041     0.0194     2.5191     0.0750   -42.4619     9.5449     6.4094     7.8291
  385.0000     8.0092   120.1511     0.0211     2.5147     0.0775   -42.6275     9.7936     6.4959     8.0787
  385.5000     8.0105   118.8734     0.0228     2.5106     0.0799   -42.8001    10.0482     6.5836     8.3364
  386.0000     8.0117   117.6014     0.0245     2.5128     0.0774   -42.7528    10.3094     6.7219     8.6432
  386.5000     8.0130   116.3266     0.0262     2.5152     0.0757   -42.6517    10.5773     6.8912     8.4847
  387.0000     8.0142   115.6179     0.0278     2.5176     0.0761   -42.8080    10.7836     7.0563     8.2435
  387.5000     8.0154   116.0575     0.0279     2.5198     0.0737   -42.5757    10.2032     7.0889     7.8836
  388.0000     8.0167   117.7495     0.0254     2.5176     0.0747   -42.2623    10.8834     7.1620     8.0199
  388.5000     8.0179   119.4976     0.0229     2.5079     0.0808   -42.5663    10.7576     7.2542     8.3291
  389.0000     8.0192   120.3054     0.0204     2.4983     0.0868   -42.5256    10.3931     7.2542     8.6520
  389.5000     8.0204   122.2920     0.0180     2.4886     0.0929   -42.3628    10.4175     7.2022     8.9677
  390.0000     8.0217   124.2669     0.0154     2.4880     0.0954   -42.1940    10.4711     7.1420     8.6697
  390.5000     8.0219   126.2845     0.0167     2.4923     0.0894   -42.0626    10.4894     7.0563     8.3522
  391.0000     8.0219   128.1342     0.0189     2.4896     0.0910   -42.3734    10.1986     6.9999     8.0464
  391.5000     8.0219   128.5727     0.0211     2.4876     0.0926   -42.6380     9.8714     6.8797     7.7517
  392.0000     8.0219   128.5319     0.0233     2.4934     0.0890   -42.5461     9.3908     6.7616     7.3214
  392.5000     8.0219   126.9736     0.0255     2.4995     0.0853   -42.4472     9.4651     6.5809     7.4405
  393.0000     8.0219   125.4238     0.0277     2.5055     0.0816   -42.5446     9.6254     6.2375     7.6339
  393.5000     8.0219   124.5008     0.0299     2.5105     0.0803   -42.6878     9.7436     5.9121     7.7378
  394.0000     8.0219   124.4903     0.0295     2.5027     0.0839   -42.8346     8.7231     5.6037     7.0685
  394.5000     8.0219   122.3631     0.0272     2.4946     0.0889   -42.7350     8.8522     5.3113     6.5768
  395.0000     8.0219   120.2416     0.0249     2.4867     0.0940   -42.7425     9.0508     5.0664     6.1223
  395.5000     8.0219   118.7984     0.0225     2.4787     0.0994   -43.1445     8.4312     4.9117     5.6978
  396.0000     8.0219   119.0160     0.0202     2.4707     0.1024   -43.0631     7.3740     4.7896     5.3024
  396.5000     8.0219   119.3783     0.0178     2.4626     0.1079   -42.8212     5.3009     4.7899     5.0168
  397.0000     8.0219   119.7937     0.0154     2.4548     0.1130   -42.6741     4.1049     4.7482     4.9708
  397.5000     8.0219   121.5208     0.0131     2.4538     0.1133   -42.8062     6.2726     4.7033     5.3010
  398.0000     8.0219   125.2783     0.0166     2.4752     0.0977   -42.9314     9.5669     4.8454     5.6068
  398.5000     8.0219   127.6796     0.0205     2.4986     0.0857   -43.0363     9.3644     4.9587     5.9302
  399.0000     8.0219   126.1942     0.0251     2.5182     0.0747   -42.9281     9.0841     5.2956     6.3422
  399.5000     8.0219   124.1623     0.0246     2.5083     0.0807   -42.8213     8.8825     5.6489     6.6311
  400.0000     8.0219   123.6973     0.0204     2.4980     0.0873   -42.7192     9.5095     6.0257     6.9331
  400.5000     8.0236   124.2292     0.0160     2.4878     0.0938   -42.7034     9.9659     6.4277     7.2489
