~VERSION INFORMATION
 VERS.                2.0:   CWLS LOG ASCII STANDARD - VERSION 2.0
 WRAP.                 NO:   ONE LINE PER DEPTH STEP
~WELL INFORMATION
#MNEM.UNIT      DATA TYPE    INFORMATION
#----------   ------------   ------------------------------
 STRT.F          700.0000:   START DEPTH
 STOP.F         2111.0000:   STOP DEPTH
 STEP.F            0.5000:   STEP LENGTH
 NULL.          -999.2500:   NO VALUE
 COMP. FENIX & SCISSON INC:   COMPANY
 WELL.    35 SAX 34 #3-34:   WELL
 FLD .             TEAPOT:   FIELD
 LOC .      S34 T39N R78W:   LOCATION
 CNTY.            NATRONA:   COUNTY
 STAT.            WYOMING:   STATE
 CTRY. UNITED STATES OF AMERICA:   COUNTRY
 SRVC.            Unknown:   SERVICE COMPANY
 DATE.        29-MAY-1978:   LOGDATE
 API .       490251061700:   API NUMBER
~CURVE INFORMATION
#MNEM.UNIT       API CODE    CURVE DESCRIPTION
#----------   ------------   ------------------------------
 DEPT.F                  :   
 CALD.IN     45 280 60 00:   CALIPER FROM DENSITY LOG
 GRD .GAPI   45 310 01 00:   GAMMA RAY FROM DENSITY LOG
 RHOB.G/C3   45 350 01 00:   BULK DENSITY
 DPHI.DEC    45 890 00 00:   DENSITY POROSITY
 CORR.G/C3   45 356 01 00:   DENSITY CORRECTION
~PARAMETER INFORMATION
#MNEM.UNIT          VALUE    DESCRIPTION
#----------   ------------   ------------------------------
 PD  .                 GL:   PERMANENT DATUM
 EPD .F              5105:   ELEVATION PERMANENT DATUM
 LMF .                 KB:   LOG MEASURED FROM
 DAPD.F                10:   FEET ABOVE PERMANENT DATUM
 DMF .                 KB:   DRILLING MEASURED FROM
 EKB .F              5115:   KELLING BUSHING
 EGL .F              5105:   GROUND LEVEL
 DATE.          5-29-1978:   RUN DATE
 RUN .                  1:   RUN NUMBER
 DD  .F              2111:   DEPTH DRILLER
 DL  .F              2118:   DEPTH LOGGER
 BLI .F              2110:   BOTTOM LOG INTERVAL
 TLI .F               720:   TOP LOG INTERVAL
 CS  .IN            9.625:   CASING SIZE
 CBD .F               711:   CASING BOTTOM DRILLER
 CBL .F               721:   CASING BOTTOM LOGGER
 BS  .IN             8.75:   BIT SIZE
 BSD .F              2111:   BIT SIZE AT DEPTH
 DFT .                OIL:   DRILLING FLUID TYPE
 TCS .HRS               1:   TIME CURCULATED STOPPED
 LUN .               2958:   LOGGING UNIT NUMBER
 LUL .               CASP:   LOGGING UNIT LOCATION
 ENGI.             MILLER:   RECORDING ENGINEER
 WITN.           MCGINLEY:   WITNESSED BY
 CLNT.            A2DTECH:   CLIENT CODE
 ORIG.           5" PRINT:   ORIGIN OF DATA
 UWI .       490251061700:   UNIQUE WELL ID
 DICO. A2D Technologies, Inc.:   DIGITIZING COMPANY
~OTHER INFORMATION
~A   DEPT     CALD         GRD      RHOB       DPHI       CORR   
# ...
 1981.0000     9.0338    94.2371     2.3867     0.0970     0.2238
 1981.5000     9.0339    94.7378     2.3877     0.0960     0.2293
 1982.0000     9.0339    96.6259     2.3942     0.0934     0.2349
 1982.5000     9.0339   100.5516     2.4007     0.1039     0.2405
 1983.0000     9.0339   102.7629     2.4009     0.1115     0.2425
 1983.5000     9.0339   107.4272     2.3897     0.1178     0.2437
 1984.0000     9.0339   112.5535     2.3753     0.1060     0.2449
 1984.5000     9.0339   114.5317     2.3682     0.0985     0.2461
 1985.0000     9.0339   114.8192     2.3828     0.0930     0.2473
 1985.5000     9.0339   115.8324     2.3937     0.0870     0.2485
 1986.0000     9.0180   118.5783     2.4018     0.0850     0.2485
 1986.5000     8.9881   121.3238     2.4156     0.0847     0.2403
 1987.0000     8.9583   121.3684     2.4174     0.0796     0.2321
 1987.5000     8.9353   117.7484     2.4214     0.0707     0.2253
 1988.0000     8.9457   111.8291     2.4286     0.0733     0.2250
 1988.5000     8.9555   101.6094     2.4325     0.0746     0.2246
 1989.0000     8.9652    97.2991     2.4320     0.0777     0.2241
 1989.5000     8.9749    96.7364     2.4316     0.0786     0.2238
 1990.0000     8.9845    99.0669     2.4305     0.0819     0.2193
 1990.5000     8.9942   102.1758     2.4246     0.0910     0.2132
 1991.0000     9.0039   102.8378     2.4174     0.0922     0.2069
 1991.5000     9.0137   103.1437     2.4101     0.0875     0.2056
 1992.0000     9.0193   102.3208     2.4103     0.0811     0.2101
 1992.5000     9.0247   100.7132     2.4164     0.0747     0.2181
 1993.0000     9.0302    99.0947     2.4243     0.0719     0.2261
 1993.5000     9.0357    97.4798     2.4323     0.0724     0.2341
 1994.0000     9.0412    96.1040     2.4364     0.0746     0.2412
 1994.5000     9.0467    95.6807     2.4345     0.0791     0.2351
 1995.0000     9.0526    92.9438     2.4320     0.0894     0.2289
 1995.5000     9.0534    89.0808     2.4270     0.0998     0.2228
 1996.0000     9.0124    85.1958     2.4053     0.1101     0.2174
 1996.5000     8.9670    81.7134     2.3834     0.1204     0.2201
 1997.0000     8.9219    81.0688     2.3770     0.1289     0.2276
 1997.5000     8.8951    80.0395     2.3617     0.1261     0.2335
 1998.0000     8.9298    80.2002     2.3532     0.1301     0.2324
 1998.5000     8.9656    82.3360     2.3495     0.1274     0.2316
 1999.0000     9.0014    84.1834     2.3486     0.1249     0.2342
 1999.5000     9.0331    85.6290     2.3477     0.1309     0.2367
 2000.0000     9.0182    88.6606     2.3468     0.1321     0.2393
 2000.5000     8.9961    91.6048     2.3458     0.1293     0.2418
 2001.0000     8.9801    94.6433     2.3447     0.1254     0.2456
 2001.5000     8.9642    95.4222     2.3463     0.1203     0.2517
 2002.0000     8.9548    92.5115     2.3537     0.1152     0.2579
 2002.5000     8.9872    85.8857     2.3640     0.1101     0.2640
 2003.0000     9.0214    85.1044     2.3723     0.1074     0.2675
 2003.5000     9.0532    86.5961     2.3779     0.1062     0.2674
 2004.0000     9.0541    87.9960     2.3809     0.1054     0.2637
 2004.5000     9.0530    88.9431     2.3826     0.1046     0.2559
 2005.0000     9.0351    89.1166     2.3843     0.0996     0.2481
 2005.5000     9.0174    92.3277     2.3867     0.0971     0.2412
 2006.0000     8.9998    96.2494     2.3930     0.0962     0.2405
 2006.5000     8.9822    92.9681     2.3993     0.0897     0.2396
 2007.0000     8.9649    89.6830     2.4030     0.0802     0.2425
 2007.5000     8.9593    89.6838     2.4059     0.0893     0.2464
 2008.0000     8.9894    89.9144     2.4147     0.1001     0.2426
 2008.5000     9.0189    89.8129     2.4119     0.1109     0.2352
 2009.0000     9.0485    85.3893     2.3865     0.1190     0.2337
 2009.5000     9.0780    79.9862     2.3756     0.1173     0.2415
 2010.0000     9.1077    81.5520     2.3667     0.1134     0.2502
 2010.5000     9.1344    83.5176     2.3672     0.1169     0.2553
 2011.0000     9.1269    79.2563     2.3686     0.1187     0.2545
 2011.5000     9.0758    75.6711     2.3666     0.1180     0.2538
 2012.0000     9.0245    75.1715     2.3641     0.1174     0.2518
 2012.5000     8.9760    75.1506     2.3634     0.1174     0.2493
 2013.0000     8.9889    75.3120     2.3630     0.1220     0.2467
 2013.5000     9.0044    78.2317     2.3624     0.1293     0.2394
 2014.0000     9.0195    83.1353     2.3549     0.1301     0.2280
 2014.5000     9.0387    87.9730     2.3432     0.1297     0.2165
 2015.0000     9.0516    88.5604     2.3428     0.1373     0.2075
 2015.5000     9.0503    83.5019     2.3424     0.1437     0.2088
 2016.0000     9.0483    78.9545     2.3340     0.1382     0.2146
 2016.5000     9.0463    78.0464     2.3291     0.1350     0.2377
 2017.0000     9.0444    88.2558     2.3353     0.1244     0.2604
 2017.5000     9.0425    89.7278     2.3412     0.1135     0.2617
 2018.0000     9.0406    86.1389     2.3510     0.1022     0.2596
 2018.5000     9.0387    82.1293     2.3643     0.1108     0.2531
 2019.0000     9.0368    79.3549     2.3776     0.1221     0.2309
 2019.5000     9.0348    77.2209     2.3771     0.1293     0.2075
 2020.0000     9.0297    75.0829     2.3553     0.1239     0.1996
 2020.5000     9.0212    72.8785     2.3517     0.1194     0.2070
 2021.0000     9.0128    71.9457     2.3529     0.1155     0.2319
 2021.5000     9.0043    72.4780     2.3624     0.1111     0.2385
 2022.0000     8.9955    73.3873     2.3676     0.1074     0.2390
 2022.5000     8.9985    73.5936     2.3714     0.1128     0.2370
 2023.0000     9.0041    71.0319     2.3730     0.1184     0.2352
 2023.5000     9.0097    67.9836     2.3690     0.1240     0.2333
 2024.0000     9.0117    66.2926     2.3624     0.1294     0.2316
 2024.5000     9.0005    66.3676     2.3558     0.1301     0.2315
 2025.0000     8.9899    69.9614     2.3491     0.1297     0.2318
 2025.5000     8.9791    73.5119     2.3468     0.1285     0.2354
 2026.0000     8.9742    77.0385     2.3447     0.1329     0.2294
 2026.5000     8.9741    80.5674     2.3448     0.1297     0.2305
 2027.0000     8.9741    84.0878     2.3449     0.1274     0.2318
 2027.5000     8.9741    87.0956     2.3462     0.1266     0.2331
 2028.0000     8.9742    87.4364     2.3476     0.1261     0.2334
 2028.5000     8.9741    86.8848     2.3490     0.1309     0.2326
 2029.0000     8.9661    85.8745     2.3488     0.1357     0.2317
 2029.5000     8.9286    85.4178     2.3434     0.1385     0.2366
 2030.0000     8.8923    82.5012     2.3359     0.1387     0.2438
 2030.5000     8.8560    82.3164     2.3308     0.1378     0.2510
 2031.0000     8.8196    82.3140     2.3309     0.1369     0.2560
 2031.5000     8.7827    81.5745     2.3309     0.1426     0.2574
 2032.0000     8.7306    79.2188     2.3306     0.1481     0.2527
 2032.5000     8.6534    84.8451     2.3262     0.1688     0.2468
 2033.0000     8.5759    87.8644     2.3024     0.1889     0.2415
 2033.5000     8.4983    87.6412     2.2738     0.2089     0.2445
 2034.0000     8.4344    87.3335     2.2452     0.2289     0.2628
 2034.5000     8.4373    86.8350     2.2221     0.2484     0.2977
 2035.0000     8.3594    82.9983     2.2052     0.2650     0.3213
 2035.5000     8.2517    76.9873     2.1590     0.2730     0.3455
 2036.0000     8.1531    72.9604     2.1228     0.2613     0.3697
 2036.5000     8.0835    68.8513     2.1250     0.2225     0.3848
 2037.0000     8.0528    64.7432     2.1298     0.1687     0.3861
 2037.5000     8.1566    60.6176     2.1603     0.1413     0.3979
 2038.0000     8.2761    57.4072     2.3356     0.1486     0.3696
 2038.5000     8.1866    57.4005     2.3261     0.1393     0.2830
 2039.0000     8.0736    56.5073     2.3279     0.1328     0.2740
 2039.5000     8.0595    54.4290     2.3347     0.1261     0.2344
 2040.0000     8.0893    53.6247     2.3415     0.1377     0.1766
 2040.5000     8.1193    63.9178     2.3473     0.1384     0.1148
 2041.0000     8.1504    74.2834     2.3392     0.1379     0.1015
 2041.5000     8.1952    75.4859     2.3338     0.1362     0.1019
