~VERSION INFORMATION
 VERS.                2.0:   CWLS LOG ASCII STANDARD - VERSION 2.0
 WRAP.                 NO:   ONE LINE PER DEPTH STEP
~WELL INFORMATION
#MNEM.UNIT      DATA TYPE    INFORMATION
#----------   ------------   ------------------------------
 STRT.F           36.0000:   START DEPTH
 STOP.F          592.0000:   STOP DEPTH
 STEP.F            0.5000:   STEP LENGTH
 NULL.          -999.2500:   NO VALUE
 COMP. FENIX & SCISSON INC:   COMPANY
 WELL.           S #35-10:   WELL
 FLD .              NPR-3:   FIELD
 LOC .      S10 T38N R78W:   LOCATION
 CNTY.            NATRONA:   COUNTY
 STAT.            WYOMING:   STATE
 CTRY. UNITED STATES OF AMERICA:   COUNTRY
 SRVC.              Welex:   SERVICE COMPANY
 DATE.        07-MAR-1977:   LOGDATE
 API .       490251029000:   API NUMBER
~CURVE INFORMATION
#MNEM.UNIT       API CODE    CURVE DESCRIPTION
#----------   ------------   ------------------------------
 DEPT.F                  :   
 SPR .MV     07 010 01 00:   SPONTANEOUS POTENTIAL
 ILM .OHMM   07 120 44 00:   INDUCTION LOG MEDIUM
 ILD .OHMM   07 120 46 00:   INDUCTION LOG DEEP
 SGRD.OHMM   07 220 05 00:   SHALLOW GUARD RESISTIVITY
 CALD.IN     45 280 60 00:   CALIPER FROM DENSITY LOG
 RHOB.G/C3   45 350 01 00:   BULK DENSITY
 CORR.G/C3   45 356 01 00:   DENSITY CORRECTION
 DPHI.DEC    45 890 12 00:   DENSITY POROSITY SANDSTONE
 GRD .GAPI   45 310 01 00:   GAMMA RAY FROM DENSITY LOG
~PARAMETER INFORMATION
#MNEM.UNIT          VALUE    DESCRIPTION
#----------   ------------   ------------------------------
 PD  .                 GL:   PERMANENT DATUM
 EPD .F              5234:   ELEVATION PERMANENT DATUM
 LMF .                 GL:   LOG MEASURED FROM
 DMF .                 GL:   DRILLING MEASURED FROM
 EGL .F              5234:   GROUND LEVEL
 DATE.             3-7-77:   RUN DATE
 RUN .                  1:   RUN NUMBER
 DD  .F               600:   DEPTH DRILLER
 DL  .F               593:   DEPTH LOGGER
 BLI .F               591:   BOTTOM LOG INTERVAL
 TLI .F                35:   TOP LOG INTERVAL
 CS  .IN            8.625:   CASING SIZE
 CBD .F                42:   CASING BOTTOM DRILLER
 CBL .F                42:   CASING BOTTOM LOGGER
 BS  .IN            7.875:   BIT SIZE
 BSD .F               600:   BIT SIZE AT DEPTH
 DFT .            KCL MUD:   DRILLING FLUID TYPE
 MSS .          FLOW LINE:   MUD SAMPLE SOURCE
 RMS .OHMM            .40:   RESISTIVITY MUD SAMPLE
 MST .F                58:   MUD SAMPLE TEMPERATURE
 RMF .OHMM            .33:   RESISTIVITY MUD FILTRATE SAMPLE
 MFST.F                58:   MUD FILTRATE SAMPLE TEMPERATURE
 RMC .OHMM            .44:   RESISTIVITY MUD CAKE
 MCST.F                58:   MUD CAKE SAMPLE TEMPERATURE
 MFSS.           FANN KIT:   MUD FILTRATE SAMPLE SOURCE
 MCSS.           FANN KIT:   MUD CAKE SAMPLE SOURCE
 RMB .OHMM            .31:   RESISTIVITY MUD AT BHT
 BHT .F                62:   BOTTOM HOLE TEMPERATURE
 TCS .HRS               3:   TIME CURCULATED STOPPED
 MRT .F                62:   MAXIMUM RECORDED TEMPERATURE
 LUN .               8611:   LOGGING UNIT NUMBER
 LUL .           GILLETTE:   LOGGING UNIT LOCATION
 ENGI.            C. DOAK:   RECORDING ENGINEER
 WITN.      L. STUEBINGER:   WITNESSED BY
 CLNT.            A2DTECH:   CLIENT CODE
 ORIG.        2" 5" PRINT:   ORIGIN OF DATA
 UWI .       490251029000:   UNIQUE WELL ID
 DICO. A2D Technologies, Inc.:   DIGITIZING COMPANY
~OTHER INFORMATION
~A   DEPT      SPR        ILM        ILD       SGRD         CALD       RHOB      CORR        DPHI       GRD  
# ...
  474.0000   -35.7565    12.4696    20.1802    18.0093     7.8191     2.4263     0.0650     0.1277    95.3839
  474.5000   -34.7598    11.5219    20.2771    17.9975     7.8191     2.4074     0.0669     0.1341    98.3112
  475.0000   -34.2432    10.8679    19.7946    16.3261     7.8191     2.3880     0.0639     0.1499   100.7574
  475.5000   -33.7246    10.4933    19.0159    13.0548     7.8191     2.3640     0.0613     0.1669   101.0883
  476.0000   -33.2083    10.5876    18.1734    14.7394     7.8148     2.3410     0.0568     0.1935    98.2336
  476.5000   -32.8459     9.9624    17.3237    16.8782     7.8067     2.3277     0.0562     0.1909    96.2021
  477.0000   -32.7148     8.9403    16.5136    14.5553     7.7986     2.3370     0.0642     0.1816    94.7629
  477.5000   -32.8450     7.5288    15.7425    12.1428     7.7905     2.3522     0.0721     0.1720    96.4746
  478.0000   -33.0081     9.4379    14.9962    14.3060     7.7819     2.3660     0.0801     0.1662    98.1451
  478.5000   -33.1710    11.6191    14.4029    18.6956     7.7572     2.3582     0.0805     0.1734    99.5933
  479.0000   -33.3332    12.3359    14.1642    18.6630     7.7403     2.3489     0.0749     0.1795    97.6262
  479.5000   -33.4954    12.9340    13.9421    18.8423     7.7357     2.3451     0.0695     0.1784    96.2065
  480.0000   -33.6636    13.3536    13.7248    14.0489     7.6904     2.3662     0.0649     0.1732    96.6983
  480.5000   -33.6617    13.7935    13.5395    15.2709     7.6555     2.3814     0.0617     0.1612    95.7076
  481.0000   -33.6139    13.7935    13.2921    16.7240     7.6222     2.3924     0.0593     0.1528    94.1463
  481.5000   -33.5651    13.7935    13.2716    14.8439     7.6580     2.3991     0.0586     0.1496    92.4887
  482.0000   -33.5168    13.7935    13.2511    16.4200     7.6990     2.3937     0.0580     0.1545    92.4518
  482.5000   -33.4685    13.7933    13.2306    15.7787     7.7398     2.3832     0.0567     0.1594    92.7189
  483.0000   -33.4199    13.7910    13.2102    15.2581     7.7785     2.3762     0.0547     0.1620    92.4795
  483.5000   -33.3719    13.7855    13.1898    17.6548     7.7799     2.3796     0.0528     0.1603    92.2398
  484.0000   -33.3233    14.0025    13.1716    16.6508     7.7774     2.3828     0.0489     0.1586    92.3119
  484.5000   -33.4977    14.3237    13.4487    14.8415     7.7302     2.3763     0.0452     0.1625    93.0646
  485.0000   -33.8803    14.6524    13.7567    16.2367     7.6891     2.3692     0.0414     0.1663    93.8585
  485.5000   -34.2638    14.9807    14.0758    17.3491     7.7194     2.3622     0.0377     0.1702    93.1889
  486.0000   -34.6477    15.6559    14.3940    17.1555     7.7374     2.3551     0.0345     0.1740    90.6136
  486.5000   -35.0312    16.2700    14.9978    17.0337     7.7185     2.3516     0.0313     0.1750    88.0521
  487.0000   -35.4147    16.5956    15.6554    21.5775     7.7004     2.3605     0.0281     0.1722    87.2725
  487.5000   -35.7983    17.0560    16.3448    25.7390     7.6996     2.3688     0.0258     0.1636    86.7565
  488.0000   -36.1819    17.5292    17.0337    20.2585     7.7062     2.3786     0.0304     0.1550    88.2370
  488.5000   -36.5677    18.0155    17.1907    17.7801     7.7166     2.3970     0.0357     0.1465    90.4557
  489.0000   -36.8443    18.1634    17.1907    33.6822     7.7271     2.4157     0.0443     0.1379    93.0378
  489.5000   -37.0657    17.6362    16.9623    29.8380     7.7376     2.4288     0.0534     0.1313    96.9073
  490.0000   -36.8702    17.2465    16.5452    22.4284     7.7482     2.4380     0.0562     0.1283   100.5031
  490.5000   -36.6522    16.7240    16.1383    17.1907     7.7590     2.4470     0.0586     0.1252   100.6159
  491.0000   -36.4363    16.0976    15.7414    16.3388     7.7596     2.4438     0.0615     0.1320    96.9235
  491.5000   -36.2209    15.4124    15.3542    15.6838     7.7594     2.4081     0.0534     0.1495    97.4875
  492.0000   -36.0056    15.1273    15.1103    17.3597     7.7588     2.3727     0.0451     0.1671    99.2822
  492.5000   -35.7902    14.9711    15.0881    18.8423     7.7377     2.3458     0.0368     0.1801    96.3551
  493.0000   -35.5748    14.9817    15.0659    17.1907     7.7267     2.3508     0.0382     0.1764    94.1822
  493.5000   -35.3593    14.9807    15.0437    18.1493     7.7143     2.3612     0.0410     0.1714    93.9320
  494.0000   -35.1435    14.8439    15.0215    19.3680     7.7015     2.3672     0.0438     0.1673    94.4234
  494.5000   -34.9252    14.5740    14.9994    16.2700     7.6889     2.3637     0.0447     0.1686    96.4741
  495.0000   -34.8895    14.3091    14.9773    18.4997     7.6762     2.3675     0.0413     0.1677    98.5200
  495.5000   -34.8910    13.8701    14.9553    17.6768     7.6630     2.3619     0.0379     0.1706   100.6022
  496.0000   -34.9836    13.2966    14.9332    16.8782     7.6600     2.3549     0.0346     0.1751   102.0840
  496.5000   -35.2751    13.4191    14.9113    19.4081     7.6600     2.3514     0.0316     0.1761   101.2998
  497.0000   -35.5628    12.9459    14.8893    17.6852     7.6599     2.3580     0.0338     0.1734    98.4654
  497.5000   -35.8380    12.6018    14.8673    19.2646     7.6813     2.3643     0.0363     0.1693    97.1192
  498.0000   -36.3277    12.2429    14.8439    18.5283     7.7169     2.3707     0.0389     0.1654    98.4790
  498.5000   -36.8306    12.2429    14.7788    16.4935     7.7526     2.3732     0.0414     0.1641   100.6608
  499.0000   -37.3338    12.2429    14.6908    15.4079     7.7817     2.3725     0.0384     0.1654   102.8568
  499.5000   -37.8363    12.1650    14.6029    16.7394     7.7892     2.3722     0.0338     0.1645   104.8896
  500.0000   -38.3378    11.8526    14.5165    17.8332     7.7973     2.3773     0.0350     0.1617   104.9658
  500.5000   -38.8408    11.5872    14.4412    17.7415     7.7992     2.3898     0.0403     0.1467   102.0964
  501.0000   -39.2526    11.4814    14.6472    17.5658     7.7959     2.4195     0.0453     0.1346    98.4773
  501.5000   -39.5987    11.4389    14.8322    17.3858     7.7901     2.4523     0.0503     0.1237    93.6354
  502.0000   -39.8860    11.2240    15.0196    17.0381     7.7843     2.4592     0.0553     0.1129    88.8102
  502.5000   -40.1622    11.0130    15.2094    17.5529     7.7791     2.4566     0.0605     0.1129    83.8691
  503.0000   -40.4454    10.8665    15.4015    18.6670     7.7736     2.4538     0.0623     0.1140    81.2159
  503.5000   -40.5774    10.9667    15.5961    22.5740     7.7676     2.4648     0.0633     0.1100    80.2853
  504.0000   -40.7050    11.5975    15.6862    29.9752     7.7615     2.4761     0.0671     0.1031    84.0424
  504.5000   -40.8381    15.2825    15.5762    45.8762     7.7555     2.4874     0.0634     0.0962    88.4854
  505.0000   -40.7378    19.7067    15.4851    43.2074     7.7495     2.4988     0.0593     0.0893    92.9741
  505.5000   -40.5956    16.8668    15.3987    40.3470     7.7435     2.5048     0.0592     0.0843    97.4412
  506.0000   -40.4529    14.7261    15.0168    30.7780     7.7375     2.5071     0.0617     0.0835    99.7624
  506.5000   -40.3103    13.6159    14.5373    22.6129     7.7314     2.5032     0.0627     0.0855    96.2950
  507.0000   -40.1686    12.9420    14.0731    17.2692     7.7252     2.4776     0.0584     0.0963    95.4462
  507.5000   -40.0670    14.2534    13.6238    15.9596     7.7210     2.4457     0.0543     0.1141    98.0322
  508.0000   -40.1198    15.2581    13.3571    16.4480     7.7509     2.4135     0.0502     0.1271   100.7671
  508.5000   -40.1690    15.4861    13.2139    16.8770     7.7800     2.3925     0.0461     0.1388   103.5207
  509.0000   -40.2181    15.6838    13.0723    16.5234     7.7841     2.4006     0.0472     0.1411   103.8366
  509.5000   -40.2672    15.4379    12.9321    16.2492     7.7798     2.4102     0.0488     0.1394   103.1622
  510.0000   -40.3162    15.2453    12.8175    15.9723     7.8064     2.4198     0.0505     0.1381   103.6526
