~VERSION INFORMATION
 VERS.                2.0:   CWLS LOG ASCII STANDARD - VERSION 2.0
 WRAP.                 NO:   ONE LINE PER DEPTH STEP
~WELL INFORMATION
#MNEM.UNIT      DATA TYPE    INFORMATION
#----------   ------------   ------------------------------
 STRT.F           30.0000:   START DEPTH
 STOP.F          500.0000:   STOP DEPTH
 STEP.F            0.5000:   STEP LENGTH
 NULL.          -999.2500:   NO VALUE
 COMP. FENIX & SCISSON INC:   COMPANY
 WELL.     3-FI #55-45 SX:   WELL
 FLD .             TEAPOT:   FIELD
 LOC .       S3 T38N R78W:   LOCATION
 CNTY.            NATRONA:   COUNTY
 STAT.            WYOMING:   STATE
 CTRY. UNITED STATES OF AMERICA:   COUNTRY
 SRVC.              Welex:   SERVICE COMPANY
 DATE.        16-MAY-1980:   LOGDATE
 API .       490251082700:   API NUMBER
~CURVE INFORMATION
#MNEM.UNIT       API CODE    CURVE DESCRIPTION
#----------   ------------   ------------------------------
 DEPT.F                  :   
 SPR .MV     07 010 01 00:   SPONTANEOUS POTENTIAL
 GURD.OHMM   07 220 05 00:   GUARD RESISTIVITY
 CALD.IN     45 280 60 00:   CALIPER
 GRD .GAPI   45 310 01 00:   GAMMA RAY FROM DENSITY LOG
 RHOB.G/C3   45 350 01 00:   BULK DENSITY
 CORR.G/C3   45 356 01 00:   DENSITY CORRECTION
 NPHI.DEC    42 890 03 00:   NEUTRON POROSITY SANDSTONE
 DPHI.DEC    45 890 12 00:   DENSITY POROSITY SANDSTONE
 ILD .OHMM   07 120 46 00:   INDUCTION LOG DEEP
 ILM .OHMM   07 120 44 00:   INDUCTION LOG MEDIUM
~PARAMETER INFORMATION
#MNEM.UNIT          VALUE    DESCRIPTION
#----------   ------------   ------------------------------
 PD  .                 GL:   PERMANENT DATUM
 EPD .F              5167:   ELEVATION PERMANENT DATUM
 LMF .                 KB:   LOG MEASURED FROM
 DAPD.F                 5:   FEET ABOVE PERMANENT DATUM
 DMF .                 KB:   DRILLING MEASURED FROM
 EKB .F              5172:   KELLING BUSHING
 EGL .F              5167:   GROUND LEVEL
 DATE.            5-16-80:   RUN DATE
 RUN .                  1:   RUN NUMBER
 DD  .F               483:   DEPTH DRILLER
 DL  .F               496:   DEPTH LOGGER
 BLI .F               494:   BOTTOM LOG INTERVAL
 TLI .F                35:   TOP LOG INTERVAL
 BS  .IN             9.75:   BIT SIZE
 BSD .F               483:   BIT SIZE AT DEPTH
 DFT .            KCL MUD:   DRILLING FLUID TYPE
 DFD .                9.5:   DRILLING FLUID DENSITY
 DFV .                 45:   DRILLING FLUID VISCOSITY
 DFL .                7.5:   DRILLING FLUID LOSS
 MSS .            MUD PIT:   MUD SAMPLE SOURCE
 RMS .OHMM            .29:   RESISTIVITY MUD SAMPLE
 MST .F                75:   MUD SAMPLE TEMPERATURE
 RMF .OHMM            .23:   RESISTIVITY MUD FILTRATE SAMPLE
 MFST.F                75:   MUD FILTRATE SAMPLE TEMPERATURE
 RMC .OHMM            .35:   RESISTIVITY MUD CAKE
 MCST.F                75:   MUD CAKE SAMPLE TEMPERATURE
 MFSS.           MEASURED:   MUD FILTRATE SAMPLE SOURCE
 MCSS.           MEASURED:   MUD CAKE SAMPLE SOURCE
 TCS .HRS               2:   TIME CURCULATED STOPPED
 LUN .               9685:   LOGGING UNIT NUMBER
 LUL .             CASPER:   LOGGING UNIT LOCATION
 ENGI.            TOTHILL:   RECORDING ENGINEER
 WITN.              AMEND:   WITNESSED BY
 CLNT.            A2DTECH:   CLIENT CODE
 ORIG.           5" PRINT:   ORIGIN OF DATA
 UWI .       490251082700:   UNIQUE WELL ID
 DICO. A2D Technologies, Inc.:   DIGITIZING COMPANY
~OTHER INFORMATION
~A   DEPT      SPR         GURD     CALD        GRD       RHOB       CORR         NPHI       DPHI        ILD        ILM 
# ...
  264.5000   -50.6887     7.1301    10.3051    94.3616     2.4328     0.0013     0.2884     0.1503     4.2909     6.4894
  265.0000   -50.5202     7.2399    10.3040    93.6792     2.4294     0.0009     0.2877     0.1602     4.5819     6.7196
  265.5000   -50.3510     7.2399    10.3028    93.0026     2.4097    -0.0081     0.2911     0.1561     4.8920     6.8461
  266.0000   -50.1838     7.1710    10.3017    92.3116     2.4063    -0.0127     0.2906     0.1513     5.2229     6.8756
  266.5000   -50.0139     7.0617    10.3005    91.0759     2.4189    -0.0027     0.2879     0.1495     5.5767     6.9045
  267.0000   -49.8437     6.9542    10.2994    88.0182     2.4253     0.0086     0.2838     0.1544     5.6415     6.9334
  267.5000   -49.6844     6.8461    10.2993    85.0757     2.4193     0.0090     0.2779     0.1578     5.7068     6.9625
  268.0000   -49.4914     7.2550    10.3164    82.1393     2.4112     0.0014     0.2680     0.1526     5.7729     6.9749
  268.5000   -49.3664     7.6975    10.3108    79.2016     2.4147     0.0145     0.2579     0.1563     5.9961     7.3847
  269.0000   -48.8853     8.0969    10.3029    76.2639     2.4186     0.0274     0.2523     0.1594     6.1215     7.7652
  269.5000   -48.3513     9.8095    10.2953    73.3246     2.4114     0.0283     0.2501     0.1626     6.6486     8.1652
  270.0000   -47.8040    11.5977    10.2878    70.3969     2.4038     0.0296     0.2491     0.1529     7.1455     8.5859
  270.5000   -47.2711    13.7120    10.2803    67.4445     2.4133     0.0461     0.2543     0.1455     7.6796     8.9520
  271.0000   -46.7259    17.0688    10.2728    65.9878     2.4286     0.0808     0.2563     0.1762     8.2535     9.1605
  271.5000   -46.1948    14.6468    10.2653    66.1391     2.3928     0.0587     0.2624     0.1895     8.8704     9.3739
  272.0000   -45.6503    10.9112    10.2576    68.9404     2.3603     0.0466     0.2684     0.2080     9.5334     9.7033
  272.5000   -45.0978    11.6036    10.2824    71.4709     2.3509     0.0658     0.2711     0.2304    10.2460     9.3993
  273.0000   -44.6664    12.7231    10.3299    71.3544     2.3117     0.0714     0.2622     0.2547    11.0118     9.4274
  273.5000   -44.2588    13.9506    10.3768    70.3804     2.2576     0.0353     0.2580     0.2603    11.9773     9.4896
  274.0000   -44.0829    14.7037    10.4195    69.4440     2.2452     0.0085     0.2742     0.2543    12.3786     9.5522
  274.5000   -43.9911    14.7037    10.3849    68.5148     2.2278    -0.0018     0.2675     0.2615    12.8931     9.6153
  275.0000   -43.9150    15.1364    10.3161    67.5859     2.2151    -0.0059     0.2583     0.2607    13.4298     9.6787
  275.5000   -43.8251    16.2605    10.2479    66.6564     2.2335     0.0059     0.2559     0.2551    13.9885     9.7426
  276.0000   -43.6957    17.4681    10.1795    65.7392     2.2430     0.0173     0.2564     0.2535    14.5692     9.9400
  276.5000   -43.4012    18.7653    10.1164    65.0702     2.2506     0.0274     0.2592     0.2489    15.1729    10.3150
  277.0000   -43.1179    19.0892    10.1179    65.3117     2.2433     0.0208     0.2553     0.2439    15.8008    10.3099
  277.5000   -42.8307    19.0892    10.1170    66.2523     2.2467     0.0169     0.2568     0.2384    16.4545    10.2999
  278.0000   -42.5433    19.8845    10.1146    67.1560     2.2682     0.0441     0.2582     0.2456    17.1331    10.2898
  278.5000   -42.2569    21.0119    10.1123    68.0451     2.2829     0.0630     0.2599     0.2534    17.8417    10.2797
  279.0000   -41.9700    22.2040    10.1099    68.7026     2.2630     0.0373     0.2629     0.2571    18.0508    10.2696
  279.5000   -41.6826    23.8982    10.1075    68.5873     2.2471     0.0168     0.2680     0.2396    18.0508    10.2596
  280.0000   -41.3957    23.6516    10.1051    68.4761     2.2463     0.0195     0.2712     0.2263    18.0508    10.2495
  280.5000   -41.1106    21.4525    10.1027    68.4354     2.2747     0.0321     0.2715     0.2125    18.0508    10.2395
  281.0000   -40.8184    19.4597    10.1003    69.4156     2.2961     0.0444     0.2715     0.2081    18.0508    10.2295
  281.5000   -40.5405    17.0688    10.0981    70.3679     2.3177     0.0555     0.2689     0.2033    17.7859    10.2194
  282.0000   -40.2218    17.5682    10.0982    71.3126     2.3271     0.0502     0.2689     0.1919    17.2104    10.2094
  282.5000   -40.0678    19.8144    10.0978    72.2561     2.3360     0.0544     0.2651     0.1832    16.6535    10.1995
  283.0000   -39.8853    17.0688    10.0962    73.1999     2.3565     0.0684     0.2634     0.1786    16.1146    10.1895
  283.5000   -39.7971    17.2271    10.0948    74.1442     2.3720     0.0825     0.2607     0.1754    15.5931    10.1797
  284.0000   -39.8800    17.6284    10.0933    75.0846     2.3843     0.0850     0.2555     0.1875    14.9943    10.1695
  284.5000   -39.9541    15.5496    10.0918    76.0318     2.3839     0.0635     0.2514     0.1929    15.0190    10.1596
  285.0000   -40.0334    15.5496    10.0903    76.4926     2.3528     0.0345     0.2481     0.1713    15.0685    10.1504
  285.5000   -40.1117    18.5558    10.0888    76.5900     2.3679     0.0286     0.2443     0.1659    15.1165    10.1396
  286.0000   -40.1893    25.2490    10.0873    76.7116     2.4048     0.0531     0.2420     0.1738    15.1661    10.1297
  286.5000   -40.2677    23.6258    10.0858    76.8332     2.3936     0.0414     0.2482     0.1881    15.2161    10.0225
  287.0000   -40.3456    19.2924    10.0843    76.9557     2.3750     0.0329     0.2560     0.2024    15.2607     9.8814
  287.5000   -40.4237    16.5209    10.0828    77.0780     2.3563     0.0302     0.2639     0.2065    15.1535     9.7424
  288.0000   -40.5017    16.1403    10.0813    77.2003     2.3375     0.0258     0.2663     0.2096    15.0580     9.6053
  288.5000   -40.5798    16.1403    10.0798    77.3227     2.3281     0.0274     0.2647     0.2171    14.9630     9.3993
  289.0000   -40.6575    16.1403    10.0782    77.4450     2.3246     0.0267     0.2620     0.2247    14.8686     9.4673
  289.5000   -40.7358    16.1403    10.0781    77.5673     2.3122     0.0154     0.2623     0.2261    14.7746     9.5679
  290.0000   -40.8140    16.1403    10.0810    77.6897     2.2998     0.0038     0.2608     0.2252    14.6810     9.5453
  290.5000   -40.8904    15.9058    10.0843    77.8120     2.3001     0.0140     0.2599     0.2117    14.5881     9.5229
  291.0000   -40.9720    15.5438    10.0875    77.9344     2.3009     0.0201     0.2632     0.1984    14.4957     9.5004
  291.5000   -41.0033    14.9804    10.0907    78.0567     2.3106     0.0223     0.2672     0.1878    14.4039     9.4777
  292.0000   -41.0600    15.2623    10.0940    78.1790     2.3482     0.0426     0.2658     0.1841    14.3127     9.4550
  292.5000   -41.1359    15.7943    10.0977    78.3016     2.3660     0.0444     0.2639     0.1748    14.2221     9.4322
  293.0000   -41.2133    16.3493    10.1137    78.4245     2.3644     0.0468     0.2660     0.1762    14.0800     9.4093
  293.5000   -41.2900    16.9192    10.1449    78.5449     2.3835     0.0495     0.2679     0.1770    13.8530     9.3865
  294.0000   -41.3585    16.4842    10.1759    78.5076     2.3772     0.0418     0.2675     0.1773    13.6297     9.3638
  294.5000   -41.4997    15.7431    10.2070    78.1050     2.3810     0.0341     0.2657     0.1749    13.4099     9.3411
  295.0000   -41.7049    15.0345    10.2382    77.7183     2.3763     0.0341     0.2632     0.1697    13.1937     9.3186
  295.5000   -41.9023    14.7023    10.2706    77.3318     2.3901     0.0457     0.2607     0.1664    12.9810     9.2962
  296.0000   -42.0984    15.0288    10.2780    76.9450     2.3981     0.0571     0.2624     0.1707    12.7718     9.2741
  296.5000   -42.2959    15.3301    10.2509    76.5582     2.4025     0.0479     0.2581     0.1794    12.5714     9.2522
  297.0000   -42.5008    15.5197    10.1922    76.1756     2.3770     0.0372     0.2507     0.1786    12.3799     9.2271
  297.5000   -42.6432    15.3981    10.1989    75.8864     2.3765     0.0289     0.2422     0.1757    12.2022     9.2600
