~VERSION INFORMATION
 VERS.                2.0:   CWLS LOG ASCII STANDARD - VERSION 2.0
 WRAP.                 NO:   ONE LINE PER DEPTH STEP
~WELL INFORMATION
#MNEM.UNIT      DATA TYPE    INFORMATION
#----------   ------------   ------------------------------
 STRT.F          100.0000:   START DEPTH
 STOP.F          780.0000:   STOP DEPTH
 STEP.F            0.5000:   STEP LENGTH
 NULL.          -999.2500:   NO VALUE
 COMP. U S NAVY-INTEX OIL:   COMPANY
 WELL.        NPR #34-S-2:   WELL
 FLD .             TEAPOT:   FIELD
 LOC .       S2 T38N R78W:   LOCATION
 CNTY.            NATRONA:   COUNTY
 STAT.            WYOMING:   STATE
 CTRY. UNITED STATES OF AMERICA:   COUNTRY
 SRVC.       Schlumberger:   SERVICE COMPANY
 DATE.        16-JUL-1962:   LOGDATE
 API .       490250644000:   API NUMBER
~CURVE INFORMATION
#MNEM.UNIT       API CODE    CURVE DESCRIPTION
#----------   ------------   ------------------------------
 DEPT.F                  :   
 ASN .OHMM   05 041 16 00:   AMPLIFIED SHORT NORMAL 16"
 CILD.MMHO   05 110 46 00:   CONDUCTIVITY INDUCTION LOG DEEP
 ILD .OHMM   05 120 46 00:   INDUCTION LOG DEEP
 SPR .MV     05 010 01 00:   SPONTANEOUS POTENTIAL FROM RES.
 CALM.IN     15 280 01 00:   CALIPER FROM MICRO LOG
 GR  .GAPI   30 310 01 00:   GAMMA RAY
~PARAMETER INFORMATION
#MNEM.UNIT          VALUE    DESCRIPTION
#----------   ------------   ------------------------------
 LMF .                 KB:   LOG MEASURED FROM
 DMF .                 KB:   DRILLING MEASURED FROM
 EKB .F              5130:   KELLING BUSHING
 EGL .F              5125:   GROUND LEVEL
 DATE.        16-JUL-1962:   RUN DATE
 RUN .                  1:   RUN NUMBER
 DD  .F               780:   DEPTH DRILLER
 DL  .F               781:   DEPTH LOGGER
 BLI .F               780:   BOTTOM LOG INTERVAL
 TLI .F               100:   TOP LOG INTERVAL
 CBD .F                10:   CASING BOTTOM DRILLER
 BS  .IN             6.75:   BIT SIZE
 BSD .F               780:   BIT SIZE AT DEPTH
 DFT .       OIL EMULSION:   DRILLING FLUID TYPE
 DFD .               10.3:   DRILLING FLUID DENSITY
 DFV .                 43:   DRILLING FLUID VISCOSITY
 DFL .                4.6:   DRILLING FLUID LOSS
 RMS .OHMM              4:   RESISTIVITY MUD SAMPLE
 MST .F                82:   MUD SAMPLE TEMPERATURE
 RMF .OHMM            3.1:   RESISTIVITY MUD FILTRATE SAMPLE
 MFST.F                82:   MUD FILTRATE SAMPLE TEMPERATURE
 RMC .OHMM            4.3:   RESISTIVITY MUD CAKE
 MCST.F                82:   MUD CAKE SAMPLE TEMPERATURE
 TCS .HRS             0.5:   TIME CURCULATED STOPPED
 LUN .               2503:   LOGGING UNIT NUMBER
 LUL .               CSPR:   LOGGING UNIT LOCATION
 ENGI.           ELLERMAN:   RECORDING ENGINEER
 WITN.          JORGENSON:   WITNESSED BY
 CLNT.            A2DTECH:   CLIENT CODE
 ORIG.           5" PRINT:   ORIGIN OF DATA
 UWI .       490250644000:   UNIQUE WELL ID
 DICO. A2D Technologies, Inc.:   DIGITIZING COMPANY
~OTHER INFORMATION
~A   DEPT       ASN       CILD         ILD      SPR       CALM         GR   
# ...
  620.0000     8.0279   130.9880     8.2405   -43.2730     6.5642   130.1055
  620.5000     7.9399   129.4910     8.3151   -42.6734     6.5645   127.2383
  621.0000     7.9247   124.2515     8.3142   -42.2226     6.5797   124.0694
  621.5000     8.1037   119.0120     8.3134   -42.2182     6.5800   127.6302
  622.0000     8.4024   117.5150     8.2375   -42.2138     6.5803   117.0076
  622.5000     8.5067   122.7545     8.0864   -42.2094     6.5657   107.6241
  623.0000     8.5214   133.4341     7.7097   -42.2050     6.5660    83.9424
  623.5000     8.4762   149.1034     6.7315   -42.2006     6.5663    96.0073
  624.0000     8.3414   187.8743     5.9789   -42.3452     6.5666    96.7603
  624.5000     7.4442   204.3413     5.7526   -42.1919     6.5650   103.8475
  625.0000     6.6816   205.0898     5.5263   -42.1875     6.5522   111.9908
  625.5000     6.0172   200.5988     5.6008   -42.0342     6.5376   126.3181
  626.0000     6.1110   197.6048     5.5138   -41.5616     6.5230   128.7299
  626.5000     6.2024   196.8563     5.2984   -40.2387     6.5233   133.1024
  627.0000     6.1423   196.1078     5.2224   -40.6808     6.5086   122.0904
  627.5000     6.6352   189.3713     5.5224   -41.4204     6.4940   106.5535
  628.0000     7.8607   173.6527     6.0480   -41.9286     6.4944    93.1281
  628.5000     9.0861   142.2156     7.0247   -42.6021     6.4947    99.6124
  629.0000     9.5940   114.5210     8.6781   -43.1930     6.4950    96.4434
  629.5000     9.8329   103.2934     9.3541   -43.7839     6.5102    87.0890
  630.0000     9.9303    95.0599     9.8797   -44.3747     6.5105    87.2585
  630.5000    10.0714    94.3114     9.8789   -44.9656     6.5257   108.5195
  631.0000    10.2206    98.9020     9.7278   -45.4076     6.5110   107.0376
  631.5000    10.2951   102.5449     9.5015   -45.5521     6.4964   116.9488
  632.0000    10.3694   103.2934     9.5759   -45.5437     6.4967   108.9530
  632.5000    10.4439   102.5449     9.7256   -45.3943     6.4970   111.2139
  633.0000    10.6678   101.0479     9.8882   -45.3899     6.5122   106.3859
  633.5000    10.9665    96.5569    10.3254   -45.3846     6.5125   106.2340
  634.0000    11.6388    92.0659    10.7006   -45.5301     6.5427   110.3045
  634.5000    13.0586    84.5808    11.1510   -45.8223     6.5430    97.3317
  635.0000    14.1794    76.3473    11.8270   -46.1155     6.5284    65.9576
  635.5000    15.4496    69.6108    12.7285   -46.7063     6.4988    45.8958
  636.0000    16.5704    62.1257    13.5548   -47.4460     6.4824    46.0455
  636.5000    17.8407    53.1437    15.3586   -48.9297     6.4546    45.7420
  637.0000    19.2157    45.6587    17.0120   -50.4134     6.4251    20.7028
  637.5000    20.9043    38.9222    20.6955   -51.4507     6.4104     8.3333
  638.0000    24.4167    34.3813    22.9504   -53.5297     6.4108    13.9125
  638.5000    25.6869    33.6826    23.2504   -55.3110     6.4111    31.0003
  639.0000    25.3130    35.9281    23.0912   -56.6617     6.4114    33.3796
  639.5000    24.0421    39.6707    21.5185   -58.2238     6.4266    33.8391
  640.0000    22.9955    41.9162    20.2405   -60.9515     6.4269    33.3632
  640.5000    22.3225    43.4132    20.0142   -60.9471     6.4597    21.2953
  641.0000    22.7707    44.1617    19.9382   -59.7523     6.5021    29.2878
  641.5000    23.2188    44.1617    19.9375   -57.9622     6.5323    31.3980
  642.0000    24.5638    44.1617    20.0121   -56.4697     6.5475    29.7373
  642.5000    25.2387    42.6647    20.3871   -55.5724     6.5627    33.9591
  643.0000    25.3106    40.4192    21.1383   -54.9728     6.5780    38.7845
  643.5000    25.5345    38.1737    22.0398   -54.3732     6.5932    32.7495
  644.0000    27.5521    36.6766    22.4902   -54.2200     6.5785    28.9772
  644.5000    29.7940    33.6826    22.7902   -56.0013     6.5638    31.9924
  645.0000    30.6905    30.6886    23.2406   -58.9731     6.5343    13.2880
  645.5000    31.2882    27.6946    24.0679   -65.0699     6.5047    23.8446
  646.0000    31.6616    27.6946    25.3624   -64.6071     6.4752    20.3740
  646.5000    31.9602    29.1916    28.1256   -63.5045     6.5054    19.9180
  647.0000    32.1094    29.1916    27.2976   -61.1867     6.4908    39.5264
  647.5000    32.5575    29.1916    26.5450   -59.2477     6.4463    47.5415
  648.0000    33.6036    29.1916    26.3187   -60.8803     6.4466    46.7534
  648.5000    33.9825    28.4431    26.6939   -62.6616     6.4767    34.0456
  649.0000    33.9767    27.6946    27.8210   -63.6989     6.4919    29.1128
  649.5000    33.7521    26.9461    28.7977   -63.0993     6.5072    24.8881
  650.0000    33.5276    26.1976    28.6466   -62.4996     6.5224    25.3391
  650.5000    33.3778    26.1976    28.1947   -62.7929     6.5376    25.9409
  651.0000    33.3029    25.4491    28.0436   -64.1278     6.5379    24.8837
  651.5000    33.6762    25.4491    28.1180   -65.1652     6.5531    17.1899
  652.0000    33.5264    24.7006    28.3428   -64.7142     6.5385    24.6033
  652.5000    32.9283    24.7006    28.7181   -63.9559     6.5239    30.9502
  653.0000    33.3764    25.4491    29.1683   -63.0366     6.5092    31.6077
  653.5000    33.9740    26.1976    29.9195   -63.1176     6.4946    38.6449
  654.0000    33.0749    27.6946    30.1445   -64.3980     6.4950    36.9902
  654.5000    32.5449    29.9401    29.8428   -64.2448     6.4803    27.0399
  655.0000    32.1793    32.1856    29.0150   -64.2404     6.4507    22.3687
  655.5000    31.9548    33.6826    27.8865   -64.8313     6.4212    23.1272
  656.0000    29.4881    34.4311    26.3068   -64.6781     6.4215    26.2980
  656.5000    27.2795    33.6826    25.4790   -63.6320     6.4367    19.3643
  657.0000    26.4574    33.3158    25.7038   -61.8419     6.4967    31.4362
  657.5000    26.8385    32.9341    25.7782   -59.9030     6.5269    45.6186
  658.0000    27.3543    33.6826    24.5743   -55.7558     6.5570    49.9971
  658.5000    26.6816    36.6766    22.9946   -53.6695     6.5722    56.6380
  659.0000    25.7848    39.1168    21.7909   -52.3274     6.5725    41.5438
  659.5000    24.9626    42.6647    21.1135   -50.9718     6.5878    20.7330
  660.0000    24.0658    44.9102    20.8872   -50.8335     6.6030    29.9556
  660.5000    23.2436    47.1557    20.7360   -52.1691     6.5884    35.3888
  661.0000    22.2720    49.4012    20.5849   -53.5055     6.5887    25.7413
  661.5000    20.7773    51.6467    20.0579   -54.8419     6.5740    21.0689
  662.0000    20.1794    53.1437    18.9293   -55.8807     6.5744    16.2479
  662.5000    19.8804    53.8922    17.1930   -56.3242     6.5747    24.3971
  663.0000    19.6562    53.1437    16.9729   -56.7678     6.5750    29.3790
  663.5000    19.4320    52.3952    17.1976   -57.0625     6.5603    28.7801
  664.0000    19.3573    51.6467    17.3472   -57.2084     6.5456    34.2144
  664.5000    19.2055    51.6467    17.4219   -57.0560     6.5161    33.6155
  665.0000    19.0508    51.5720    17.4963   -56.7554     6.4866    36.4857
  665.5000    18.9088    51.6467    17.5708   -57.0502     6.4719    40.0115
  666.0000    18.9088    51.6467    17.5699   -57.7913     6.4573    45.7496
  666.5000    18.9088    51.6467    17.6444   -58.0868     6.4725    41.1759
  667.0000    18.9836    51.6467    17.6436   -57.7855     6.4878    32.5819
  667.5000    19.0583    51.6467    17.7180   -57.1874     6.5180    36.6598
  668.0000    19.1330    51.6467    17.7173   -56.7381     6.5481    45.1107
  668.5000    19.0583    51.6467    17.7165   -56.8944     6.5783    41.3433
  669.0000    18.8341    52.3952    17.6406   -57.0299     6.5785    61.5600
  669.5000    18.6099    52.3952    17.5645   -56.5798     6.5788    63.5253
  670.0000    18.3109    52.8443    17.4886   -56.2793     6.5941    66.3955
  670.5000    18.0120    53.1437    17.4127   -55.9788     6.5794    55.9927
  671.0000    17.7130    53.8922    17.1864   -55.9759     6.5797    52.1240
  671.5000    17.5635    54.0812    17.0353   -55.5266     6.5651    55.5709
