~VERSION INFORMATION
 VERS.                2.0:   CWLS LOG ASCII STANDARD - VERSION 2.0
 WRAP.                 NO:   ONE LINE PER DEPTH STEP
~WELL INFORMATION
#MNEM.UNIT      DATA TYPE    INFORMATION
#----------   ------------   ------------------------------
 STRT.F            2.5000:   START DEPTH
 STOP.F          548.0000:   STOP DEPTH
 STEP.F            0.5000:   STEP LENGTH
 NULL.          -999.2500:   NO VALUE
 COMP. LAWRENCE/ALLISON INC:   COMPANY
 WELL.    55-61 SX #10-10:   WELL
 FLD .           N.P.R #3:   FIELD
 LOC .      S10 T38N R78W:   LOCATION
 CNTY.            NATRONA:   COUNTY
 STAT.            WYOMING:   STATE
 CTRY. UNITED STATES OF AMERICA:   COUNTRY
 SRVC.            Unknown:   SERVICE COMPANY
 DATE.        05-SEP-1984:   LOGDATE
 API .       490251098100:   API NUMBER
~CURVE INFORMATION
#MNEM.UNIT       API CODE    CURVE DESCRIPTION
#----------   ------------   ------------------------------
 DEPT.F                  :   
 GRR .GAPI   07 310 01 00:   GAMMA RAY FROM RES
 SPR .MV     07 010 01 00:   SPONTANEOUS POTENTIAL
 RFOC.OHMM   07 220 04 00:   RESISTIVITY FOCUSED LOG
 RILD.OHMM   07 120 46 00:   INDUCTION LOG DEEP RESISTIVITY
 RILM.OHMM   07 120 44 00:   INDUCTION LOG MEDIUM RESISTIVITY
 CALD.IN     45 280 60 00:   CALIPER FROM DENSITY LOG
 DEN .G/C3   45 350 01 00:   COMPENSATED BULK DENSTIY
 CNC .DEC    42 890 03 00:   NEUTRON POROSITY SANDSTONE
 PORD.DEC    45 890 12 00:   POROSITY DENSITY SANDSTONE
 CORR.G/C3   45 356 01 00:   DENSITY CORRECTION
 AC  .US/F   60 520 00 00:   ACCOUSTIC SONIC
~PARAMETER INFORMATION
#MNEM.UNIT          VALUE    DESCRIPTION
#----------   ------------   ------------------------------
 PD  .                 GL:   PERMANENT DATUM
 EPD .F              5191:   ELEVATION PERMANENT DATUM
 LMF .                 KB:   LOG MEASURED FROM
 DAPD.F                12:   FEET ABOVE PERMANENT DATUM
 DMF .                 KB:   DRILLING MEASURED FROM
 EKB .F              5203:   KELLING BUSHING
 EGL .F              5191:   GROUND LEVEL
 DATE.         5-SEP-1984:   RUN DATE
 RUN .                  1:   RUN NUMBER
 DD  .F               540:   DEPTH DRILLER
 DL  .F               550:   DEPTH LOGGER
 BLI .F               548:   BOTTOM LOG INTERVAL
 CS  .IN            8.625:   CASING SIZE
 CBD .F                42:   CASING BOTTOM DRILLER
 CBL .F                54:   CASING BOTTOM LOGGER
 BS  .IN            7.875:   BIT SIZE
 BSD .F               540:   BIT SIZE AT DEPTH
 DFT .        KCL POLYMER:   DRILLING FLUID TYPE
 MSS .           FLOWLINE:   MUD SAMPLE SOURCE
 RMS .OHMM            .79:   RESISTIVITY MUD SAMPLE
 MST .F                74:   MUD SAMPLE TEMPERATURE
 RMF .OHMM            .59:   RESISTIVITY MUD FILTRATE SAMPLE
 MFST.F                74:   MUD FILTRATE SAMPLE TEMPERATURE
 RMC .OHMM            .99:   RESISTIVITY MUD CAKE
 MCST.F                74:   MUD CAKE SAMPLE TEMPERATURE
 MFSS.               CALC:   MUD FILTRATE SAMPLE SOURCE
 MCSS.               CALC:   MUD CAKE SAMPLE SOURCE
 RMB .OHMM            .65:   RESISTIVITY MUD AT BHT
 BHT .F                90:   BOTTOM HOLE TEMPERATURE
 TCS .HRS               3:   TIME CURCULATED STOPPED
 MRT .F                90:   MAXIMUM RECORDED TEMPERATURE
 LUN .               6274:   LOGGING UNIT NUMBER
 LUL .               GLTE:   LOGGING UNIT LOCATION
 ENGI.             RAUTIO:   RECORDING ENGINEER
 WITN.            JOHNSON:   WITNESSED BY
 CLNT.            A2DTECH:   CLIENT CODE
 ORIG. 2", 2.5", 5" PRINT:   ORIGIN OF DATA
 UWI .       490251098100:   UNIQUE WELL ID
 DICO. A2D Technologies, Inc.:   DIGITIZING COMPANY
~OTHER INFORMATION
~A    DEPT      GRR       SPR       RFOC       RILD       RILM       CALD        DEN        CNC       PORD       CORR         AC   
# ...
  124.5000   127.8760  -197.6230  -999.2500     7.3480     7.6800     8.0460     2.4430     0.0740     0.1410     0.0020   131.2865
  125.0000   130.7500  -198.0190  -999.2500     7.4690     7.7850     8.0480     2.4460     0.0760     0.1390     0.0040   120.9049
  125.5000   129.3630  -198.4120  -999.2500     7.5890     7.8900     8.0490     2.4480     0.0780     0.1390     0.0060   115.0628
  126.0000   126.4980  -198.4440  -999.2500     7.7090     7.9840     8.0510     2.4490     0.0800     0.1390     0.0080   114.5582
  126.5000   123.7230  -197.4110  -999.2500     7.8300     7.9840     8.0530     2.4500     0.0790     0.1390     0.0100   116.5429
  127.0000   126.0580  -196.3930  -999.2500     7.9500     7.9840     8.0540     2.4470     0.0780     0.1390     0.0120   117.3834
  127.5000   128.1270  -196.4620  -999.2500     7.9840     7.9840     8.0560     2.4440     0.0780     0.1420     0.0140   117.9985
  128.0000   127.3160  -197.4450  -999.2500     7.9510     7.9850     8.0580     2.4370     0.0790     0.1470     0.0090   118.4784
  128.5000   125.3810  -198.4460  -999.2500     7.9140     7.9870     8.0590     2.4290     0.0800     0.1510    -0.0020   126.8170
  129.0000   125.6660  -199.4660  -999.2500     7.8780     7.9890     8.0610     2.4230     0.0780     0.1540    -0.0070   154.1748
  129.5000   125.2350  -199.4770  -999.2500     7.8390     7.9120     8.0620     2.4290     0.0770     0.1490     0.0030   147.8907
  130.0000   123.2530  -199.1990  -999.2500     7.6130     7.6900     8.0640     2.4360     0.0770     0.1420    -0.0010   139.4185
  130.5000   123.2500  -198.9140  -999.2500     7.4580     7.5250     8.0650     2.4430     0.0780     0.1410    -0.0070   127.1761
  131.0000   124.7890  -198.6270  -999.2500     7.2460     7.3590     8.0650     2.4390     0.0800     0.1450    -0.0140   121.1930
  131.5000   126.3520  -198.3410  -999.2500     7.0150     7.1940     8.0640     2.4320     0.0780     0.1490    -0.0180   121.3448
  132.0000   127.6370  -198.0490  -999.2500     6.7840     7.0210     8.0640     2.4290     0.0740     0.1500    -0.0190   131.1493
  132.5000   126.7890  -198.2200  -999.2500     6.5520     6.7310     8.0640     2.4310     0.0700     0.1490    -0.0200   150.3844
  133.0000   124.5050  -198.7430  -999.2500     6.3210     6.4280     8.0630     2.4300     0.0700     0.1500    -0.0210   147.9705
  133.5000   121.8800  -199.2580  -999.2500     6.0900     6.1250     8.0630     2.4260     0.0700     0.1520    -0.0130   137.5109
  134.0000   120.4460  -199.6290  -999.2500     5.8590     5.8220     8.0630     2.4160     0.0680     0.1590    -0.0050   128.6164
  134.5000   120.7370  -199.0960  -999.2500     5.5300     5.5810     8.0620     2.4060     0.0670     0.1650    -0.0070   116.2424
  135.0000   119.1810  -198.5720  -999.2500     5.5990     5.6850     8.0620     2.4030     0.0710     0.1660    -0.0080   115.1994
  135.5000   117.7170  -198.0510  -999.2500     5.7180     5.8200     8.0620     2.4080     0.0760     0.1600    -0.0040   115.9648
  136.0000   116.7570  -197.5310  -999.2500     5.8380     5.9550     8.0610     2.4210     0.0760     0.1550     0.0000   115.0430
  136.5000   121.7200  -197.0110  -999.2500     5.9580     6.0900     8.0610     2.4290     0.0750     0.1490     0.0040   122.4288
  137.0000   126.8860  -196.4910  -999.2500     6.0720     6.6680     8.0610     2.4310     0.0730     0.1480     0.0070   138.1992
  137.5000   129.4870  -195.9660  -999.2500     6.4100     7.1410     8.0600     2.4310     0.0720     0.1490     0.0110   151.4398
  138.0000   126.1140  -195.4300  -999.2500     6.7480     7.2800     8.0600     2.4270     0.0740     0.1510     0.0150   240.0000
  138.5000   123.7810  -195.8470  -999.2500     7.0860     7.4190     8.0600     2.4230     0.0760     0.1530     0.0060   240.0000
  139.0000   125.5880  -196.4460  -999.2500     7.4240     7.5340     8.0590     2.4250     0.0780     0.1520    -0.0040   240.0000
  139.5000   127.6660  -197.0550  -999.2500     7.5690     7.6490     8.0590     2.4280     0.0790     0.1500    -0.0150   199.4972
  140.0000   127.9270  -197.7060  -999.2500     7.6700     7.7630     8.0590     2.4320     0.0790     0.1480    -0.0150   138.7492
  140.5000   126.9850  -197.3150  -999.2500     7.7710     7.8780     8.0580     2.4370     0.0790     0.1450    -0.0110   118.4673
  141.0000   127.4690  -196.9150  -999.2500     7.8710     7.9920     8.0580     2.4420     0.0800     0.1420    -0.0070   114.3906
  141.5000   128.0010  -196.7630  -999.2500     7.9720     8.1070     8.0580     2.4460     0.0810     0.1390    -0.0030   114.4376
  142.0000   128.4880  -195.9460  -999.2500     8.0730     8.2210     8.0570     2.4520     0.0820     0.1340    -0.0040   114.9243
  142.5000   128.2600  -195.0280  -999.2500     8.1740     8.3360     8.0570     2.4700     0.0800     0.1240    -0.0050   115.9586
  143.0000   127.6670  -194.0960  -999.2500     8.2750     8.4500     8.0570     2.4850     0.0800     0.1160     0.0020   117.7423
  143.5000   125.3400  -194.1910  -999.2500     8.3760     8.5640     8.0560     2.4770     0.0800     0.1220     0.0100   121.7736
  144.0000   122.6150  -195.6080  -999.2500     8.4760     8.6790     8.0560     2.4600     0.0810     0.1310     0.0170   130.9175
  144.5000   120.1700  -196.9450  -999.2500     8.5770     8.7930     8.0560     2.4520     0.0820     0.1370     0.0140   142.1250
  145.0000   121.9230  -197.1280  -999.2500     8.6720     8.8500     8.0550     2.4530     0.0810     0.1350    -0.0220   153.2057
  145.5000   123.9660  -196.7490  -999.2500     8.7060     8.8870     8.0550     2.4580     0.0790     0.1330    -0.0590   137.1656
  146.0000   123.7260  -196.1900  -999.2500     8.7380     8.9250     8.0550     2.4560     0.0790     0.1350    -0.0630   122.2208
  146.5000   122.1820  -195.6290  -999.2500     8.7700     8.9630     8.0540     2.4480     0.0810     0.1390    -0.0250   118.0782
  147.0000   122.4680  -195.0670  -999.2500     8.8020     9.0000     8.0540     2.4430     0.0820     0.1430    -0.0050   117.3098
  147.5000   122.9610  -194.5010  -999.2500     8.8340     9.0380     8.0540     2.4420     0.0810     0.1430    -0.0150   118.8420
  148.0000   122.6330  -193.9200  -999.2500     8.8660     9.0750     8.0530     2.4430     0.0820     0.1410    -0.0060   136.9210
  148.5000   121.4090  -193.6940  -999.2500     8.9140     9.0470     8.0530     2.4470     0.0830     0.1380     0.0030   151.3871
  149.0000   121.5330  -193.5320  -999.2500     8.8840     9.0110     8.0530     2.4520     0.0830     0.1350     0.0120   148.9729
  149.5000   123.1630  -193.3730  -999.2500     8.8230     8.9740     8.0520     2.4560     0.0810     0.1320     0.0170   134.8744
  150.0000   122.9680  -193.0550  -999.2500     8.7610     8.9380     8.0520     2.4600     0.0810     0.1310     0.0150   117.9141
  150.5000   121.4970  -192.4340  -999.2500     8.7000     8.9020     8.0520     2.4580     0.0820     0.1330     0.0090   117.2991
  151.0000   121.6670  -191.8150  -999.2500     8.6380     8.8650     8.0510     2.4550     0.0820     0.1350     0.0140   118.1012
  151.5000   122.3020  -191.1960  -999.2500     8.5770     8.8330     8.0510     2.4560     0.0830     0.1330     0.0200   119.6661
  152.0000   124.5630  -190.5770  -999.2500     8.5160     8.7250     8.0510     2.4580     0.0810     0.1330     0.0240   120.5156
  152.5000   125.3530  -189.5600  -999.2500     8.4540     8.6270     8.0500     2.4560     0.0780     0.1350     0.0060   119.9003
  153.0000   125.3480  -188.3860  -999.2500     8.3660     8.5300     8.0500     2.4510     0.0790     0.1380    -0.0160   120.2934
  153.5000   125.3550  -187.2120  -999.2500     8.2280     8.4320     8.0490     2.4470     0.0790     0.1400    -0.0330   121.4632
  154.0000   125.4890  -186.0390  -999.2500     8.0900     8.3350     8.0490     2.4440     0.0790     0.1410    -0.0290   121.9530
  154.5000   126.4050  -184.8680  -999.2500     7.9520     8.2370     8.0490     2.4400     0.0790     0.1430    -0.0160   125.2950
