~VERSION INFORMATION
 VERS.                2.0:   CWLS LOG ASCII STANDARD - VERSION 2.0
 WRAP.                 NO:   ONE LINE PER DEPTH STEP
~WELL INFORMATION
#MNEM.UNIT      DATA TYPE    INFORMATION
#----------   ------------   ------------------------------
 STRT.F          906.5000:   START DEPTH
 STOP.F         2710.5000:   STOP DEPTH
 STEP.F            0.5000:   STEP LENGTH
 NULL.          -999.2500:   NO VALUE
 COMP.   FLUOR DANIEL INC:   COMPANY
 WELL. NAVAL PETROLEUM RESERVE 3 X-4 #77-4:   WELL
 FLD .             TEAPOT:   FIELD
 LOC .       S4 T38N R78W:   LOCATION
 CNTY.            NATRONA:   COUNTY
 STAT.            WYOMING:   STATE
 CTRY. UNITED STATES OF AMERICA:   COUNTRY
 SRVC.            Unknown:   SERVICE COMPANY
 DATE.        21-JUN-1995:   LOGDATE
 API .       490252273600:   API NUMBER
~CURVE INFORMATION
#MNEM.UNIT       API CODE    CURVE DESCRIPTION
#----------   ------------   ------------------------------
 DEPT.F                  :   
 TGAS.UNITS  91 830 01 00:   TOTAL GAS FROM HOTWIRE
 ROP .MIN/FT 91 810 01 00:   RAT OF DRILLING PENETRATION
~PARAMETER INFORMATION
#MNEM.UNIT          VALUE    DESCRIPTION
#----------   ------------   ------------------------------
 EKB .F              5291:   KELLING BUSHING
 EGL .F              5281:   GROUND LEVEL
 DATE.            6-21-95:   RUN DATE
 DD  .F              2711:   DEPTH DRILLER
 CBD .F               893:   CASING BOTTOM DRILLER
 ENGI.               HUSK:   RECORDING ENGINEER
 WITN.              TOWER:   WITNESSED BY
 CLNT.            A2DTECH:   CLIENT CODE
 ORIG.           5" PRINT:   ORIGIN OF DATA
 UWI .       490252273600:   UNIQUE WELL ID
 DICO. A2D Technologies, Inc.:   DIGITIZING COMPANY
~OTHER INFORMATION
~A   DEPT      TGAS         ROP 
# ...
 2243.0000   231.5803     1.5281
 2243.5000   230.9922     1.5281
 2244.0000   230.9695     1.7661
 2244.5000   231.5065     1.7773
 2245.0000   231.4832     1.7772
 2245.5000   231.4555     1.7771
 2246.0000   231.4328     0.9720
 2246.5000   231.4101     0.9492
 2247.0000   231.3874     0.9718
 2247.5000   231.3647     0.9831
 2248.0000   231.3420     1.0510
 2248.5000   230.7596     2.4795
 2249.0000   230.7370     2.4794
 2249.5000   230.7764     2.4793
 2250.0000   231.2513     2.4906
 2250.5000   231.2229     2.2739
 2251.0000   230.6405     1.5266
 2251.5000   231.1832     1.5265
 2252.0000   230.5951     1.5718
 2252.5000   230.0127     1.7531
 2253.0000   229.9900     1.7530
 2253.5000   230.5271     1.7529
 2254.0000   230.5037     1.7528
 2254.5000   230.4760     1.6394
 2255.0000   230.4533     1.4805
 2255.5000   230.4306     1.5031
 2256.0000   230.4079     1.3556
 2256.5000   230.9449     1.2535
 2257.0000   230.9222     1.2761
 2257.5000   232.0190     1.2873
 2258.0000   231.9963     1.2986
 2258.5000   233.0930     1.4685
 2259.0000   233.0646     1.4911
 2259.5000   232.4822     1.5024
 2260.0000   232.4595     1.5023
 2260.5000   233.0022     0.7092
 2261.0000   232.9739     0.7098
 2261.5000   232.9512     0.7104
 2262.0000   232.9285     0.7109
 2262.5000   232.9058     0.9609
 2263.0000   232.8825     0.9615
 2263.5000   232.8547     0.9734
 2264.0000   233.3974     0.9853
 2264.5000   232.8094     0.9859
 2265.0000   232.7867     0.9865
 2265.5000   232.7640     0.9870
 2266.0000   232.1816     0.9876
 2266.5000   231.5992     0.7273
 2267.0000   231.0168     0.7506
 2267.5000   230.4338     0.7625
 2268.0000   230.4060     0.7631
 2268.5000   230.3833     0.9904
 2269.0000   230.3607     0.9910
 2269.5000   230.3380     1.0029
 2270.0000   230.8750     0.9694
 2270.5000   231.4176     0.7659
 2271.0000   231.3893     0.7791
 2271.5000   231.9263     0.7898
 2272.0000   232.4633     0.7903
 2272.5000   232.4350     0.9950
 2273.0000   232.4123     1.0068
 2273.5000   232.3896     1.0187
 2274.0000   232.3669     1.0306
 2274.5000   231.7845     1.0312
 2275.0000   231.2021     1.0318
 2275.5000   231.1794     1.0324
 2276.0000   231.1567     1.0329
 2276.5000   231.1334     0.7953
 2277.0000   231.1057     0.8073
 2277.5000   231.0830     0.8192
 2278.0000   231.0603     0.8197
 2278.5000   231.6030     1.0063
 2279.0000   231.5746     1.0122
 2279.5000   231.5519     1.0181
 2280.0000   231.5292     1.0240
 2280.5000   231.5065     1.0258
 2281.0000   231.4832     1.0258
 2281.5000   231.4555     1.0257
 2282.0000   231.4328     1.0256
 2282.5000   231.4101     1.0255
 2283.0000   231.9471     1.0254
 2283.5000   231.9244     1.0253
 2284.0000   231.9017     1.0252
 2284.5000   231.8790     1.0252
 2285.0000   231.2966     1.0251
 2285.5000   231.2733     1.0250
 2286.0000   231.2456     1.0249
 2286.5000   230.6632     1.0248
 2287.0000   230.6405     1.0247
 2287.5000   230.6178     1.0247
 2288.0000   230.5951     1.0246
 2288.5000   230.5724     1.0245
 2289.0000   229.9901     1.0244
 2289.5000   229.4077     1.0243
 2290.0000   229.3843     1.0242
 2290.5000   229.3566     1.0241
 2291.0000   228.7742     1.0241
 2291.5000   229.3169     1.0240
 2292.0000   229.8539     1.0239
 2292.5000   230.3909     1.0238
 2293.0000   230.3625     1.0237
 2293.5000   230.9002     1.0236
 2294.0000   230.8769     1.0235
 2294.5000   230.8535     1.0235
 2295.0000   230.2661     1.0234
 2295.5000   230.2434     1.0233
 2296.0000   229.6610     1.0232
 2296.5000   229.6383     1.0231
 2297.0000   229.6156     1.0230
 2297.5000   229.5930     1.0230
 2298.0000   229.5703     1.0229
 2298.5000   228.9879     1.0228
 2299.0000   227.8452     1.0227
 2299.5000   226.6980     1.0226
 2300.0000   226.6753     1.0225
 2300.5000   237.3921     1.0224
 2301.0000   251.9527     1.0224
 2301.5000   251.8970     1.0223
 2302.0000   251.8525     1.0222
 2302.5000   252.3676     1.0221
 2303.0000   252.3215     1.0220
 2303.5000   252.2674     1.0219
 2304.0000   252.2228     1.2494
 2304.5000   252.1783     1.2516
 2305.0000   252.1337     1.2537
 2305.5000   253.2197     1.2559
 2306.0000   253.7348     0.8776
 2306.5000   254.2500     0.4974
 2307.0000   254.1943     0.4972
 2307.5000   253.5900     0.4969
 2308.0000   253.5453     0.4967
 2308.5000   253.4998     0.4964
 2309.0000   252.8855     0.4962
 2309.5000   252.8409     0.4960
 2310.0000   251.6770     0.4957
 2310.5000   251.6324     0.4955
 2311.0000   251.0282     0.4952
 2311.5000   250.4239     0.4950
 2312.0000   250.3793     0.4947
 2312.5000   250.3348     0.4945
 2313.0000   250.2902     0.4942
 2313.5000   249.6860     0.4940
 2314.0000   249.6407     0.4938
 2314.5000   249.5952     0.4935
 2315.0000   249.5412     0.4933
 2315.5000   249.4966     0.4930
 2316.0000   248.8923     0.4928
 2316.5000   248.8478     0.4925
 2317.0000   248.8032     0.4923
 2317.5000   248.7587     0.4921
 2318.0000   249.2850     0.4918
 2318.5000   249.2292     0.4916
 2319.0000   249.7451     0.4913
 2319.5000   249.7085     0.4911
 2320.0000   249.6720     0.4908
 2320.5000   249.6355     0.4906
 2321.0000   249.5991     0.4904
 2321.5000   249.5626     0.4901
 2322.0000   249.5261     0.4899
 2322.5000   249.4896     0.4896
 2323.0000   249.4532     0.4894
 2323.5000   249.4167     0.4891
 2324.0000   249.3802     0.6474
 2324.5000   249.3437     0.6468
 2325.0000   249.3072     0.6463
 2325.5000   249.2708     0.6457
 2326.0000   249.2343     0.6451
 2326.5000   249.1978     0.6446
 2327.0000   249.1613     0.6440
 2327.5000   249.1248     0.6434
 2328.0000   249.0884     0.6429
 2328.5000   249.0519     0.6423
 2329.0000   249.0154     0.6417
 2329.5000   248.9789     0.6412
 2330.0000   248.9425     0.6406
 2330.5000   248.9060     0.6400
 2331.0000   248.8695     0.6395
 2331.5000   248.8330     0.6389
 2332.0000   248.7966     0.6383
 2332.5000   248.7601     0.6378
 2333.0000   248.7236     0.6372
 2333.5000   248.6871     0.6365
 2334.0000   248.6506     0.7835
 2334.5000   248.6142     0.7828
 2335.0000   248.5777     0.7937
 2335.5000   248.5412     0.7930
 2336.0000   248.5047     0.8038
 2336.5000   248.4682     0.8033
 2337.0000   248.4318     0.8027
 2337.5000   248.3953     0.8021
 2338.0000   248.3588     0.4950
 2338.5000   248.3223     0.4951
 2339.0000   248.2859     0.4953
 2339.5000   248.2494     0.4954
 2340.0000   248.2129     0.4955
 2340.5000   248.1764     0.4957
 2341.0000   248.1400     0.4958
 2341.5000   248.1035     0.4959
 2342.0000   248.0670     0.4961
 2342.5000   248.0305     0.4962
 2343.0000   247.9940     0.4963
 2343.5000   247.9576     0.4965
 2344.0000   247.9211     0.4966
 2344.5000   247.8846     0.4967
 2345.0000   247.8481     0.4969
 2345.5000   247.8116     0.4970
 2346.0000   247.7752     0.4971
 2346.5000   247.7387     0.4973
 2347.0000   247.7022     0.4974
 2347.5000   247.6657     0.4975
 2348.0000   247.6293     0.4977
 2348.5000   247.5928     0.6334
 2349.0000   247.5563     0.6329
 2349.5000   247.5198     0.6325
 2350.0000   247.4834     0.6321
 2350.5000   247.4469     0.6317
 2351.0000   247.4104     0.6312
 2351.5000   247.3739     0.6308
 2352.0000   247.3374     0.6304
 2352.5000   247.3010     0.6300
 2353.0000   247.2645     0.6295
 2353.5000   247.2280     0.6291
 2354.0000   247.1915     0.6287
 2354.5000   247.1550     0.6283
 2355.0000   247.1186     0.6278
 2355.5000   247.0821     0.6274
 2356.0000   247.0456     0.6270
 2356.5000   247.0091     0.6266
 2357.0000   246.9727     0.6261
 2357.5000   246.9362     0.6257
 2358.0000   246.8997     0.6253
 2358.5000   246.8632     0.6249
 2359.0000   246.8268     0.6244
 2359.5000   246.7903     0.6240
 2360.0000   246.7538     0.6236
 2360.5000   246.7173     0.6232
 2361.0000   246.6808     0.6227
 2361.5000   246.6444     0.6223
 2362.0000   246.6079     0.6219
 2362.5000   246.5714     0.6215
 2363.0000   246.5349     0.6210
 2363.5000   246.4984     0.6206
 2364.0000   246.4620     0.6202
