~VERSION INFORMATION
 VERS.                2.0:   CWLS LOG ASCII STANDARD - VERSION 2.0
 WRAP.                 NO:   ONE LINE PER DEPTH STEP
~WELL INFORMATION
#MNEM.UNIT      DATA TYPE    INFORMATION
#----------   ------------   ------------------------------
 STRT.F           25.0000:   START DEPTH
 STOP.F          528.0000:   STOP DEPTH
 STEP.F            0.5000:   STEP LENGTH
 NULL.          -999.2500:   NO VALUE
 COMP. FENIX & SCISSON INC:   COMPANY
 WELL.       NPR #3 #11-3:   WELL
 FLD .             NPR #3:   FIELD
 LOC .       S3 T38N R78W:   LOCATION
 CNTY.            NATRONA:   COUNTY
 STAT.            WYOMING:   STATE
 CTRY. UNITED STATES OF AMERICA:   COUNTRY
 SRVC.       Schlumberger:   SERVICE COMPANY
 DATE.        01-MAR-1977:   LOGDATE
 API .       490251028300:   API NUMBER
~CURVE INFORMATION
#MNEM.UNIT       API CODE    CURVE DESCRIPTION
#----------   ------------   ------------------------------
 DEPT.F                  :   
 SPR .MV     07 010 01 00:   SPONTANEOUS POTENTIAL
 LL8 .OHMM   07 220 08 00:   LATEROLOG-8 RES.
 ILM .OHMM   07 120 44 00:   INDUCTION LOG MEDIUM
 ILD .OHMM   07 120 46 00:   INDUCTION LOG DEEP
 GRD .GAPI   45 310 01 00:   GAMMA RAY FROM DENSITY LOG
 CALD.IN     45 280 60 00:   CALIPER
 RHOB.G/C3   45 350 01 00:   BULK DENSITY
 CORR.G/C3   45 356 01 00:   DENSITY CORRECTION
 DPHI.DEC    45 890 12 00:   DENSITY POROSITY SANDSTONE
~PARAMETER INFORMATION
#MNEM.UNIT          VALUE    DESCRIPTION
#----------   ------------   ------------------------------
 PD  .                 GL:   PERMANENT DATUM
 EPD .F              5178:   ELEVATION PERMANENT DATUM
 LMF .                 GL:   LOG MEASURED FROM
 DMF .                 GL:   DRILLING MEASURED FROM
 EKB .F              5183:   KELLING BUSHING
 EGL .F              5178:   GROUND LEVEL
 DATE.           3-1-1977:   RUN DATE
 RUN .                  1:   RUN NUMBER
 DD  .F               535:   DEPTH DRILLER
 DL  .F               526:   DEPTH LOGGER
 BLI .F               520:   BOTTOM LOG INTERVAL
 TLI .F                30:   TOP LOG INTERVAL
 CS  .IN            8.625:   CASING SIZE
 CBD .F                40:   CASING BOTTOM DRILLER
 CBL .F                30:   CASING BOTTOM LOGGER
 BS  .IN            7.875:   BIT SIZE
 BSD .F               535:   BIT SIZE AT DEPTH
 DFT .                KCL:   DRILLING FLUID TYPE
 DFD .                8.7:   DRILLING FLUID DENSITY
 DFV .                 37:   DRILLING FLUID VISCOSITY
 DFPH.                  8:   DRILLING FLUID PH
 DFL .                7.2:   DRILLING FLUID LOSS
 MSS .                PIT:   MUD SAMPLE SOURCE
 RMS .OHMM           .495:   RESISTIVITY MUD SAMPLE
 MST .F                62:   MUD SAMPLE TEMPERATURE
 RMF .OHMM           .406:   RESISTIVITY MUD FILTRATE SAMPLE
 MFST.F                65:   MUD FILTRATE SAMPLE TEMPERATURE
 MFSS.                  M:   MUD FILTRATE SAMPLE SOURCE
 RMB .OHMM           .438:   RESISTIVITY MUD AT BHT
 BHT .F                70:   BOTTOM HOLE TEMPERATURE
 TCS .HRS            0800:   TIME CURCULATED STOPPED
 TLAB.HRS            1130:   TIME LOGGER AT BOTTOM
 MRT .F                70:   MAXIMUM RECORDED TEMPERATURE
 LUN .               5642:   LOGGING UNIT NUMBER
 LUL .               CSPR:   LOGGING UNIT LOCATION
 ENGI.             MARTIN:   RECORDING ENGINEER
 CLNT.            A2DTECH:   CLIENT CODE
 ORIG.       2", 5" PRINT:   ORIGIN OF DATA
 UWI .       490251028300:   UNIQUE WELL ID
 DICO. A2D Technologies, Inc.:   DIGITIZING COMPANY
~OTHER INFORMATION
~A   DEPT      SPR        LL8        ILM        ILD         GRD      CALD       RHOB       CORR       DPHI   
# ...
  463.0000   -34.7919    15.0537    15.3020    14.5583    74.5782     7.9172     2.4056     0.0244     0.1517
  463.5000   -33.7058    14.6932    14.9869    14.2117    75.4113     7.9235     2.4443     0.0165     0.1322
  464.0000   -32.6179    14.3415    14.7965    13.8802    76.2465     7.9299     2.4880     0.0143     0.1114
  464.5000   -31.7385    14.0091    14.7441    13.7084    77.0887     7.9365     2.5071     0.0189     0.0962
  465.0000   -32.4994    13.7524    14.6900    13.5421    78.3287     7.9433     2.4697     0.0227     0.1233
  465.5000   -33.4871    13.7524    14.6369    13.3771    79.8627     7.9540     2.4124     0.0154     0.1445
  466.0000   -34.0401    13.7524    14.5842    13.3356    78.9182     7.9646     2.3977     0.0080     0.1559
  466.5000   -34.3849    13.7431    14.5316    13.2829    79.0764     7.9753     2.3912     0.0011     0.1539
  467.0000   -34.0535    13.7312    14.4791    13.2306    80.7669     7.9859     2.3837     0.0052     0.1621
  467.5000   -33.6584    13.7192    14.4269    13.1788    82.4638     7.9966     2.3925     0.0128     0.1595
  468.0000   -34.0678    13.7072    14.3749    13.1272    83.1586     8.0073     2.3971     0.0194     0.1543
  468.5000   -34.3505    13.6953    14.3230    13.0758    83.2668     8.0179     2.3917     0.0056     0.1563
  469.0000   -33.9052    13.6833    14.2713    13.0246    83.9482     8.0286     2.4048     0.0071     0.1518
  469.5000   -34.0426    13.6714    14.2199    12.9736    84.9821     8.0393     2.4164     0.0119     0.1442
  470.0000   -35.1230    13.6595    14.1686    12.9228    86.0177     8.0499     2.4302     0.0169     0.1366
  470.5000   -36.1406    13.6476    14.1175    12.8722    86.1229     8.0606     2.4437     0.0218     0.1290
  471.0000   -35.9725    13.6357    14.0665    12.8218    84.0405     8.0712     2.4507     0.0224     0.1247
  471.5000   -35.6750    13.6238    14.0158    12.7716    81.9557     8.0819     2.4394     0.0147     0.1323
  472.0000   -35.4888    13.6119    14.0091    12.7216    79.8667     8.0925     2.4249     0.0083     0.1379
  472.5000   -35.9797    13.6001    14.0091    12.6593    78.2167     8.0912     2.4310     0.0145     0.1328
  473.0000   -36.4740    13.5882    14.0091    12.7246    77.3245     8.0801     2.4407     0.0228     0.1270
  473.5000   -36.9664    13.5764    14.0091    12.8343    78.1144     8.0690     2.4327     0.0219     0.1295
  474.0000   -37.4578    13.5645    14.0091    13.0102    79.5587     8.0579     2.4441     0.0247     0.1220
  474.5000   -37.9500    13.5527    14.0091    12.9842    81.0069     8.0467     2.4662     0.0316     0.1099
  475.0000   -38.4653    13.5411    14.0091    12.9218    82.5005     8.0355     2.4750     0.0328     0.1139
  475.5000   -38.2419    13.5292    14.0091    12.8597    83.3596     8.0244     2.4581     0.0191     0.1218
  476.0000   -37.7646    13.5151    14.0091    12.7979    84.0012     8.0132     2.4463     0.0086     0.1291
  476.5000   -37.2716    13.5034    14.0092    12.7364    83.9728     8.0020     2.4360     0.0022     0.1267
  477.0000   -37.6233    13.3572    14.0091    12.6752    82.4296     7.9908     2.4315     0.0054     0.1319
  477.5000   -38.3701    13.3053    14.0092    12.6142    83.1700     7.9797     2.4488     0.0103     0.1215
  478.0000   -38.6774    13.2535    14.0091    12.5536    83.8657     7.9768     2.4677     0.0153     0.1119
  478.5000   -38.8261    13.2020    13.9271    12.4933    85.2885     7.9753     2.4773     0.0204     0.1026
  479.0000   -38.9344    13.1507    13.8167    12.4332    87.1250     7.9738     2.4655     0.0190     0.1101
  479.5000   -39.8060    13.0996    13.7072    12.3734    88.9137     7.9723     2.4567     0.0145     0.1170
  480.0000   -40.8047    13.0486    13.5985    12.3140    89.9449     7.9708     2.4522     0.0101     0.1188
  480.5000   -40.5204    12.9979    13.4907    12.2548    89.1497     7.9692     2.4518     0.0057     0.1234
  481.0000   -39.4602    12.9473    13.3837    12.1959    88.3973     7.9677     2.4440     0.0013     0.1307
  481.5000   -38.5999    12.8970    13.2776    12.1375    87.3019     7.9662     2.4364    -0.0032     0.1292
  482.0000   -38.8575    12.8904    13.1725    12.0829    85.7722     7.9647     2.4414    -0.0009     0.1292
  482.5000   -39.2115    13.1204    13.0683    12.1582    84.7062     7.9632     2.4479     0.0040     0.1260
  483.0000   -39.5655    13.3935    12.9927    12.2294    86.2370     7.9617     2.4539     0.0024     0.1206
  483.5000   -39.9219    13.6722    12.9520    12.3014    87.7190     7.9601     2.4331    -0.0020     0.1275
  484.0000   -40.2740    14.0091    12.9118    12.3738    89.1995     7.9586     2.4404     0.0017     0.1233
  484.5000   -40.4729    13.9129    12.8718    12.4466    89.8019     7.9571     2.4541     0.0056     0.1179
  485.0000   -39.7845    13.6832    12.8320    12.5199    89.7146     7.9556     2.4679     0.0094     0.1125
  485.5000   -39.2387    13.4725    12.7922    12.5936    89.6260     7.9541     2.4729     0.0121     0.1078
  486.0000   -39.6953    13.3282    12.7526    12.6542    89.5191     7.9526     2.4682     0.0109     0.1090
  486.5000   -40.6067    13.1828    12.7130    12.5009    89.1280     7.9510     2.4770     0.0081     0.1089
  487.0000   -41.5262    13.0394    12.6737    12.3726    87.9246     7.9495     2.4835     0.0049     0.1041
  487.5000   -42.4855    12.8856    12.6344    12.2456    88.2506     7.9480     2.4767     0.0019     0.0998
  488.0000   -42.2281    12.8865    12.5952    12.1200    88.6920     7.9465     2.4794     0.0043     0.1016
  488.5000   -41.5752    12.9607    12.5562    11.9956    89.1674     7.9450     2.4835     0.0094     0.1022
  489.0000   -41.8361    13.0102    12.5377    11.8725    87.9602     7.9434     2.4874     0.0146     0.0990
  489.5000   -43.6230    12.9200    12.4207    11.7506    86.0977     7.9419     2.4865     0.0142     0.1027
  490.0000   -44.8409    12.7468    12.2593    11.6300    84.6586     7.9404     2.4698     0.0105     0.1126
  490.5000   -44.2355    12.5759    12.1000    11.5107    85.0253     7.9389     2.4584     0.0069     0.1101
  491.0000   -43.1996    12.4073    11.9428    11.3926    87.2607     7.9374     2.4746     0.0039     0.1038
  491.5000   -42.7125    12.2410    11.7876    11.2757    90.2917     7.9359     2.4671     0.0060     0.1063
  492.0000   -43.2538    12.0768    11.6344    11.1599    93.3406     7.9344     2.4654     0.0105     0.1086
  492.5000   -44.6100    11.9149    11.4833    11.0454    92.2953     7.9328     2.4698     0.0141     0.1069
  493.0000   -45.9112    11.7552    11.3341    10.9358    90.4928     7.9313     2.4692     0.0097     0.1080
  493.5000   -46.3213    11.5976    11.1868    10.6979    88.0753     7.9298     2.4635     0.0087     0.1090
  494.0000   -46.6971    11.4421    11.0415    10.5119    90.2957     7.9283     2.4659     0.0142     0.1070
  494.5000   -47.2423    11.2887    10.8980    10.3296    95.6851     7.9268     2.4715     0.0180     0.1058
  495.0000   -48.0663    11.1374    10.7564    10.1518    94.4212     7.9253     2.4677     0.0141     0.1099
  495.5000   -48.8865    10.9880    10.6166     9.9770    92.1705     7.9237     2.4576     0.0102     0.1146
  496.0000   -49.7030    10.8407    10.4787     9.8053    89.2493     7.9222     2.4495     0.0048     0.1170
  496.5000   -50.5232    10.6954    10.0557     9.2390    90.2463     7.9211     2.4587    -0.0024     0.1141
  497.0000   -50.5850    10.5175     9.4518     8.6013    91.5302     7.9192     2.4756    -0.0022     0.1054
  497.5000   -50.0646    10.7428     8.8842     8.0076    92.7775     7.9401     2.4669    -0.0040     0.1018
  498.0000   -49.8981    11.0152     8.3507     7.4549    91.6742     7.9373     2.4575    -0.0091     0.1126
  498.5000   -50.6084     9.3601     7.8493     6.9396    90.3856     7.9361     2.4663    -0.0019     0.1097
  499.0000   -51.2846     7.2031     7.3768     6.4594    90.4318     7.9353     2.4743     0.0054     0.1042
