~VERSION INFORMATION
 VERS.                2.0:   CWLS LOG ASCII STANDARD - VERSION 2.0
 WRAP.                 NO:   ONE LINE PER DEPTH STEP
~WELL INFORMATION
#MNEM.UNIT      DATA TYPE    INFORMATION
#----------   ------------   ------------------------------
 STRT.F           12.0000:   START DEPTH
 STOP.F          510.0000:   STOP DEPTH
 STEP.F            0.5000:   STEP LENGTH
 NULL.          -999.2500:   NO VALUE
 COMP. LAWRENCE-ALLISON &AS:   COMPANY
 WELL. NPR 3 #51-41SX10UP4:   WELL
 FLD .            NATRONA:   FIELD
 LOC .      S10 T38N R78W:   LOCATION
 CNTY.            NATRONA:   COUNTY
 STAT.            WYOMING:   STATE
 CTRY. UNITED STATES OF AMERICA:   COUNTRY
 SRVC.      Dresser Atlas:   SERVICE COMPANY
 DATE.        15-DEC-1984:   LOGDATE
 API .       490251100000:   API NUMBER
~CURVE INFORMATION
#MNEM.UNIT       API CODE    CURVE DESCRIPTION
#----------   ------------   ------------------------------
 DEPT.F                  :   
 RD  .OHMM   11 220 10 00:   RESISTIVITY DEEP
 RS  .OHMM   11 220 09 00:   RESISTIVITY SHALLOW
 SPR .MV     11 010 01 00:   SPONTANEOUS POTENTIAL FROM RES.
 DT  .US/F   60 520 00 00:   INTERVAL TRANSIT TIME
 CALD.IN     45 280 60 00:   CALIPER FROM DENSITY LOG
 CNC .DEC    42 890 00 00:   NEUTRON POROSITY
 CORR.G/C3   45 356 01 00:   DENSITY CORRECTION
 GRD .GAPI   45 310 01 00:   GAMMA RAY FROM DENSITY LOG
 PORD.DEC    45 890 00 00:   POROSITY DENSITY
 RHOB.G/C3   45 350 01 00:   BULK DENSITY
~PARAMETER INFORMATION
#MNEM.UNIT          VALUE    DESCRIPTION
#----------   ------------   ------------------------------
 PD  .                 GL:   PERMANENT DATUM
 EPD .F              5207:   ELEVATION PERMANENT DATUM
 LMF .                 GL:   LOG MEASURED FROM
 DMF .                 GL:   DRILLING MEASURED FROM
 EGL .F              5207:   GROUND LEVEL
 DATE.        15-DEC-1984:   RUN DATE
 RUN .                  1:   RUN NUMBER
 DD  .F               515:   DEPTH DRILLER
 DL  .F               511:   DEPTH LOGGER
 BLI .F               510:   BOTTOM LOG INTERVAL
 TLI .F                20:   TOP LOG INTERVAL
 CS  .IN            8.625:   CASING SIZE
 CBD .F                20:   CASING BOTTOM DRILLER
 CBL .F                20:   CASING BOTTOM LOGGER
 BS  .IN            7.875:   BIT SIZE
 BSD .F               515:   BIT SIZE AT DEPTH
 DFT .          KCL/WATER:   DRILLING FLUID TYPE
 MSS .           FLOWLINE:   MUD SAMPLE SOURCE
 RMS .OHMM           .129:   RESISTIVITY MUD SAMPLE
 MST .F                94:   MUD SAMPLE TEMPERATURE
 RMF .OHMM            .10:   RESISTIVITY MUD FILTRATE SAMPLE
 MFST.F                94:   MUD FILTRATE SAMPLE TEMPERATURE
 RMC .OHMM            .16:   RESISTIVITY MUD CAKE
 MCST.F                94:   MUD CAKE SAMPLE TEMPERATURE
 MFSS.               CALC:   MUD FILTRATE SAMPLE SOURCE
 MCSS.               CALC:   MUD CAKE SAMPLE SOURCE
 TCS .HRS               2:   TIME CURCULATED STOPPED
 MRT .F               100:   MAXIMUM RECORDED TEMPERATURE
 LUN .               6270:   LOGGING UNIT NUMBER
 LUL .                 FM:   LOGGING UNIT LOCATION
 ENGI.            LEBSOCK:   RECORDING ENGINEER
 WITN.          DAN LUERS:   WITNESSED BY
 CLNT.            A2DTECH:   CLIENT CODE
 ORIG.           5" PRINT:   ORIGIN OF DATA
 UWI .       490251100000:   UNIQUE WELL ID
 DICO. A2D Technologies, Inc.:   DIGITIZING COMPANY
~OTHER INFORMATION
~A   DEPT       RD         RS        SPR         DT       CALD          CNC     CORR         GRD      PORD       RHOB   
# ...
  280.0000    14.4577    12.6980   -52.6331   101.3283     7.8666     0.2759     0.0358   101.4234     0.1154     2.4870
  280.5000    14.6707    12.8850   -51.3728   101.4838     7.8675     0.2437     0.0073   101.4416     0.1214     2.4779
  281.0000    16.6232    13.4432   -49.9480   100.8853     7.8533     0.2244    -0.0046    99.6758     0.1246     2.4689
  281.5000    19.0974    14.8194   -49.0504    99.0783     7.8690     0.2124     0.0121    93.0460     0.1287     2.4497
  282.0000    23.1859    19.0162   -48.3008    96.9695     7.8549     0.2084     0.0318    82.9075     0.1519     2.4168
  282.5000    24.5189    20.6754   -47.8470    94.7852     7.8852     0.2243     0.0560    69.8989     0.1696     2.3943
  283.0000    23.8670    20.6919   -47.3932    94.8650     7.9163     0.2399     0.0531    65.0174     0.1723     2.3884
  283.5000    23.3866    20.4242   -47.2204    97.0997     7.8862     0.2501     0.0262    59.3941     0.1735     2.3840
  284.0000    23.2480    20.4411   -46.6311   101.8182     7.8723     0.2555     0.0185    57.6246     0.1794     2.3578
  284.5000    23.9189    20.7458   -46.3253   108.2377     7.8584     0.2657     0.0445    60.7586     0.1990     2.3301
  285.0000    24.7756    21.3438   -46.0195   113.2987     7.8890     0.2827     0.0229    63.8889     0.2128     2.3226
  285.5000    26.0198    22.5739   -45.7136   112.8502     7.8599     0.2891    -0.0035    65.2389     0.2163     2.3144
  286.0000    26.0372    23.8749   -45.4078   112.9300     7.8310     0.2878     0.0027    65.9953     0.2226     2.3063
  286.5000    26.4169    25.2509   -45.3978   113.4627     7.8319     0.2781     0.0088    69.4224     0.2235     2.3041
  287.0000    25.7145    25.2920   -45.0917   113.9275     7.7733     0.2808     0.0089    70.1789     0.2216     2.3034
  287.5000    24.6318    24.2377   -44.9316   114.2272     7.7444     0.2835     0.0030    69.3033     0.2228     2.3035
  288.0000    23.3805    23.4651   -44.7737   114.0796     7.7303     0.2816     0.0016    66.9440     0.2240     2.3036
  288.5000    23.3961    23.3176   -44.7637   114.0085     7.7757     0.2828     0.0033    66.9586     0.2237     2.3044
  289.0000    24.0673    23.6655   -44.7537   114.0139     7.7764     0.2846     0.0094    68.3165     0.2221     2.3082
  289.5000    24.7578    24.0138   -44.7437   113.9426     7.7919     0.2728     0.0097    69.0653     0.2176     2.3203
  290.0000    26.9144    25.3978   -44.7337   113.0415     7.8371     0.2466     0.0368    68.4471     0.2077     2.3323
  290.5000    29.8712    28.3870   -44.7234   110.3216     7.8675     0.2478     0.0610    63.7567     0.2020     2.3436
  291.0000    32.9247    31.8056   -44.7113   106.5608     7.8682     0.2568     0.0521    63.3225     0.1971     2.3474
  291.5000    33.6370    33.5633   -45.1451   105.5840     7.8837     0.2615     0.0461    63.1888     0.1962     2.3490
  292.0000    30.9877    32.0053   -45.2855   105.5118     7.8993     0.2609     0.0372    63.2070     0.2001     2.3414
  292.5000    26.6387    28.4836   -45.2730   107.8569     7.9001     0.2670     0.0283    63.2217     0.2172     2.3072
  293.0000    25.5705    25.5250   -45.2631   110.9556     7.9009     0.2713     0.0224    62.9395     0.2274     2.2915
  293.5000    25.4116    24.8447   -45.2530   111.8657     7.8571     0.2668     0.0194    61.4705     0.2354     2.2848
  294.0000    26.6922    25.5659   -45.2406   111.8711     7.8429     0.2692     0.0151    62.0798     0.2390     2.2849
  294.5000    28.6193    27.6931   -45.5290   108.5547     7.8288     0.2733     0.0168    65.0618     0.2341     2.2962
  295.0000    35.7359    33.7585   -45.8149   104.4836     7.8445     0.2739     0.0289    68.4888     0.2134     2.3232
  295.5000    36.7440    35.7041   -45.8024   100.9404     7.8452     0.2703     0.0411    69.6904     0.1996     2.3405
  296.0000    33.8507    36.4732   -45.7924   100.5674     7.8459     0.2613     0.0472    68.9632     0.1987     2.3436
  296.5000    31.1747    32.9178   -46.2262   102.2332     7.8467     0.2486     0.0474    68.3807     0.2137     2.3234
  297.0000    29.7287    30.3247   -46.3642   102.7648     7.8475     0.2413     0.0414    67.3604     0.2149     2.3242
  297.5000    29.5390    29.5223   -46.6500   101.4872     7.8483     0.2365     0.0291    66.9262     0.2016     2.3483
  298.0000    33.0168    30.4532   -46.9359    97.4161     7.8490     0.2304     0.0116    69.1700     0.1805     2.3784
  298.5000    33.5111    33.9548   -47.5176    96.8166     7.8497     0.2283     0.0027    71.4102     0.1766     2.3714
  299.0000    31.2844    32.8289   -48.2448    97.4678     7.8504     0.2302    -0.0063    72.0182     0.1982     2.3425
  299.5000    28.0359    29.8280   -48.9745   103.2416     7.8511     0.2534    -0.0122    70.9943     0.2177     2.3178
  300.0000    26.9162    26.0017   -49.4083   104.6800     7.8519     0.2660    -0.0120    69.6736     0.2231     2.3096
  300.5000    27.3087    26.5671   -49.8421   104.6843     7.8526     0.2723     0.0001    70.0030     0.2207     2.3187
  301.0000    28.0922    27.5223   -49.8296   104.0849     7.8535     0.2759     0.0228    73.6301     0.2117     2.3277
  301.5000    28.8982    28.7292   -49.8196   103.2824     7.8542     0.2722     0.0366    76.9757     0.2077     2.3323
  302.0000    29.3196    28.9372   -49.9601   103.0563     7.8549     0.2506     0.0426    75.9473     0.2050     2.3353
  302.5000    28.9368    28.5632   -50.0980   102.8297     7.8556     0.2507     0.0248    75.3635     0.2034     2.3369
  303.0000    28.1674    28.1884   -50.0856   102.8316     7.8563     0.2571     0.0099    75.3741     0.2013     2.3385
  303.5000    27.8137    27.4479   -50.0754   102.7572     7.8571     0.2565     0.0025    75.3843     0.2022     2.3385
  304.0000    27.4676    27.2809   -50.2135   102.6667     7.8281     0.2418     0.0192    72.9296     0.2037     2.3378
  304.5000    26.7461    26.7428   -50.0148   102.0777     7.8289     0.2390     0.0253    70.8042     0.2048     2.3357
  305.0000    26.7675    26.3798   -50.1490   100.7135     7.8298     0.2443     0.0194    72.4489     0.2036     2.3390
  305.5000    26.4215    26.0562   -50.1312    99.1975     7.8632     0.2467     0.0151    76.6134     0.1979     2.3500
  306.0000    26.0791    25.9028   -50.1170    97.6815     7.8198     0.2383     0.0167    78.8490     0.1855     2.3659
  306.5000    25.9212    25.3921   -50.4022    96.6967     7.8060     0.2328     0.0183    79.3042     0.1774     2.3824
  307.0000    25.5610    25.2376   -50.6803    96.3947     7.8072     0.2358     0.0260    79.3244     0.1741     2.3878
  307.5000    25.4303    24.7351   -50.6657    96.3961     7.8082     0.2406     0.0382    79.6217     0.1743     2.3886
  308.0000    25.4557    24.2522   -50.6483    96.3217     7.8092     0.2459     0.0383    81.1176     0.1734     2.3886
  308.5000    25.1266    23.7748   -50.6341    96.1715     7.8102     0.2513     0.0369    82.9081     0.1725     2.3887
  309.0000    25.3209    23.4529   -50.6199    96.0915     7.8263     0.2516     0.0325    83.2125     0.1727     2.3888
  309.5000    25.1663    23.0048   -50.6057    95.9340     7.8717     0.2512     0.0252    81.4447     0.1733     2.3873
  310.0000    25.1988    22.8647   -50.5915    96.1004     7.8727     0.2464     0.0193    80.1195     0.1757     2.3867
  310.5000    25.5626    23.2058   -50.5769    96.4054     7.8737     0.2415     0.0149    80.2780     0.1816     2.3785
  311.0000    25.5830    23.2243   -50.5595    96.7862     7.8747     0.2439     0.0090    80.5849     0.1888     2.3666
  311.5000    25.6034    23.0829   -50.5473    97.0912     7.8757     0.2466     0.0077    80.4466     0.1915     2.3606
  312.0000    25.6238    22.9424   -50.5311    97.2441     7.8769     0.2522     0.0032    80.0117     0.1933     2.3562
  312.5000    25.6443    22.9615   -50.6683    97.0938     7.8779     0.2633     0.0380    80.3190     0.1929     2.3578
  313.0000    25.4881    22.9836   -50.7988    97.0197     7.8789     0.2663     0.0201    80.6254     0.1917     2.3578
