~VERSION INFORMATION
 VERS.                2.0:   CWLS LOG ASCII STANDARD - VERSION 2.0
 WRAP.                 NO:   ONE LINE PER DEPTH STEP
~WELL INFORMATION
#MNEM.UNIT      DATA TYPE    INFORMATION
#----------   ------------   ------------------------------
 STRT.F           95.0000:   START DEPTH
 STOP.F          862.0000:   STOP DEPTH
 STEP.F            0.5000:   STEP LENGTH
 NULL.          -999.2500:   NO VALUE
 COMP. U S NAVY INTEX OIL:   COMPANY
 WELL. RES 3 TEAMPT DOME #13-S-35:   WELL
 FLD .        TEAPOT DOME:   FIELD
 LOC .      S35 T39N R78W:   LOCATION
 CNTY.            NATRONA:   COUNTY
 STAT.            WYOMING:   STATE
 CTRY. UNITED STATES OF AMERICA:   COUNTRY
 SRVC.       Schlumberger:   SERVICE COMPANY
 DATE.        27-JUL-1963:   LOGDATE
 API .       490250655000:   API NUMBER
~CURVE INFORMATION
#MNEM.UNIT       API CODE    CURVE DESCRIPTION
#----------   ------------   ------------------------------
 DEPT.F                  :   
 SPR .MV     05 010 01 00:   SPONTANEOUS POTENTIAL FROM RES.
 ILD .OHMM   05 120 46 00:   INDUCTION LOG DEEP
 ASN .OHMM   05 041 18 00:   AMPLIFIED SHORT NORMAL 18"
 CILD.MMHO   05 110 46 00:   CONDUCTIVITY INDUCTION LOG DEEP
 GR  .GAPI   30 310 01 00:   GAMMA RAY
~PARAMETER INFORMATION
#MNEM.UNIT          VALUE    DESCRIPTION
#----------   ------------   ------------------------------
 PD  .                 GL:   PERMANENT DATUM
 EPD .F              5100:   ELEVATION PERMANENT DATUM
 LMF .                 KB:   LOG MEASURED FROM
 DAPD.F               5.0:   FEET ABOVE PERMANENT DATUM
 DMF .                 KB:   DRILLING MEASURED FROM
 EKB .F              5105:   KELLING BUSHING
 EGL .F              5100:   GROUND LEVEL
 DATE.        27-JUL-1963:   RUN DATE
 RUN .                  1:   RUN NUMBER
 DD  .F               862:   DEPTH DRILLER
 DL  .F               863:   DEPTH LOGGER
 BLI .F               862:   BOTTOM LOG INTERVAL
 TLI .F               100:   TOP LOG INTERVAL
 CS  .IN            8.625:   CASING SIZE
 CBD .F                10:   CASING BOTTOM DRILLER
 BS  .IN             6.75:   BIT SIZE
 BSD .F               862:   BIT SIZE AT DEPTH
 DFT . NATURAL- GEL ADDED:   DRILLING FLUID TYPE
 DFD .                9.0:   DRILLING FLUID DENSITY
 DFV .                 38:   DRILLING FLUID VISCOSITY
 DFPH.                8.5:   DRILLING FLUID PH
 DFL .                5.6:   DRILLING FLUID LOSS
 MSS .           FLOWLINE:   MUD SAMPLE SOURCE
 RMS .OHMM            4.6:   RESISTIVITY MUD SAMPLE
 MST .F                83:   MUD SAMPLE TEMPERATURE
 RMF .OHMM            3.8:   RESISTIVITY MUD FILTRATE SAMPLE
 MFST.F                83:   MUD FILTRATE SAMPLE TEMPERATURE
 RMC .OHMM            4.8:   RESISTIVITY MUD CAKE
 MCST.F                83:   MUD CAKE SAMPLE TEMPERATURE
 MFSS.                 FP:   MUD FILTRATE SAMPLE SOURCE
 MCSS.                 FP:   MUD CAKE SAMPLE SOURCE
 TCS .HRS               1:   TIME CURCULATED STOPPED
 LUN .               2523:   LOGGING UNIT NUMBER
 LUL .               CSPR:   LOGGING UNIT LOCATION
 ENGI.            GIFFORD:   RECORDING ENGINEER
 WITN.          JORGENSON:   WITNESSED BY
 CLNT.            A2DTECH:   CLIENT CODE
 ORIG.           5" PRINT:   ORIGIN OF DATA
 UWI .       490250655000:   UNIQUE WELL ID
 DICO. A2D Technologies, Inc.:   DIGITIZING COMPANY
~OTHER INFORMATION
~A   DEPT      SPR        ILD        ASN       CILD         GR   
# ...
  217.0000   -35.7387     5.7472     7.6357   172.1781  -999.2500
  217.5000   -36.1862     5.9713     7.4181   166.9300  -999.2500
  218.0000   -36.4865     6.1205     7.2143   166.9371  -999.2500
  218.5000   -36.7868     6.1187     7.1536   166.0383  -999.2500
  219.0000   -36.9369     6.2679     7.1379   162.4487  -999.2500
  219.5000   -36.4860     6.3421     7.2721   158.7020  -999.2500
  220.0000   -35.7357     6.4156     7.3464   155.7062  -999.2500
  220.5000   -35.2853     6.4141     7.2405   151.9596  -999.2500
  221.0000   -34.9850     6.4124     7.2098   148.9649  -999.2500
  221.5000   -34.6847     6.4863     7.4490   145.2183  -999.2500
  222.0000   -34.8348     6.6355     7.5982   140.7209  -999.2500
  222.5000   -35.1351     6.7846     7.6919   139.9773  -999.2500
  223.0000   -35.5856     7.0087     7.7915   139.9862  -999.2500
  223.5000   -36.1862     7.0073     7.8358   140.7441  -999.2500
  224.0000   -36.4865     6.8553     7.7301   143.0034  -999.2500
  224.5000   -36.4865     6.6279     7.5645   149.0166  -999.2500
  225.0000   -36.3363     6.4006     7.3837   152.7793  -999.2500
  225.5000   -36.0360     6.0223     7.2030   155.0386  -999.2500
  226.0000   -35.8859     5.7950     7.0074   159.5503  -999.2500
  226.5000   -36.0360     5.5676     6.7818   168.5664  -999.2500
  227.0000   -36.4865     5.4156     6.6312   175.3353  -999.2500
  227.5000   -36.7868     5.1858     6.4504   179.8437  -999.2500
  228.0000   -36.4865     4.8853     6.2398   185.8569  -999.2500
  228.5000   -36.1862     4.5826     6.0742   196.3745  -999.2500
  229.0000   -35.7357     4.4306     5.9029   211.3967  -999.2500
  229.5000   -35.2853     4.2033     5.5778   223.7972  -999.2500
  230.0000   -35.1351     3.9759     5.2473   244.4457  -999.2500
  230.5000   -35.2853     3.9741     5.0367   246.7051  -999.2500
  231.0000   -35.2853     4.0480     4.7961   242.9585  -999.2500
  231.5000   -35.1351     4.1972     5.0610   241.4640  -999.2500
  232.0000   -34.6847     4.2710     5.3044   241.4715  -999.2500
  232.5000   -34.2167     4.4955     5.0486   241.4802  -999.2500
  233.0000   -34.0841     4.6447     4.8830   239.2351  -999.2500
  233.5000   -34.3844     4.8688     5.3021   224.9780  -999.2500
  234.0000   -34.5345     5.0933     5.5261   202.4626  -999.2500
  234.5000   -34.6847     5.1671     5.6603   187.1024  -999.2500
  235.0000   -35.0000     5.3163     5.7197   178.4546  -999.2500
  235.5000   -35.1351     5.3902     5.7490   173.9572  -999.2500
  236.0000   -35.2853     5.4641     5.7781   173.2118  -999.2500
  236.5000   -35.5856     5.3870     5.8074   176.2237  -999.2500
  237.0000   -35.7357     5.3855     5.8515   179.2357  -999.2500
  237.5000   -35.8859     5.3837     5.8659   182.2458  -999.2500
  238.0000   -36.0360     5.3070     5.8350   183.7544  -999.2500
  238.5000   -36.1862     5.1550     5.7894   184.5123  -999.2500
  239.0000   -36.0360     4.9276     5.6685   185.2703  -999.2500
  239.5000   -35.5856     4.7756     5.4579   188.2821  -999.2500
  240.0000   -35.2853     4.3973     5.2023   207.8088  -999.2500
  240.5000   -34.9850     3.8688     4.9767   228.8369  -999.2500
  241.0000   -34.8910     3.3402     4.8109   279.8951  -999.2500
  241.5000   -34.6210     3.0376     4.5104   307.4384  -999.2500
  242.0000   -34.2342     2.8103     3.9849   336.2174  -999.2500
  242.5000   -33.9339     2.6579     3.6993   401.5399  -999.2500
  243.0000   -33.6336     2.5811     3.4737   422.5681  -999.2500
  243.5000   -33.4835     2.5044     3.3531   428.5812  -999.2500
  244.0000   -33.9339     2.5783     3.4571   427.2878  -999.2500
  244.5000   -34.3844     2.6521     3.5764   416.5852  -999.2500
  245.0000   -34.8348     2.6503     3.5756   407.5834  -999.2500
  245.5000   -35.2853     2.7246     3.5000   388.0710  -999.2500
  246.0000   -35.7357     3.2499     3.3937   359.5496  -999.2500
  246.5000   -35.8859     3.6250     4.0831   286.7357  -999.2500
  247.0000   -35.5856     3.9387     4.5621   261.2173  -999.2500
  247.5000   -35.2853     4.5254     4.7713   215.4286  -999.2500
  248.0000   -35.1351     4.7502     4.8605   204.9252  -999.2500
  248.5000   -35.1236     4.8241     4.8898   190.6404  -999.2500
  249.0000   -34.9850     4.8223     4.9939   193.6800  -999.2500
  249.5000   -34.8348     4.8208     5.0383   204.9484  -999.2500
  250.0000   -34.8350     4.7436     5.0226   209.4616  -999.2500
  250.5000   -34.8364     4.6661     5.0964   209.4835  -999.2500
  251.0000   -34.8379     4.5133     5.0056   211.7579  -999.2500
  251.5000   -34.8394     4.2852     4.9147   217.7860  -999.2500
  252.0000   -35.1412     4.1323     4.8239   226.0664  -999.2500
  252.5000   -35.7432     3.9795     4.6731   244.1066  -999.2500
  253.0000   -35.8949     3.8267     4.5223   272.8078  -999.2500
  253.5000   -35.7192     3.5986     4.3715   290.0978  -999.2500
  254.0000   -35.1474     3.3705     4.1457   334.2687  -999.2500
  254.5000   -34.5483     3.2136     3.9185   369.5761  -999.2500
  255.0000   -34.0989     2.9894     3.6432   383.1118  -999.2500
  255.5000   -33.8001     2.9868     3.4807   387.6329  -999.2500
  256.0000   -33.6514     2.9845     3.4525   368.8918  -999.2500
  256.5000   -33.8034     3.0576     3.6913   351.6467  -999.2500
  257.0000   -33.9551     3.2813     3.9753   335.1524  -999.2500
  257.5000   -34.5571     3.5050     3.7195   317.1565  -999.2500
  258.0000   -34.7088     3.7287     3.6439   298.4099  -999.2500
  258.5000   -35.1607     4.1783     4.3774   270.6543  -999.2500
  259.0000   -35.4625     4.7032     4.9313   225.6314  -999.2500
  259.5000   -35.6141     5.1528     5.1553   204.6325  -999.2500
  260.0000   -35.6156     5.4518     5.2743   179.8799  -999.2500
  260.5000   -35.6174     5.5249     5.4084   173.8960  -999.2500
  261.0000   -35.4687     5.4473     5.5280   175.5205  -999.2500
  261.5000   -35.3197     5.3697     5.6044   179.9519  -999.2500
  262.0000   -35.1710     5.2165     5.6606   185.2293  -999.2500
  262.5000   -35.0223     5.0636     5.6445   190.5067  -999.2500
  263.0000   -35.1743     4.9108     5.5087   199.5379  -999.2500
  263.5000   -35.1758     4.5321     5.2829   219.8303  -999.2500
  264.0000   -35.1774     4.0781     5.0122   255.1377  -999.2500
  264.5000   -35.1788     3.6241     4.6815   277.6824  -999.2500
  265.0000   -35.1802     3.2453     4.3358   297.9748  -999.2500
  265.5000   -35.1817     3.0172     4.0200   310.7597  -999.2500
  266.0000   -35.1832     2.9397     3.8692   314.5356  -999.2500
  266.5000   -35.1847     3.0128     3.8983   314.5578  -999.2500
  267.0000   -35.1862     3.0106     4.0773   316.0815  -999.2500
  267.5000   -35.1880     3.1590     4.1814   317.6051  -999.2500
  268.0000   -35.0389     3.3821     3.9229   308.3177  -999.2500
  268.5000   -34.8906     3.6058     3.9675   293.6761  -999.2500
  269.0000   -34.8921     3.8300     4.3435   269.3134  -999.2500
  269.5000   -34.8936     4.1290     4.5525   245.6254  -999.2500
  270.0000   -34.7445     4.4280     4.7315   217.1190  -999.2500
  270.5000   -34.7464     4.7264     4.8656   209.6336  -999.2500
  271.0000   -35.0481     4.8001     5.0896   206.6528  -999.2500
  271.5000   -35.3499     4.8732     5.1936   203.6719  -999.2500
  272.0000   -35.5015     4.7951     5.2080   204.4448  -999.2500
  272.5000   -35.5030     4.7176     5.2218   208.2207  -999.2500
  273.0000   -35.2042     4.6401     5.2360   210.4955  -999.2500
  273.5000   -34.8884     4.5625     5.2351   212.7702  -999.2500
  274.0000   -34.6065     4.4096     5.0833   217.3017  -999.2500
  274.5000   -34.4579     4.3317     4.8394   222.5791  -999.2500
  275.0000   -34.6099     4.1035     4.7027   230.8596  -999.2500
  275.5000   -34.6113     3.8001     4.5716   249.6505  -999.2500
  276.0000   -34.7630     3.6473     4.4508   264.6877  -999.2500
  276.5000   -34.9146     3.4945     4.3000   281.9771  -999.2500
  277.0000   -35.0662     3.4170     4.1942   297.7650  -999.2500
  277.5000   -35.2178     3.3395     4.0884   303.7931  -999.2500
