~VERSION INFORMATION
 VERS.                2.0:   CWLS LOG ASCII STANDARD - VERSION 2.0
 WRAP.                 NO:   ONE LINE PER DEPTH STEP
~WELL INFORMATION
#MNEM.UNIT      DATA TYPE    INFORMATION
#----------   ------------   ------------------------------
 STRT.F           18.0000:   START DEPTH
 STOP.F          501.0000:   STOP DEPTH
 STEP.F            0.5000:   STEP LENGTH
 NULL.          -999.2500:   NO VALUE
 COMP. FENIX & SCISSON INC:   COMPANY
 WELL.     NPR-3 SX #34-3:   WELL
 FLD .             TEAPOT:   FIELD
 LOC .       S3 T38N R78W:   LOCATION
 CNTY.            NATRONA:   COUNTY
 STAT.            WYOMING:   STATE
 CTRY. UNITED STATES OF AMERICA:   COUNTRY
 SRVC.            Unknown:   SERVICE COMPANY
 DATE.        13-JUL-1978:   LOGDATE
 API .       490251066600:   API NUMBER
~CURVE INFORMATION
#MNEM.UNIT       API CODE    CURVE DESCRIPTION
#----------   ------------   ------------------------------
 DEPT.F                  :   
 SPR .MV     05 010 01 00:   SPONTANEOUS POTENTIAL FROM RES.
 SN  .OHMM   05 040 16 00:   SHORT NORMAL 16"
 ILD .OHMM   05 120 46 00:   INDUCTION LOG DEEP
 CALD.IN     45 280 60 00:   CALIPER FROM DENSITY LOG
 GRD .GAPI   45 310 01 00:   GAMMA RAY FROM DENSITY LOG
 CORR.G/C3   45 356 01 00:   DENSITY CORRECTION
 DEN .G/C3   45 350 01 00:   COMPENSATED BULK DENSTIY
 DPHI.DEC    45 890 12 00:   DENSITY POROSITY SANDSTONE
~PARAMETER INFORMATION
#MNEM.UNIT          VALUE    DESCRIPTION
#----------   ------------   ------------------------------
 PD  .                 GL:   PERMANENT DATUM
 EPD .F              5209:   ELEVATION PERMANENT DATUM
 LMF .                 KB:   LOG MEASURED FROM
 DAPD.F                 4:   FEET ABOVE PERMANENT DATUM
 DMF .                 KB:   DRILLING MEASURED FROM
 EKB .F              5213:   KELLING BUSHING
 EGL .F              5209:   GROUND LEVEL
 DATE.            7-13-78:   RUN DATE
 RUN .                  1:   RUN NUMBER
 DD  .F               500:   DEPTH DRILLER
 DL  .F               507:   DEPTH LOGGER
 BLI .F               500:   BOTTOM LOG INTERVAL
 TLI .F                30:   TOP LOG INTERVAL
 CS  .IN            8.625:   CASING SIZE
 CBL .F                30:   CASING BOTTOM LOGGER
 BS  .IN            7.875:   BIT SIZE
 BSD .F               500:   BIT SIZE AT DEPTH
 DFT .                KCL:   DRILLING FLUID TYPE
 DFD .                8.6:   DRILLING FLUID DENSITY
 DFV .                 32:   DRILLING FLUID VISCOSITY
 DFPH.                  9:   DRILLING FLUID PH
 DFL .               12.2:   DRILLING FLUID LOSS
 MSS .          FLOW LINE:   MUD SAMPLE SOURCE
 RMS .OHMM            .22:   RESISTIVITY MUD SAMPLE
 MST .F                80:   MUD SAMPLE TEMPERATURE
 RMF .OHMM            .19:   RESISTIVITY MUD FILTRATE SAMPLE
 MFST.F                88:   MUD FILTRATE SAMPLE TEMPERATURE
 RMC .OHMM            .38:   RESISTIVITY MUD CAKE
 MCST.F                84:   MUD CAKE SAMPLE TEMPERATURE
 MFSS.               MEAS:   MUD FILTRATE SAMPLE SOURCE
 BHT .F                76:   BOTTOM HOLE TEMPERATURE
 TCS .HRS               1:   TIME CURCULATED STOPPED
 MRT .F                76:   MAXIMUM RECORDED TEMPERATURE
 LUN .               2958:   LOGGING UNIT NUMBER
 LUL .               CASP:   LOGGING UNIT LOCATION
 ENGI.             MILLER:   RECORDING ENGINEER
 WITN.           MCGINLEY:   WITNESSED BY
 CLNT.            A2DTECH:   CLIENT CODE
 ORIG. 2", 2.5", 5" PRINT:   ORIGIN OF DATA
 UWI .       490251066600:   UNIQUE WELL ID
 DICO. A2D Technologies, Inc.:   DIGITIZING COMPANY
~OTHER INFORMATION
~A   DEPT      SPR         SN        ILD       CALD        GRD       CORR        DEN       DPHI   
# ...
   58.5000  -999.2500     8.0523     8.9351     7.4740    93.1815     0.0416     2.5140     0.1104
   59.0000  -999.2500     8.1711     9.0645     7.4193    92.3034     0.0462     2.5118     0.1162
   59.5000  -999.2500     8.1780     9.1958     7.3770    92.1692     0.0482     2.5051     0.1202
   60.0000  -999.2500     8.7091     9.3334     7.3341    92.6350     0.0541     2.5037     0.1148
   60.5000  -999.2500     9.4004     9.5298     7.2479    93.1048     0.0602     2.5202     0.1145
   61.0000  -999.2500     9.6025     9.6691     7.1168    92.3303     0.0784     2.5293     0.1183
   61.5000  -999.2500     9.6083     9.6749     7.0301    88.4956     0.0830     2.5038     0.1264
   62.0000  -999.2500     9.6141     9.6808     6.9581    83.8710     0.0697     2.4916     0.1315
   62.5000  -999.2500     9.5524     9.6866     6.9305    80.4440     0.0428     2.4766     0.1395
   63.0000  -999.2500     9.5596     9.7595     6.9178    81.5079     0.0234     2.4672     0.1443
   63.5000  -999.2500     9.4997     9.9009     6.8754    81.8234     0.0086     2.4530     0.1458
   64.0000  -999.2500     9.4402     9.9753     6.8627    82.2886     0.0072     2.4531     0.1466
   64.5000  -999.2500     9.3825    10.1898     6.8648    83.2029     0.0074     2.4524     0.1481
   65.0000  -999.2500     9.3237    10.3447     6.8672    85.1651     0.0075     2.4502     0.1508
   65.5000  -999.2500     9.2653    10.4167     6.8693    86.0794     0.0077     2.4442     0.1565
   66.0000  -999.2500     9.2058    10.4951     6.8713    84.6786     0.0078     2.4368     0.1580
   66.5000  -999.2500     9.2128    10.5014     6.8733    82.2193     0.0080     2.4361     0.1597
   67.0000  -999.2500     9.0908    10.5804     6.8753    83.2873     0.0066     2.4369     0.1569
   67.5000  -999.2500     8.9116    10.5868     6.8922    84.8004     0.0068     2.4416     0.1392
   68.0000  -999.2500     8.7949    10.5932     6.9534    85.5650     0.0069     2.4663     0.1332
   68.5000  -999.2500     8.8046    10.5996     7.0589    86.3295     0.0071     2.4693     0.1415
   69.0000  -999.2500     9.0530    10.6060     7.2089    86.3456     0.0087     2.4634     0.1328
   69.5000  -999.2500     9.2476    10.5396     7.3603    86.0583     0.0104     2.4807     0.1250
   70.0000  -999.2500     8.8785    10.5462     7.4980    86.0784     0.0135     2.4867     0.1258
   70.5000  -999.2500     8.5241    10.4095     7.6001    86.0945     0.0152     2.4853     0.1255
   71.0000  -999.2500     8.4695    10.2717     7.6613    86.1198     0.0168     2.4913     0.1219
   71.5000  -999.2500     8.4758    10.0692     7.6781    86.7729     0.0170     2.4914     0.1215
   72.0000  -999.2500     8.4810     9.7342     7.6801    89.4401     0.0171     2.4914     0.1245
   72.5000  -999.2500     8.5447     9.2815     7.6669    88.8574     0.0188     2.4915     0.1210
   73.0000  -999.2500     8.5500     8.7288     7.6250    88.2747     0.0204     2.4945     0.1169
   73.5000  -999.2500     8.3034     8.2658     7.5827    87.5423     0.0206     2.5006     0.1232
   74.0000  -999.2500     7.9367     7.9908     7.5107    87.4046     0.0192     2.4932     0.1313
   74.5000  -999.2500     7.8317     7.8828     7.4536    87.5744     0.0132     2.4745     0.1357
   75.0000  -999.2500     7.7292     7.8280     7.3965    88.6384     0.0105     2.4737     0.1291
   75.5000  -999.2500     7.7350     7.7877     7.2937    87.9060     0.0137     2.4761     0.1318
   76.0000  -999.2500     7.7397     7.7936     7.2057    84.7665     0.0183     2.4791     0.1308
   76.5000  -999.2500     7.7979     7.8522     7.1220    84.3453     0.0230     2.4837     0.1266
   77.0000  -999.2500     7.9108     8.0765     7.0352    89.7546     0.0261     2.4867     0.1263
   77.5000  -999.2500     8.0837     8.2501     6.9485    90.3695     0.0248     2.4838     0.1319
   78.0000  -999.2500     8.3693     8.5444     6.9352    88.5892     0.0189     2.4756     0.1373
   78.5000  -999.2500     8.4916     8.9103     6.9822    84.7130     0.0131     2.4726     0.1358
   79.0000  -999.2500     8.4968     9.0394     6.9842    83.2321     0.0117     2.4689     0.1406
   79.5000  -999.2500     8.3843     9.1705     6.9561    83.0945     0.0134     2.4659     0.1411
   80.0000  -999.2500     8.3318     9.1773     6.9438    85.9589     0.0133     2.4585     0.1459
   80.5000  -999.2500     8.2795     9.1198     6.9607    86.1247     0.0122     2.4503     0.1494
   81.0000  -999.2500     8.2858     9.1253     6.9923    87.3384     0.0093     2.4496     0.1467
   81.5000  -999.2500     8.2908     9.0667     7.0240    90.8383     0.0050     2.4534     0.1446
   82.0000  -999.2500     8.2958     9.0736     7.0264    91.4164     0.0006     2.4580     0.1439
   82.5000  -999.2500     8.1872     9.0791     7.0137    90.9834    -0.0008     2.4603     0.1418
   83.0000  -999.2500     8.1372     9.0850     6.9417    87.5564    -0.0021     2.4581     0.1454
   83.5000  -999.2500     7.9755     9.0276     6.8846    85.9217    -0.0035     2.4544     0.1465
   84.0000  -999.2500     7.8700     8.9711     6.8565    91.8252    -0.0033     2.4514     0.1511
   84.5000  -999.2500     7.7670     8.8836     6.9034    95.2382    -0.0017     2.4560     0.1342
   85.0000  -999.2500     7.7195     8.2138     7.0386    95.0948     0.0076     2.4728     0.1290
   85.5000  -999.2500     7.7241     7.9405     7.2477    94.9708     0.0182     2.4819     0.1280
   86.0000  -999.2500     7.7822     7.7828     7.5752    95.2902     0.0228     2.4892     0.1245
   86.5000  -999.2500     7.7869     7.7328     7.6660    95.9050     0.0260     2.4922     0.1253
   87.0000  -999.2500     7.8999     7.7387     7.6521    94.4240     0.0306     2.4870     0.1268
   87.5000  -999.2500     8.0153     7.7434     7.6085    92.7932     0.0383     2.4848     0.1256
   88.0000  -999.2500     8.1314     7.8555     7.5394    92.3601     0.0490     2.4879     0.1177
   88.5000  -999.2500     8.2492     7.9693     7.4527    91.6276     0.0626     2.4977     0.1039
   89.0000  -999.2500     8.3687     8.0882     7.3956    85.9511     0.0763     2.5210     0.1060
   89.5000    -0.6442     8.4899     8.2021     7.2792    85.3508     0.0884     2.5188     0.1176
   90.0000    -2.2651     8.4950     8.2081     7.1629    84.3443     0.0825     2.5031     0.1452
   90.5000    -2.2451     8.5002     8.2130     7.0910    83.1626     0.0602     2.4514     0.1473
   91.0000    -2.6755     8.4469     8.1616     7.0338    82.1307     0.0198     2.4571     0.1398
   91.5000    -4.4807     8.3364     8.1665     6.9619    82.2964     0.0170     2.4732     0.1355
   92.0000    -5.3472     8.2841     8.2848     6.8900    83.0609     0.0246     2.4598     0.1454
   92.5000    -6.0462     8.2904     8.5214     6.8180    83.8254     0.0203     2.4478     0.1520
   93.0000    -6.6254     8.2954     8.6449     6.8201    84.2905     0.0204     2.4441     0.1516
   93.5000    -7.0558     8.3004     8.7701     6.8226    84.4566     0.0206     2.4449     0.1492
   94.0000    -7.6351     8.3054     9.0265     6.7802    84.3224     0.0192     2.4457     0.1384
   94.5000    -8.2143     8.3104     9.4734     6.7379    84.1887     0.0179     2.4630     0.1290
   95.0000    -8.9424     8.3154     9.8113     6.6955    83.6099     0.0180     2.4751     0.1299
   95.5000    -9.6704     8.3205    10.0222     6.7271    82.5780     0.0182     2.4826     0.1296
   96.0000   -10.5473     8.3256    10.0976     6.8771    82.4403     0.0168     2.4827     0.1214
   96.5000   -11.4261     8.3318    10.1037     7.0862    87.4004     0.0125     2.4948     0.1181
   97.0000   -12.1677     8.3368    10.1098     7.2658    87.7235     0.0096     2.4949     0.1087
   97.5000   -12.7275     8.3418    10.0450     7.4157    86.9536     0.0173     2.5091     0.1015
   98.0000   -13.0131     8.3468     9.9836     7.6397    85.0571     0.0219     2.5234     0.1048
   98.5000   -13.2947     8.2933     9.7853     7.6565    84.9194     0.0281     2.5160     0.1090
