~VERSION INFORMATION
 VERS.                2.0:   CWLS LOG ASCII STANDARD - VERSION 2.0
 WRAP.                 NO:   ONE LINE PER DEPTH STEP
~WELL INFORMATION
#MNEM.UNIT      DATA TYPE    INFORMATION
#----------   ------------   ------------------------------
 STRT.F            0.0000:   START DEPTH
 STOP.F          962.0000:   STOP DEPTH
 STEP.F            0.5000:   STEP LENGTH
 NULL.          -999.2500:   NO VALUE
 COMP. FENIX & SCISSON INC:   COMPANY
 WELL.      NPR #3 #51-14:   WELL
 FLD .             TEAPOT:   FIELD
 LOC .      S14 T38N R78W:   LOCATION
 CNTY.            NATRONA:   COUNTY
 STAT.            WYOMING:   STATE
 CTRY. UNITED STATES OF AMERICA:   COUNTRY
 SRVC.              Welex:   SERVICE COMPANY
 DATE.        03-MAR-1977:   LOGDATE
 API .       490251029700:   API NUMBER
~CURVE INFORMATION
#MNEM.UNIT       API CODE    CURVE DESCRIPTION
#----------   ------------   ------------------------------
 DEPT.F                  :   
 SGRD.OHMM   07 220 05 00:   SHALLOW RESISTIVITY
 ILM .OHMM   07 120 44 00:   INDUCTION LOG MEDIUM
 ILD .OHMM   07 120 46 00:   INDUCTION LOG DEEP
 SPR .MV     07 010 01 00:   SPONTANEOUS POTENTIAL
 DPHI.DEC    45 890 12 00:   DENSITY POROSITY SANDSTONE
 RHOB.G/C3   45 350 01 00:   BULK DENSITY
 CORR.G/C3   45 356 01 00:   DENSITY CORRECTION
 CALD.IN     45 280 60 00:   CALIPER
 GRD .GAPI   45 310 01 00:   GAMMA RAY FROM DENSITY LOG
~PARAMETER INFORMATION
#MNEM.UNIT          VALUE    DESCRIPTION
#----------   ------------   ------------------------------
 PD  .                 GL:   PERMANENT DATUM
 EPD .F            5221.8:   ELEVATION PERMANENT DATUM
 LMF .                 GL:   LOG MEASURED FROM
 DMF .                 GL:   DRILLING MEASURED FROM
 EGL .F            5221.8:   GROUND LEVEL
 DATE.             3-3-77:   RUN DATE
 RUN .                  1:   RUN NUMBER
 DD  .F               967:   DEPTH DRILLER
 DL  .F               964:   DEPTH LOGGER
 BLI .F               962:   BOTTOM LOG INTERVAL
 TLI .F                42:   TOP LOG INTERVAL
 CS  .IN            8.625:   CASING SIZE
 CBD .F                42:   CASING BOTTOM DRILLER
 CBL .F                42:   CASING BOTTOM LOGGER
 BS  .IN            7.875:   BIT SIZE
 BSD .F               967:   BIT SIZE AT DEPTH
 DFT .           CHEM-GEL:   DRILLING FLUID TYPE
 DFD .                8.7:   DRILLING FLUID DENSITY
 DFV .                 33:   DRILLING FLUID VISCOSITY
 DFPH.                7.2:   DRILLING FLUID PH
 DFL .                 10:   DRILLING FLUID LOSS
 MSS .          FLOW LINE:   MUD SAMPLE SOURCE
 RMS .OHMM           .422:   RESISTIVITY MUD SAMPLE
 MST .F                56:   MUD SAMPLE TEMPERATURE
 RMF .OHMM           .372:   RESISTIVITY MUD FILTRATE SAMPLE
 MFST.F                56:   MUD FILTRATE SAMPLE TEMPERATURE
 RMC .OHMM           .484:   RESISTIVITY MUD CAKE
 MCST.F                56:   MUD CAKE SAMPLE TEMPERATURE
 MFSS.           MEASURED:   MUD FILTRATE SAMPLE SOURCE
 MCSS.           MEASURED:   MUD CAKE SAMPLE SOURCE
 RMB .OHMM           .284:   RESISTIVITY MUD AT BHT
 BHT .F                83:   BOTTOM HOLE TEMPERATURE
 TCS .HRS               2:   TIME CURCULATED STOPPED
 MRT .F                83:   MAXIMUM RECORDED TEMPERATURE
 LUN .               8611:   LOGGING UNIT NUMBER
 LUL .           GILLETTE:   LOGGING UNIT LOCATION
 ENGI.          D. LAWSON:   RECORDING ENGINEER
 WITN.         STUEBINGER:   WITNESSED BY
 CLNT.            A2DTECH:   CLIENT CODE
 ORIG.        2" 5" PRINT:   ORIGIN OF DATA
 UWI .       490251029700:   UNIQUE WELL ID
 DICO. A2D Technologies, Inc.:   DIGITIZING COMPANY
~OTHER INFORMATION
~A    DEPT    SGRD        ILM        ILD        SPR       DPHI       RHOB       CORR       CALD        GRD   
# ...
  328.5000     8.9964     7.4735     5.8687   -41.3892     0.1070     2.4753     0.0539     8.3900   111.4696
  329.0000     9.1672     7.5052     5.9647   -41.2541     0.1103     2.4675     0.0504     8.3829   111.5395
  329.5000     9.3330     7.6462     6.0095   -41.1190     0.1136     2.4603     0.0480     8.3757   110.8183
  330.0000     9.3204     7.7898     6.0539   -40.9832     0.1104     2.4673     0.0505     8.3685   109.1471
  330.5000     9.2992     7.9361     6.0986   -40.8479     0.1072     2.4748     0.0530     8.3613   107.5613
  331.0000     9.2780     8.0128     6.1429   -40.7574     0.1048     2.4757     0.0554     8.3541   106.8607
  331.5000     9.2569     8.0578     6.1762   -40.9100     0.1048     2.4751     0.0578     8.3469   106.5702
  332.0000     9.1413     7.4936     6.2340   -41.0582     0.1045     2.4772     0.0623     8.3398   107.6201
  332.5000     8.9964     6.9567     6.1378   -41.2059     0.1031     2.4805     0.0668     8.3326   108.6284
  333.0000     8.9964     6.7358     5.9768   -41.3884     0.1018     2.4830     0.0713     8.3254   109.6349
  333.5000     8.9964     6.5524     5.7424   -41.7711     0.1004     2.4822     0.0703     8.3182   110.1351
  334.0000     8.8526     6.3740     5.4291   -42.1572     0.1063     2.4788     0.0688     8.3110   109.9050
  334.5000     8.1328     6.2002     4.8109   -42.5429     0.1155     2.4607     0.0672     8.3038   109.4351
  335.0000     7.9204     6.0358     4.2396   -42.9283     0.1272     2.4423     0.0656     8.2966   110.0142
  335.5000     7.8177     5.6353     3.7362   -43.3137     0.1390     2.4195     0.0640     8.2894   112.0014
  336.0000     7.2301     5.0417     3.2927   -43.6994     0.1554     2.3948     0.0663     8.2823   116.3248
  336.5000     5.8241     4.3516     2.9018   -44.0863     0.1756     2.3702     0.0696     8.2794   121.3509
  337.0000     4.6915     3.7559     2.5574   -44.4772     0.1958     2.3302     0.0692     8.2999   126.3719
  337.5000     3.7792     3.2418     2.2538   -44.3748     0.2160     2.2868     0.0623     8.3201   131.4764
  338.0000     3.0443     2.7980     2.0936   -44.2044     0.2360     2.2598     0.0576     8.3402   132.8514
  338.5000     2.6283     2.6043     2.0625   -43.5148     0.2342     2.2586     0.0540     8.3603   127.7490
  339.0000     2.9424     2.6043     2.0319   -42.4308     0.2320     2.2641     0.0505     8.3805   122.8225
  339.5000     3.2464     2.6043     2.0138   -41.3434     0.2281     2.2689     0.0470     8.4005   117.8905
  340.0000     3.0755     2.8957     2.2550   -40.2197     0.2095     2.3019     0.0436     8.4126   112.9719
  340.5000     2.9615     3.4235     2.4446   -39.3364     0.1728     2.3491     0.0452     8.3972   108.0480
  341.0000     8.2071     4.0475     2.7421   -38.4847     0.1368     2.4381     0.0531     8.3826   103.1964
  341.5000     9.4010     4.7853     3.2961   -37.9967     0.1097     2.4698     0.0608     8.3680   101.0736
  342.0000     9.8680     5.6595     3.9617   -37.7330     0.1046     2.4767     0.0625     8.3534    99.3802
  342.5000    10.1069     6.6877     4.7620   -37.4893     0.0994     2.4836     0.0700     8.3389    97.6495
  343.0000    10.6186     7.2913     5.7312   -37.2517     0.0966     2.4840     0.0705     8.3243    95.7597
  343.5000    11.4542     7.8492     6.7073   -37.2554     0.1024     2.4786     0.0688     8.3097    93.7491
  344.0000    12.2909     8.4533     7.4777   -37.4347     0.1061     2.4741     0.0671     8.2951    91.7331
  344.5000    12.8932     9.0794     8.1321   -37.6183     0.1041     2.4764     0.0658     8.2806    90.5137
  345.0000    13.4755     9.4538     8.1418   -37.8393     0.1020     2.4785     0.0670     8.2660    91.8505
  345.5000    13.2200    10.0445     7.5072   -38.2081     0.1058     2.4761     0.0680     8.2514    96.6835
  346.0000    12.1421     9.8617     6.9631   -38.5639     0.1112     2.4659     0.0691     8.2368   102.5377
  346.5000    11.2502     9.1999     6.4612   -38.9199     0.1166     2.4557     0.0702     8.2221   107.9971
  347.0000    10.5679     8.1880     5.9958   -39.2768     0.1220     2.4456     0.0714     8.2177   111.8122
  347.5000     9.9270     7.1643     5.5640   -39.6338     0.1288     2.4292     0.0701     8.2190   115.6209
  348.0000     7.8681     6.2675     5.1381   -39.9658     0.1406     2.4093     0.0676     8.2204   118.3083
  348.5000     6.1123     5.4824     4.9473   -40.0911     0.1537     2.3955     0.0651     8.2218   116.5958
  349.0000     4.7484     4.6824     4.7510   -39.8842     0.1502     2.3947     0.0645     8.2232   112.3192
  349.5000     4.0468     5.1263     4.6444   -39.4521     0.1345     2.4428     0.0662     8.2246   103.6705
  350.0000     7.0874     5.9232     4.6444   -38.6890     0.1200     2.4659     0.0679     8.2260    94.6726
  350.5000    11.3844     6.7255     4.8288   -36.8124     0.1054     2.4746     0.0695     8.2274    96.7760
  351.0000    11.3381     7.3827     5.1855   -36.0319     0.0989     2.4823     0.0712     8.2288    99.3841
  351.5000    11.1873     8.1040     5.6305   -35.2902     0.0966     2.4853     0.0729     8.2302    99.7033
  352.0000    11.1137     8.8959     6.1136   -34.5403     0.1014     2.4810     0.0722     8.2316    98.7630
  352.5000    11.3745     9.5060     6.6382   -33.9216     0.1062     2.4716     0.0694     8.2330    97.8196
  353.0000    11.6830     9.5060     7.2100   -33.4359     0.1110     2.4615     0.0666     8.2344    96.9920
  353.5000    12.0011     9.5060     7.8370   -32.9507     0.1158     2.4514     0.0637     8.2358    97.5084
  354.0000    12.3278     9.5060     8.0269   -32.4622     0.1206     2.4410     0.0609     8.2372    98.4025
  354.5000    12.6627     9.5060     8.2184   -31.9741     0.1254     2.4374     0.0580     8.2386    99.3063
  355.0000    13.1133     9.6822     8.4170   -31.4847     0.1290     2.4355     0.0556     8.2400   100.1256
  355.5000    13.1077    10.2668     8.6204   -30.9953     0.1304     2.4336     0.0557     8.2414    98.5099
  356.0000    13.0713    10.8308     8.8287   -30.5046     0.1304     2.4355     0.0557     8.2428    96.7514
  356.5000    12.9677    11.4258     9.0420   -30.0141     0.1281     2.4402     0.0557     8.2442    95.0691
  357.0000    12.8649    12.0535     9.2605   -29.5639     0.1258     2.4450     0.0557     8.2456    95.3871
  357.5000    12.7531    12.5196     9.4842   -29.5377     0.1263     2.4443     0.0557     8.2470    95.8624
  358.0000    13.2439    11.9963     9.7134   -29.5003     0.1277     2.4422     0.0557     8.2484    96.6392
  358.5000    13.5998    11.6045     9.8617   -29.4620     0.1290     2.4401     0.0557     8.2498    98.7300
  359.0000    13.1971    11.2254     9.7419   -29.4240     0.1289     2.4398     0.0557     8.2512   100.7820
  359.5000    12.8666    10.8102     9.6550   -29.3819     0.1211     2.4504     0.0570     8.2527   102.8296
  360.0000    13.1387    11.1121     9.5690   -29.2158     0.1133     2.4623     0.0604     8.2541   104.9070
  360.5000    13.5568    11.8553     9.4834   -29.0371     0.1056     2.4741     0.0638     8.2554   105.3091
  361.0000    13.9841    12.7356     9.3995   -28.8586     0.1012     2.4794     0.0672     8.2510   103.6919
  361.5000    14.4250    13.5096     9.3336   -28.6804     0.1084     2.4687     0.0677     8.2270    99.8890
  362.0000    15.3443    13.5998     9.5148   -28.5021     0.1135     2.4603     0.0677     8.2039    96.2286
  362.5000    15.8975    13.1736     9.6674   -28.3239     0.1185     2.4537     0.0677     8.1807    93.7133
  363.0000    14.7715    12.8833     9.8225   -28.1456     0.1212     2.4548     0.0677     8.1576    94.9824
  363.5000    14.7086    12.6005     9.9801   -27.9673     0.1210     2.4558     0.0677     8.1372    96.9020
  364.0000    14.6470    12.3243    10.1402   -27.7891     0.1209     2.4538     0.0677     8.1428    98.3957
  364.5000    14.5844    12.0695    10.2405   -27.6108     0.1222     2.4514     0.0671     8.1480    99.5037
