~VERSION INFORMATION
 VERS.                2.0:   CWLS LOG ASCII STANDARD - VERSION 2.0
 WRAP.                 NO:   ONE LINE PER DEPTH STEP
~WELL INFORMATION
#MNEM.UNIT      DATA TYPE    INFORMATION
#----------   ------------   ------------------------------
 STRT.F           80.0000:   START DEPTH
 STOP.F          782.0000:   STOP DEPTH
 STEP.F            0.5000:   STEP LENGTH
 NULL.          -999.2500:   NO VALUE
 COMP.            US NAVY:   COMPANY
 WELL. NPR 3 TEAPOT DOM #87-S-34:   WELL
 FLD .             TEAPOT:   FIELD
 LOC .      S34 T39N R78W:   LOCATION
 CNTY.            NATRONA:   COUNTY
 STAT.            WYOMING:   STATE
 CTRY. UNITED STATES OF AMERICA:   COUNTRY
 SRVC.       Schlumberger:   SERVICE COMPANY
 DATE.        07-AUG-1961:   LOGDATE
 API .       490250651100:   API NUMBER
~CURVE INFORMATION
#MNEM.UNIT       API CODE    CURVE DESCRIPTION
#----------   ------------   ------------------------------
 DEPT.F                  :   
 GR  .GAPI   30 310 01 00:   GAMMA RAY
 SPR .MV     05 010 01 00:   SPONTANEOUS POTENTIAL FROM RES.
 ASN .OHMM   05 041 16 00:   AMPLIFIED SHORT NORMAL 16"
 ILD .OHMM   05 120 46 00:   INDUCTION LOG DEEP
 CILD.MMHO   05 110 46 00:   CONDUCTIVITY INDUCTION LOG DEEP
~PARAMETER INFORMATION
#MNEM.UNIT          VALUE    DESCRIPTION
#----------   ------------   ------------------------------
 PD  .                 KB:   PERMANENT DATUM
 EPD .F                  :   ELEVATION PERMANENT DATUM
 LMF .                 KB:   LOG MEASURED FROM
 DAPD.F                  :   FEET ABOVE PERMANENT DATUM
 DMF .                 KB:   DRILLING MEASURED FROM
 EKB .F              5102:   KELLING BUSHING
 EDF .F                  :   DRILLING FLOOR
 EGL .F              5097:   GROUND LEVEL
 DATE.        07-AUG-1961:   RUN DATE
 RUN .                  1:   RUN NUMBER
 DD  .F               770:   DEPTH DRILLER
 DL  .F               783:   DEPTH LOGGER
 BLI .F               782:   BOTTOM LOG INTERVAL
 TLI .F               100:   TOP LOG INTERVAL
 CS  .IN                 :   CASING SIZE
 CBD .F                  :   CASING BOTTOM DRILLER
 CBL .F                  :   CASING BOTTOM LOGGER
 BS  .IN             6.75:   BIT SIZE
 BSD .F               770:   BIT SIZE AT DEPTH
 DFT .       OIL EMULSION:   DRILLING FLUID TYPE
 DFD .               10.4:   DRILLING FLUID DENSITY
 DFV .                 45:   DRILLING FLUID VISCOSITY
 DFPH.                   :   DRILLING FLUID PH
 DFL .                   :   DRILLING FLUID LOSS
 MSS .                   :   MUD SAMPLE SOURCE
 RMS .OHMM           0.95:   RESISTIVITY MUD SAMPLE
 MST .F                72:   MUD SAMPLE TEMPERATURE
 RMF .OHMM               :   RESISTIVITY MUD FILTRATE SAMPLE
 MFST.F                  :   MUD FILTRATE SAMPLE TEMPERATURE
 RMC .OHMM               :   RESISTIVITY MUD CAKE
 MCST.F                  :   MUD CAKE SAMPLE TEMPERATURE
 MFSS.                   :   MUD FILTRATE SAMPLE SOURCE
 MCSS.                   :   MUD CAKE SAMPLE SOURCE
 RMB .OHMM               :   RESISTIVITY MUD AT BHT
 BHT .F                  :   BOTTOM HOLE TEMPERATURE
 TCS .HRS               1:   TIME CURCULATED STOPPED
 TLAB.HRS                :   TIME LOGGER AT BOTTOM
 MRT .F                  :   MAXIMUM RECORDED TEMPERATURE
 LUN .               2544:   LOGGING UNIT NUMBER
 LUL .                   :   LOGGING UNIT LOCATION
 ENGI.             QUINBY:   RECORDING ENGINEER
 WITN.          JORGENSON:   WITNESSED BY
 CLNT.            A2DTECH:   CLIENT CODE
 ORIG.       2", 5" PRINT:   ORIGIN OF DATA
 UWI .       490250651100:   UNIQUE WELL ID
 DICO. A2D Technologies, Inc.:   DIGITIZING COMPANY
 OS  .                   :   OTHER SERVICES
 PWI .                   :   PRIMARY WELL IDENTIFIER
 R1  .                   :   REMARKS 1
 R2  .                   :   REMARKS 2
~OTHER INFORMATION
~A   DEPT       GR        SPR         ASN         ILD      CILD  
# ...
  202.0000  -999.2500   -32.7795     8.9449     7.8548   139.6987
  202.5000  -999.2500   -32.8424     9.5992     9.2601   111.2448
  203.0000  -999.2500   -32.9305    10.1115     9.7229    98.0776
  203.5000  -999.2500   -32.9305    10.4674    10.1805    92.4398
  204.0000  -999.2500   -32.7795    10.6091    10.6897    87.5894
  204.5000  -999.2500   -32.7568    10.8621    10.9768    89.1314
  205.0000  -999.2500   -32.4773    11.1453    11.2224    91.2651
  205.5000  -999.2500   -32.3263    11.2568    11.3663    90.4719
  206.0000  -999.2500   -32.1752    11.3834    11.5492    86.2094
  206.5000  -999.2500   -32.0242    11.5221    11.6749    81.7169
  207.0000  -999.2500   -32.0242    11.6758    11.7417    81.7470
  207.5000  -999.2500   -32.0242    11.8385    11.8511    81.7813
  208.0000  -999.2500   -32.0242    11.9741    11.9769    81.8072
  208.5000  -999.2500   -32.2105    11.8989    12.1171    83.3413
  209.0000  -999.2500   -32.5226    11.8990    12.2284    81.8675
  209.5000  -999.2500   -32.7795    11.9372    12.3542    81.8976
  210.0000  -999.2500   -32.9305    12.2003    12.5677    81.9277
  210.5000  -999.2500   -32.9305    12.3219    12.6810    81.9613
  211.0000  -999.2500   -32.9305    12.4484    12.7314    81.9880
  211.5000  -999.2500   -32.9305    12.5770    12.8678    82.0181
  212.0000  -999.2500   -32.9305    12.6263    12.9830    82.0513
  212.5000  -999.2500   -32.9305    12.7529    13.0930    82.0783
  213.0000  -999.2500   -32.7795    12.8795    13.1679    82.1084
  213.5000  -999.2500   -32.4094    13.0292    13.2096    82.1413
  214.0000  -999.2500   -32.0041    13.1326    13.2600    81.3855
  214.5000  -999.2500   -31.7221    13.2552    13.3174    80.4016
  215.0000  -999.2500   -31.5710    13.2553    13.3609    77.7132
  215.5000  -999.2500   -31.5710    13.2865    13.4114    76.9277
  216.0000  -999.2500   -31.7221    13.3307    13.4669    76.2612
  216.5000  -999.2500   -31.7221    13.3308    13.5418    76.2972
  217.0000  -999.2500   -31.8731    13.4062    13.5628    76.3253
  217.5000  -999.2500   -32.0242    13.4815    13.6163    76.3554
  218.0000  -999.2500   -32.1148    13.5569    13.6913    76.3872
  218.5000  -999.2500   -32.1752    13.6694    13.8126    75.5421
  219.0000  -999.2500   -32.1752    13.7961    13.9917    74.5582
  219.5000  -999.2500   -32.1752    13.9337    14.0409    73.4639
  220.0000  -999.2500   -32.1752    14.0492    14.1666    71.9880
  220.5000  -999.2500   -32.0242    14.1758    14.2918    71.6065
  221.0000  -999.2500   -32.0242    14.2351    14.3666    70.5422
  221.5000  -999.2500   -31.8731    14.3536    14.5439    69.6385
  222.0000  -999.2500   -31.8731    14.5555    14.7500    68.2129
  222.5000  -999.2500   -31.8731    14.8377    15.1938    64.6090
  223.0000  -999.2500   -31.8731    15.3699    15.5813    64.6386
  223.5000  -999.2500   -31.8555    15.9805    16.1100    63.1570
  224.0000  -999.2500   -31.5710    16.4946    16.5481    63.1930
  224.5000  -999.2500   -31.3469    17.0187    16.8352    61.7169
  225.0000  -999.2500   -31.0926    17.1975    17.1624    60.2350
  225.5000  -999.2500   -30.9668    17.2488    17.3000    60.2711
  226.0000  -999.2500   -30.9668    17.2710    17.1918    60.3070
  226.5000  -999.2500   -30.9668    17.1445    17.0652    60.3313
  227.0000  -999.2500   -30.8157    17.0181    16.9224    60.3614
  227.5000  -999.2500   -30.9668    16.8716    16.8123    60.3970
  228.0000  -999.2500   -31.0071    16.6900    16.6104    60.9839
  228.5000  -999.2500   -31.2689    16.4812    16.4695    61.9578
  229.0000  -999.2500   -31.4199    16.1941    16.3574    63.4990
  229.5000  -999.2500   -31.6189    16.0506    16.2309    63.5241
  230.0000  -999.2500   -31.7221    15.8078    16.0165    63.5542
  230.5000  -999.2500   -31.8731    15.5920    15.9026    63.5890
  231.0000  -999.2500   -31.5156    15.4043    15.7761    63.6145
  231.5000  -999.2500   -31.1103    15.2778    15.6496    63.7751
  232.0000  -999.2500   -30.8157    15.1404    15.5231    65.1850
  232.5000  -999.2500   -30.7528    15.0250    15.3966    65.2108
  233.0000  -999.2500   -30.6647    14.8985    15.2700    65.4016
  233.5000  -999.2500   -30.6647    14.7641    15.1435    68.2871
  234.0000  -999.2500   -30.5841    14.5704    14.9418    68.9960
  234.5000  -999.2500   -30.6647    14.4439    14.7330    70.2310
  235.0000  -999.2500   -30.8157    14.2372    14.2997    75.9072
  235.5000  -999.2500   -30.8938    13.9943    13.9210    78.8654
  236.0000  -999.2500   -31.1480    13.6530    13.4518    84.1566
  236.5000  -999.2500   -31.5710    12.6561    12.6921    95.5755
  237.0000  -999.2500   -31.8933    11.1854    11.0877   106.8474
  237.5000  -999.2500   -32.1752    10.4500     9.0832   119.4780
  238.0000  -999.2500   -32.3263     9.8189     7.9759   130.3041
  238.5000  -999.2500   -32.4194     8.9998     6.8869   139.4478
  239.0000  -999.2500   -32.2810     8.1987     6.2959   145.3212
  239.5000  -999.2500   -31.8731     7.7591     5.9705   154.4905
  240.0000  -999.2500   -31.4199     7.6566     6.0191   158.3333
  240.5000  -999.2500   -31.2689     7.8073     6.1442   160.5723
  241.0000  -999.2500   -31.1178     7.8718     6.2191   159.0986
  241.5000  -999.2500   -31.1178     7.9295     6.2187   156.7871
  242.0000  -999.2500   -31.1178     7.9581     6.2184   156.1405
  242.5000  -999.2500   -31.1178     7.9732     6.2179   156.1765
  243.0000  -999.2500   -31.1178     7.9539     6.1423   156.2048
  243.5000  -999.2500   -31.1858     7.8078     6.1420   156.2349
  244.0000  -999.2500   -31.2890     7.6716     6.1415   156.2665
  244.5000  -999.2500   -31.4199     7.5049     6.1720   156.2952
  245.0000  -999.2500   -31.7976     7.3712     6.2224   155.9237
  245.5000  -999.2500   -32.0519     7.3974     6.3663   154.8494
  246.0000  -999.2500   -32.1752     7.5056     6.3986   153.9558
  246.5000  -999.2500   -32.3263     7.6124     6.5162   151.4659
  247.0000  -999.2500   -32.3263     7.6930     6.5911   150.4217
  247.5000  -999.2500   -32.3263     7.8054     6.6252   149.4980
  248.0000  -999.2500   -32.0846     7.8988     6.6657   148.5141
  248.5000  -999.2500   -31.8303     7.9723     6.6652   145.9943
  249.0000  -999.2500   -31.5710     8.0287     6.6285   146.0241
  249.5000  -999.2500   -31.1707     7.8840     6.4267   146.0542
  250.0000  -999.2500   -30.9668     7.6732     6.2876   146.0844
  250.5000  -999.2500   -30.8132     7.5974     6.2120   147.7050
  251.0000  -999.2500   -30.5136     7.5370     6.1363   149.3256
  251.5000  -999.2500   -30.5136     7.4776     6.1359   150.9462
  252.0000  -999.2500   -30.5136     7.4626     6.0954   152.5668
  252.5000  -999.2500   -30.5136     7.4477     6.0599   153.8663
  253.0000  -999.2500   -30.5136     7.4478     6.1348   153.7388
  253.5000  -999.2500   -30.5136     7.4478     6.1344   150.8473
  254.0000  -999.2500   -30.8157     7.4677     6.2094   150.1801
  254.5000  -999.2500   -31.2638     7.5835     6.2842   147.6502
  255.0000  -999.2500   -31.5962     7.7091     6.5223   144.8189
  255.5000  -999.2500   -31.7221     7.8290     6.6795   142.5901
  256.0000  -999.2500   -31.9537     7.8849     6.8855   141.5616
  256.5000  -999.2500   -32.0242     7.9078     7.0521   138.7906
  257.0000  -999.2500   -32.0242     7.9180     7.2287   136.5016
  257.5000  -999.2500   -31.9360     7.9304     7.4115   133.9716
  258.0000  -999.2500   -31.6818     8.0400     7.5819   131.2607
  258.5000  -999.2500   -31.5710     8.2371     7.7351   129.7523
  259.0000  -999.2500   -31.3243     8.3974     7.7869   128.2432
  259.5000  -999.2500   -31.1178     8.4993     7.7865   126.7339
  260.0000  -999.2500   -30.9668     8.5904     7.8865   125.8256
  260.5000  -999.2500   -30.8157     8.6688     7.9364   123.2959
  261.0000  -999.2500   -30.8157     8.7178     8.0112   122.2070
  261.5000  -999.2500   -30.6647     8.7639     8.0109   122.1997
  262.0000  -999.2500   -30.6647     8.7895     7.9302   124.1741
  262.5000  -999.2500   -30.8786     8.8950     7.7089   128.1907
