~VERSION INFORMATION
 VERS.                2.0:   CWLS LOG ASCII STANDARD - VERSION 2.0
 WRAP.                 NO:   ONE LINE PER DEPTH STEP
~WELL INFORMATION
#MNEM.UNIT      DATA TYPE    INFORMATION
#----------   ------------   ------------------------------
 STRT.F           34.0000:   START DEPTH
 STOP.F          614.0000:   STOP DEPTH
 STEP.F            0.5000:   STEP LENGTH
 NULL.          -999.2500:   NO VALUE
 COMP. FENIX & SCISSON INC:   COMPANY
 WELL.      71-SX-3 #71-3:   WELL
 FLD .             TEAPOT:   FIELD
 LOC .       S3 T38N R78W:   LOCATION
 CNTY.            NATRONA:   COUNTY
 STAT.            WYOMING:   STATE
 CTRY. UNITED STATES OF AMERICA:   COUNTRY
 SRVC.              Welex:   SERVICE COMPANY
 DATE.        10-MAR-1977:   LOGDATE
 API .       490251028900:   API NUMBER
~CURVE INFORMATION
#MNEM.UNIT       API CODE    CURVE DESCRIPTION
#----------   ------------   ------------------------------
 DEPT.F                  :   
 CALD.IN     45 280 60 00:   CALIPER
 GRD .GAPI   45 310 01 00:   GAMMA RAY FROM DENSITY LOG
 RHOB.G/C3   45 350 01 00:   BULK DENSITY
 DPHI.DEC    45 890 12 00:   DENSITY POROSITY SANDSTONE
 CORR.G/C3   45 356 01 00:   DENSITY CORRECTION
 SGRD.OHMM   07 220 05 00:   SHALLOW RESISTIVITY
 ILD .OHMM   07 120 46 00:   INDUCTION LOG DEEP
 ILM .OHMM   07 120 44 00:   INDUCTION LOG MEDIUM
 SPR .MV     07 010 01 00:   SPONTANEOUS POTENTIAL
~PARAMETER INFORMATION
#MNEM.UNIT          VALUE    DESCRIPTION
#----------   ------------   ------------------------------
 PD  .                 GL:   PERMANENT DATUM
 EPD .F              5117:   ELEVATION PERMANENT DATUM
 LMF .                 GL:   LOG MEASURED FROM
 DMF .                 GL:   DRILLING MEASURED FROM
 EGL .F              5117:   GROUND LEVEL
 DATE.          3-10-1977:   RUN DATE
 RUN .                  1:   RUN NUMBER
 DD  .F               630:   DEPTH DRILLER
 DL  .F               619:   DEPTH LOGGER
 BLI .F               617:   BOTTOM LOG INTERVAL
 TLI .F                34:   TOP LOG INTERVAL
 CS  .IN            8.625:   CASING SIZE
 CBD .F                40:   CASING BOTTOM DRILLER
 CBL .F                41:   CASING BOTTOM LOGGER
 BS  .IN            7.875:   BIT SIZE
 BSD .F               630:   BIT SIZE AT DEPTH
 DFT .            KCL MUD:   DRILLING FLUID TYPE
 DFD .                  9:   DRILLING FLUID DENSITY
 DFV .                 33:   DRILLING FLUID VISCOSITY
 MSS .            MUD PIT:   MUD SAMPLE SOURCE
 RMS .OHMM           2.33:   RESISTIVITY MUD SAMPLE
 MST .F                57:   MUD SAMPLE TEMPERATURE
 RMF .OHMM           1.83:   RESISTIVITY MUD FILTRATE SAMPLE
 MFST.F                57:   MUD FILTRATE SAMPLE TEMPERATURE
 RMC .OHMM           2.53:   RESISTIVITY MUD CAKE
 MCST.F                57:   MUD CAKE SAMPLE TEMPERATURE
 MFSS.           FANN KIT:   MUD FILTRATE SAMPLE SOURCE
 MCSS.           FANN KIT:   MUD CAKE SAMPLE SOURCE
 RMB .OHMM            2.1:   RESISTIVITY MUD AT BHT
 BHT .F                63:   BOTTOM HOLE TEMPERATURE
 TCS .HRS             1.5:   TIME CURCULATED STOPPED
 MRT .F                63:   MAXIMUM RECORDED TEMPERATURE
 LUN .               8611:   LOGGING UNIT NUMBER
 LUL .           GILLETTE:   LOGGING UNIT LOCATION
 ENGI.               DOAK:   RECORDING ENGINEER
 WITN.              BURKE:   WITNESSED BY
 CLNT.            A2DTECH:   CLIENT CODE
 ORIG.       2", 5" PRINT:   ORIGIN OF DATA
 UWI .       490251028900:   UNIQUE WELL ID
 DICO. A2D Technologies, Inc.:   DIGITIZING COMPANY
~OTHER INFORMATION
~A   DEPT     CALD        GRD       RHOB       DPHI       CORR       SGRD        ILD        ILM        SPR   
# ...
  216.5000     7.7133    98.9747     2.4168     0.1406     0.0504     8.2395     6.3421     7.1418   -41.4417
  217.0000     7.6556   102.8292     2.4258     0.1363     0.0488     8.1274     6.3884     7.1300   -41.7788
  217.5000     7.6429   101.6755     2.4347     0.1318     0.0473     8.0133     6.4301     7.1183   -42.0413
  218.0000     7.6961   100.5313     2.4329     0.1310     0.0457     7.8676     6.4478     7.1110   -42.3042
  218.5000     7.8713   102.5273     2.4232     0.1368     0.0442     7.9443     6.4656     7.4349   -42.5572
  219.0000     7.9900   104.4891     2.4147     0.1416     0.0427     8.0447     6.4834     7.3286   -42.4262
  219.5000     7.9889   106.4445     2.4158     0.1413     0.0423     8.1463     6.5012     7.2447   -42.2746
  220.0000     7.9819   108.3956     2.4199     0.1385     0.0436     8.2493     6.5191     7.1618   -42.1220
  220.5000     7.9755   110.3624     2.4239     0.1357     0.0449     8.3137     6.5371     7.1207   -41.9930
  221.0000     7.9693   110.2013     2.4279     0.1329     0.0462     8.0875     6.5551     7.2145   -42.5090
  221.5000     7.9631   107.8981     2.4319     0.1302     0.0475     8.1465     6.5731     7.2904   -43.0211
  222.0000     7.9569   105.6013     2.4353     0.1303     0.0487     8.3014     6.5912     7.3672   -43.2564
  222.5000     7.9507   103.3048     2.4331     0.1316     0.0499     8.4593     6.6094     7.4455   -43.5042
  223.0000     7.9444   101.2437     2.4309     0.1324     0.0504     8.6201     6.6276     7.3844   -43.7505
  223.5000     7.9382   100.4944     2.4341     0.1313     0.0508     8.7851     6.6461     7.3073   -43.9650
  224.0000     7.9320   101.9058     2.4379     0.1301     0.0512     8.6382     6.6678     7.2311   -44.0000
  224.5000     7.9258   103.6221     2.4402     0.1290     0.0516     8.4723     6.6262     7.1558   -44.0410
  225.0000     7.9196   105.3551     2.4384     0.1278     0.0526     8.3096     6.5743     7.1110   -44.0823
  225.5000     7.9134   105.0613     2.4402     0.1267     0.0551     8.0875     6.5228     7.2877   -44.1227
  226.0000     7.9072   101.6828     2.4455     0.1240     0.0575     8.1883     6.4717     7.3773   -44.1189
  226.5000     7.9010    98.3558     2.4556     0.1205     0.0599     8.5171     6.4210     7.2614   -44.0451
  227.0000     7.8948    95.6982     2.4656     0.1169     0.0623     8.3824     6.3707     7.1665   -43.9720
  227.5000     7.8886    98.1047     2.4745     0.1138     0.0648     8.1193     6.3208     7.0459   -43.8981
  228.0000     7.8823   100.7134     2.4757     0.1147     0.0672     7.8676     6.2523     7.1090   -43.8222
  228.5000     7.8763   100.8662     2.4713     0.1155     0.0696     8.0910     6.2804     7.1616   -43.7650
  229.0000     7.8606    99.0239     2.4656     0.1163     0.0686     8.3433     6.3488     7.2145   -44.1101
  229.5000     7.8396    97.2782     2.4681     0.1157     0.0667     8.5461     6.4180     7.2679   -44.4627
  230.0000     7.8185    96.8526     2.4730     0.1145     0.0649     8.4388     6.4865     7.3104   -44.6993
  230.5000     7.7973    96.4896     2.4756     0.1142     0.0630     8.1622     6.5899     7.4388   -44.4383
  231.0000     7.7762    96.1427     2.4719     0.1145     0.0612     8.7393     6.7181     7.6009   -44.2676
  231.5000     7.7550    95.2142     2.4644     0.1166     0.0597     9.2419     6.8489     7.7664   -44.1531
  232.0000     7.7336    90.6997     2.4564     0.1196     0.0593     9.5615     6.9822     7.9353   -44.2201
  232.5000     7.7151    85.1501     2.4485     0.1231     0.0588     9.6057     7.1181     8.1076   -44.2903
  233.0000     7.7449    82.5313     2.4462     0.1258     0.0583     9.6500     7.2567     8.2838   -44.2977
  233.5000     7.7757    84.0874     2.4444     0.1267     0.0579     9.6945     7.3979     8.4313   -44.0591
  234.0000     7.7807    82.9043     2.4425     0.1271     0.0569     9.7393     7.5419     8.4962   -43.8254
  234.5000     7.7507    79.2717     2.4406     0.1274     0.0555     9.7842     7.6536     8.5617   -43.5956
  235.0000     7.7512    75.6758     2.4388     0.1277     0.0541     9.8095     7.8253     8.6277   -43.4594
  235.5000     7.7927    72.0476     2.4371     0.1289     0.0527    10.0659     7.9944     8.6941   -43.3453
  236.0000     7.8337    70.0626     2.4353     0.1303     0.0513    10.3797     8.1672     8.9270   -43.2312
  236.5000     7.8749    69.6934     2.4325     0.1316     0.0499    10.7034     8.3437     9.1525   -43.1176
  237.0000     7.9124    69.7628     2.4306     0.1316     0.0485    11.1567     8.5240     9.3837   -42.9963
  237.5000     7.8844    72.1132     2.4311     0.1314     0.0471    11.1114     8.6641     9.6207   -43.3147
  238.0000     7.8380    75.0173     2.4315     0.1315     0.0457    11.0636     8.7519     9.9001   -43.8481
  238.5000     7.8657    77.9453     2.4328     0.1318     0.0443    12.2241     8.8405     9.8865   -44.1444
  239.0000     7.8711    80.7487     2.4329     0.1320     0.0429    11.8628     8.9300     9.8565   -44.0893
  239.5000     7.8135    81.0600     2.4332     0.1319     0.0415    11.5998     9.0204     9.8268   -43.8383
  240.0000     7.7560    78.4984     2.4334     0.1314     0.0401    11.4231     9.1117     9.7969   -43.5901
  240.5000     7.7200    75.5673     2.4336     0.1309     0.0421    11.2598     9.1982     9.7672   -43.3430
  241.0000     7.7555    72.6295     2.4346     0.1304     0.0444    11.8982     9.1010     9.7375   -43.0957
  241.5000     7.7891    69.8099     2.4355     0.1301     0.0467    11.7774     9.0103     9.7080   -42.8379
  242.0000     7.8226    72.3244     2.4308     0.1329     0.0490    11.5980     8.9206     9.6786   -42.8021
  242.5000     7.8561    76.3239     2.4255     0.1369     0.0513    11.4281     8.8317     9.6493   -42.8514
  243.0000     7.8748    75.4334     2.4220     0.1376     0.0497    11.2787     8.7608     9.6200   -42.9052
  243.5000     7.8414    73.8534     2.4237     0.1366     0.0467    11.2598     8.7095     9.5908   -42.9560
  244.0000     7.8043    72.2689     2.4252     0.1355     0.0439    11.0576     8.6584     9.5618   -42.7228
  244.5000     7.7669    70.6773     2.4265     0.1345     0.0449    10.8308     8.6076     9.5328   -42.4471
  245.0000     7.7296    67.9654     2.4281     0.1334     0.0461    10.6087     8.5571     9.5039   -42.1748
  245.5000     7.6921    65.2767     2.4325     0.1308     0.0472    10.3627     8.5070     9.4751   -42.0204
  246.0000     7.6765    64.8128     2.4380     0.1280     0.0484    10.6560     8.4571     9.4463   -42.2290
  246.5000     7.7416    67.8791     2.4435     0.1252     0.0495    11.2778     8.4075     9.4177   -42.4272
  247.0000     7.8055    69.6264     2.4491     0.1224     0.0518    12.0081     8.3583     9.3891   -42.5977
  247.5000     7.8687    67.0458     2.4580     0.1196     0.0544    11.2255     8.3137     9.3689   -42.6939
  248.0000     7.9135    64.6105     2.4673     0.1169     0.0571    10.2709     8.3735     9.0307   -42.7212
  248.5000     7.9074    65.2632     2.4763     0.1141     0.0583    10.4227     8.4288     9.2159   -42.5359
  249.0000     7.9023    71.0297     2.4686     0.1159     0.0591    10.5956     8.4679     9.6308   -42.3358
  249.5000     7.8974    74.4472     2.4559     0.1230     0.0598    10.7540     8.3852     9.5650   -42.4903
  250.0000     7.8994    75.5925     2.4431     0.1300     0.0606    10.2709     8.2939     9.4338   -42.3006
  250.5000     7.9227    74.9772     2.4321     0.1318     0.0614    11.5744     8.2036     9.2373   -41.9896
  251.0000     7.9450    72.7279     2.4312     0.1314     0.0622    12.1189     8.1143     8.9797   -42.2426
  251.5000     7.9677    70.5062     2.4307     0.1310     0.0630    10.6067     8.0260     8.7047   -42.4947
  252.0000     7.9667    68.2785     2.4294     0.1321     0.0638     9.5427     7.9386     8.7972   -42.7358
  252.5000     7.9565    70.1198     2.4269     0.1333     0.0645     9.5977     7.8521     8.8377   -42.4154
