~VERSION INFORMATION
 VERS.                2.0:   CWLS LOG ASCII STANDARD - VERSION 2.0
 WRAP.                 NO:   ONE LINE PER DEPTH STEP
~WELL INFORMATION
#MNEM.UNIT      DATA TYPE    INFORMATION
#----------   ------------   ------------------------------
 STRT.F           70.0000:   START DEPTH
 STOP.F         1043.0000:   STOP DEPTH
 STEP.F            0.5000:   STEP LENGTH
 NULL.          -999.2500:   NO VALUE
 COMP. U S NAVY/INTEX OIL CO:   COMPANY
 WELL.       NPR 3 #54S-2:   WELL
 FLD .             TEAPOT:   FIELD
 LOC .       S2 T38N R78W:   LOCATION
 CNTY.            NATRONA:   COUNTY
 STAT.            WYOMING:   STATE
 CTRY. UNITED STATES OF AMERICA:   COUNTRY
 SRVC.         Lane Wells:   SERVICE COMPANY
 DATE.        14-JUN-1960:   LOGDATE
 API .       490250643300:   API NUMBER
~CURVE INFORMATION
#MNEM.UNIT       API CODE    CURVE DESCRIPTION
#----------   ------------   ------------------------------
 DEPT.F                  :   
 CILD.MMHO   05 110 46 00:   CONDUCTIVITY INDUCTION LOG DEEP
 ILD .OHMM   05 120 46 00:   INDUCTION LOG DEEP
 ASN .OHMM   05 041 16 00:   AMPLIFIED SHORT NORMAL 16"
 SPR .MV     05 010 01 00:   SPONTANEOUS POTENTIAL FROM RES.
~PARAMETER INFORMATION
#MNEM.UNIT          VALUE    DESCRIPTION
#----------   ------------   ------------------------------
 PD  .                 GL:   PERMANENT DATUM
 EPD .F              6164:   ELEVATION PERMANENT DATUM
 LMF .                 KB:   LOG MEASURED FROM
 DAPD.F                 5:   FEET ABOVE PERMANENT DATUM
 DMF .                 KB:   DRILLING MEASURED FROM
 EKB .F              6169:   KELLING BUSHING
 EGL .F              6164:   GROUND LEVEL
 DATE.            6-14-60:   RUN DATE
 RUN .                  1:   RUN NUMBER
 DD  .F              1045:   DEPTH DRILLER
 DL  .F              1045:   DEPTH LOGGER
 BLI .F              1043:   BOTTOM LOG INTERVAL
 TLI .F                70:   TOP LOG INTERVAL
 CS  .IN            8.625:   CASING SIZE
 CBD .F                12:   CASING BOTTOM DRILLER
 BS  .IN            7.875:   BIT SIZE
 BSD .F              1045:   BIT SIZE AT DEPTH
 DFT .   GEL/OIL EMULSION:   DRILLING FLUID TYPE
 DFD .                9.7:   DRILLING FLUID DENSITY
 DFV .                 45:   DRILLING FLUID VISCOSITY
 DFPH.                  8:   DRILLING FLUID PH
 DFL .               11.6:   DRILLING FLUID LOSS
 MSS .          FLOW LINE:   MUD SAMPLE SOURCE
 RMS .OHMM            1.6:   RESISTIVITY MUD SAMPLE
 MST .F                62:   MUD SAMPLE TEMPERATURE
 RMF .OHMM            1.4:   RESISTIVITY MUD FILTRATE SAMPLE
 MFST.F                60:   MUD FILTRATE SAMPLE TEMPERATURE
 RMC .OHMM           1.75:   RESISTIVITY MUD CAKE
 MCST.F                60:   MUD CAKE SAMPLE TEMPERATURE
 MFSS.                MUD:   MUD FILTRATE SAMPLE SOURCE
 MCSS.              PRESS:   MUD CAKE SAMPLE SOURCE
 RMB .OHMM            1.4:   RESISTIVITY MUD AT BHT
 BHT .F                72:   BOTTOM HOLE TEMPERATURE
 MRT .F                72:   MAXIMUM RECORDED TEMPERATURE
 LUN .             C-4474:   LOGGING UNIT NUMBER
 LUL .             CASPER:   LOGGING UNIT LOCATION
 ENGI.      NELSON/GRIGGS:   RECORDING ENGINEER
 WITN.   JORGENSEN/HUDSON:   WITNESSED BY
 CLNT.            A2DTECH:   CLIENT CODE
 ORIG.       2", 5" PRINT:   ORIGIN OF DATA
 UWI .       490250643300:   UNIQUE WELL ID
 DICO. A2D Technologies, Inc.:   DIGITIZING COMPANY
~OTHER INFORMATION
~A   DEPT     CILD          ILD        ASN      SPR   
# ...
  508.0000   168.4657     6.4270     6.8383   -39.1930
  508.5000   169.1471     6.3704     6.8110   -39.1931
  509.0000   169.8284     6.3397     6.7116   -39.2015
  509.5000   170.5098     6.2898     6.6232   -39.1855
  510.0000   171.1911     6.2366     6.5331   -39.3079
  510.5000   171.8725     6.1869     6.4421   -39.5221
  511.0000   172.5539     6.1636     6.3662   -39.7105
  511.5000   172.8004     6.1722     6.3334   -39.9031
  512.0000   172.8004     6.1595     6.3034   -40.1077
  512.5000   172.8004     6.2467     6.2931   -40.2326
  513.0000   171.3624     6.3794     6.2946   -40.0047
  513.5000   170.0848     6.4719     6.3534   -39.7607
  514.0000   168.8073     6.5814     6.4354   -39.5638
  514.5000   167.5297     6.6222     6.5078   -39.5550
  515.0000   166.2522     6.6162     6.5854   -39.5458
  515.5000   164.9747     6.6211     6.6575   -39.6306
  516.0000   163.6971     6.6141     6.7229   -39.7945
  516.5000   162.4196     6.6599     6.7728   -39.9341
  517.0000   161.1420     6.7473     6.8485   -40.0901
  517.5000   159.8645     6.8229     6.9468   -40.2289
  518.0000   158.5870     6.9067     7.0368   -40.3927
  518.5000   157.3094     6.9727     7.1315   -40.4003
  519.0000   156.0319     6.9853     7.2222   -40.2842
  519.5000   154.8250     7.0422     7.3177   -40.1846
  520.0000   154.8250     7.1022     7.3738   -40.1105
  520.5000   154.8250     7.1583     7.3913   -40.2530
  521.0000   155.3797     7.1288     7.4083   -40.4172
  521.5000   156.4017     7.0588     7.4045   -40.5676
  522.0000   157.4237     6.9971     7.3904   -40.7411
  522.5000   158.4457     6.9321     7.3689   -40.7852
  523.0000   159.4678     6.8677     7.2816   -40.4868
  523.5000   160.4898     6.8051     7.1882   -40.1754
  524.0000   161.5118     6.7371     7.0963   -39.8632
  524.5000   162.0151     6.7053     7.0035   -39.5567
  525.0000   162.0151     6.7095     6.9118   -39.3169
  525.5000   162.0151     6.7076     6.8183   -39.0703
  526.0000   162.0151     6.7087     6.7333   -38.8651
  526.5000   162.0151     6.7081     6.7280   -38.7047
  527.0000   162.0151     6.7085     6.7686   -38.6359
  527.5000   162.0151     6.7084     6.8114   -38.7771
  528.0000   162.0151     6.7085     6.8477   -39.0459
  528.5000   162.0151     6.7085     6.8310   -39.3035
  529.0000   162.0151     6.7085     6.7833   -39.5676
  529.5000   162.0151     6.7084     6.7306   -39.8268
  530.0000   162.0151     6.7086     6.7236   -40.0904
  530.5000   162.0151     6.7081     6.7719   -40.3482
  531.0000   162.0151     6.7089     6.8114   -40.6329
  531.5000   162.0151     6.7073     6.8552   -40.9632
  532.0000   162.0151     6.7196     6.8972   -40.9558
  532.5000   162.0151     6.7484     6.9370   -40.6842
  533.0000   162.0151     6.7754     6.9186   -40.4205
  533.5000   162.0151     6.8034     6.8907   -40.1441
  534.0000   162.0151     6.8309     6.8632   -39.8745
  534.5000   162.0151     6.8587     6.8402   -39.5986
  535.0000   162.0130     6.8863     6.8640   -39.3311
  535.5000   162.0112     6.8873     6.9286   -39.0499
  536.0000   162.0081     6.8527     7.0197   -38.7937
  536.5000   162.0018     6.8102     7.1253   -38.4636
  537.0000   161.9993     6.7697     7.1932   -38.2923
  537.5000   161.9980     6.7271     7.2318   -38.4608
  538.0000   162.4945     6.6877     7.2170   -38.6326
  538.5000   163.8280     6.6419     7.1104   -38.8139
  539.0000   165.1518     6.6136     7.0148   -38.9930
  539.5000   166.4697     6.5694     6.9130   -39.1656
  540.0000   168.9994     6.5062     6.8009   -39.3825
  540.5000   174.5141     6.4482     6.6027   -39.7781
  541.0000   174.9579     6.3874     6.3561   -40.3398
  541.5000   175.4942     6.3281     6.3090   -40.6610
  542.0000   176.0311     6.2652     6.3214   -40.5457
  542.5000   176.5624     6.2566     6.3481   -40.3478
  543.0000   177.0734     6.2586     6.3732   -40.1271
  543.5000   177.5844     6.2577     6.4058   -39.9170
  544.0000   178.1930     6.2583     6.4031   -39.7013
  544.5000   177.8714     6.2580     6.3403   -39.4882
  545.0000   177.4740     6.2581     6.2832   -39.2732
  545.5000   177.0765     6.2580     6.2208   -39.0457
  546.0000   176.6791     6.2582     6.1593   -39.0074
  546.5000   175.9401     6.2579     6.1345   -39.0568
  547.0000   174.3503     6.2582     6.1560   -39.1903
  547.5000   172.7604     6.2593     6.2398   -39.3173
  548.0000   171.1706     6.3028     6.3384   -39.4692
  548.5000   169.5808     6.3644     6.4513   -39.5616
  549.0000   167.9910     6.4242     6.5526   -39.5501
  549.5000   166.4011     6.4826     6.6748   -39.5559
  550.0000   164.8113     6.5460     6.7623   -39.5529
  550.5000   163.2215     6.5966     6.7918   -39.5541
  551.0000   162.0151     6.6881     6.8371   -39.5539
  551.5000   162.5085     6.7141     6.8728   -39.5527
  552.0000   162.9059     6.7068     6.9165   -39.5549
  552.5000   163.3034     6.7100     6.9079   -39.5501
  553.0000   163.7008     6.7088     6.8753   -39.5902
  553.5000   164.3268     6.7081     6.8450   -39.6588
  554.0000   165.0422     6.7111     6.7650   -39.7129
  554.5000   165.7576     6.6965     6.6944   -39.7778
  555.0000   166.4730     6.6010     6.6212   -39.8291
  555.5000   167.1885     6.5088     6.5601   -39.9018
  556.0000   167.9039     6.4397     6.5080   -39.8189
  556.5000   168.6193     6.4429     6.4761   -39.6360
  557.0000   169.2053     6.4915     6.4521   -39.4907
  557.5000   166.7597     6.5342     6.4350   -39.3194
  558.0000   164.6688     6.5836     6.4646   -39.2122
  558.5000   162.6070     6.6119     6.5416   -39.2909
  559.0000   160.5423     6.6405     6.6219   -39.3726
  559.5000   158.4694     6.8253     6.7081   -39.4563
  560.0000   156.3867     7.0090     6.9040   -39.5353
  560.5000   154.2966     7.1539     7.0875   -39.6235
  561.0000   152.2050     7.1376     7.2717   -39.6927
  561.5000   150.1209     7.0928     7.3889   -39.8451
  562.0000   150.6519     7.0548     7.4725   -40.0620
  562.5000   152.5780     7.0139     7.5283   -40.2506
  563.0000   154.5042     6.9746     7.5046   -40.4581
  563.5000   156.4303     6.9343     7.4115   -40.6120
  564.0000   158.3564     6.8944     7.2751   -40.5596
  564.5000   160.2826     6.8544     7.1391   -40.5088
  565.0000   162.0151     6.8143     7.0030   -40.4041
  565.5000   162.8025     6.7747     6.8725   -39.9733
  566.0000   163.5222     6.7342     6.7624   -39.5281
  566.5000   164.2267     6.6954     6.6660   -39.1070
  567.0000   164.9273     6.6532     6.5839   -38.6471
  567.5000   165.5749     6.6219     6.5409   -38.5196
  568.0000   164.2827     6.6140     6.5165   -38.6948
  568.5000   163.7695     6.6543     6.5670   -39.0333
  569.0000   161.7975     6.7319     6.6188   -39.3947
  569.5000   159.9523     6.8014     6.6891   -39.7553
  570.0000   158.1109     6.8738     6.7438   -39.9750
  570.5000   156.2508     6.9462     6.8723   -40.0594
  571.0000   154.3907     7.0156     7.0477   -40.1664
  571.5000   152.5306     7.0925     7.1277   -40.2609
  572.0000   150.6705     7.1479     7.2041   -40.3637
  572.5000   148.8104     7.2162     7.2776   -40.4584
  573.0000   146.9503     7.3441     7.3541   -40.5641
  573.5000   145.0902     7.4593     7.4265   -40.6512
  574.0000   143.2301     7.5824     7.5250   -40.7738
  574.5000   141.3700     7.6985     7.6740   -40.7216
  575.0000   140.1451     7.8241     7.8432   -40.5471
  575.5000   139.5489     7.8889     8.0052   -40.2147
  576.0000   138.9527     7.8432     8.1795   -39.6979
  576.5000   139.5648     7.7653     8.2848   -39.1991
  577.0000   141.4475     7.6886     8.2944   -38.7175
  577.5000   143.3302     7.6115     8.1482   -38.1722
  578.0000   145.2129     7.5344     7.9692   -38.0153
  578.5000   147.0956     7.4578     7.7993   -38.2862
  579.0000   148.9782     7.3797     7.6248   -38.4829
  579.5000   150.8609     7.3050     7.4529   -38.7250
  580.0000   152.7436     7.2238     7.2793   -38.9212
  580.5000   154.6263     7.1552     7.1067   -39.0948
