~VERSION INFORMATION
 VERS.                2.0:   CWLS LOG ASCII STANDARD - VERSION 2.0
 WRAP.                 NO:   ONE LINE PER DEPTH STEP
~WELL INFORMATION
#MNEM.UNIT      DATA TYPE    INFORMATION
#----------   ------------   ------------------------------
 STRT.F           28.0000:   START DEPTH
 STOP.F          693.0000:   STOP DEPTH
 STEP.F            0.5000:   STEP LENGTH
 NULL.          -999.2500:   NO VALUE
 COMP. FENIX & SCISSON INC:   COMPANY
 WELL.       NPR-3 #63-15:   WELL
 FLD .             TEAPOT:   FIELD
 LOC .      S15 T38N R78W:   LOCATION
 CNTY.            NATRONA:   COUNTY
 STAT.            WYOMING:   STATE
 CTRY. UNITED STATES OF AMERICA:   COUNTRY
 SRVC.            Unknown:   SERVICE COMPANY
 DATE.        10-JUN-1978:   LOGDATE
 API .       490251063800:   API NUMBER
~CURVE INFORMATION
#MNEM.UNIT       API CODE    CURVE DESCRIPTION
#----------   ------------   ------------------------------
 DEPT.F                  :   
 SPR .MV     05 010 01 00:   SPONTANEOUS POTENTIAL FROM RES.
 SN  .OHMM   05 040 16 00:   SHORT NORMAL 16"
 ILD .OHMM   05 120 46 00:   INDUCTION LOG DEEP
 CALD.IN     45 280 60 00:   CALIPER FROM DENSITY LOG
 GRD .GAPI   45 310 01 00:   GAMMA RAY FROM DENSITY LOG
 CORR.G/C3   45 356 01 00:   DENSITY CORRECTION
 DPHI.DEC    45 890 12 00:   DENSITY POROSITY SANDSTONE
 DEN .G/C3   45 350 01 00:   DENSITY
~PARAMETER INFORMATION
#MNEM.UNIT          VALUE    DESCRIPTION
#----------   ------------   ------------------------------
 PD  .                 GL:   PERMANENT DATUM
 EPD .F              5265:   ELEVATION PERMANENT DATUM
 LMF .                 KB:   LOG MEASURED FROM
 DAPD.F                 4:   FEET ABOVE PERMANENT DATUM
 DMF .                 KB:   DRILLING MEASURED FROM
 EKB .F              5269:   KELLING BUSHING
 EGL .F              5265:   GROUND LEVEL
 DATE.        10-JUN-1978:   RUN DATE
 RUN .                  1:   RUN NUMBER
 DD  .F               690:   DEPTH DRILLER
 DL  .F               697:   DEPTH LOGGER
 BLI .F               690:   BOTTOM LOG INTERVAL
 TLI .F                35:   TOP LOG INTERVAL
 CS  .IN            8.625:   CASING SIZE
 CBD .F                40:   CASING BOTTOM DRILLER
 CBL .F                35:   CASING BOTTOM LOGGER
 BS  .IN            7.875:   BIT SIZE
 BSD .F               690:   BIT SIZE AT DEPTH
 DFT .                KCL:   DRILLING FLUID TYPE
 DFD .                8.7:   DRILLING FLUID DENSITY
 DFV .                 34:   DRILLING FLUID VISCOSITY
 DFPH.                 10:   DRILLING FLUID PH
 DFL .               11.6:   DRILLING FLUID LOSS
 MSS .            MUD PIT:   MUD SAMPLE SOURCE
 RMS .OHMM            .32:   RESISTIVITY MUD SAMPLE
 MST .F                74:   MUD SAMPLE TEMPERATURE
 RMF .OHMM            .28:   RESISTIVITY MUD FILTRATE SAMPLE
 MFST.F                78:   MUD FILTRATE SAMPLE TEMPERATURE
 RMC .OHMM            .36:   RESISTIVITY MUD CAKE
 MCST.F                78:   MUD CAKE SAMPLE TEMPERATURE
 MFSS.               MEAS:   MUD FILTRATE SAMPLE SOURCE
 MCSS.               MEAS:   MUD CAKE SAMPLE SOURCE
 BHT .F                80:   BOTTOM HOLE TEMPERATURE
 TCS .HRS            0100:   TIME CURCULATED STOPPED
 MRT .F                80:   MAXIMUM RECORDED TEMPERATURE
 LUN .               2958:   LOGGING UNIT NUMBER
 LUL .               CASP:   LOGGING UNIT LOCATION
 ENGI.             MILLER:   RECORDING ENGINEER
 WITN.           MCGINLEY:   WITNESSED BY
 CLNT.            A2DTECH:   CLIENT CODE
 ORIG.           5" PRINT:   ORIGIN OF DATA
 UWI .       490251063800:   UNIQUE WELL ID
 DICO. A2D Technologies, Inc.:   DIGITIZING COMPANY
~OTHER INFORMATION
~A   DEPT      SPR         SN        ILD       CALD        GRD       CORR       DPHI        DEN   
# ...
  554.5000    -4.0411     9.9698    11.2282     7.6007    61.4701     0.0130     0.1314     2.4465
  555.0000    -4.0251     9.9077    11.2335     7.5866    66.4359     0.0161     0.1302     2.4480
  555.5000    -4.0091     9.9160    11.2388     7.5731    67.6460     0.0207     0.1299     2.4481
  556.0000    -3.9931     9.9227    11.2441     7.4994    65.4232     0.0163     0.1290     2.4482
  556.5000    -3.9771     9.9293    11.2496     7.4407    62.9020     0.0104     0.1274     2.4491
  557.0000    -3.9611     9.9360    11.2560     7.4269    64.1121     0.0045     0.1265     2.4543
  557.5000    -3.9446     9.9427    11.2613     7.5030    66.2177     0.0016     0.1262     2.4574
  558.0000    -3.9252    10.0185    11.2666     7.5667    68.3233    -0.0013     0.1301     2.4544
  558.5000    -3.9092     9.9560    11.1941     7.6403    72.3692    -0.0027     0.1391     2.4410
  559.0000    -3.8932     9.9643    11.2759     7.6715    72.5413    -0.0026     0.1441     2.4290
  559.5000    -3.8772     9.9710    11.2826     7.6876    70.5720    -0.0010     0.1441     2.4268
  560.0000    -3.8612     9.9777    11.2879     7.7187    62.1195     0.0021     0.1425     2.4306
  560.5000    -3.8452     9.9844    11.2153     7.7199    58.1091     0.0067     0.1401     2.4359
  561.0000    -3.8292     9.9911    11.2208     7.7058    58.7222     0.0143     0.1392     2.4368
  561.5000    -3.8129     9.9978    11.2272     7.6920    61.1263     0.0204     0.1383     2.4376
  562.0000    -3.7933    10.0047    11.2325     7.6935    65.1722     0.0160     0.1374     2.4369
  562.5000    -3.7773    10.0129    11.2378     7.7246    66.5315     0.0131     0.1358     2.4369
  563.0000    -3.9150    10.0196    11.2431     7.7557    67.8909     0.0102     0.1346     2.4415
  563.5000    -4.0487    10.0263    11.2484     7.7569    66.7129     0.0149     0.1337     2.4461
  564.0000    -3.8790    10.0330    11.2537     7.7581    64.4676     0.0180     0.1334     2.4469
  564.5000    -4.0167     9.9705    11.2590     7.7593    65.2525     0.0151     0.1333     2.4447
  565.0000    -3.9967     9.9772    11.0226     7.7757    66.0198     0.0047     0.1351     2.4440
  565.5000    -3.9805     9.8467    10.8109     7.7769    66.7960     0.0000     0.1357     2.4456
  566.0000    -3.9641     9.8535    10.8173     7.7481    67.9912     0.0004     0.1251     2.4486
  566.5000    -4.0985     9.8615    10.8224     7.7044    69.9476     0.0050     0.1227     2.4554
  567.0000    -4.2282     9.7325    10.7515     7.6307    70.4074     0.0126     0.1224     2.4592
  567.5000    -4.2122     9.7390    10.7578     7.5570    69.3827     0.0232     0.1244     2.4593
  568.0000    -4.1962     9.7456    10.7629     7.5133    69.8465     0.0248     0.1286     2.4579
  568.5000    -4.0305     9.8198    10.7680     7.4842    70.3103     0.0204     0.1379     2.4527
  569.0000    -3.8648     9.8264    10.7731     7.5007    70.3264     0.0145     0.1526     2.4295
  569.5000    -3.2480     9.9014    10.7783     7.5917    69.8947     0.0086     0.1646     2.4100
  570.0000    -2.4850    10.1174    11.9650     7.7126    68.4182     0.0132     0.1847     2.3883
  570.5000    -2.3159    10.4084    12.2219     7.7138    64.8172     0.0208     0.1980     2.3486
  571.0000    -1.5514    10.7077    12.2277     7.7174    57.8030     0.0239     0.2124     2.3314
  571.5000    -0.4875    10.7148    12.2335     7.8255    56.6753     0.0210     0.2075     2.3164
  572.0000    -0.3218    10.7965    12.2392     7.8523    55.6506     0.0242     0.1915     2.3210
  572.5000    -0.3058    10.8037    12.4158     7.8086    56.4129     0.0348     0.1756     2.3385
  573.0000    -0.5898    10.8860    12.6824     7.7945    59.8618     0.0454     0.1473     2.3663
  573.5000    -1.3218    11.1220    13.5044     7.8109    60.0271     0.0485     0.1470     2.4165
  574.0000    -1.7549    11.3646    13.6993     7.8720    55.5656     0.0486     0.1605     2.4203
  574.5000    -1.7349    11.5307    13.6126     7.7983    53.9358     0.0277     0.1776     2.3971
  575.0000    -1.8726    11.6993    13.6191     7.7842    57.5380    -0.0022     0.1796     2.3701
  575.5000    -1.8526    11.7884    13.6255     7.7857    59.0466     0.0009     0.1790     2.3694
  576.0000    -1.9903    11.8782    13.6319     7.7569    60.2688     0.0370     0.1784     2.3710
  576.5000    -1.9703    11.8042    13.7331     7.7431    64.1537     0.0476     0.1793     2.3696
  577.0000    -2.1080    11.5694    13.7396     7.7892    61.4868     0.0432     0.1915     2.3666
  577.5000    -2.2378    11.4974    13.6510     7.8059    58.2193     0.0296     0.1993     2.3607
  578.0000    -2.2216    11.5070    13.0993     7.8215    57.6343     0.0254     0.2020     2.3440
  578.5000    -2.2051    11.5147    12.7498     7.7452    58.2474     0.0255     0.1960     2.3368
  579.0000    -2.1858    11.5224    12.5804     7.6745    57.3679     0.0301     0.1878     2.3428
  579.5000    -2.1698    11.5302    12.4147     7.6158    57.8358     0.0362     0.1932     2.3481
  580.0000    -2.1538    11.3774    12.3334     7.5717    58.0011     0.0318     0.1920     2.3482
  580.5000    -2.1378    11.0761    12.0869     7.5430    54.2858     0.0214     0.1851     2.3490
  581.0000    -2.1218    10.7809    11.9249     7.5292    51.7513     0.0230     0.1808     2.3611
  581.5000    -2.1059    10.7900    11.6866     7.5307    53.5742     0.0201     0.1811     2.3664
  582.0000    -2.0898    10.7972    11.3726     7.5618    57.8229     0.0142     0.1853     2.3635
  582.5000    -2.0734    10.8795    11.3780     7.6528    58.6784     0.0143     0.1885     2.3583
  583.0000    -2.0539    10.8868    11.3048     7.6839    58.3959     0.0174     0.1876     2.3561
  583.5000    -2.0379    10.8171    11.3115     7.5952    58.8637     0.0236     0.1828     2.3584
  584.0000    -2.0219    10.7512    11.3168     7.5365    60.2231     0.0283     0.1788     2.3667
  584.5000    -2.0059    10.6845    11.3221     7.5976    58.4481     0.0298     0.1731     2.3675
  585.0000    -1.9900    10.5447    11.4855     7.5988    55.0313     0.0299     0.1587     2.3736
  585.5000    -1.9740    10.4068    11.8136     7.5401    54.5956     0.0300     0.1430     2.3969
  586.0000    -1.9580    11.4750    12.1512     7.5715    57.6007     0.0316     0.1289     2.4255
  586.5000    -2.0917    11.5625    12.4983     7.6625    57.6308     0.0302     0.1276     2.4428
  587.0000    -2.8202    11.5702    12.5043     7.6786    56.1403     0.0228     0.1321     2.4519
  587.5000    -2.9579    11.5780    12.4238     7.6498    54.1915     0.0094     0.1422     2.4459
  588.0000    -2.9379    11.5857    12.4311     7.5313    54.6799     0.0005     0.1504     2.4280
  588.5000    -3.0716    11.5136    12.4370     7.4723    53.2034     0.0096     0.1573     2.4250
  589.0000    -3.0557    11.5213    12.4429     7.5186    55.7608     0.0217     0.1693     2.4069
  589.5000    -2.8900    11.2143    12.4487     7.6096    59.3590     0.0218     0.1734     2.3786
  590.0000    -2.8740    11.0675    12.5411     7.6258    60.1213     0.0311     0.1674     2.3877
  590.5000    -2.8578    10.8492    12.2043     7.6120    59.2418     0.0435     0.1644     2.3893
  591.0000    -2.8413    10.7798    11.8764     7.6732    58.0638     0.0612     0.1661     2.3886
  591.5000    -2.8220    10.7127    11.3142     7.6742    58.9754     0.0703     0.1703     2.3834
  592.0000    -2.8060    10.2856    11.1694     7.6281    62.4243     0.0644     0.1721     2.3804
  592.5000    -2.7901    10.1510    11.0975     7.5571    67.3657     0.0690     0.1724     2.3805
  593.0000    -2.7741    10.0878    11.2589     7.3936    64.0328     0.0766     0.1672     2.3813
  593.5000    -2.7581    10.0963    11.3425     7.2451    57.9224     0.0797     0.1669     2.3851
  594.0000    -2.8918    10.1030    11.2682     7.0966    59.3582     0.0738     0.1726     2.3859
  594.5000    -3.3249    10.1098    11.1198     6.8582    60.1165     0.0649     0.1636     2.3837
