~VERSION INFORMATION
 VERS.                2.0:   CWLS LOG ASCII STANDARD - VERSION 2.0
 WRAP.                 NO:   ONE LINE PER DEPTH STEP
~WELL INFORMATION
#MNEM.UNIT      DATA TYPE    INFORMATION
#----------   ------------   ------------------------------
 STRT.F          588.0000:   START DEPTH
 STOP.F         1583.5000:   STOP DEPTH
 STEP.F            0.5000:   STEP LENGTH
 NULL.          -999.2500:   NO VALUE
 COMP.   FENIX & SCISSONS:   COMPANY
 WELL.   NPR 3 #23STX1-11:   WELL
 FLD .             TEAPOT:   FIELD
 LOC .      S11 T38N R78W:   LOCATION
 CNTY.            NATRONA:   COUNTY
 STAT.            WYOMING:   STATE
 CTRY. UNITED STATES OF AMERICA:   COUNTRY
 SRVC.            Unknown:   SERVICE COMPANY
 DATE.        15-JUN-1979:   LOGDATE
 API .       490251078300:   API NUMBER
~CURVE INFORMATION
#MNEM.UNIT       API CODE    CURVE DESCRIPTION
#----------   ------------   ------------------------------
 DEPT.F                  :   
 RHOB.G/C3   45 350 01 00:   BULK DENSITY
 DPHI.DEC    45 890 10 00:   DENSITY POROSITY LIMESTONE
 CORR.G/C3   45 356 01 00:   DENSITY CORRECTION
 GRD .GAPI   45 310 01 00:   GAMMA RAY FROM DENSITY LOG
 CALD.IN     45 280 60 00:   CALIPER FROM DENSITY LOG
~PARAMETER INFORMATION
#MNEM.UNIT          VALUE    DESCRIPTION
#----------   ------------   ------------------------------
 PD  .                 GL:   PERMANENT DATUM
 EPD .F              5168:   ELEVATION PERMANENT DATUM
 LMF .                 KB:   LOG MEASURED FROM
 DAPD.F                10:   FEET ABOVE PERMANENT DATUM
 DMF .                 KB:   DRILLING MEASURED FROM
 EKB .F              5178:   KELLING BUSHING
 EGL .F              5168:   GROUND LEVEL
 DATE.            6-15-79:   RUN DATE
 RUN .                  1:   RUN NUMBER
 DD  .F              1580:   DEPTH DRILLER
 DL  .F              1580:   DEPTH LOGGER
 BLI .F              1578:   BOTTOM LOG INTERVAL
 TLI .F               680:   TOP LOG INTERVAL
 CS  .IN            9.625:   CASING SIZE
 CBD .F               660:   CASING BOTTOM DRILLER
 CBL .F               670:   CASING BOTTOM LOGGER
 BS  .IN             8.75:   BIT SIZE
 BSD .F              1580:   BIT SIZE AT DEPTH
 DFT .                OIL:   DRILLING FLUID TYPE
 TCS .HRS               4:   TIME CURCULATED STOPPED
 MRT .F                80:   MAXIMUM RECORDED TEMPERATURE
 LUN .               3029:   LOGGING UNIT NUMBER
 LUL .             CASPER:   LOGGING UNIT LOCATION
 ENGI.            MULLINS:   RECORDING ENGINEER
 CLNT.            A2DTECH:   CLIENT CODE
 ORIG.     1", 2.5" PRINT:   ORIGIN OF DATA
 UWI .       490251078300:   UNIQUE WELL ID
 DICO. A2D Technologies, Inc.:   DIGITIZING COMPANY
~OTHER INFORMATION
~A   DEPT     RHOB       DPHI       CORR         GRD      CALD   
# ...
  832.0000     2.5015     0.0335     0.0032   100.9830     9.3537
  832.5000     2.4926     0.0391    -0.0038   101.6036     9.3537
  833.0000     2.4827     0.0437     0.0003   101.3077     9.3537
  833.5000     2.4837     0.0411     0.0058   100.3991     9.3537
  834.0000     2.4898     0.0381     0.0122   101.3926     9.3537
  834.5000     2.5004     0.0301     0.0227   106.5739     9.3537
  835.0000     2.5144     0.0243     0.0290   107.8056     9.3537
  835.5000     2.5169     0.0227     0.0266   109.1923     9.3537
  836.0000     2.5093     0.0267     0.0199   107.9103     9.3537
  836.5000     2.4996     0.0358     0.0133   104.0064     9.3537
  837.0000     2.4903     0.0419     0.0057   100.9673     9.3537
  837.5000     2.4821     0.0453     0.0085    99.4467     9.3535
  838.0000     2.4794     0.0446     0.0164    97.6977     9.3518
  838.5000     2.4821     0.0442     0.0239    97.5471     9.3504
  839.0000     2.4819     0.0456     0.0241   101.7327     9.3488
  839.5000     2.4801     0.0470     0.0245   102.7753     9.3473
  840.0000     2.4792     0.0429     0.0245   103.6735     9.3458
  840.5000     2.4848     0.0413     0.0307   102.4000     9.3443
  841.0000     2.4837     0.0437     0.0398   101.2464     9.3428
  841.5000     2.4834     0.0390     0.0403   101.3770     9.3413
  842.0000     2.4959     0.0306     0.0413   102.1597     9.3398
  842.5000     2.4996     0.0326     0.0338   103.4678     9.3383
  843.0000     2.4954     0.0364     0.0189   105.2378     9.3368
  843.5000     2.4915     0.0404     0.0088   104.6993     9.3353
  844.0000     2.4881     0.0418     0.0174   103.9176     9.3338
  844.5000     2.4856     0.0388     0.0243   105.1140     9.3322
  845.0000     2.4978     0.0309     0.0319   106.4649     9.3308
  845.5000     2.4996     0.0334     0.0289   107.9293     9.3292
  846.0000     2.4969     0.0379     0.0253   106.6299     9.3277
  846.5000     2.4979     0.0327     0.0285   104.5375     9.3262
  847.0000     2.5082     0.0286     0.0362   102.6236     9.3247
  847.5000     2.4986     0.0338     0.0226   102.2163     9.3232
  848.0000     2.4901     0.0408     0.0090   101.7617     9.3217
  848.5000     2.4901     0.0391     0.0157   102.5833     9.3202
  849.0000     2.4944     0.0367     0.0215   105.6017     9.3187
  849.5000     2.4996     0.0384     0.0275   108.6568     9.3172
  850.0000     2.4904     0.0416     0.0203   107.7039     9.3157
  850.5000     2.4866     0.0397     0.0132   106.6168     9.3141
  851.0000     2.4985     0.0327     0.0207   105.1681     9.3130
  851.5000     2.5082     0.0275     0.0279   106.6932     9.3130
  852.0000     2.5035     0.0279     0.0283   108.7246     9.3130
  852.5000     2.5074     0.0283     0.0284   107.3821     9.3130
  853.0000     2.5039     0.0329     0.0227   104.7365     9.3130
  853.5000     2.4996     0.0352     0.0143   101.8413     9.3130
  854.0000     2.4953     0.0355     0.0127   102.7814     9.3130
  854.5000     2.4953     0.0352     0.0150   104.3823     9.3130
  855.0000     2.5004     0.0348     0.0177   101.7655     9.3130
  855.5000     2.5046     0.0307     0.0209   103.0699     9.3130
  856.0000     2.5088     0.0267     0.0239   105.2114     9.3130
  856.5000     2.5066     0.0292     0.0187   104.2140     9.3130
  857.0000     2.5043     0.0316     0.0140   102.7826     9.3130
  857.5000     2.5018     0.0340     0.0084   101.6991     9.3130
  858.0000     2.4996     0.0364     0.0082   104.7473     9.3130
  858.5000     2.4972     0.0378     0.0080   106.9105     9.3130
  859.0000     2.4994     0.0369     0.0081   105.5765     9.3130
  859.5000     2.5021     0.0360     0.0081   104.7128     9.3130
  860.0000     2.5014     0.0364     0.0081   102.7788     9.3130
  860.5000     2.4979     0.0368     0.0081   100.0068     9.3130
  861.0000     2.4944     0.0371     0.0081    98.2414     9.3130
  861.5000     2.4935     0.0373     0.0081    98.8478     9.3130
  862.0000     2.4973     0.0347     0.0081   100.0176     9.3130
  862.5000     2.5047     0.0323     0.0077   102.5852     9.3130
  863.0000     2.5020     0.0320     0.0068   105.3231     9.3130
  863.5000     2.4998     0.0326     0.0059   108.2089     9.3130
  864.0000     2.4968     0.0332     0.0051   109.5257     9.3130
  864.5000     2.4916     0.0378     0.0044   107.3971     9.3130
  865.0000     2.4908     0.0368     0.0080   109.1205     9.3130
  865.5000     2.5022     0.0331     0.0131   113.1982     9.3130
  866.0000     2.5132     0.0227     0.0189   111.8275     9.3131
  866.5000     2.5196     0.0251     0.0171   107.0707     9.3126
  867.0000     2.5132     0.0284     0.0107   103.0768     9.3117
  867.5000     2.5071     0.0315     0.0050   103.4508     9.3109
  868.0000     2.5009     0.0341     0.0001   104.9342     9.3102
  868.5000     2.4988     0.0338    -0.0011   105.3258     9.3094
  869.0000     2.4982     0.0325    -0.0023   103.1087     9.3086
  869.5000     2.4891     0.0402    -0.0032   104.4409     9.3078
  870.0000     2.4793     0.0446    -0.0039   109.9142     9.3070
  870.5000     2.4815     0.0418    -0.0012   109.5884     9.3062
  871.0000     2.4892     0.0395     0.0009   109.1861     9.3054
  871.5000     2.4933     0.0373     0.0032   109.3637     9.3047
  872.0000     2.4913     0.0399     0.0063   109.7752     9.3039
  872.5000     2.4888     0.0422     0.0080   107.4710     9.3031
  873.0000     2.4860     0.0376     0.0125   104.8273     9.3023
  873.5000     2.5026     0.0322     0.0260   102.0444     9.3015
  874.0000     2.5198     0.0268     0.0401   102.2831     9.3007
  874.5000     2.5128     0.0236     0.0351   103.8185     9.2999
  875.0000     2.5027     0.0304     0.0248   104.4639     9.2992
  875.5000     2.5070     0.0291     0.0212   101.6486     9.2984
  876.0000     2.5017     0.0310     0.0180    97.7829     9.2976
  876.5000     2.4949     0.0395     0.0151    96.1850     9.2968
  877.0000     2.4889     0.0412     0.0124   101.0443     9.2960
  877.5000     2.4860     0.0412     0.0150   105.3249     9.2952
  878.0000     2.4849     0.0399     0.0174   105.2089     9.2944
  878.5000     2.4891     0.0387     0.0200   104.5080     9.2936
  879.0000     2.4947     0.0373     0.0209   102.9575     9.2929
  879.5000     2.5010     0.0325     0.0219   103.3337     9.2921
  880.0000     2.5080     0.0259     0.0233   104.0376     9.2913
  880.5000     2.5085     0.0280     0.0250   102.7669     9.2905
  881.0000     2.5004     0.0340     0.0267   101.5659     9.2897
  881.5000     2.4932     0.0378     0.0173   103.0378     9.2889
  882.0000     2.4851     0.0429     0.0079   105.3926     9.2882
  882.5000     2.4850     0.0405     0.0073   104.5764     9.2874
  883.0000     2.5072     0.0260     0.0163   102.2142     9.2866
  883.5000     2.5382     0.0129     0.0239    99.9730     9.2858
  884.0000     2.5546    -0.0008     0.0313    90.7839     9.2850
  884.5000     2.5605     0.0040     0.0163    84.2255     9.2842
  885.0000     2.5413     0.0090     0.0076    82.2531     9.2834
  885.5000     2.5332     0.0140     0.0082    86.0612     9.2827
  886.0000     2.5236     0.0190     0.0078    89.8812     9.2819
  886.5000     2.5170     0.0227     0.0037    90.5802     9.2811
  887.0000     2.5201     0.0209     0.0005    87.9551     9.2803
  887.5000     2.5260     0.0172     0.0043    86.4048     9.2795
  888.0000     2.5309     0.0154     0.0078    85.2900     9.2787
  888.5000     2.5269     0.0171     0.0121    82.5037     9.2780
  889.0000     2.5233     0.0201     0.0105    81.7165     9.2772
  889.5000     2.5192     0.0231     0.0071    87.0161     9.2764
  890.0000     2.5141     0.0244     0.0038    89.0894     9.2756
  890.5000     2.5091     0.0266     0.0006    88.3948     9.2748
  891.0000     2.5034     0.0308    -0.0027    87.8796     9.2740
  891.5000     2.5005     0.0319    -0.0060    87.4935     9.2732
  892.0000     2.4967     0.0348    -0.0092    89.1817     9.2724
  892.5000     2.4918     0.0380    -0.0119    92.6293     9.2729
