~VERSION INFORMATION
 VERS.                2.0:   CWLS LOG ASCII STANDARD - VERSION 2.0
 WRAP.                 NO:   ONE LINE PER DEPTH STEP
~WELL INFORMATION
#MNEM.UNIT      DATA TYPE    INFORMATION
#----------   ------------   ------------------------------
 STRT.F           12.5000:   START DEPTH
 STOP.F          688.0000:   STOP DEPTH
 STEP.F            0.5000:   STEP LENGTH
 NULL.          -999.2500:   NO VALUE
 COMP. FENIX & SCISSON INC:   COMPANY
 WELL. 26-66 SX 11 WO #26-11:   WELL
 FLD .             TEAPOT:   FIELD
 LOC .      S11 T38N R78W:   LOCATION
 CNTY.            NATRONA:   COUNTY
 STAT.            WYOMING:   STATE
 CTRY. UNITED STATES OF AMERICA:   COUNTRY
 SRVC.      Dresser Atlas:   SERVICE COMPANY
 DATE.        28-AUG-1980:   LOGDATE
 API .       490251084700:   API NUMBER
~CURVE INFORMATION
#MNEM.UNIT       API CODE    CURVE DESCRIPTION
#----------   ------------   ------------------------------
 DEPT.F                  :   
 SFL .OHMM   07 220 01 00:   SHALLOW FOCUSED LOG RESISTIVITY
 ILD .OHMM   07 120 46 00:   INDUCTION LOG DEEP
 ILM .OHMM   07 120 44 00:   INDUCTION LOG MEDIUM
 SPR .MV     07 010 01 00:   SPONTANEOUS POTENTIAL
 CORR.G/C3   45 356 01 00:   DENSITY CORRECTION
 RHOB.G/C3   45 350 01 00:   BULK DENSITY
 DPOR.DEC    45 890 12 00:   DENSITY POROSITY SANDSTONE
 NPOR.DEC    42 890 03 00:   NEUTRON POROSITY SANDSTONE
 GRD .GAPI   45 310 01 00:   GAMMA RAY FROM DENSITY LOG
~PARAMETER INFORMATION
#MNEM.UNIT          VALUE    DESCRIPTION
#----------   ------------   ------------------------------
 PD  .                 GL:   PERMANENT DATUM
 EPD .F              5194:   ELEVATION PERMANENT DATUM
 LMF .                 KB:   LOG MEASURED FROM
 DAPD.F                 5:   FEET ABOVE PERMANENT DATUM
 DMF .                 KB:   DRILLING MEASURED FROM
 EKB .F              5199:   KELLING BUSHING
 EGL .F              5194:   GROUND LEVEL
 DATE.          8-28-1980:   RUN DATE
 RUN .                  1:   RUN NUMBER
 DD  .F               700:   DEPTH DRILLER
 DL  .F               689:   DEPTH LOGGER
 BLI .F               688:   BOTTOM LOG INTERVAL
 TLI .F                14:   TOP LOG INTERVAL
 BS  .IN             8.75:   BIT SIZE
 BSD .F               700:   BIT SIZE AT DEPTH
 DFT .                KCL:   DRILLING FLUID TYPE
 DFD .                8.8:   DRILLING FLUID DENSITY
 DFV .                 55:   DRILLING FLUID VISCOSITY
 DFPH.                 11:   DRILLING FLUID PH
 DFL .                  8:   DRILLING FLUID LOSS
 MSS .           FLOWLINE:   MUD SAMPLE SOURCE
 RMS .OHMM            .72:   RESISTIVITY MUD SAMPLE
 MST .F                66:   MUD SAMPLE TEMPERATURE
 RMF .OHMM            .21:   RESISTIVITY MUD FILTRATE SAMPLE
 MFST.F                66:   MUD FILTRATE SAMPLE TEMPERATURE
 RMC .OHMM           1.24:   RESISTIVITY MUD CAKE
 MCST.F                66:   MUD CAKE SAMPLE TEMPERATURE
 MFSS.               MEAS:   MUD FILTRATE SAMPLE SOURCE
 MCSS.               MEAS:   MUD CAKE SAMPLE SOURCE
 BHT .F               100:   BOTTOM HOLE TEMPERATURE
 TCS .HRS               2:   TIME CURCULATED STOPPED
 MRT .F               100:   MAXIMUM RECORDED TEMPERATURE
 LUN .               6240:   LOGGING UNIT NUMBER
 LUL .               RYTN:   LOGGING UNIT LOCATION
 ENGI.           J. GETTY:   RECORDING ENGINEER
 WITN.              FIVAS:   WITNESSED BY
 CLNT.            A2DTECH:   CLIENT CODE
 ORIG.      1" 2.5" PRINT:   ORIGIN OF DATA
 UWI .       490251084700:   UNIQUE WELL ID
 DICO. A2D Technologies, Inc.:   DIGITIZING COMPANY
~OTHER INFORMATION
~A   DEPT      SFL        ILD        ILM        SPR       CORR       RHOB       DPOR         NPOR      GRD   
# ...
  195.0000     7.9696     7.1204     7.4899   -73.3639     0.0135     2.4352     0.1350     0.3051   122.4354
  195.5000     7.9996     7.1430     7.4898   -73.2147    -0.0039     2.4033     0.1581     0.3072   124.5402
  196.0000     8.0273     7.1656     7.4897   -73.2864    -0.0081     2.3970     0.1673     0.3066   129.6631
  196.5000     8.0552     7.1882     7.4897   -73.6167    -0.0074     2.4266     0.1530     0.3060   134.6407
  197.0000     8.1513     7.2108     7.5007   -73.9318     0.0062     2.4464     0.1387     0.3052   136.3263
  197.5000     8.3707     7.2336     7.5444   -74.2478     0.0204     2.4446     0.1394     0.3088   133.0219
  198.0000     8.2704     7.2564     7.5883   -74.5691     0.0362     2.4576     0.1320     0.3176   129.2014
  198.5000     8.0586     7.2793     7.6307   -74.8631     0.0448     2.4818     0.1163     0.3228   128.2955
  199.0000     7.7726     7.3022     7.7136   -75.1658     0.0404     2.4815     0.1195     0.3192   130.0022
  199.5000     7.8789     7.3252     7.7944   -74.6180     0.0372     2.4831     0.1135     0.3102   131.8931
  200.0000     8.0573     7.3522     7.8761   -74.0606     0.0336     2.5012     0.1036     0.2940   131.4537
  200.5000     8.2170     7.4262     7.9588   -73.4843     0.0300     2.4938     0.1114     0.2883   129.5547
  201.0000     8.1728     7.5173     8.0425   -72.8895     0.0264     2.4762     0.1280     0.2955   127.3401
  201.5000     8.1336     7.6095     8.1345   -72.2820     0.0227     2.4592     0.1315     0.3018   124.4596
  202.0000     8.0753     7.7029     8.2305   -71.8977     0.0211     2.4585     0.1315     0.3063   124.3533
  202.5000     8.1318     7.7974     8.3277   -71.9293     0.0253     2.4581     0.1315     0.3108   128.0922
  203.0000     8.3843     7.8931     8.4260   -71.9336     0.0388     2.4608     0.1182     0.3131   132.1152
  203.5000     8.6461     7.9899     8.5255   -71.9238     0.0533     2.4869     0.1055     0.3106   132.4061
  204.0000     8.9161     8.0880     8.6867   -71.9292     0.0626     2.5075     0.1004     0.3088   132.4701
  204.5000     9.1800     8.1872     8.6576   -71.9338     0.0551     2.5033     0.1056     0.3104   132.7782
  205.0000     9.0117     8.2170     8.5857   -72.0908     0.0483     2.4974     0.1115     0.3115   133.8759
  205.5000     8.8552     8.2170     8.5144   -72.2366     0.0408     2.4783     0.1163     0.3115   133.5925
  206.0000     8.7016     8.2170     8.4437   -72.2338     0.0372     2.4553     0.1371     0.3085   132.1778
  206.5000     8.5507     8.2170     8.3735   -71.8666     0.0372     2.4461     0.1225     0.3058   131.5013
  207.0000     8.4018     8.2170     8.3040   -71.5119     0.0531     2.4866     0.0908     0.3043   130.7238
  207.5000     8.2551     8.2170     8.2350   -71.1603     0.0689     2.5188     0.0960     0.3061   129.8591
  208.0000     8.2170     8.2170     8.3101   -70.7911     0.0658     2.5099     0.1068     0.3099   130.5114
  208.5000     8.3729     8.3197     8.4381   -71.1877     0.0530     2.5000     0.1036     0.3006   133.9807
  209.0000     8.5263     8.4202     8.5681   -71.8632     0.0415     2.5026     0.1077     0.2900   138.6156
  209.5000     8.6825     8.5219     8.7001   -72.3321     0.0302     2.4936     0.1198     0.2837   137.3033
  210.0000     8.8415     8.6248     8.8341   -72.1065     0.0183     2.4715     0.1323     0.2893   133.2140
  210.5000     9.0035     8.7289     8.9703   -71.8794     0.0089     2.4548     0.1331     0.2900   129.6850
  211.0000     9.1685     8.8343     9.1085   -71.6472     0.0051     2.4559     0.1323     0.2883   126.1525
  211.5000     9.3365     8.9410     9.2488   -71.4102     0.0028     2.4519     0.1362     0.2858   126.4187
  212.0000     9.5075     9.0624     9.3915   -71.1765     0.0156     2.4478     0.1379     0.2903   126.8286
  212.5000     9.6817     9.2148     9.5364   -70.9432     0.0359     2.4747     0.1228     0.2973   127.3776
  213.0000     9.8591     9.3698     9.6837   -70.7099     0.0561     2.5030     0.0975     0.3069   128.4936
  213.5000    10.0397     9.5273     9.8331   -70.4744     0.0616     2.5278     0.0887     0.2964   129.8142
  214.0000    10.3520     9.6876     9.9847   -70.2815     0.0573     2.5205     0.0935     0.2666   128.8111
  214.5000    10.7058     9.8505    10.1016   -70.4149     0.0530     2.5158     0.0966     0.2637   127.8605
  215.0000    11.0717    10.0750    10.1645   -70.6945     0.0489     2.5205     0.0940     0.2693   126.8447
  215.5000    11.4705    10.0426    10.2278   -70.9695     0.0448     2.5081     0.1057     0.2708   127.1995
  216.0000    11.3077     9.9930    10.2915   -71.2219     0.0405     2.4822     0.1163     0.2732   128.6747
  216.5000    11.1383     9.9437    10.3556   -71.4892     0.0432     2.4874     0.1150     0.2733   124.3361
  217.0000    11.0531     9.8946    10.4540   -71.1847     0.0448     2.4896     0.1139     0.2673   123.6918
  217.5000    11.0531     9.8457    10.4161   -70.8677     0.0335     2.4637     0.1360     0.2550   124.7326
  218.0000    11.0531     9.7971    10.3247   -70.5574     0.0091     2.4361     0.1593     0.2625   126.7942
  218.5000    10.8833     9.7487    10.2340   -70.2924     0.0084     2.4011     0.1657     0.2797   123.0061
  219.0000    10.6397     9.7005    10.1441   -70.0769     0.0086     2.4117     0.1493     0.2882   120.1911
  219.5000    10.4974     9.6526    10.0550   -69.5272     0.0252     2.4544     0.1309     0.2956   120.1872
  220.0000    10.6839     9.6048     9.9666   -69.7038     0.0421     2.4829     0.1147     0.2915   125.7953
  220.5000    10.8736     9.5573     9.8793   -69.8883     0.0598     2.4924     0.1068     0.2852   132.5440
  221.0000    11.0531     9.5057     9.7927   -70.1060     0.0654     2.5057     0.1007     0.2797   136.0256
  221.5000    11.0531     9.4486     9.7084   -70.2791     0.0545     2.5147     0.0964     0.2820   135.9873
  222.0000    11.0531     9.3917     9.6650   -70.1421     0.0345     2.5128     0.1100     0.2840   136.1631
  222.5000    11.0531     9.3353     9.6226   -70.0338     0.0149     2.4600     0.1275     0.2860   137.7554
  223.0000    11.0531     9.2791     9.5803   -69.9169     0.0019     2.4229     0.1490     0.2876   139.1621
  223.5000    11.0531     9.2233     9.5382   -69.7972     0.0170     2.4415     0.1420     0.2866   137.0141
  224.0000    11.0531     9.1678     9.4963   -69.6805     0.0431     2.4708     0.1233     0.2815   134.1570
  224.5000    10.8972     9.1126     9.4546   -69.5642     0.0521     2.5046     0.1044     0.2833   133.4648
  225.0000    10.5202     9.0578     9.4131   -69.4693     0.0396     2.4981     0.1106     0.2876   133.1798
  225.5000    10.2904     9.0033     9.3718   -69.4690     0.0302     2.4785     0.1209     0.2852   132.9885
  226.0000    10.4272     8.9491     9.3465   -69.4673     0.0202     2.4592     0.1313     0.2781   130.2475
  226.5000    10.4155     8.8953     9.3320   -69.4673     0.0093     2.4406     0.1417     0.2816   130.2446
  227.0000    10.2112     8.8492     9.3175   -69.4677     0.0026     2.4224     0.1538     0.2901   130.2571
  227.5000     9.8900     8.8497     9.3030   -69.4674    -0.0001     2.4203     0.1501     0.2948   130.5273
  228.0000     9.9405     8.8491     9.2885   -69.4673     0.0009     2.4341     0.1416     0.2891   130.6565
  228.5000    10.0726     8.8490     9.2742   -69.4674     0.0133     2.4551     0.1331     0.2803   131.4234
  229.0000    10.2065     8.8495     9.2600   -69.4674     0.0264     2.4651     0.1235     0.2781   132.6157
  229.5000    10.3422     8.8499     9.2458   -69.4673     0.0363     2.4785     0.1126     0.2895   131.2038
  230.0000    10.4554     8.8490     9.2311   -69.4677     0.0442     2.4954     0.1036     0.3034   126.1867
  230.5000    10.3560     8.8482     9.2170   -69.4678     0.0388     2.5020     0.1128     0.3027   126.1607
  231.0000    10.2722     8.8470     9.2042   -69.4670     0.0293     2.4681     0.1317     0.2980   129.1817
