~VERSION INFORMATION
 VERS.                2.0:   CWLS LOG ASCII STANDARD - VERSION 2.0
 WRAP.                 NO:   ONE LINE PER DEPTH STEP
~WELL INFORMATION
#MNEM.UNIT      DATA TYPE    INFORMATION
#----------   ------------   ------------------------------
 STRT.F           32.0000:   START DEPTH
 STOP.F          707.0000:   STOP DEPTH
 STEP.F            0.5000:   STEP LENGTH
 NULL.          -999.2500:   NO VALUE
 COMP. FENIX & SCISSON INC:   COMPANY
 WELL.     NPR 3 #28SX-11:   WELL
 FLD .             TEAPOT:   FIELD
 LOC .      S11 T38N R78W:   LOCATION
 CNTY.            NATRONA:   COUNTY
 STAT.            WYOMING:   STATE
 CTRY. UNITED STATES OF AMERICA:   COUNTRY
 SRVC.              Welex:   SERVICE COMPANY
 DATE.        26-APR-1977:   LOGDATE
 API .       490251034400:   API NUMBER
~CURVE INFORMATION
#MNEM.UNIT       API CODE    CURVE DESCRIPTION
#----------   ------------   ------------------------------
 DEPT.F                  :   
 CALD.IN     45 280 60 00:   CALIPER FROM DENSITY LOG
 GRD .GAPI   45 310 01 00:   GAMMA RAY FROM DENSITY LOG
 CORR.G/C3   45 356 01 00:   DENSITY CORRECTION
 DPHI.DEC    45 890 12 00:   DENSITY POROSITY SANDSTONE
 RHOB.G/C3   45 350 01 00:   BULK DENSITY
~PARAMETER INFORMATION
#MNEM.UNIT          VALUE    DESCRIPTION
#----------   ------------   ------------------------------
 PD  .                 GL:   PERMANENT DATUM
 EPD .F              5203:   ELEVATION PERMANENT DATUM
 LMF .                 GL:   LOG MEASURED FROM
 DMF .                 GL:   DRILLING MEASURED FROM
 EGL .F              5203:   GROUND LEVEL
 DATE.        26-APR-1977:   RUN DATE
 RUN .                  1:   RUN NUMBER
 DD  .F               714:   DEPTH DRILLER
 DL  .F               709:   DEPTH LOGGER
 BLI .F               707:   BOTTOM LOG INTERVAL
 TLI .F                32:   TOP LOG INTERVAL
 CS  .IN            8.625:   CASING SIZE
 BS  .IN               12:   BIT SIZE
 BSD .F               714:   BIT SIZE AT DEPTH
 DFT .            KCL MUD:   DRILLING FLUID TYPE
 DFD .                8.7:   DRILLING FLUID DENSITY
 TCS .HRS            0100:   TIME CURCULATED STOPPED
 MRT .F                74:   MAXIMUM RECORDED TEMPERATURE
 ENGI.            C. DOAK:   RECORDING ENGINEER
 WITN.           ROB LYON:   WITNESSED BY
 CLNT.            A2DTECH:   CLIENT CODE
 ORIG.           5" PRINT:   ORIGIN OF DATA
 UWI .       490251034400:   UNIQUE WELL ID
 DICO. A2D Technologies, Inc.:   DIGITIZING COMPANY
~OTHER INFORMATION
~A   DEPT       CALD      GRD        CORR      DPHI       RHOB   
# ...
  642.0000     7.7595   100.7990     0.0421     0.1154     2.4839
  642.5000     7.7595   100.9617     0.0468     0.1145     2.4885
  643.0000     7.7595   100.2369     0.0304     0.1198     2.4886
  643.5000     7.7595    98.6244     0.0231     0.1255     2.4753
  644.0000     7.7595    95.8286     0.0248     0.1245     2.4575
  644.5000     7.7595    97.1747     0.0400     0.1138     2.4777
  645.0000     7.7595    95.4143     0.0432     0.1051     2.4979
  645.5000     7.7595    94.0976     0.0419     0.1015     2.5055
  646.0000     7.7595    98.8463     0.0376     0.1080     2.5018
  646.5000     7.7595   101.3758     0.0348     0.1122     2.4811
  647.0000     7.7595   102.8699     0.0335     0.1049     2.4983
  647.5000     7.7595   105.5474     0.0322     0.1028     2.5044
  648.0000     7.7595   106.3036     0.0324     0.1031     2.5074
  648.5000     7.7595   104.3935     0.0325     0.1078     2.5038
  649.0000     7.7595   101.1539     0.0342     0.1147     2.4890
  649.5000     7.7595    98.9497     0.0405     0.1176     2.4809
  650.0000     7.7595    99.1124     0.0467     0.1020     2.4981
  650.5000     7.7595   101.0628     0.0573     0.0985     2.5087
  651.0000     7.7595   103.7366     0.0514     0.0990     2.5117
  651.5000     7.7595   106.5650     0.0484     0.1101     2.5021
  652.0000     7.7595   110.8727     0.0440     0.1154     2.4820
  652.5000     7.7595   113.5531     0.0396     0.1160     2.4836
  653.0000     7.7595   115.6418     0.0352     0.1153     2.4874
  653.5000     7.7595   113.8844     0.0292     0.1153     2.4882
  654.0000     7.7595   111.6832     0.0414     0.1159     2.4823
  654.5000     7.7595   111.5486     0.0490     0.1191     2.4735
  655.0000     7.7595   113.3459     0.0401     0.1245     2.4631
  655.5000     7.7595   115.7304     0.0326     0.1367     2.4497
  656.0000     7.7595   116.9272     0.0282     0.1575     2.4103
  656.5000     7.7595   113.6949     0.0238     0.1599     2.4134
  657.0000     7.7595   109.8664     0.0223     0.1554     2.4261
  657.5000     7.7595   105.4463     0.0209     0.1413     2.4426
  658.0000     7.7595   101.9137     0.0225     0.1252     2.4598
  658.5000     7.7595    99.8604     0.0256     0.1219     2.4673
  659.0000     7.7595    95.2924     0.0318     0.1215     2.4659
  659.5000     7.7595    96.6414     0.0379     0.1206     2.4854
  660.0000     7.7595    98.7257     0.0425     0.1113     2.4966
  660.5000     7.7595    93.8662     0.0456     0.0997     2.5057
  661.0000     7.7595    92.6961     0.0472     0.0981     2.5117
  661.5000     7.7595    95.9727     0.0457     0.0990     2.5125
  662.0000     7.7595    98.8011     0.0428     0.1070     2.5074
  662.5000     7.7595   100.7419     0.0399     0.1094     2.4918
  663.0000     7.7595   102.5347     0.0370     0.1028     2.5038
  663.5000     7.7595   104.1797     0.0356     0.1070     2.5068
  664.0000     7.7595   105.2329     0.0357     0.1126     2.4890
  664.5000     7.7595   105.9903     0.0342     0.1027     2.5033
  665.0000     7.7595   105.8601     0.0313     0.0991     2.5071
  665.5000     7.7595   104.2506     0.0314     0.1116     2.5064
  666.0000     7.7595   102.4931     0.0315     0.1098     2.4901
  666.5000     7.7595   100.7357     0.0301     0.1053     2.5043
  667.0000     7.7595   104.3037     0.0287     0.1035     2.5074
  667.5000     7.7595   106.5404     0.0288     0.1178     2.4955
  668.0000     7.7595   100.3451     0.0289     0.1097     2.4866
  668.5000     7.7595   101.8421     0.0355     0.1040     2.4987
  669.0000     7.7595   105.7060     0.0473     0.1042     2.5084
  669.5000     7.7595   107.3509     0.0532     0.0991     2.5167
  670.0000     7.7595   106.6290     0.0469     0.0967     2.5235
  670.5000     7.7595   102.6526     0.0396     0.0946     2.5252
  671.0000     7.7595    99.4159     0.0352     0.1095     2.5095
  671.5000     7.7595    97.9543     0.0356     0.1086     2.4891
  672.0000     7.7595   101.2265     0.0433     0.1058     2.5014
  672.5000     7.7595   104.6466     0.0510     0.1037     2.5029
  673.0000     7.7595   108.5105     0.0554     0.1022     2.4997
  673.5000     7.7595   110.4513     0.0493     0.1061     2.5061
  674.0000     7.7595   106.9187     0.0374     0.1120     2.5010
  674.5000     7.7595   103.2382     0.0255     0.1215     2.4735
  675.0000     7.7595   101.6287     0.0196     0.1269     2.4712
  675.5000     7.7595   100.4630     0.0152     0.1250     2.4691
  676.0000     7.7595    99.2973     0.0152     0.1367     2.4487
  676.5000     7.7595    99.6109     0.0153     0.1351     2.4611
  677.0000     7.7595   100.6641     0.0184     0.1258     2.4694
  677.5000     7.7595   102.0132     0.0230     0.1210     2.4806
  678.0000     7.7595   103.3623     0.0277     0.1171     2.4881
  678.5000     7.7595   104.8593     0.0323     0.1144     2.4897
  679.0000     7.7595   105.1684     0.0354     0.1165     2.4890
  679.5000     7.7595   103.4154     0.0355     0.1188     2.4727
  680.0000     7.7595   102.2497     0.0340     0.1272     2.4623
  680.5000     7.7595   101.8192     0.0326     0.1247     2.4699
  681.0000     7.7595   103.1727     0.0282     0.1199     2.4759
  681.5000     7.7595   106.0011     0.0208     0.1175     2.4820
  682.0000     7.7595   107.9419     0.0148     0.1187     2.4746
  682.5000     7.7595   109.5868     0.0074     0.1279     2.4560
  683.0000     7.7595   111.2318     0.0044     0.1285     2.4550
  683.5000     7.7595   113.7643     0.0061     0.1231     2.4696
  684.0000     7.7595   116.1489     0.0092     0.1132     2.4823
  684.5000     7.7595   114.0956     0.0168     0.1063     2.4996
  685.0000     7.7595   110.8589     0.0244     0.0997     2.5108
  685.5000     7.7595   111.9121     0.0320     0.0961     2.5154
  686.0000     7.7595   114.1488     0.0366     0.1119     2.4931
  686.5000     7.7595   115.7937     0.0397     0.1050     2.4984
  687.0000     7.7595   116.8469     0.0428     0.1023     2.5074
  687.5000     7.7595   117.4564     0.0474     0.1040     2.5082
  688.0000     7.7595   117.0318     0.0506     0.1109     2.5038
  688.5000     7.7595   113.2033     0.0476     0.1110     2.4837
  689.0000     7.7595   105.6767     0.0342     0.1075     2.4836
  689.5000     7.7595    91.0494     0.0282     0.1150     2.4996
  690.0000     7.7595    52.4577     0.0404     0.1182     2.4944
  690.5000     7.7595  -999.2500     0.0480     0.1137     2.4811
  691.0000     7.7595  -999.2500     0.0496     0.1092     2.4752
  691.5000     7.7595  -999.2500     0.0467     0.1098     2.4984
  692.0000     7.7595  -999.2500     0.0422     0.1014     2.5111
  692.5000     7.7595  -999.2500     0.0363     0.0966     2.5164
  693.0000     7.7595  -999.2500     0.0334     0.0947     2.5172
  693.5000     7.7595  -999.2500     0.0304     0.0962     2.5158
  694.0000     7.7595  -999.2500     0.0306     0.1183     2.4861
  694.5000     7.7595  -999.2500     0.0352     0.1111     2.4914
  695.0000     7.7595  -999.2500     0.0428     0.1000     2.5168
  695.5000     7.7595  -999.2500     0.0474     0.0955     2.5228
  696.0000     7.7595  -999.2500     0.0490     0.0940     2.5192
  696.5000     7.7595  -999.2500     0.0491     0.1071     2.4946
  697.0000     7.7595  -999.2500     0.0522     0.1050     2.5059
  697.5000     7.7595  -999.2500     0.0538     0.0939     2.5209
  698.0000     7.7595  -999.2500     0.0539     0.0894     2.5277
  698.5000     7.7595  -999.2500     0.0540     0.1001     2.5166
  699.0000     7.7595  -999.2500     0.0661     0.0944     2.5032
  699.5000     7.7595  -999.2500     0.0843     0.0878     2.5294
  700.0000     7.7595  -999.2500     0.0904     0.0878     2.5317
  700.5000     7.7595  -999.2500     0.0844     0.0967     2.5206
  701.0000     7.7595  -999.2500     0.0785     0.1056     2.5057
  701.5000     7.7595  -999.2500     0.0771     0.1020     2.5058
  702.0000     7.7595  -999.2500     0.0802     0.0972     2.5126
  702.5000     7.7595  -999.2500     0.0878     0.0948     2.5172
