~VERSION INFORMATION
 VERS.                2.0:   CWLS LOG ASCII STANDARD - VERSION 2.0
 WRAP.                 NO:   ONE LINE PER DEPTH STEP
~WELL INFORMATION
#MNEM.UNIT      DATA TYPE    INFORMATION
#----------   ------------   ------------------------------
 STRT.F            2.5000:   START DEPTH
 STOP.F          548.0000:   STOP DEPTH
 STEP.F            0.5000:   STEP LENGTH
 NULL.          -999.2500:   NO VALUE
 COMP. LAWRENCE/ALLISON INC:   COMPANY
 WELL.    55-61 SX #10-10:   WELL
 FLD .           N.P.R #3:   FIELD
 LOC .      S10 T38N R78W:   LOCATION
 CNTY.            NATRONA:   COUNTY
 STAT.            WYOMING:   STATE
 CTRY. UNITED STATES OF AMERICA:   COUNTRY
 SRVC.            Unknown:   SERVICE COMPANY
 DATE.        05-SEP-1984:   LOGDATE
 API .       490251098100:   API NUMBER
~CURVE INFORMATION
#MNEM.UNIT       API CODE    CURVE DESCRIPTION
#----------   ------------   ------------------------------
 DEPT.F                  :   
 GRR .GAPI   07 310 01 00:   GAMMA RAY FROM RES
 SPR .MV     07 010 01 00:   SPONTANEOUS POTENTIAL
 RFOC.OHMM   07 220 04 00:   RESISTIVITY FOCUSED LOG
 RILD.OHMM   07 120 46 00:   INDUCTION LOG DEEP RESISTIVITY
 RILM.OHMM   07 120 44 00:   INDUCTION LOG MEDIUM RESISTIVITY
 CALD.IN     45 280 60 00:   CALIPER FROM DENSITY LOG
 DEN .G/C3   45 350 01 00:   COMPENSATED BULK DENSTIY
 CNC .DEC    42 890 03 00:   NEUTRON POROSITY SANDSTONE
 PORD.DEC    45 890 12 00:   POROSITY DENSITY SANDSTONE
 CORR.G/C3   45 356 01 00:   DENSITY CORRECTION
 AC  .US/F   60 520 00 00:   ACCOUSTIC SONIC
~PARAMETER INFORMATION
#MNEM.UNIT          VALUE    DESCRIPTION
#----------   ------------   ------------------------------
 PD  .                 GL:   PERMANENT DATUM
 EPD .F              5191:   ELEVATION PERMANENT DATUM
 LMF .                 KB:   LOG MEASURED FROM
 DAPD.F                12:   FEET ABOVE PERMANENT DATUM
 DMF .                 KB:   DRILLING MEASURED FROM
 EKB .F              5203:   KELLING BUSHING
 EGL .F              5191:   GROUND LEVEL
 DATE.         5-SEP-1984:   RUN DATE
 RUN .                  1:   RUN NUMBER
 DD  .F               540:   DEPTH DRILLER
 DL  .F               550:   DEPTH LOGGER
 BLI .F               548:   BOTTOM LOG INTERVAL
 CS  .IN            8.625:   CASING SIZE
 CBD .F                42:   CASING BOTTOM DRILLER
 CBL .F                54:   CASING BOTTOM LOGGER
 BS  .IN            7.875:   BIT SIZE
 BSD .F               540:   BIT SIZE AT DEPTH
 DFT .        KCL POLYMER:   DRILLING FLUID TYPE
 MSS .           FLOWLINE:   MUD SAMPLE SOURCE
 RMS .OHMM            .79:   RESISTIVITY MUD SAMPLE
 MST .F                74:   MUD SAMPLE TEMPERATURE
 RMF .OHMM            .59:   RESISTIVITY MUD FILTRATE SAMPLE
 MFST.F                74:   MUD FILTRATE SAMPLE TEMPERATURE
 RMC .OHMM            .99:   RESISTIVITY MUD CAKE
 MCST.F                74:   MUD CAKE SAMPLE TEMPERATURE
 MFSS.               CALC:   MUD FILTRATE SAMPLE SOURCE
 MCSS.               CALC:   MUD CAKE SAMPLE SOURCE
 RMB .OHMM            .65:   RESISTIVITY MUD AT BHT
 BHT .F                90:   BOTTOM HOLE TEMPERATURE
 TCS .HRS               3:   TIME CURCULATED STOPPED
 MRT .F                90:   MAXIMUM RECORDED TEMPERATURE
 LUN .               6274:   LOGGING UNIT NUMBER
 LUL .               GLTE:   LOGGING UNIT LOCATION
 ENGI.             RAUTIO:   RECORDING ENGINEER
 WITN.            JOHNSON:   WITNESSED BY
 CLNT.            A2DTECH:   CLIENT CODE
 ORIG. 2", 2.5", 5" PRINT:   ORIGIN OF DATA
 UWI .       490251098100:   UNIQUE WELL ID
 DICO. A2D Technologies, Inc.:   DIGITIZING COMPANY
~OTHER INFORMATION
~A    DEPT      GRR       SPR       RFOC       RILD       RILM       CALD        DEN        CNC       PORD       CORR         AC   
# ...
  307.5000    76.4760   -28.4910    14.9080    16.5190    14.7390     7.9670     2.4080     0.2630     0.1620     0.0090   157.8930
  308.0000    76.2680   -28.9100    14.6200    16.1920    14.5020     7.9680     2.4170     0.2610     0.1560     0.0020   156.0040
  308.5000    77.9410   -29.3290    14.2890    16.1650    14.2640     7.9690     2.4260     0.2440     0.1510    -0.0050   154.2430
  309.0000    78.0710   -29.7850    13.9800    16.1350    14.0270     7.9700     2.4340     0.2360     0.1480    -0.0040   154.6410
  309.5000    77.3340   -29.8970    13.9800    16.1040    13.7250     7.9710     2.4390     0.2380     0.1440     0.0100   158.1310
  310.0000    76.7600   -29.7080    14.1110    16.0730    13.7250     7.9720     2.4380     0.2400     0.1440     0.0210   162.1310
  310.5000    79.1000   -29.5140    14.2150    16.0440    13.8780     7.9720     2.4340     0.2390     0.1460     0.0210   164.2030
  311.0000    80.0470   -29.3180    14.3190    16.1880    13.9990     7.9730     2.4310     0.2400     0.1480     0.0210   162.2110
  311.5000    79.7520   -29.2090    14.4230    16.3250    14.1210     7.9740     2.4290     0.2410     0.1490     0.0150   156.5630
  312.0000    78.3450   -29.2920    14.5270    16.4610    14.2420     7.9750     2.4280     0.2460     0.1500     0.0070   150.2060
  312.5000    76.6670   -29.4750    14.6310    16.5970    14.3630     7.9760     2.4290     0.2510     0.1490     0.0110   144.4820
  313.0000    76.8490   -29.6570    14.7350    16.7340    14.4840     7.9770     2.4290     0.2500     0.1500     0.0150   144.7890
  313.5000    76.9620   -29.8400    14.9080    16.8700    14.5030     7.9780     2.4220     0.2500     0.1540     0.0170   145.2260
  314.0000    76.0800   -30.0230    14.8600    17.0060    14.5030     7.9780     2.4100     0.2530     0.1620     0.0100   145.6640
  314.5000    71.6860   -30.2060    14.7540    17.1090    14.5030     7.9790     2.3970     0.2600     0.1690     0.0000   145.6710
  315.0000    69.5690   -30.3890    14.6480    16.9660    14.5030     7.9800     2.3930     0.2600     0.1720    -0.0020   145.2710
  315.5000    70.4370   -30.5720    14.5410    16.6420    14.5030     7.9810     2.3950     0.2600     0.1690     0.0050   145.2970
  316.0000    72.7600   -30.7540    14.4560    16.3180    14.5030     7.9820     2.4010     0.2590     0.1660     0.0100   145.7140
  316.5000    75.0640   -30.9370    14.2590    15.9940    14.2940     7.9830     2.4060     0.2580     0.1630     0.0040   146.0760
  317.0000    75.8110   -31.1200    14.0620    15.6700    14.1190     7.9830     2.4090     0.2590     0.1610    -0.0070   145.8090
  317.5000    74.6060   -31.1330    13.8650    15.3460    13.9450     7.9840     2.4130     0.2590     0.1590    -0.0130   145.4450
  318.0000    73.5670   -30.8840    13.6670    15.0220    13.7700     7.9850     2.4200     0.2600     0.1550    -0.0160   145.0820
  318.5000    74.3260   -30.6380    13.4750    14.7640    13.6000     7.9860     2.4310     0.2570     0.1490     0.0040   144.7180
  319.0000    76.6170   -30.3940    13.5410    14.7300    13.6440     7.9860     2.4390     0.2540     0.1430     0.0100   144.4530
  319.5000    78.9380   -30.1410    13.6470    14.6970    13.6880     7.9860     2.4450     0.2500     0.1400     0.0170   144.3700
  320.0000    80.3390   -30.2460    13.7520    14.6630    13.7310     7.9860     2.4510     0.2530     0.1370     0.0200   144.2830
  320.5000    81.2330   -30.3830    13.8570    14.6360    13.7740     7.9860     2.4340     0.2600     0.1460     0.0070   143.3230
  321.0000    80.7280   -30.5250    13.9630    14.7720    13.8180     7.9860     2.4180     0.2620     0.1550     0.0100   143.2710
  321.5000    79.2750   -30.6700    14.0680    16.9100    14.3060     7.9860     2.4020     0.2600     0.1640     0.0150   143.7710
  322.0000    74.8490   -30.8150    14.1760    19.0150    16.4240     7.9860     2.3950     0.2420     0.1690     0.0160   144.2830
  322.5000    68.7280   -30.9510    16.3790    21.1200    18.5420     7.9860     2.4060     0.2260     0.1580     0.0040   143.0630
  323.0000    64.6790   -31.3950    19.8800    23.2250    20.6610     7.9860     2.4450     0.2100     0.1420    -0.0070   141.1430
  323.5000    61.3160   -31.8850    23.3810    25.3300    22.7790     7.9860     2.4850     0.2060     0.1150     0.0020   138.8680
  324.0000    61.3240   -32.3780    26.8820    27.4350    24.8970     7.9860     2.4740     0.2260     0.1160     0.0120   137.7840
  324.5000    63.6770   -32.8720    31.0780    29.5400    26.5860     7.9860     2.4120     0.2580     0.1590     0.0220   136.9120
  325.0000    66.2200   -33.3690    30.3790    31.9240    27.9780     7.9860     2.3660     0.2600     0.1860     0.0190   138.3470
  325.5000    68.4130   -33.9310    29.5060    34.3810    28.6870     7.9860     2.3360     0.2520     0.2030     0.0140   144.9289
  326.0000    68.5380   -34.4960    28.6340    34.9270    29.6840     7.9860     2.3190     0.2500     0.2140     0.0170   149.0876
  326.5000    68.7220   -35.0600    27.7610    35.3420    29.2540     7.9860     2.3100     0.2580     0.2190     0.0230   151.7055
  327.0000    69.3080   -35.6250    27.5810    35.2840    28.5320     7.9860     2.3060     0.2680     0.2220     0.0150   153.3989
  327.5000    69.9100   -36.1900    27.8670    34.9850    27.8360     7.9860     2.3070     0.2790     0.2230     0.0070   161.4097
  328.0000    69.7590   -36.7540    28.1560    34.6850    32.0210     7.9860     2.3100     0.2800     0.2210     0.0060   201.7494
  328.5000    68.3660   -37.3190    28.4450    34.3810    39.1240     7.9860     2.3140     0.2800     0.2190     0.0180   223.8104
  329.0000    68.3080   -37.8830    28.7340    34.8340    49.1880     7.9860     2.3140     0.2810     0.2180     0.0230   197.5347
  329.5000    68.2850   -38.4480    29.0220    35.2920    39.3370     7.9860     2.3130     0.2820     0.2190     0.0250   169.8995
  330.0000    67.3890   -39.0120    29.1430    35.6680    28.0920     7.9860     2.3100     0.2830     0.2200     0.0110   104.0829
  330.5000    64.4410   -39.5720    28.5010    35.1290    28.3170     7.9860     2.3030     0.2810     0.2230     0.0210   102.8488
  331.0000    61.5500   -40.1210    28.0920    33.9390    28.6130     7.9860     2.3000     0.2740     0.2260     0.0390   102.2309
  331.5000    63.3640   -40.6630    29.6840    32.7490    27.7630     7.9860     2.3010     0.2680     0.2260     0.0370   101.7672
  332.0000    66.1180   -40.7920    29.2630    32.1320    26.8920     7.9860     2.3110     0.2630     0.2210     0.0160   100.6871
  332.5000    69.7820   -40.6290    28.1350    31.8390    26.3230     7.9860     2.3240     0.2740     0.2140     0.0090    99.6070
  333.0000    71.5970   -40.4660    27.0060    31.3230    26.2030     7.9860     2.3320     0.2800     0.2070     0.0110    98.6809
  333.5000    71.6920   -40.3020    25.8780    31.0730    26.0840     7.9860     2.3290     0.2810     0.2070     0.0000    98.9876
  334.0000    70.4090   -40.1330    24.7030    30.8220    25.9640     7.9860     2.3220     0.2810     0.2140    -0.0030    99.6024
  334.5000    69.1740   -39.9540    25.3740    30.5720    25.8640     7.9860     2.3120     0.2760     0.2190     0.0120    99.7550
  335.0000    69.8010   -40.1190    26.5650    29.8480    25.4280     7.9860     2.3120     0.2710     0.2200     0.0210    99.7021
  335.5000    70.1500   -40.5720    27.3290    28.6130    24.8550     7.9860     2.3150     0.2720     0.2180     0.0350    99.5927
  336.0000    68.9740   -41.0680    26.4190    28.4820    24.2830     7.9860     2.3220     0.2760     0.2160     0.0310    98.6308
  336.5000    67.5910   -41.3880    25.2340    28.3450    23.7100     7.9860     2.3390     0.2780     0.2080     0.0210    97.6995
  337.0000    70.1800   -41.5750    24.0490    28.2080    23.1370     7.9860     2.3510     0.2770     0.1990     0.0060    97.1279
  337.5000    73.3250   -41.8930    22.8640    28.0920    22.5360     7.9860     2.3560     0.2740     0.1940     0.0170    97.1264
