~VERSION INFORMATION
 VERS.                2.0:   CWLS LOG ASCII STANDARD - VERSION 2.0
 WRAP.                 NO:   ONE LINE PER DEPTH STEP
~WELL INFORMATION
#MNEM.UNIT      DATA TYPE    INFORMATION
#----------   ------------   ------------------------------
 STRT.F            7.5000:   START DEPTH
 STOP.F         2886.0000:   STOP DEPTH
 STEP.F            0.5000:   STEP LENGTH
 NULL.          -999.2500:   NO VALUE
 COMP. LAWRENCE/ALLISON INC:   COMPANY
 WELL.     16-1 AX #21-21:   WELL
 FLD .             TEAPOT:   FIELD
 LOC .      S21 T39N R78W:   LOCATION
 CNTY.            NATRONA:   COUNTY
 STAT.            WYOMING:   STATE
 CTRY. UNITED STATES OF AMERICA:   COUNTRY
 SRVC.      Dresser Atlas:   SERVICE COMPANY
 DATE.        05-DEC-1986:   LOGDATE
 API .       490251111900:   API NUMBER
~CURVE INFORMATION
#MNEM.UNIT       API CODE    CURVE DESCRIPTION
#----------   ------------   ------------------------------
 DEPT.F                  :   
 GRR .GAPI   07 310 01 00:   GAMMA RAY FROM RES. LOG.
 SPR .MV     07 010 01 00:   SPONTANEOUS POTENTIAL
 RFOC.OHMM   07 220 04 00:   RESISTIVITY FOCUSED LOG
 RILM.OHMM   07 120 44 00:   INDUCTION LOG MEDIUM RESISTIVITY
 RILD.OHMM   07 120 46 00:   INDUCTION LOG DEEP RESISTIVITY
 CALD.IN     45 280 60 00:   CALIPER
 DEN .G/C3   45 350 01 00:   BULK DENSITY
 CORR.G/C3   45 356 01 00:   DENSITY CORRECTION
 CNC .DEC    42 890 03 00:   NEUTRON POROSITY SANDSTONE
 PORD.DEC    45 890 12 00:   DENSITY POROSITY SANDSTONE
~PARAMETER INFORMATION
#MNEM.UNIT          VALUE    DESCRIPTION
#----------   ------------   ------------------------------
 PD  .                 GL:   PERMANENT DATUM
 EPD .F              4992:   ELEVATION PERMANENT DATUM
 LMF .                 KB:   LOG MEASURED FROM
 DAPD.F                12:   FEET ABOVE PERMANENT DATUM
 DMF .                 KB:   DRILLING MEASURED FROM
 EKB .F              5004:   KELLING BUSHING
 EGL .F              4992:   GROUND LEVEL
 DATE.            12-5-86:   RUN DATE
 RUN .                  1:   RUN NUMBER
 DD  .F              2905:   DEPTH DRILLER
 DL  .F              2890:   DEPTH LOGGER
 BLI .F              2884:   BOTTOM LOG INTERVAL
 TLI .F              2200:   TOP LOG INTERVAL
 CS  .IN            8.625:   CASING SIZE
 CBD .F               300:   CASING BOTTOM DRILLER
 CBL .F               300:   CASING BOTTOM LOGGER
 BS  .IN            7.875:   BIT SIZE
 BSD .F              2905:   BIT SIZE AT DEPTH
 DFT .        KCL POLYMER:   DRILLING FLUID TYPE
 DFD .                  9:   DRILLING FLUID DENSITY
 DFV .                 36:   DRILLING FLUID VISCOSITY
 DFPH.                9.5:   DRILLING FLUID PH
 DFL .               11.8:   DRILLING FLUID LOSS
 MSS .            MUDTANK:   MUD SAMPLE SOURCE
 RMS .OHMM            .43:   RESISTIVITY MUD SAMPLE
 MST .F                63:   MUD SAMPLE TEMPERATURE
 RMF .OHMM           .348:   RESISTIVITY MUD FILTRATE SAMPLE
 MFST.F                63:   MUD FILTRATE SAMPLE TEMPERATURE
 RMC .OHMM           .538:   RESISTIVITY MUD CAKE
 MCST.F                63:   MUD CAKE SAMPLE TEMPERATURE
 MFSS.               MEAS:   MUD FILTRATE SAMPLE SOURCE
 MCSS.               CALC:   MUD CAKE SAMPLE SOURCE
 RMB .OHMM           .233:   RESISTIVITY MUD AT BHT
 BHT .F               116:   BOTTOM HOLE TEMPERATURE
 TCS .HRS             3.5:   TIME CURCULATED STOPPED
 MRT .F               116:   MAXIMUM RECORDED TEMPERATURE
 LUN .            HL-6274:   LOGGING UNIT NUMBER
 LUL .           GILLETTE:   LOGGING UNIT LOCATION
 ENGI.             RAUTIO:   RECORDING ENGINEER
 WITN.             STRONG:   WITNESSED BY
 CLNT.            A2DTECH:   CLIENT CODE
 ORIG.       2", 5" PRINT:   ORIGIN OF DATA
 UWI .       490251111900:   UNIQUE WELL ID
 DICO. A2D Technologies, Inc.:   DIGITIZING COMPANY
~OTHER INFORMATION
~A    DEPT     GRR        SPR       RFOC       RILM       RILD       CALD        DEN       CORR        CNC       PORD   
# ...
 1682.5000   108.3645   -61.9148     9.2650     7.8813     7.6646  -999.2500  -999.2500  -999.2500  -999.2500  -999.2500
 1683.0000   110.2454   -61.7062     9.2377     7.8571     7.6411  -999.2500  -999.2500  -999.2500  -999.2500  -999.2500
 1683.5000   112.4393   -61.5931     9.2105     7.8228     7.6175  -999.2500  -999.2500  -999.2500  -999.2500  -999.2500
 1684.0000   114.6674   -61.6057     9.1834     7.8370     7.6077  -999.2500  -999.2500  -999.2500  -999.2500  -999.2500
 1684.5000   114.8607   -61.7077     9.1617     7.8618     7.6077  -999.2500  -999.2500  -999.2500  -999.2500  -999.2500
 1685.0000   114.2618   -61.7835     9.2269     7.8865     7.6076  -999.2500  -999.2500  -999.2500  -999.2500  -999.2500
 1685.5000   112.1589   -61.9831     9.2815     7.9114     7.6077  -999.2500  -999.2500  -999.2500  -999.2500  -999.2500
 1686.0000   110.3515   -62.1782     9.3336     7.9363     7.6063  -999.2500  -999.2500  -999.2500  -999.2500  -999.2500
 1686.5000   112.4520   -62.3752     9.1812     7.9613     7.6432  -999.2500  -999.2500  -999.2500  -999.2500  -999.2500
 1687.0000   115.5931   -62.5380     8.9912     7.9866     7.6975  -999.2500  -999.2500  -999.2500  -999.2500  -999.2500
 1687.5000   118.7071   -62.7627     9.0525     8.0118     7.7522  -999.2500  -999.2500  -999.2500  -999.2500  -999.2500
 1688.0000   121.9331   -62.3325     9.2113     8.0441     7.8228  -999.2500  -999.2500  -999.2500  -999.2500  -999.2500
 1688.5000   124.2082   -61.8550     9.6566     7.9085     7.6908  -999.2500  -999.2500  -999.2500  -999.2500  -999.2500
 1689.0000   124.3199   -61.6634     9.9611     7.7240     7.5114  -999.2500  -999.2500  -999.2500  -999.2500  -999.2500
 1689.5000   123.8711   -61.5435     9.7776     7.5436     7.3362  -999.2500  -999.2500  -999.2500  -999.2500  -999.2500
 1690.0000   119.8170   -61.3657     9.2063     7.3670     7.1650  -999.2500  -999.2500  -999.2500  -999.2500  -999.2500
 1690.5000   115.1594   -61.5289     8.2714     7.2317     7.0366  -999.2500  -999.2500  -999.2500  -999.2500  -999.2500
 1691.0000   113.7893   -61.6890     8.3486     7.1527     6.9705  -999.2500  -999.2500  -999.2500  -999.2500  -999.2500
 1691.5000   115.1813   -61.6655     8.1171     7.0614     6.9050  -999.2500  -999.2500  -999.2500  -999.2500  -999.2500
 1692.0000   116.8125   -61.5507     7.7794     7.0611     6.8684  -999.2500  -999.2500  -999.2500  -999.2500  -999.2500
 1692.5000   118.4463   -61.5937     7.5407     7.1432     6.9423  -999.2500  -999.2500  -999.2500  -999.2500  -999.2500
 1693.0000   120.0042   -61.6407     8.3209     7.2719     6.9943  -999.2500  -999.2500  -999.2500  -999.2500  -999.2500
 1693.5000   123.3672   -61.6873     9.0084     7.4019     7.0466  -999.2500  -999.2500  -999.2500  -999.2500  -999.2500
 1694.0000   125.5685   -61.7355     9.5976     7.4872     7.0993  -999.2500  -999.2500  -999.2500  -999.2500  -999.2500
 1694.5000   120.8965   -61.7896     9.4430     7.5266     7.1525  -999.2500  -999.2500  -999.2500  -999.2500  -999.2500
 1695.0000   115.1630   -61.8725     9.1504     7.5662     7.2060  -999.2500  -999.2500  -999.2500  -999.2500  -999.2500
 1695.5000   111.1682   -61.9550     8.8669     7.6073     7.2622  -999.2500  -999.2500  -999.2500  -999.2500  -999.2500
 1696.0000   109.4989   -62.0378     8.6648     7.5109     7.2388  -999.2500  -999.2500  -999.2500  -999.2500  -999.2500
 1696.5000   108.1974   -62.1206     8.7810     7.4352     7.2145  -999.2500  -999.2500  -999.2500  -999.2500  -999.2500
 1697.0000   108.6739   -62.2040     8.9930     7.3801     7.1902  -999.2500  -999.2500  -999.2500  -999.2500  -999.2500
 1697.5000   110.3745   -62.2855     8.9098     7.3254     7.1659  -999.2500  -999.2500  -999.2500  -999.2500  -999.2500
 1698.0000   110.0143   -62.3044     8.7818     7.2622     7.1419  -999.2500  -999.2500  -999.2500  -999.2500  -999.2500
 1698.5000   109.2534   -62.0732     8.5053     7.3296     7.1280  -999.2500  -999.2500  -999.2500  -999.2500  -999.2500
 1699.0000   108.4706   -62.0720     8.1949     7.4108     7.2009  -999.2500  -999.2500  -999.2500  -999.2500  -999.2500
 1699.5000   109.0197   -62.3452     8.5911     7.4929     7.2594  -999.2500  -999.2500  -999.2500  -999.2500  -999.2500
 1700.0000   113.2930   -62.6173     8.9738     7.5759     7.3184  -999.2500  -999.2500  -999.2500  -999.2500  -999.2500
 1700.5000   118.9334   -62.6966     9.2577     7.6599     7.3779  -999.2500  -999.2500  -999.2500  -999.2500  -999.2500
 1701.0000   120.4404   -62.5969     9.2914     7.7504     7.4378  -999.2500  -999.2500  -999.2500  -999.2500  -999.2500
 1701.5000   119.7967   -62.4950     9.3336     7.7163     7.4983  -999.2500  -999.2500  -999.2500  -999.2500  -999.2500
 1702.0000   117.5042   -62.3921     9.2394     7.6787     7.5373  -999.2500  -999.2500  -999.2500  -999.2500  -999.2500
 1702.5000   114.3408   -62.3229     9.1156     7.5630     7.4112  -999.2500  -999.2500  -999.2500  -999.2500  -999.2500
 1703.0000   114.1613   -62.2759     8.9930     7.4449     7.3197  -999.2500  -999.2500  -999.2500  -999.2500  -999.2500
 1703.5000   114.6716   -62.2291     8.9088     7.3281     7.2291  -999.2500  -999.2500  -999.2500  -999.2500  -999.2500
 1704.0000   115.6756   -62.1832     8.8274     7.2616     7.1285  -999.2500  -999.2500  -999.2500  -999.2500  -999.2500
 1704.5000   118.3133   -62.1730     8.5465     7.2944     7.1332  -999.2500  -999.2500  -999.2500  -999.2500  -999.2500
 1705.0000   119.2934   -62.2921     8.4600     7.3211     7.1388  -999.2500  -999.2500  -999.2500  -999.2500  -999.2500
 1705.5000   114.7381   -62.4050     8.4279     7.3478     7.1444  -999.2500  -999.2500  -999.2500  -999.2500  -999.2500
 1706.0000   110.0862   -62.5190     8.8644     7.3744     7.1500  -999.2500  -999.2500  -999.2500  -999.2500  -999.2500
 1706.5000   109.5321   -62.6337     9.0747     7.3980     7.1556  -999.2500  -999.2500  -999.2500  -999.2500  -999.2500
 1707.0000   110.4565   -62.7444     8.9976     7.3772     7.1613  -999.2500  -999.2500  -999.2500  -999.2500  -999.2500
 1707.5000   111.6331   -62.6378     8.9371     7.3578     7.1669  -999.2500  -999.2500  -999.2500  -999.2500  -999.2500
 1708.0000   112.8196   -62.5167     8.7380     7.3304     7.1726  -999.2500  -999.2500  -999.2500  -999.2500  -999.2500
 1708.5000   112.5301   -62.3942     8.4242     7.3421     7.1782  -999.2500  -999.2500  -999.2500  -999.2500  -999.2500
 1709.0000   110.9675   -62.4134     8.4936     7.3639     7.1838  -999.2500  -999.2500  -999.2500  -999.2500  -999.2500
 1709.5000   108.0459   -62.5140     8.5847     7.3857     7.1894  -999.2500  -999.2500  -999.2500  -999.2500  -999.2500
 1710.0000   106.0539   -62.6163     8.8428     7.4050     7.1954  -999.2500  -999.2500  -999.2500  -999.2500  -999.2500
 1710.5000   109.1210   -62.7185     8.9930     7.4210     7.2083  -999.2500  -999.2500  -999.2500  -999.2500  -999.2500
 1711.0000   112.8206   -62.8206     8.7789     7.4369     7.2215  -999.2500  -999.2500  -999.2500  -999.2500  -999.2500
 1711.5000   114.2207   -62.9228     8.5847     7.4529     7.2345  -999.2500  -999.2500  -999.2500  -999.2500  -999.2500
 1712.0000   111.2664   -63.1738     8.6966     7.4676     7.2477  -999.2500  -999.2500  -999.2500  -999.2500  -999.2500
 1712.5000   109.7023   -63.4949     8.8655     7.5959     7.2619  -999.2500  -999.2500  -999.2500  -999.2500  -999.2500
 1713.0000   111.7941   -63.2762     9.0376     7.7158     7.3544  -999.2500  -999.2500  -999.2500  -999.2500  -999.2500
 1713.5000   113.1185   -62.9104     9.2133     7.8319     7.4580  -999.2500  -999.2500  -999.2500  -999.2500  -999.2500
 1714.0000   110.7946   -62.5408     9.3938     7.8924     7.5631  -999.2500  -999.2500  -999.2500  -999.2500  -999.2500
 1714.5000   108.7434   -62.1711     9.5079     7.9550     7.6696  -999.2500  -999.2500  -999.2500  -999.2500  -999.2500
 1715.0000   110.8272   -61.7976     9.4283     8.0178     7.7777  -999.2500  -999.2500  -999.2500  -999.2500  -999.2500
 1715.5000   115.5148   -61.8689     9.3676     8.0712     7.8469  -999.2500  -999.2500  -999.2500  -999.2500  -999.2500
