~VERSION INFORMATION
 VERS.                2.0:   CWLS LOG ASCII STANDARD - VERSION 2.0
 WRAP.                 NO:   ONE LINE PER DEPTH STEP
~WELL INFORMATION
#MNEM.UNIT      DATA TYPE    INFORMATION
#----------   ------------   ------------------------------
 STRT.F           30.0000:   START DEPTH
 STOP.F          547.0000:   STOP DEPTH
 STEP.F            0.5000:   STEP LENGTH
 NULL.          -999.2500:   NO VALUE
 COMP.   FINIX & SCISSION:   COMPANY
 WELL. SX-11 NPR #3 #11-11:   WELL
 FLD .             TEAPOT:   FIELD
 LOC .      S11 T38N R78W:   LOCATION
 CNTY.            NATRONA:   COUNTY
 STAT.            WYOMING:   STATE
 CTRY. UNITED STATES OF AMERICA:   COUNTRY
 SRVC.       Schlumberger:   SERVICE COMPANY
 DATE.        01-MAR-1977:   LOGDATE
 API .       490251058500:   API NUMBER
~CURVE INFORMATION
#MNEM.UNIT       API CODE    CURVE DESCRIPTION
#----------   ------------   ------------------------------
 DEPT.F                  :   
 ILD .OHMM               :   INDUCTION LOG DEEP
 ILM .OHMM   07 120 44 00:   INDUCTION LOG MEDIUM
 LL8 .OHMM   07 220 08 00:   
 SPR .MV     07 010 01 00:   SPONTANEOUS POTENTIAL
 CALD.IN     45 280 60 00:   CALIPER FROM DENSITY LOG
 CORR.G/C3   45 356 01 00:   DENSITY CORRECTION
 DPHI.DEC    45 890 12 00:   DENSITY POROSITY SANDSTONE
 GRD .GAPI   45 310 01 00:   GAMMA RAY FROM DENSITY LOG
 RHOB.G/C3   45 350 01 00:   BULK DENSITY
~PARAMETER INFORMATION
#MNEM.UNIT          VALUE    DESCRIPTION
#----------   ------------   ------------------------------
 PD  .                 GL:   PERMANENT DATUM
 EPD .F              5158:   ELEVATION PERMANENT DATUM
 LMF .                 GL:   LOG MEASURED FROM
 DMF .                 GL:   DRILLING MEASURED FROM
 EKB .F              5161:   KELLING BUSHING
 EGL .F              5158:   GROUND LEVEL
 DATE.        01-MAR-1977:   RUN DATE
 RUN .                  1:   RUN NUMBER
 DD  .F               575:   DEPTH DRILLER
 DL  .F               548:   DEPTH LOGGER
 BLI .F               547:   BOTTOM LOG INTERVAL
 TLI .F                45:   TOP LOG INTERVAL
 CS  .IN            8.625:   CASING SIZE
 CBD .F                40:   CASING BOTTOM DRILLER
 CBL .F                45:   CASING BOTTOM LOGGER
 BS  .IN            7.875:   BIT SIZE
 BSD .F               575:   BIT SIZE AT DEPTH
 DFT .                PIT:   DRILLING FLUID TYPE
 DFD .                8.7:   DRILLING FLUID DENSITY
 DFV .                 46:   DRILLING FLUID VISCOSITY
 DFPH.                  8:   DRILLING FLUID PH
 DFL .                6.8:   DRILLING FLUID LOSS
 MSS .                PIT:   MUD SAMPLE SOURCE
 RMS .OHMM          0.632:   RESISTIVITY MUD SAMPLE
 MST .F                65:   MUD SAMPLE TEMPERATURE
 RMF .OHMM          0.465:   RESISTIVITY MUD FILTRATE SAMPLE
 MFST.F                65:   MUD FILTRATE SAMPLE TEMPERATURE
 MFSS.               MEAS:   MUD FILTRATE SAMPLE SOURCE
 RMB .OHMM          0.635:   RESISTIVITY MUD AT BHT
 BHT .F                68:   BOTTOM HOLE TEMPERATURE
 TCS .HRS              12:   TIME CURCULATED STOPPED
 MRT .F                68:   MAXIMUM RECORDED TEMPERATURE
 LUN .               5642:   LOGGING UNIT NUMBER
 LUL .               CSPR:   LOGGING UNIT LOCATION
 ENGI.         JIM MARTIN:   RECORDING ENGINEER
 WITN.         STUEBINGER:   WITNESSED BY
 CLNT.            A2DTECH:   CLIENT CODE
 ORIG.           5" PRINT:   ORIGIN OF DATA
 UWI .       490251058500:   UNIQUE WELL ID
 DICO. A2D Technologies, Inc.:   DIGITIZING COMPANY
~OTHER INFORMATION
~A   DEPT      ILD        ILM        LL8        SPR       CALD       CORR       DPHI         GRD      RHOB   
# ...
  249.0000     8.7587     9.0666     9.3358   -32.2074     8.1237     0.0202     0.1218    87.1625     2.4306
  249.5000     8.8411     9.0666     9.5813   -32.0458     8.1247     0.0337     0.1149    87.7725     2.4561
  250.0000     8.8808     9.1928     9.7117   -31.8859     8.1257     0.0442     0.1077    87.0306     2.4734
  250.5000     8.8814     9.1940     9.8504   -31.8696     8.1270     0.0524     0.0956    85.9941     2.5004
  251.0000     8.8819     9.1953     9.8504   -32.0009     8.1130     0.0374     0.1073    86.1545     2.5094
  251.5000     8.8825     9.1332     9.9187   -31.9847     8.0991     0.0179     0.1211    87.5142     2.4524
  252.0000     8.8831     9.1347    10.0567   -31.8188     8.0702     0.0119     0.1241    86.6250     2.4360
  252.5000     8.8837     9.0358    10.1264   -31.3536     8.0560     0.0344     0.1085    85.7359     2.4674
  253.0000     8.8843     9.0115     9.9187   -31.1877     8.0421     0.0366     0.1145    85.2965     2.4794
  253.5000     8.8849     8.9510     9.6483   -31.3212     8.0434     0.0276     0.1220    85.4568     2.4559
  254.0000     8.8855     8.8903     9.4504   -31.4551     8.0893     0.0223     0.1271    86.0669     2.4354
  254.5000     8.8249     8.8916     9.3522   -31.7380     8.1353     0.0186     0.1313    87.1268     2.4209
  255.0000     8.8255     8.8318     9.2565   -32.1033     8.1363     0.0148     0.1274    87.8868     2.4314
  255.5000     8.8262     8.8329     9.1928   -32.4542     8.0924     0.0216     0.1220    87.5974     2.4412
  256.0000     8.7962     8.8341     9.1295   -32.7374     8.0935     0.0345     0.1113    86.2585     2.4547
  256.5000     8.7665     8.7745     9.0666   -32.7172     8.0945     0.0470     0.1082    85.0695     2.4757
  257.0000     8.7672     8.7758     9.0042   -32.7010     8.0909     0.0297     0.1178    84.3302     2.4457
  257.5000     8.7539     8.7357     8.9422   -32.6871     8.0816     0.0357     0.1148    84.6405     2.4525
  258.0000     8.7080     8.7177     8.9422   -32.6707     8.0827     0.0432     0.1106    85.8503     2.4712
  258.5000     8.7087     8.6587     8.9422   -32.6542     8.0687     0.0327     0.1217    87.3599     2.4547
  259.0000     8.7092     8.6544     8.9422   -32.6363     8.0698     0.0222     0.1192    88.4198     2.4427
  259.5000     8.6799     8.6014     8.9422   -32.6202     8.0708     0.0401     0.1072    87.9760     2.4660
  260.0000     8.6504     8.5801     8.9422   -32.7577     8.0719     0.0506     0.1147    87.3813     2.4788
  260.5000     8.6511     8.5445     9.0042   -33.0374     8.0730     0.0289     0.1216    87.1017     2.4473
  261.0000     8.6517     8.5064     9.0042   -33.6195     8.0740     0.0214     0.1189    87.7332     2.4503
  261.5000     8.6522     8.4882     9.0042   -33.9028     8.0750     0.0259     0.1117    88.3488     2.4623
  262.0000     8.5932     8.4309     9.0042   -33.7365     8.0760     0.0243     0.1228    87.5853     2.4578
  262.5000     8.5939     8.3564     9.0042   -33.5579     8.0771     0.0266     0.1192    86.6961     2.4473
  263.0000     8.5945     8.3175     8.9422   -33.2514     8.0781     0.0340     0.1117    87.0064     2.4603
  263.5000     8.5358     8.1655     8.5790   -33.0855     8.0793     0.0295     0.1147    88.5160     2.4683
  264.0000     8.4194     8.0849     8.2306   -32.9237     8.0802     0.0250     0.1192    89.5733     2.4582
  264.5000     8.1904     7.9607     7.9511   -33.3567     8.0813     0.0220     0.1219    87.4847     2.4488
  265.0000     7.9128     7.8206     7.8964   -33.7855     8.0825     0.0370     0.1155    87.9475     2.4608
  265.5000     7.6446     7.6609     7.9511   -33.9231     8.0834     0.0459     0.1096    88.1078     2.4729
  266.0000     7.2340     7.2502     8.1740   -34.2545     8.0844     0.0594     0.1045    85.4196     2.4856
  266.5000     6.8455     6.8612     8.3452   -34.3399     8.0856     0.0482     0.1177    81.6818     2.4684
  267.0000     6.4736     6.5381     8.2306   -34.4694     8.0865     0.0339     0.1255    80.3429     2.4421
  267.5000     6.1201     6.1874     7.4684   -34.4532     8.0876     0.0249     0.1332    82.3023     2.4136
  268.0000     5.7608     5.8151     6.6728   -34.5868     8.0887     0.0197     0.1401    85.1613     2.3979
  268.5000     5.6041     5.5797     6.0101   -34.5704     8.0898     0.0234     0.1434    86.6710     2.4031
  269.0000     5.8417     5.3910     5.5897   -34.3862     8.0907     0.0316     0.1335    87.1311     2.4211
  269.5000     6.3035     5.9393     5.8667   -33.9354     8.1068     0.0339     0.1299    86.8417     2.4151
  270.0000     6.7549     6.6899     6.3300   -33.6198     8.1078     0.0301     0.1230    86.3997     2.4384
  270.5000     7.1887     7.2530     6.8772   -33.3042     8.1089     0.0293     0.1125    86.5626     2.4572
  271.0000     7.5455     7.6729     7.3692   -32.9886     8.1099     0.0263     0.1143    86.8729     2.4658
  271.5000     7.7575     7.7912     7.7880   -32.9381     8.1109     0.0225     0.1191    87.2739     2.4549
  272.0000     7.8252     7.9447     7.9511   -32.8066     8.1120     0.0218     0.1215    87.6433     2.4467
  272.5000     7.9210     8.1122     8.0837   -32.7904     8.1130     0.0280     0.1230    86.7542     2.4399
  273.0000     8.0318     8.2262     8.2635   -32.6246     8.1217     0.0337     0.1204    86.3118     2.4513
  273.5000     8.1441     8.3418     8.4613   -32.1593     8.1301     0.0427     0.1127    86.1753     2.4711
  274.0000     8.2580     8.4590     8.6992   -31.8437     8.1161     0.0479     0.1254    86.0220     2.4467
  274.5000     8.2586     8.4602     8.9422   -31.6088     8.1172     0.0367     0.1311    85.2579     2.4227
  275.0000     8.1364     8.4031     8.8704   -31.1377     8.1183     0.0906     0.1206    84.7072     2.4445
  275.5000     7.9792     8.3463     8.4613   -30.5973     8.1043     0.1317     0.1407    85.3199     2.4175
  276.0000     7.8702     8.3475     8.1177   -30.5808     8.0457     0.1377     0.1683    86.3798     2.3417
  276.5000     7.9255     8.2911     7.8964   -31.0144     7.8970     0.0666     0.1773    87.1398     2.3102
  277.0000     8.0363     8.3003     7.8420   -31.4433     7.8083     0.0456     0.1190    87.5974     2.4190
  277.5000     8.1780     8.4091     8.0063   -31.8762     7.7644     0.0444     0.1013    87.3079     2.4873
  278.0000     8.3776     8.5272     8.2306   -32.1635     7.9151     0.0468     0.0986    87.7707     2.5060
  278.5000     8.5010     8.7070     8.4448   -32.1432     8.0060     0.0276     0.1094    88.5307     2.4730
  279.0000     8.6135     8.8429     8.6984   -32.1271     8.0370     0.0223     0.1016    85.0929     2.4918
  279.5000     8.6738     9.0155     8.8897   -32.4103     8.0679     0.0268     0.1115    81.8049     2.4663
  280.0000     8.7345     9.0793     9.0666   -32.5438     8.0690     0.0292     0.1178    80.9158     2.4498
  280.5000     8.7645     9.1433     9.1298   -32.6814     8.0699     0.0358     0.1115    80.4738     2.4671
  281.0000     8.7963     9.0817     9.1928   -32.8114     8.0711     0.0298     0.1119    83.7851     2.4784
  281.5000     8.7503     9.0447     9.1928   -32.7947     8.0721     0.0253     0.1164    87.5437     2.4610
  282.0000     8.7369     8.9595     9.1295   -32.6287     8.0731     0.0290     0.1197    89.9529     2.4467
  282.5000     8.6774     8.8377     9.0042   -32.6123     8.0891     0.0372     0.1184    92.2121     2.4519
  283.0000     8.6182     8.7165     8.8806   -32.9147     8.0901     0.0469     0.1112    88.3245     2.4705
  283.5000     8.5594     8.6588     8.8052   -33.3463     8.0912     0.0379     0.1091    86.0860     2.4821
  284.0000     8.5602     8.5527     8.6658   -33.7764     8.0923     0.0292     0.1189    84.5972     2.4551
  284.5000     8.5017     8.4167     8.5200   -34.0410     8.1082     0.0207     0.1255    85.2073     2.4431
  285.0000     8.3857     8.2536     8.4206   -34.1785     8.1093     0.0154     0.1222    88.3661     2.4386
