~VERSION INFORMATION
 VERS.                2.0:   CWLS LOG ASCII STANDARD - VERSION 2.0
 WRAP.                 NO:   ONE LINE PER DEPTH STEP
~WELL INFORMATION
#MNEM.UNIT      DATA TYPE    INFORMATION
#----------   ------------   ------------------------------
 STRT.F           70.0000:   START DEPTH
 STOP.F         1088.0000:   STOP DEPTH
 STEP.F            0.5000:   STEP LENGTH
 NULL.          -999.2500:   NO VALUE
 COMP. U S NAVY/INTEX OIL CO:   COMPANY
 WELL. RES 3 TEAPOT DOME #66S-11:   WELL
 FLD .             TEAPOT:   FIELD
 LOC .      S11 T38N R78W:   LOCATION
 CNTY.            NATRONA:   COUNTY
 STAT.            WYOMING:   STATE
 CTRY. UNITED STATES OF AMERICA:   COUNTRY
 SRVC.         Lane Wells:   SERVICE COMPANY
 DATE.        06-MAR-1960:   LOGDATE
 API .       490250633400:   API NUMBER
~CURVE INFORMATION
#MNEM.UNIT       API CODE    CURVE DESCRIPTION
#----------   ------------   ------------------------------
 DEPT.F                  :   
 SPR .MV     05 010 01 00:   SPONTANEOUS POTENTIAL FROM RES.
 ILD .OHMM   05 120 46 00:   INDUCTION LOG DEEP
 CILD.MMHO   05 110 00 00:   CONDUCTIVITY INDUCTION LOG
 ASN .OHMM   05 041 16 00:   AMPLIFIED SHORT NORMAL 16"
~PARAMETER INFORMATION
#MNEM.UNIT          VALUE    DESCRIPTION
#----------   ------------   ------------------------------
 PD  .                 GL:   PERMANENT DATUM
 EPD .F              5238:   ELEVATION PERMANENT DATUM
 LMF .                 KB:   LOG MEASURED FROM
 DAPD.F                 5:   FEET ABOVE PERMANENT DATUM
 DMF .                 KB:   DRILLING MEASURED FROM
 EKB .F              5243:   KELLING BUSHING
 EGL .F              5238:   GROUND LEVEL
 DATE.             3-6-60:   RUN DATE
 RUN .                  1:   RUN NUMBER
 DD  .F              1085:   DEPTH DRILLER
 DL  .F              1087:   DEPTH LOGGER
 BLI .F              1085:   BOTTOM LOG INTERVAL
 TLI .F                70:   TOP LOG INTERVAL
 CS  .IN            8.625:   CASING SIZE
 CBD .F                12:   CASING BOTTOM DRILLER
 BS  .IN            7.875:   BIT SIZE
 BSD .F              1085:   BIT SIZE AT DEPTH
 DFT .   GEL/OIL EMULSION:   DRILLING FLUID TYPE
 DFD .               10.3:   DRILLING FLUID DENSITY
 DFV .                 37:   DRILLING FLUID VISCOSITY
 DFPH.                8.5:   DRILLING FLUID PH
 DFL .                7.2:   DRILLING FLUID LOSS
 MSS .          FLOW LINE:   MUD SAMPLE SOURCE
 RMS .OHMM           1.65:   RESISTIVITY MUD SAMPLE
 MST .F                70:   MUD SAMPLE TEMPERATURE
 RMF .OHMM            1.2:   RESISTIVITY MUD FILTRATE SAMPLE
 MFST.F                68:   MUD FILTRATE SAMPLE TEMPERATURE
 RMC .OHMM            1.8:   RESISTIVITY MUD CAKE
 MCST.F                68:   MUD CAKE SAMPLE TEMPERATURE
 MFSS.              PRESS:   MUD FILTRATE SAMPLE SOURCE
 MCSS.              PRESS:   MUD CAKE SAMPLE SOURCE
 RMB .OHMM            1.5:   RESISTIVITY MUD AT BHT
 BHT .F                74:   BOTTOM HOLE TEMPERATURE
 MRT .F                74:   MAXIMUM RECORDED TEMPERATURE
 LUN .               4474:   LOGGING UNIT NUMBER
 LUL .             CASPER:   LOGGING UNIT LOCATION
 ENGI.      NELSON/GRIGGS:   RECORDING ENGINEER
 WITN.   JORGENSEN/HUDSON:   WITNESSED BY
 CLNT.            A2DTECH:   CLIENT CODE
 ORIG.       2", 5" PRINT:   ORIGIN OF DATA
 UWI .       490250633400:   UNIQUE WELL ID
 DICO. A2D Technologies, Inc.:   DIGITIZING COMPANY
~OTHER INFORMATION
~A   DEPT      SPR          ILD      CILD         ASN 
# ...
  143.0000   -33.8768     5.3513   189.7523     6.2294
  143.5000   -34.0857     5.3346   191.7647     6.1286
  144.0000   -34.3045     5.3178   193.7771     6.0219
  144.5000   -34.5212     5.3011   195.3070     5.9152
  145.0000   -34.7381     5.2843   195.7881     5.8098
  145.5000   -34.9552     5.2676   196.2445     5.7344
  146.0000   -35.1482     5.2508   196.7042     5.7277
  146.5000   -35.0917     5.2340   197.1654     5.7195
  147.0000   -34.7486     5.2174   197.6263     5.7117
  147.5000   -34.4245     5.2042   198.0877     5.7039
  148.0000   -34.1001     5.1965   198.5489     5.6960
  148.5000   -33.7758     5.1889   199.4833     5.6873
  149.0000   -33.4515     5.1812   201.0206     5.6410
  149.5000   -33.1271     5.1735   202.5578     5.5467
  150.0000   -32.8019     5.1658   204.0951     5.4530
  150.5000   -32.4637     5.1582   205.6355     5.3589
  151.0000   -32.6408     5.1505   207.1626     5.2648
  151.5000   -32.9481     5.1428   208.3869     5.1759
  152.0000   -33.2584     5.1351   209.3057     5.1390
  152.5000   -33.5677     5.1274   209.6851     5.1996
  153.0000   -33.8781     5.1197   207.2195     5.3257
  153.5000   -34.1925     5.1182   204.9491     5.4481
  154.0000   -34.0490     5.1296   202.6783     5.5702
  154.5000   -33.8368     5.1412   200.4062     5.6919
  155.0000   -33.6260     5.1527   198.1333     5.8015
  155.5000   -33.5403     5.1642   195.8674     5.8108
  156.0000   -33.6487     5.1758   195.5491     5.8112
  156.5000   -33.7560     5.1873   196.0761     5.7856
  157.0000   -33.8559     5.1988   196.6024     5.7543
  157.5000   -33.6471     5.2075   197.1302     5.7231
  158.0000   -33.4175     5.2074   197.6579     5.6918
  158.5000   -33.1889     5.2073   198.1850     5.6606
  159.0000   -32.9607     5.2073   198.7168     5.6292
  159.5000   -32.7324     5.2073   198.6071     5.5976
  160.0000   -32.5001     5.2076   197.9914     5.5938
  160.5000   -32.4261     5.2253   197.3765     5.6339
  161.0000   -32.9067     5.2770   196.2963     5.6635
  161.5000   -33.3869     5.3282   194.4516     5.7573
  162.0000   -33.8684     5.3794   192.6069     5.8749
  162.5000   -34.0081     5.4306   190.7622     6.0323
  163.0000   -33.7148     5.4818   188.9175     6.1889
  163.5000   -33.4139     5.5331   187.0728     6.3455
  164.0000   -33.3620     5.5841   185.6722     6.4289
  164.5000   -33.6515     5.6355   184.7616     6.4429
  165.0000   -33.9410     5.6174   186.0852     6.3492
  165.5000   -34.2312     5.5361   186.1251     6.2309
  166.0000   -34.5284     5.4542   188.4593     6.1126
  166.5000   -34.4898     5.3722   192.7164     5.9243
  167.0000   -33.9803     5.2903   196.9734     5.7390
  167.5000   -33.4882     5.2084   201.2304     5.5539
  168.0000   -33.2174     5.1264   205.4874     5.3692
  168.5000   -33.6110     5.0445   209.7444     5.2076
  169.0000   -33.9760     4.9615   213.3111     5.1981
  169.5000   -34.1301     4.9359   213.9606     5.2361
  170.0000   -33.7970     4.9436   214.4002     5.3860
  170.5000   -33.4732     4.9906   211.5219     5.5341
  171.0000   -33.1528     5.0368   208.9354     5.6862
  171.5000   -33.0479     5.0829   206.3671     5.7373
  172.0000   -33.3121     5.1290   203.8016     5.7306
  172.5000   -33.5708     5.1751   201.2351     5.7245
  173.0000   -33.8306     5.2211   198.6685     5.7499
  173.5000   -34.0899     5.2672   196.1020     5.8563
  174.0000   -34.2543     5.3133   193.5354     5.9614
  174.5000   -34.3064     5.3594   190.9698     6.0664
  175.0000   -34.3578     5.4054   188.3981     6.1715
  175.5000   -34.4207     5.4514   185.8126     6.2773
  176.0000   -34.7389     5.4977   182.5067     6.3856
  176.5000   -35.0655     5.5467   184.9519     6.4106
  177.0000   -35.3915     5.6509   187.6972     6.4252
  177.5000   -35.6826     5.5925   190.4297     6.3334
  178.0000   -35.6128     5.5170   193.1571     6.2059
  178.5000   -35.5325     5.4430   195.8840     6.0789
  179.0000   -35.7834     5.3693   198.6110     5.9517
  179.5000   -36.2242     5.2955   201.3379     5.8247
  180.0000   -36.6072     5.2218   204.0649     5.6976
  180.5000   -36.5567     5.1481   206.7942     5.5704
  181.0000   -36.5140     5.0742   209.5278     5.4433
  181.5000   -36.4725     5.0004   212.2430     5.3154
  182.0000   -36.4260     4.9337   213.0646     5.2482
  182.5000   -36.6094     4.9354   210.7634     5.2473
  183.0000   -36.8721     4.9356   208.4764     5.3223
  183.5000   -37.1382     4.9358   206.1900     5.4303
  184.0000   -37.4460     4.9347   203.9060     5.5410
  184.5000   -37.9358     4.9893   201.6221     5.6518
  185.0000   -38.4125     5.0641   199.3382     5.7666
  185.5000   -38.8859     5.1401   197.0543     5.9032
  186.0000   -39.3770     5.2161   194.7704     6.0386
  186.5000   -39.8748     5.2920   192.4864     6.1741
  187.0000   -40.3668     5.3679   190.2025     6.3121
  187.5000   -40.5438     5.4439   189.4323     6.3376
  188.0000   -40.6683     5.5189   189.0414     6.3010
  188.5000   -40.7947     5.5705   188.6549     6.2451
  189.0000   -40.7415     5.5781   188.2672     6.1895
  189.5000   -40.6731     5.6030   187.8788     6.1343
  190.0000   -40.6053     5.6275   187.4905     6.1005
  190.5000   -40.5376     5.6521   187.1026     6.1570
  191.0000   -40.4684     5.6767   186.7137     6.2061
  191.5000   -40.4453     5.7012   186.3254     6.2555
  192.0000   -40.7772     5.7256   185.0939     6.3046
  192.5000   -41.1240     5.7514   182.8868     6.3538
  193.0000   -41.4695     5.8084   180.6680     6.4029
  193.5000   -41.8145     5.8672   178.4530     6.4872
  194.0000   -42.1596     5.9259   176.2393     6.6057
  194.5000   -42.5046     5.9845   174.0257     6.7238
  195.0000   -42.8496     6.0432   171.8120     6.8419
  195.5000   -43.1946     6.1018   169.7996     6.9605
  196.0000   -43.5397     6.1605   168.9947     7.0265
  196.5000   -43.8847     6.2191   168.2568     6.9747
  197.0000   -44.2297     6.2776   167.5189     6.8940
  197.5000   -44.5747     6.3362   166.7810     6.8235
  198.0000   -44.9198     6.4176   165.9780     6.8557
  198.5000   -45.2776     6.4743   164.8720     6.9219
  199.0000   -45.4708     6.5176   163.7659     6.9884
  199.5000   -45.6193     6.5654   162.6572     7.0549
  200.0000   -45.7118     6.5670   161.5523     7.1212
  200.5000   -45.6077     6.5367   160.7347     7.1817
  201.0000   -45.5088     6.4981   162.5230     7.1726
  201.5000   -45.4102     6.4595   164.8593     7.0564
  202.0000   -45.3116     6.4208   167.1955     6.9096
  202.5000   -45.2129     6.3822   169.5318     6.7625
  203.0000   -45.1133     6.3436   171.8681     6.6155
  203.5000   -45.0085     6.3050   173.4256     6.4682
  204.0000   -45.2207     6.2664   173.2329     6.3204
  204.5000   -45.4847     6.2281   173.0035     6.2978
  205.0000   -45.7497     6.2031   172.7741     6.3743
  205.5000   -46.0138     6.2033   172.5446     6.4798
  206.0000   -46.2780     6.2037   172.3152     6.5859
  206.5000   -46.5435     6.2536   172.0857     6.6939
  207.0000   -46.8147     6.3095   171.8562     6.7082
  207.5000   -46.9554     6.3654   171.6126     6.7166
  208.0000   -47.0931     6.4213   170.6679     6.7251
  208.5000   -47.2336     6.4771   168.5425     6.7369
  209.0000   -47.3634     6.5329   166.4170     6.8407
  209.5000   -47.1503     6.5887   164.2915     6.9525
  210.0000   -46.9165     6.6445   162.1660     7.0816
  210.5000   -46.6817     6.7004   160.0405     7.2123
  211.0000   -46.4787     6.7559   157.9149     7.3425
  211.5000   -46.8345     6.8124   155.7872     7.4734
  212.0000   -47.2111     6.8370   153.6579     7.5720
  212.5000   -47.1637     6.9272   151.6698     7.6465
  213.0000   -46.7994     6.9530   151.8470     7.7204
  213.5000   -46.4255     6.9753   152.0139     7.7843
  214.0000   -46.4006     6.9982   152.1808     7.7447
  214.5000   -46.5983     7.0211   152.3477     7.7048
  215.0000   -46.8003     7.0441   152.5145     7.6653
  215.5000   -47.0036     7.0671   152.6814     7.6260
