~VERSION INFORMATION
 VERS.                2.0:   CWLS LOG ASCII STANDARD - VERSION 2.0
 WRAP.                 NO:   ONE LINE PER DEPTH STEP
~WELL INFORMATION
#MNEM.UNIT      DATA TYPE    INFORMATION
#----------   ------------   ------------------------------
 STRT.F           80.0000:   START DEPTH
 STOP.F          715.0000:   STOP DEPTH
 STEP.F            0.5000:   STEP LENGTH
 NULL.          -999.2500:   NO VALUE
 COMP. U S NAVY-INTEX OIL:   COMPANY
 WELL.     NPR #3 #37-S-2:   WELL
 FLD .             TEAPOT:   FIELD
 LOC .       S2 T38N R78W:   LOCATION
 CNTY.            NATRONA:   COUNTY
 STAT.            WYOMING:   STATE
 CTRY. UNITED STATES OF AMERICA:   COUNTRY
 SRVC.       Schlumberger:   SERVICE COMPANY
 DATE.        21-JUN-1962:   LOGDATE
 API .       490250640600:   API NUMBER
~CURVE INFORMATION
#MNEM.UNIT       API CODE    CURVE DESCRIPTION
#----------   ------------   ------------------------------
 DEPT.F                  :   
 ASN .OHMM   05 041 16 00:   AMPLIFIED SHORT NORMAL 16"
 CILD.MMHO   05 110 46 00:   CONDUCTIVITY INDUCTION LOG DEEP
 ILD .OHMM   05 120 46 00:   INDUCTION LOG DEEP
 SPR .MV     05 010 01 00:   SPONTANEOUS POTENTIAL FROM RES.
 GR  .GAPI   30 310 01 00:   GAMMA RAY
~PARAMETER INFORMATION
#MNEM.UNIT          VALUE    DESCRIPTION
#----------   ------------   ------------------------------
 LMF .                 KB:   LOG MEASURED FROM
 DMF .                 KB:   DRILLING MEASURED FROM
 EKB .F              5159:   KELLING BUSHING
 EGL .F              5154:   GROUND LEVEL
 DATE.        21-JUN-1962:   RUN DATE
 RUN .                  1:   RUN NUMBER
 DD  .F               715:   DEPTH DRILLER
 DL  .F               716:   DEPTH LOGGER
 BLI .F               715:   BOTTOM LOG INTERVAL
 TLI .F                80:   TOP LOG INTERVAL
 BS  .IN             6.75:   BIT SIZE
 BSD .F               715:   BIT SIZE AT DEPTH
 DFT .       OIL-EMULSION:   DRILLING FLUID TYPE
 DFD .                9.3:   DRILLING FLUID DENSITY
 DFV .                 50:   DRILLING FLUID VISCOSITY
 DFL .                3.8:   DRILLING FLUID LOSS
 RMS .OHMM            3.9:   RESISTIVITY MUD SAMPLE
 MST .F                72:   MUD SAMPLE TEMPERATURE
 RMF .OHMM            2.6:   RESISTIVITY MUD FILTRATE SAMPLE
 MFST.F                72:   MUD FILTRATE SAMPLE TEMPERATURE
 RMC .OHMM            5.2:   RESISTIVITY MUD CAKE
 MCST.F                72:   MUD CAKE SAMPLE TEMPERATURE
 TCS .HRS               1:   TIME CURCULATED STOPPED
 LUN .               2503:   LOGGING UNIT NUMBER
 LUL .               CSPR:   LOGGING UNIT LOCATION
 ENGI.             DANNER:   RECORDING ENGINEER
 WITN.          JORGENSEN:   WITNESSED BY
 CLNT.            A2DTECH:   CLIENT CODE
 ORIG.           5" PRINT:   ORIGIN OF DATA
 UWI .       490250640600:   UNIQUE WELL ID
 DICO. A2D Technologies, Inc.:   DIGITIZING COMPANY
~OTHER INFORMATION
~A   DEPT        ASN      CILD         ILD      SPR         GR   
# ...
  324.0000    10.3565   101.4595     9.0890   -73.1214  -999.2500
  324.5000    10.6483    99.8485     9.3094   -73.1080  -999.2500
  325.0000    10.8009    98.2375     9.4654   -73.2470  -999.2500
  325.5000    10.8779    96.6265     9.6214   -73.2332  -999.2500
  326.0000    10.9549    94.5083     9.7020   -73.2195  -999.2500
  326.5000    10.9563    93.6620    10.0088   -73.3590  -999.2500
  327.0000    11.0334    93.5732    10.0140   -74.5617  -999.2500
  327.5000    11.1104    94.2421    10.0192   -75.4629  -999.2500
  328.0000    11.1118    94.9109     9.8733   -75.7577  -999.2500
  328.5000    11.0378    95.5797     9.7278   -75.1311  -999.2500
  329.0000    10.9617    97.7415     9.6556   -74.5079  -999.2500
  329.5000    10.8142    99.1678     9.5119   -74.1896  -999.2500
  330.0000    10.8160    99.3939     9.5184   -73.8713  -999.2500
  330.5000    10.6661    99.8063     9.5990   -73.5529  -999.2500
  331.0000    10.5168   100.2187     9.4520   -73.3871  -999.2500
  331.5000    10.3673   100.3427     9.3818   -73.2210  -999.2500
  332.0000    10.3687   100.2318     9.2361   -73.0549  -999.2500
  332.5000    10.3702   100.9006     9.2426   -72.8894  -999.2500
  333.0000    10.3717   101.5694     9.1710   -73.1808  -999.2500
  333.5000    10.3732   101.4806     9.1775   -73.3165  -999.2500
  334.0000    10.3746   101.3919     9.1071   -73.6079  -999.2500
  334.5000    10.3761   101.3030     9.1124   -73.7502  -999.2500
  335.0000    10.3776   102.0455     9.0421   -74.1907  -999.2500
  335.5000    10.3038   103.3983     9.1229   -74.4822  -999.2500
  336.0000     9.9277   104.0671     9.0538   -75.2309  -999.2500
  336.5000     9.6266   103.9562     9.1331   -75.5229  -999.2500
  337.0000     9.6285   104.6472     8.9887   -75.6616  -999.2500
  337.5000     9.6300   106.0514     8.9172   -75.3430  -999.2500
  338.0000     9.6314   107.4777     8.7715   -74.4025  -999.2500
  338.5000     9.6329   108.1466     8.8534   -74.2485  -999.2500
  339.0000     9.6344   107.3002     8.8585   -74.2322  -999.2500
  339.5000     9.6360   107.2115     8.9391   -74.8285  -999.2500
  340.0000     9.7133   106.3636     8.9443   -75.1233  -999.2500
  340.5000     9.7147   106.2727     9.0249   -75.4147  -999.2500
  341.0000     9.7162   106.1654     9.1056   -75.3979  -999.2500
  341.5000     9.7929   106.0766     9.1119   -75.3845  -999.2500
  342.0000     9.6433   105.9879     9.0404   -75.3710  -999.2500
  342.5000     9.4937   105.8991     8.9701   -75.3576  -999.2500
  343.0000     9.4196   107.3255     8.8257   -75.3441  -999.2500
  343.5000     9.4215   107.9943     8.6801   -75.3307  -999.2500
  344.0000     9.4985   108.6667     8.6852   -75.0000  -999.2500
  344.5000     9.5000   111.6047     8.6137   -74.5229  -999.2500
  345.0000     9.5015   113.0555     8.3939   -73.9150  -999.2500
  345.5000     9.6588   114.5530     8.2483   -73.5967  -999.2500
  346.0000     9.8819   118.1344     8.1026   -73.2783  -999.2500
  346.5000     9.4457   120.3405     8.0279   -72.9600  -999.2500
  347.0000     9.1753   125.5326     7.8004   -73.2514  -999.2500
  347.5000     8.8444   129.9893     7.2898   -74.0002  -999.2500
  348.0000     8.6344   134.4460     7.0688   -74.5965  -999.2500
  348.5000     8.4374   137.3875     6.9231   -74.4306  -999.2500
  349.0000     8.3003   138.0785     6.9283   -73.6550  -999.2500
  349.5000     8.2163   138.7273     6.9334   -72.7269  -999.2500
  350.0000     8.2480   137.1868     6.9386   -72.7134  -999.2500
  350.5000     8.3703   134.2612     7.1700   -72.8524  -999.2500
  351.0000     8.6135   131.3357     7.4014   -72.6860  -999.2500
  351.5000     8.8869   127.0572     7.7082   -72.6697  -999.2500
  352.0000     9.0998   123.9606     7.8643   -73.2660  -999.2500
  352.5000     9.1466   120.8640     8.0204   -73.5574  -999.2500
  353.0000     9.2236   118.5250     8.1021   -73.6998  -999.2500
  353.5000     9.2855   117.7011     8.1073   -73.3781  -999.2500
  354.0000     9.3776   117.6348     8.1124   -72.7549  -999.2500
  354.5000     9.3791   118.3261     8.1930   -73.1988  -999.2500
  355.0000     9.3205   119.1161     8.1076   -74.0999  -999.2500
  355.5000     9.2465   120.4662     8.0008   -74.2393  -999.2500
  356.0000     9.1573   121.9151     7.9059   -73.6157  -999.2500
  356.5000     9.0531   123.3473     7.9123   -72.8399  -999.2500
  357.0000     8.9790   123.2810     7.8421   -72.9791  -999.2500
  357.5000     8.8748   123.2147     7.9227   -73.2671  -999.2500
  358.0000     8.8309   123.9226     7.8522   -73.5619  -999.2500
  358.5000     8.8626   123.8397     7.9330   -73.7009  -999.2500
  359.0000     8.9245   123.7425     7.9392   -73.6841  -999.2500
  359.5000     9.0619   122.8308     8.0943   -73.5369  -999.2500
  360.0000     9.1745   120.5939     8.2514   -72.4366  -999.2500
  360.5000     9.2543   119.7700     8.2566   -72.4232  -999.2500
  361.0000     9.3340   117.4310     8.2617   -72.7180  -999.2500
  361.5000     9.4138   115.8495     8.3423   -73.4635  -999.2500
  362.0000     9.4927   113.5105     8.3475   -73.6059  -999.2500
  362.5000     9.5546   113.4442     8.3526   -73.8940  -999.2500
  363.0000     9.5561   114.1364     8.3578   -74.0335  -999.2500
  363.5000     9.5421   116.3419     8.3629   -74.3245  -999.2500
  364.0000     9.4982   117.7907     8.2926   -74.7684  -999.2500
  364.5000     9.4397   119.2230     8.1470   -74.7338  -999.2500
  365.0000     9.3656   119.1567     8.1523   -74.2810  -999.2500
  365.5000     9.2613   119.0904     8.0819   -74.5724  -999.2500
  366.0000     9.2024   120.5558     8.0884   -75.3212  -999.2500
  366.5000     9.2042   122.0047     8.0935   -75.4636  -999.2500
  367.0000     9.2057   121.9218     8.0987   -75.6027  -999.2500
  367.5000     9.2072   123.3707     8.1038   -75.5859  -999.2500
  368.0000     9.2237   123.3044     8.1090   -75.5725  -999.2500
  368.5000     9.2252   123.2215     8.1142   -75.5591  -999.2500
  369.0000     9.2267   123.1552     8.1193   -75.3923  -999.2500
  369.5000     9.2131   123.0889     8.1245   -74.8908  -999.2500
  370.0000     9.2145   122.2650     8.1296   -73.8388  -999.2500
  370.5000     9.2003   121.4411     8.0594   -74.4351  -999.2500
  371.0000     9.1419   120.6172     8.0658   -74.5775  -999.2500
  371.5000     9.1132   119.7934     8.0710   -74.2559  -999.2500
  372.0000     9.1604   118.9695     8.0761   -73.6328  -999.2500
  372.5000     9.2978   118.1439     8.0813   -73.0096  -999.2500
  373.0000     9.2838   120.3354     8.0865   -72.3865  -999.2500
  373.5000     9.1648   120.2691     8.0916   -71.9157  -999.2500
  374.0000     9.1055   120.2028     8.0968   -71.4450  -999.2500
  374.5000     9.0301   120.1365     8.1019   -71.4314  -999.2500
  375.0000     9.0937   120.8444     8.1071   -71.4177  -999.2500
  375.5000     8.9258   122.2932     8.0299   -71.5539  -999.2500
  376.0000     8.8851   123.7273     7.6662   -71.9979  -999.2500
  376.5000     8.9625   124.4168     7.6714   -72.1369  -999.2500
  377.0000     8.9942   125.1970     7.6765   -72.5808  -999.2500
  377.5000     8.9956   126.5569     7.5296   -73.1772  -999.2500
  378.0000     8.9816   128.7467     7.3839   -73.6211  -999.2500
  378.5000     8.9382   129.4546     7.3903   -73.7607  -999.2500
  379.0000     8.8641   130.1293     7.3955   -73.7468  -999.2500
  379.5000     8.7749   129.3054     7.4007   -73.7332  -999.2500
  380.0000     8.6697   129.2391     7.4058   -74.1773  -999.2500
  380.5000     8.6570   129.1728     7.4130   -74.3163  -999.2500
  381.0000     8.7948   129.1060     7.5008   -73.9947  -999.2500
  381.5000     8.8869   128.2803     7.5734   -73.6784  -999.2500
  382.0000     8.9186   126.6846     7.5786   -73.6630  -999.2500
  382.5000     8.9956   125.8607     7.5837   -73.8054  -999.2500
  383.0000     9.0726   125.7944     7.6643   -73.6362  -999.2500
  383.5000     9.1345   124.2130     7.8203   -73.3180  -999.2500
  384.0000     9.1964   121.8739     7.9009   -72.9997  -999.2500
  384.5000     9.2583   120.2925     7.9060   -73.9020  -999.2500
