~VERSION INFORMATION
 VERS.                2.0:   CWLS LOG ASCII STANDARD - VERSION 2.0
 WRAP.                 NO:   ONE LINE PER DEPTH STEP
~WELL INFORMATION
#MNEM.UNIT      DATA TYPE    INFORMATION
#----------   ------------   ------------------------------
 STRT.F            8.0000:   START DEPTH
 STOP.F          500.0000:   STOP DEPTH
 STEP.F            0.5000:   STEP LENGTH
 NULL.          -999.2500:   NO VALUE
 COMP. FENIX & SCISSON INC:   COMPANY
 WELL. 65 12 SX 3FI #65-3:   WELL
 FLD .             TEAPOT:   FIELD
 LOC .       S3 T38N R78W:   LOCATION
 CNTY.            NATRONA:   COUNTY
 STAT.            WYOMING:   STATE
 CTRY. UNITED STATES OF AMERICA:   COUNTRY
 SRVC.              Welex:   SERVICE COMPANY
 DATE.        01-JUN-1980:   LOGDATE
 API .       490251082400:   API NUMBER
~CURVE INFORMATION
#MNEM.UNIT       API CODE    CURVE DESCRIPTION
#----------   ------------   ------------------------------
 DEPT.F                  :   
 GRD .GAPI   45 310 01 00:   GAMMA RAY FROM DENSITY LOG
 CALD.IN     45 280 60 00:   CALIPER
 RHOB.G/C3   45 350 01 00:   BULK DENSITY
 CORR.G/C3   45 356 01 00:   DENSITY CORRECTION
 DPHI.DEC    45 890 12 00:   DENSITY POROSITY SANDSTONE
 NPHI.DEC    42 890 03 00:   NEUTRON POROSITY SANDSTONE
 SPR .MV     07 010 01 00:   SPONTANEOUS POTENTIAL
 SGRD.OHMM   07 220 05 00:   SHALLOW GUARD RESISTIVITY
 ILD .OHMM   07 120 46 00:   INDUCTION LOG DEEP
 ILM .OHMM   07 120 44 00:   INDUCTION LOG MEDIUM
~PARAMETER INFORMATION
#MNEM.UNIT          VALUE    DESCRIPTION
#----------   ------------   ------------------------------
 PD  .                 GL:   PERMANENT DATUM
 EPD .F              5155:   ELEVATION PERMANENT DATUM
 LMF .                 KB:   LOG MEASURED FROM
 DAPD.F                 4:   FEET ABOVE PERMANENT DATUM
 DMF .                 KB:   DRILLING MEASURED FROM
 EKB .F              5159:   KELLING BUSHING
 EGL .F              5155:   GROUND LEVEL
 DATE.             6-1-80:   RUN DATE
 RUN .                  1:   RUN NUMBER
 DD  .F               505:   DEPTH DRILLER
 DL  .F               502:   DEPTH LOGGER
 BLI .F               500:   BOTTOM LOG INTERVAL
 TLI .F                20:   TOP LOG INTERVAL
 BS  .IN            9.875:   BIT SIZE
 BSD .F               505:   BIT SIZE AT DEPTH
 DFT .      OIL BASED MUD:   DRILLING FLUID TYPE
 MSS .            MUD PIT:   MUD SAMPLE SOURCE
 RMS .OHMM             .9:   RESISTIVITY MUD SAMPLE
 MST .F                65:   MUD SAMPLE TEMPERATURE
 RMF .OHMM            .72:   RESISTIVITY MUD FILTRATE SAMPLE
 MFST.F                65:   MUD FILTRATE SAMPLE TEMPERATURE
 RMC .OHMM           1.08:   RESISTIVITY MUD CAKE
 MCST.F                65:   MUD CAKE SAMPLE TEMPERATURE
 MFSS.           MEASURED:   MUD FILTRATE SAMPLE SOURCE
 MCSS.           MEASURED:   MUD CAKE SAMPLE SOURCE
 RMB .OHMM            .71:   RESISTIVITY MUD AT BHT
 BHT .F                76:   BOTTOM HOLE TEMPERATURE
 TCS .HRS               2:   TIME CURCULATED STOPPED
 MRT .F                76:   MAXIMUM RECORDED TEMPERATURE
 LUN .               9685:   LOGGING UNIT NUMBER
 LUL .             CASPER:   LOGGING UNIT LOCATION
 ENGI.               REIN:   RECORDING ENGINEER
 WITN.            RHOADES:   WITNESSED BY
 CLNT.            A2DTECH:   CLIENT CODE
 ORIG.        2" 5" PRINT:   ORIGIN OF DATA
 UWI .       490251082400:   UNIQUE WELL ID
 DICO. A2D Technologies, Inc.:   DIGITIZING COMPANY
~OTHER INFORMATION
~A    DEPT     GRD       CALD       RHOB       CORR       DPHI       NPHI        SPR        SGRD         ILD        ILM 
# ...
   75.0000   106.5769     9.9725     2.4559     0.0061     0.1218     0.3291   -28.6452     8.4824     6.2677     7.5190
   75.5000   107.5726     9.9678     2.4650     0.0126     0.1265     0.3315   -28.7582     8.4823     6.2605     7.4219
   76.0000   108.5658     9.9631     2.4711     0.0215     0.1321     0.3287   -28.8750     8.4813     6.2442     7.3260
   76.5000   109.5579     9.9584     2.4541     0.0101     0.1306     0.3247   -28.8275     8.5301     6.2280     7.1913
   77.0000   110.5541     9.9537     2.4552     0.0033     0.1287     0.3207   -28.7407     8.5917     6.2119     7.2118
   77.5000   111.5507     9.9490     2.4587     0.0091     0.1269     0.3197   -28.6530     8.6539     6.1957     7.2483
   78.0000   112.5169     9.9442     2.4625     0.0158     0.1231     0.3204   -28.5656     8.7166     6.1797     7.2850
   78.5000   111.7764     9.9388     2.4686     0.0224     0.1191     0.3183   -28.4783     8.7796     6.1637     7.3218
   79.0000   110.7326     9.9695     2.4766     0.0291     0.1174     0.3177   -28.3910     8.8431     6.1529     7.3589
   79.5000   109.6814    10.0045     2.4847     0.0328     0.1184     0.3250   -28.3037     8.9071     6.2988     7.4099
   80.0000   108.7608    10.0396     2.4822     0.0290     0.1198     0.3315   -28.2164     8.9715     6.3436     7.5732
   80.5000   109.0099    10.0487     2.4792     0.0252     0.1222     0.3338   -28.1290     9.0364     6.3888     7.7400
   81.0000   109.2716    10.0216     2.4759     0.0211     0.1246     0.3323   -28.0417     9.1018     6.4343     7.9109
   81.5000   109.4922     9.9946     2.4666     0.0073     0.1270     0.3259   -27.9544     9.1677     6.4801     8.0858
   82.0000   108.0966     9.9672     2.4569    -0.0071     0.1251     0.3211   -27.8671     9.2340     6.5262     8.2518
   82.5000   106.8606     9.9404     2.4565    -0.0061     0.1193     0.3250   -27.7798     9.2974     6.5640     8.1662
   83.0000   107.6824     9.9486     2.4736     0.0037     0.1185     0.3287   -27.6925     9.2133     6.5759     8.0860
   83.5000   108.1929     9.9591     2.4827     0.0137     0.1218     0.3238   -27.6052     9.1339     6.5878     8.0066
   84.0000   107.0828     9.9694     2.4720     0.0169     0.1210     0.3187   -27.5178     9.0552     6.5998     7.9279
   84.5000   106.8846     9.9796     2.4722     0.0110     0.1258     0.3125   -27.4305     8.9776     6.6119     7.8500
   85.0000   108.2516     9.9897     2.4716     0.0052     0.1297     0.3162   -27.3432     8.8757     6.6222     7.7729
   85.5000   109.6032     9.9992     2.4622    -0.0007     0.1244     0.3208   -27.2559     8.7697     6.5691     7.6966
   86.0000   110.8270    10.0292     2.4562     0.0002     0.1199     0.3198   -27.1686     8.6649     6.5042     7.6210
   86.5000   109.6053    10.0605     2.4787     0.0157     0.1186     0.3179   -27.0813     8.5614     6.4399     7.5461
   87.0000   108.2976    10.0924     2.4716     0.0287     0.1301     0.3170   -26.9940     8.4591     6.3763     7.4938
   87.5000   106.9936    10.0718     2.4609     0.0206     0.1325     0.3149   -26.9066     8.3577     6.3132     7.4321
   88.0000   105.8690    10.0427     2.4504     0.0236     0.1412     0.3169   -26.8190     8.2527     6.2508     7.3710
   88.5000   107.0929    10.0137     2.4451     0.0233     0.1428     0.3157   -26.7289     8.1869     6.1891     7.3104
   89.0000   108.3507    10.0153     2.4395     0.0107     0.1453     0.3176   -26.6449     8.1186     6.1279     7.2503
   89.5000   109.5991    10.0511     2.4341     0.0150     0.1436     0.3140   -26.5584     8.0506     6.0673     7.1907
   90.0000   110.6695    10.0645     2.4316     0.0008     0.1384     0.3165   -26.4716     7.9831     6.0073     7.1316
   90.5000   110.0644    10.0125     2.4369     0.0071     0.1458     0.3255   -26.3848     7.9151     5.9480     7.0729
   91.0000   109.4600     9.9626     2.4326    -0.0009     0.1392     0.3338   -26.2980     7.8829     5.8892     6.9961
   91.5000   108.7990     9.9440     2.4448     0.0053     0.1454     0.3414   -26.2113     8.0692     5.8228     7.0448
   92.0000   107.8209     9.9522     2.4359     0.0026     0.1467     0.3401   -26.1245     8.1986     5.8228     7.1174
   92.5000   106.8277     9.9609     2.4327    -0.0155     0.1387     0.3400   -26.0375     8.3295     5.8941     7.1907
   93.0000   105.8332     9.9698     2.4416    -0.0049     0.1353     0.3356   -25.9504     8.4625     5.9507     7.2649
   93.5000   104.8370     9.9774     2.4503     0.0072     0.1305     0.3312   -25.9219     8.5977     6.0079     7.3397
   94.0000   103.8574     9.9465     2.4553     0.0115     0.1396     0.3268   -25.9041     8.7349     6.0656     7.4154
   94.5000   104.5545     9.9133     2.4566     0.0148     0.1280     0.3277   -25.8865     8.8744     6.1238     7.4918
   95.0000   105.7958     9.8799     2.4570     0.0180     0.1259     0.3263   -25.8687     9.0161     6.1827     7.5690
   95.5000   107.1171     9.8456     2.4636     0.0210     0.1278     0.3200   -25.8510     9.0541     6.2420     7.6470
   96.0000   108.4421     9.8747     2.4661     0.0218     0.1392     0.3109   -25.8332     9.0655     6.3366     7.7259
   96.5000   109.7723     9.9165     2.4556     0.0135     0.1286     0.3121   -25.8155     9.0770     6.4577     7.8056
   97.0000   111.1262     9.9587     2.4564     0.0073     0.1270     0.3164   -25.7977     9.0884     6.5810     7.8857
   97.5000   110.3693     9.9964     2.4630     0.0077     0.1384     0.3149   -25.7801     9.0999     6.7067     7.9620
   98.0000   109.2648     9.9753     2.4443    -0.0097     0.1270     0.3208   -25.7626     9.1114     6.8682     8.0049
   98.5000   108.1521     9.9586     2.4573    -0.0078     0.1321     0.3163   -25.7480     9.1280     6.8311     8.0486
   99.0000   107.0458     9.9626     2.4642     0.0166     0.1399     0.3143   -25.5418     9.0891     6.7812     8.0926
   99.5000   105.9167     9.9663     2.4434     0.0055     0.1442     0.3135   -25.2714     9.0145     6.7309     8.1369
  100.0000   106.0062     9.9700     2.4340    -0.0041     0.1478     0.3127   -24.9997     8.9406     6.6811     8.1768
  100.5000   106.5673     9.9736     2.4292     0.0021     0.1514     0.3148   -24.7283     8.8674     6.6318     8.1492
  101.0000   107.1510     9.9773     2.4244    -0.0066     0.1539     0.3185   -24.4569     8.7947     6.5828     8.1242
  101.5000   107.7210     9.9810     2.4194    -0.0155     0.1521     0.3224   -24.1853     8.7226     6.5342     8.0993
  102.0000   106.6481     9.9846     2.4207    -0.0120     0.1385     0.3210   -23.9173     8.6512     6.5010     8.0745
  102.5000   105.4237     9.9883     2.4301    -0.0015     0.1438     0.3208   -23.6459     8.5606     6.5515     8.0498
  103.0000   104.1963     9.9920     2.4381     0.0158     0.1432     0.3264   -23.3795     8.7346     6.5904     8.0251
  103.5000   103.2725     9.9956     2.4394     0.0194     0.1349     0.3343   -23.3736     8.9819     6.6295     8.0006
  104.0000   102.5766     9.9964     2.4517     0.0251     0.1400     0.3304   -23.3723     9.2360     6.6688     7.9776
  104.5000   101.8881     9.9915     2.4486     0.0317     0.1337     0.3268   -23.3728     9.4976     6.7083     7.9578
  105.0000   101.1976     9.9866     2.4528     0.0196     0.1396     0.3257   -23.3729     9.7667     6.7480     8.2088
  105.5000   100.5247     9.9818     2.4476     0.0075     0.1316     0.3224   -23.3729    10.0418     6.7879     8.4037
  106.0000   100.1668     9.9769     2.4548     0.0143     0.1270     0.3187   -23.3642    10.2887     6.9192     8.6046
  106.5000    99.7563     9.9720     2.4636     0.0250     0.1214     0.3195   -23.3096    10.3166     7.1323     8.8102
  107.0000    99.3430     9.9672     2.4717     0.0254     0.1247     0.3220   -23.2553    10.3446     7.3518     9.0208
  107.5000    98.9068     9.9623     2.4660     0.0254     0.1272     0.3244   -23.2012    10.3726     7.5781     9.2364
  108.0000    97.9686     9.9575     2.4634     0.0254     0.1250     0.3170   -23.1471    10.5834     7.8112     9.4571
