~VERSION INFORMATION
 VERS.                2.0:   CWLS LOG ASCII STANDARD - VERSION 2.0
 WRAP.                 NO:   ONE LINE PER DEPTH STEP
~WELL INFORMATION
#MNEM.UNIT      DATA TYPE    INFORMATION
#----------   ------------   ------------------------------
 STRT.F           38.0000:   START DEPTH
 STOP.F          637.0000:   STOP DEPTH
 STEP.F            0.5000:   STEP LENGTH
 NULL.          -999.2500:   NO VALUE
 COMP. FENIX & SCISSON INC:   COMPANY
 WELL.    NPR ##3 57-S-34:   WELL
 FLD .             TEAPOT:   FIELD
 LOC .      S34 T39N R78W:   LOCATION
 CNTY.            NATRONA:   COUNTY
 STAT.            WYOMING:   STATE
 CTRY. UNITED STATES OF AMERICA:   COUNTRY
 SRVC.              Welex:   SERVICE COMPANY
 DATE.        12-MAR-1977:   LOGDATE
 API .       490251030600:   API NUMBER
~CURVE INFORMATION
#MNEM.UNIT       API CODE    CURVE DESCRIPTION
#----------   ------------   ------------------------------
 DEPT.F                  :   
 SPR .MV     07 010 01 00:   SPONTANEOUS POTENTIAL
 ILM .OHMM   07 120 44 00:   INDUCTION LOG MEDIUM
 ILD .OHMM   07 120 46 00:   INDUCTION LOG DEEP
 SGRD.OHMM   07 221 05 00:   SHALLOW SHORT GUARD RESISTIVITY
 CALD.IN     45 280 60 00:   CALIPER FROM DENSITY LOG
 GRD .GAPI   45 310 01 00:   GAMMA RAY FROM DENSITY LOG
 CORR.G/C3   45 356 01 00:   DENSITY CORRECTION
 DPHI.DEC    45 890 12 00:   DENSITY POROSITY SANDSTONE
 RHOB.G/C3   45 350 01 00:   BULK DENSITY
~PARAMETER INFORMATION
#MNEM.UNIT          VALUE    DESCRIPTION
#----------   ------------   ------------------------------
 PD  .                 GL:   PERMANENT DATUM
 EPD .F              5107:   ELEVATION PERMANENT DATUM
 LMF .                 GL:   LOG MEASURED FROM
 DMF .                 GL:   DRILLING MEASURED FROM
 EGL .F              5107:   GROUND LEVEL
 DATE.          3-12-1977:   RUN DATE
 RUN .                  1:   RUN NUMBER
 DD  .F               650:   DEPTH DRILLER
 DL  .F               637:   DEPTH LOGGER
 BLI .F               636:   BOTTOM LOG INTERVAL
 TLI .F                46:   TOP LOG INTERVAL
 CS  .IN            8.625:   CASING SIZE
 CBD .F                45:   CASING BOTTOM DRILLER
 CBL .F                46:   CASING BOTTOM LOGGER
 BS  .IN            7.875:   BIT SIZE
 BSD .F               650:   BIT SIZE AT DEPTH
 DFT .            KCL MUD:   DRILLING FLUID TYPE
 DFD .                8.9:   DRILLING FLUID DENSITY
 DFV .                 35:   DRILLING FLUID VISCOSITY
 MSS .            MUD PIT:   MUD SAMPLE SOURCE
 RMS .OHMM            .53:   RESISTIVITY MUD SAMPLE
 MST .F                68:   MUD SAMPLE TEMPERATURE
 RMF .OHMM            .41:   RESISTIVITY MUD FILTRATE SAMPLE
 MFST.F                69:   MUD FILTRATE SAMPLE TEMPERATURE
 RMC .OHMM            .62:   RESISTIVITY MUD CAKE
 MCST.F                65:   MUD CAKE SAMPLE TEMPERATURE
 MFSS.           MEASURED:   MUD FILTRATE SAMPLE SOURCE
 MCSS.           MEASURED:   MUD CAKE SAMPLE SOURCE
 RMB .OHMM            .60:   RESISTIVITY MUD AT BHT
 BHT .F                60:   BOTTOM HOLE TEMPERATURE
 TCS .HRS               1:   TIME CURCULATED STOPPED
 MRT .F                60:   MAXIMUM RECORDED TEMPERATURE
 LUN .               0716:   LOGGING UNIT NUMBER
 LUL .             VERNAL:   LOGGING UNIT LOCATION
 ENGI.        E. CALLAHAN:   RECORDING ENGINEER
 WITN.         STUEBUNGER:   WITNESSED BY
 CLNT.            A2DTECH:   CLIENT CODE
 ORIG.           5" PRINT:   ORIGIN OF DATA
 UWI .       490251030600:   UNIQUE WELL ID
 DICO. A2D Technologies, Inc.:   DIGITIZING COMPANY
~OTHER INFORMATION
~A   DEPT      SPR        ILM        ILD       SGRD       CALD        GRD       CORR       DPHI       RHOB   
# ...
  366.5000   -30.7398     6.4183     5.7495     7.2715     8.2394   129.1022     0.0588     0.1147     2.4644
  367.0000   -30.7514     6.2854     5.6646     7.3708     8.2238   129.1022     0.0712     0.1070     2.4698
  367.5000   -30.7629     6.1128     5.5498     7.4714     8.2237   128.4830     0.0773     0.0979     2.4822
  368.0000   -30.9239     5.9862     5.3593     7.4175     8.2235   128.4830     0.0726     0.1026     2.4845
  368.5000   -30.9357     5.7818     5.1396     7.2633     8.2234   127.8638     0.0695     0.1125     2.4690
  369.0000   -30.9499     5.5843     4.9632     7.0632     8.2232   130.4954     0.0679     0.1174     2.4520
  369.5000   -30.8090     5.3524     4.7269     6.1920     8.2231   130.6502     0.0539     0.1280     2.4296
  370.0000   -30.8235     5.0672     4.5646     5.4659     8.2229   130.9597     0.0570     0.1332     2.4243
  370.5000   -30.8350     4.8941     4.3129     5.6177     8.2228   131.2693     0.0507     0.1425     2.4022
  371.0000   -30.6942     4.7598     4.1688     5.9946     8.2381   129.7214     0.0600     0.1444     2.4025
  371.5000   -30.5591     4.7588     4.0818     5.0612     8.2379   125.8514     0.0738     0.1435     2.4064
  372.0000   -30.5707     4.7908     4.1088     4.9218     8.2378   126.0062     0.0692     0.1357     2.4156
  372.5000   -30.4327     4.8919     4.1939     5.6895     8.2376   125.1703     0.0598     0.1286     2.4303
  373.0000   -30.4471     5.0959     4.4002     6.4865     8.2375   124.7678     0.0598     0.1234     2.4358
  373.5000   -30.3063     5.3106     4.5884     6.8536     8.2373   127.3374     0.0628     0.1237     2.4381
  374.0000   -30.0218     5.6113     4.8108     6.4819     8.2527   131.3437     0.0721     0.1172     2.4582
  374.5000   -29.8834     5.8074     5.0131     6.5259     8.2525   132.8173     0.0720     0.1122     2.4675
  375.0000   -29.7459     5.9689     5.2239     7.0398     8.2523   132.8173     0.0753     0.1079     2.4799
  375.5000   -29.4585     6.2203     5.4435     7.9158     8.2522   133.4365     0.0863     0.1045     2.4822
  376.0000   -29.3205     6.4377     5.6333     8.3637     8.2520   130.8049     0.0889     0.0949     2.4861
  376.5000   -29.1855     6.6623     5.7495     8.4780     8.2518   131.7337     0.0827     0.0927     2.4923
  377.0000   -29.1970     6.8477     5.8722     8.5937     8.2517   131.8885     0.0828     0.0862     2.5031
  377.5000   -29.3580     7.0381     6.0303     8.5322     8.2515   131.2693     0.0934     0.0763     2.5201
  378.0000   -29.2197     7.1347     6.1553     8.4706     8.2514   130.8049     0.0856     0.0797     2.5209
  378.5000   -29.0821     7.1827     6.1960     8.2374     8.2667   131.7337     0.0825     0.0791     2.5139
  379.0000   -28.7947     7.1856     6.1934     8.0661     8.2665   134.6749     0.0763     0.0809     2.5039
  379.5000   -28.3607     7.2296     6.1913     7.8440     8.2664   135.1393     0.0716     0.0858     2.5005
  380.0000   -27.9238     7.1286     6.1466     7.6809     8.2817   134.5201     0.0684     0.0892     2.4968
  380.5000   -27.4869     7.0294     6.0537     7.4684     8.2971   132.9721     0.0637     0.0916     2.4954
  381.0000   -27.1966     6.8364     5.8922     7.3643     8.3278   130.3406     0.0683     0.0922     2.4961
  381.5000   -27.3605     6.6029     5.7294     7.2112     8.3277   129.5666     0.0714     0.0922     2.4969
  382.0000   -27.5296     6.3762     5.4946     7.2093     8.3276   126.6254     0.0636     0.1002     2.4876
  382.5000   -28.1338     6.0748     5.2330     7.2075     8.3274   127.5542     0.0666     0.1065     2.4721
  383.0000   -28.7433     5.9080     5.0534     7.1996     8.3272   126.3158     0.0743     0.1037     2.4729
  383.5000   -29.3527     5.6670     4.8111     6.8628     8.3271   126.4706     0.0758     0.1012     2.4791
  384.0000   -30.1117     5.4735     4.5833     6.5822     8.3269   126.9350     0.0696     0.1080     2.4814
  384.5000   -30.7211     5.2865     4.3955     6.2695     8.3113   127.2446     0.0634     0.1117     2.4721
  385.0000   -31.1811     5.1060     4.2740     5.8897     8.3111   126.9659     0.0664     0.1090     2.4683
  385.5000   -31.4918     4.8935     4.1848     5.3819     8.2955   125.2322     0.0679     0.1046     2.4706
  386.0000   -31.9544     4.7960     4.1546     4.7799     8.2799   125.0774     0.0756     0.1037     2.4737
  386.5000   -32.2649     4.9980     4.1820     4.4939     8.2797   125.8514     0.0802     0.1105     2.4675
  387.0000   -32.5754     5.2085     4.2683     5.2080     8.2796   125.8452     0.0693     0.1099     2.4652
  387.5000   -32.5869     5.4279     4.4474     6.0883     8.2949   125.3870     0.0538     0.1139     2.4481
  388.0000   -32.8974     5.6565     4.6666     6.7988     8.2947   124.9226     0.0445     0.1214     2.4450
  388.5000   -33.2079     5.8164     4.9993     7.5921     8.2946   124.7678     0.0429     0.1189     2.4489
  389.0000   -33.2197     6.0585     5.3188     7.9116     8.2944   126.6254     0.0567     0.1087     2.4643
  389.5000   -33.3833     6.2273     5.5042     8.0816     8.2943   124.9226     0.0583     0.1047     2.4737
  390.0000   -33.3949     6.4006     5.6568     8.1856     8.2941   123.6842     0.0582     0.1065     2.4761
  390.5000   -33.5559     6.5786     5.8600     8.0149     8.2939   124.9226     0.0612     0.0985     2.4822
  391.0000   -33.5674     6.7613     6.0996     8.0683     8.2938   125.3870     0.0736     0.0907     2.4992
  391.5000   -33.7284     6.9017     6.2255     8.1227     8.2936   124.7678     0.0591     0.0877     2.4938
  392.0000   -33.7400     7.0524     6.3101     8.1764     8.2935   124.6130     0.0640     0.0994     2.4768
  392.5000   -33.7519     7.1908     6.3524     8.1741     8.2933   125.5418     0.0765     0.0858     2.5062
  393.0000   -33.6135     7.2894     6.4383     8.2287     8.3087   125.5418     0.0623     0.1004     2.4977
  393.5000   -33.3290     7.3385     6.4808     8.2259     8.3085   125.6966     0.0517     0.1004     2.4830
  394.0000   -33.1882     7.3366     6.4781     8.1671     8.3083   126.3158     0.0516     0.1001     2.4752
  394.5000   -32.7542     7.3860     6.4759     8.1649     8.3237   130.4954     0.0485     0.1075     2.4706
  395.0000   -32.3173     7.3845     6.4291     8.1627     8.3235   130.9597     0.0376     0.1051     2.4690
  395.5000   -32.0279     7.3827     6.4269     8.1605     8.3233   129.1022     0.0345     0.1113     2.4737
  396.0000   -31.5695     7.3812     6.4248     8.1583     8.3232   129.5666     0.0313     0.1075     2.4799
  396.5000   -32.2053     7.2785     6.4227     8.0995     8.3230   131.1145     0.0421     0.1085     2.4644
  397.0000   -32.2168     7.1772     6.4205     8.0973     8.3229   130.6502     0.0374     0.1113     2.4667
  397.5000   -32.2284     7.1757     6.4178     8.0951     8.3228   129.8143     0.0327     0.1128     2.4605
  398.0000   -32.3894     7.1249     6.4157     8.0930     8.3226   128.8978     0.0312     0.1069     2.4613
  398.5000   -33.1483     7.1231     6.3693     8.0908     8.3224   129.6594     0.0388     0.1060     2.4707
  399.0000   -33.4649     7.1714     6.3233     8.0887     8.3223   131.7709     0.0496     0.1039     2.4730
  399.5000   -33.1742     7.2197     6.2776     8.0860     8.3221   132.6687     0.0589     0.1001     2.4753
  400.0000   -32.3442     7.2683     6.1755     8.1422     8.3220   133.5913     0.0619     0.0955     2.4837
  400.5000   -31.2522     7.1078     6.1165     8.1637     8.3847   131.5754     0.0650     0.0912     2.4908
  401.0000   -30.6686     6.9691     6.0570     8.1851     8.3988   129.0956     0.0632     0.0896     2.4947
  401.5000   -30.5278     6.9122     6.0128     8.1884     8.3829   128.6281     0.0584     0.0962     2.4962
  402.0000   -31.1400     6.6361     5.9684     8.1849     8.3826   129.8635     0.0509     0.0959     2.4859
  402.5000   -32.0484     6.4090     5.8435     8.1822     8.3668   130.0160     0.0601     0.0987     2.4815
