~VERSION INFORMATION
 VERS.                2.0:   CWLS LOG ASCII STANDARD - VERSION 2.0
 WRAP.                 NO:   ONE LINE PER DEPTH STEP
~WELL INFORMATION
#MNEM.UNIT      DATA TYPE    INFORMATION
#----------   ------------   ------------------------------
 STRT.F           34.0000:   START DEPTH
 STOP.F          604.0000:   STOP DEPTH
 STEP.F            0.5000:   STEP LENGTH
 NULL.          -999.2500:   NO VALUE
 COMP. FENIX & SCISSON INC:   COMPANY
 WELL.       NPR #17 SX-2:   WELL
 FLD .             TEAPOT:   FIELD
 LOC .       S2 T38N R78W:   LOCATION
 CNTY.            NATRONA:   COUNTY
 STAT.            WYOMING:   STATE
 CTRY. UNITED STATES OF AMERICA:   COUNTRY
 SRVC.       Schlumberger:   SERVICE COMPANY
 DATE.        18-MAR-1977:   LOGDATE
 API .       490251032700:   API NUMBER
~CURVE INFORMATION
#MNEM.UNIT       API CODE    CURVE DESCRIPTION
#----------   ------------   ------------------------------
 DEPT.F                  :   
 SPR .MV     07 010 01 00:   SPONTANEOUS POTENTIAL
 ILD .OHMM   07 120 46 00:   INDUCTION LOG DEEP
 ILM .OHMM   07 120 44 00:   INDUCTION LOG MEDIUM
 LL8 .OHMM   07 220 08 00:   LATEROLOG-8 RES.
 CALD.IN     45 280 60 00:   CALIPER FROM DENSITY LOG
 GRD .GAPI   45 310 01 00:   GAMMA RAY FROM DENSITY LOG
 CORR.G/C3   45 356 01 00:   DENSITY CORRECTION
 DPHI.DEC    45 890 12 00:   DENSITY POROSITY SANDSTONE
 RHOB.G/C3   45 350 01 00:   BULK DENSITY
~PARAMETER INFORMATION
#MNEM.UNIT          VALUE    DESCRIPTION
#----------   ------------   ------------------------------
 PD  .                 GL:   PERMANENT DATUM
 EPD .F              5122:   ELEVATION PERMANENT DATUM
 LMF .                 KB:   LOG MEASURED FROM
 DAPD.F                 4:   FEET ABOVE PERMANENT DATUM
 DMF .                 KB:   DRILLING MEASURED FROM
 EKB .F              5126:   KELLING BUSHING
 EGL .F              5122:   GROUND LEVEL
 DATE.        18-MAR-1977:   RUN DATE
 RUN .                  1:   RUN NUMBER
 DD  .F               600:   DEPTH DRILLER
 DL  .F               605:   DEPTH LOGGER
 BLI .F               604:   BOTTOM LOG INTERVAL
 TLI .F                44:   TOP LOG INTERVAL
 CS  .IN            8.625:   CASING SIZE
 CBD .F                40:   CASING BOTTOM DRILLER
 CBL .F                44:   CASING BOTTOM LOGGER
 BS  .IN            7.875:   BIT SIZE
 BSD .F               600:   BIT SIZE AT DEPTH
 DFT .            KCL MUD:   DRILLING FLUID TYPE
 DFD .                8.9:   DRILLING FLUID DENSITY
 DFV .                 39:   DRILLING FLUID VISCOSITY
 DFPH.                8.5:   DRILLING FLUID PH
 DFL .                6.1:   DRILLING FLUID LOSS
 MSS .                PIT:   MUD SAMPLE SOURCE
 RMS .OHMM           0.26:   RESISTIVITY MUD SAMPLE
 MST .F                52:   MUD SAMPLE TEMPERATURE
 RMF .OHMM           0.24:   RESISTIVITY MUD FILTRATE SAMPLE
 MFST.F                52:   MUD FILTRATE SAMPLE TEMPERATURE
 MFSS.               MEAS:   MUD FILTRATE SAMPLE SOURCE
 TCS .HRS            0230:   TIME CURCULATED STOPPED
 LUN .               7711:   LOGGING UNIT NUMBER
 LUL .               CSPR:   LOGGING UNIT LOCATION
 ENGI.             SAYLER:   RECORDING ENGINEER
 WITN.         STUEBINGER:   WITNESSED BY
 CLNT.            A2DTECH:   CLIENT CODE
 ORIG.           5" PRINT:   ORIGIN OF DATA
 UWI .       490251032700:   UNIQUE WELL ID
 DICO. A2D Technologies, Inc.:   DIGITIZING COMPANY
~OTHER INFORMATION
~A   DEPT      SPR        ILD        ILM        LL8       CALD        GRD       CORR       DPHI       RHOB   
# ...
  545.0000   -39.0296    13.8238    14.4804    13.1465     7.5598    87.7651     0.1029     0.1229     2.4528
  545.5000   -39.0161    13.8322    14.5863    13.2425     7.5027    88.6702     0.1013     0.1187     2.4596
  546.0000   -39.1517    14.1300    14.6931    13.2471     7.4890    89.2790     0.0892     0.1165     2.4626
  546.5000   -39.1382    14.3345    14.5952    13.2517     7.5217    89.5902     0.0786     0.1192     2.4560
  547.0000   -39.1248    14.4413    14.5004    13.3485     7.5656    90.1990     0.0682     0.1192     2.4538
  547.5000   -39.1113    14.3481    14.2063    13.5396     7.6140    91.2523     0.0585     0.1197     2.4523
  548.0000   -38.9488    14.1572    14.0151    13.4506     7.7017    95.8611     0.0485     0.1251     2.4419
  548.5000   -39.0877    13.9689    14.0199    13.2700     7.7622    98.8402     0.0538     0.1218     2.4532
  549.0000   -39.0709    14.0730    14.0248    13.0012     7.8228    97.5231     0.0479     0.1175     2.4637
  549.5000   -39.2098    14.0798    14.0296    13.0057     7.8833    93.0949     0.0247     0.1196     2.4585
  550.0000   -39.3454    14.0866    13.8921    13.0102     7.9418    90.8889     0.0175     0.1168     2.4611
  550.5000   -38.8852    13.5810    13.6261    13.1919     8.0486    90.4614     0.0106     0.1054     2.4811
  551.0000   -39.3203    13.3258    13.3601    13.1849     8.0793    91.3909     0.0181     0.0980     2.4863
  551.5000   -39.6066    13.1421    13.1836    12.8998     8.0652    92.2773     0.0137     0.1050     2.4811
  552.0000   -40.1906    12.8713    12.9117    12.5534     8.0814    93.1832     0.0168     0.1043     2.4788
  552.5000   -40.4769    12.6938    12.6455    12.2229     8.0824    93.4964     0.0183     0.1117     2.4735
  553.0000   -40.7630    12.4322    12.4710    11.9712     8.0686    94.1060     0.0131     0.1081     2.4699
  553.5000   -41.0492    12.1760    12.2138    11.8885     8.0844    94.2711     0.0094     0.1147     2.4646
  554.0000   -41.1863    12.0082    11.8792    11.8885     8.0706    92.6584     0.0057     0.1174     2.4507
  554.5000   -41.3234    12.0082    11.8792    11.8885     8.0717    90.1568     0.0019     0.1209     2.4425
  555.0000   -41.1620    12.0918    12.0453    12.1384     8.0727    89.1325    -0.0009     0.1197     2.4486
  555.5000   -40.8520    12.1760    12.2990    12.2229     8.0589    89.4500     0.0046     0.1155     2.4613
  556.0000   -41.1381    12.3462    12.4710    12.3936     8.0621    90.9484     0.0092     0.1107     2.4673
  556.5000   -41.7223    12.4322    12.5579    12.4799     8.0758    93.0463     0.0088     0.1101     2.4696
  557.0000   -42.0084    12.4478    12.6455    12.4799     8.0771    95.7499     0.0046     0.1137     2.4704
  557.5000   -42.1460    12.5188    12.7336    12.4799     8.0781    96.9506     0.0024     0.1113     2.4682
  558.0000   -42.1335    12.6060    12.8224    12.4799     8.0791    96.7940     0.0062     0.1134     2.4630
  558.5000   -42.2735    12.5188    12.9225    12.4799     8.0650    96.6628     0.0085     0.1095     2.4698
  559.0000   -42.2586    12.5188    13.1836    12.3080     8.0663    96.6840     0.0071     0.1166     2.4601
  559.5000   -42.3987    12.4322    13.3842    12.1384     8.0674    96.7010     0.0064     0.1175     2.4579
  560.0000   -42.3837    12.2608    13.4612    11.8063     8.0533    97.0100     0.0102     0.1175     2.4654
  560.5000   -42.3717    12.2608    13.1836    11.8063     8.0395    95.8418     0.0125     0.1109     2.4700
  561.0000   -42.2107    12.2608    12.9117    11.8063     8.0556    96.1592     0.0073     0.1100     2.4595
  561.5000   -41.9007    12.1760    12.7336    11.7247     8.0566    97.2132     0.0021     0.1198     2.4506
  562.0000   -42.1868    12.0082    12.4710    11.6437     8.0577    98.5635     0.0007     0.1234     2.4469
  562.5000   -42.6220    11.8427    12.2138    11.6437     8.0587    99.4694     0.0068     0.1198     2.4530
  563.0000   -42.9110    11.6794    12.1293    11.5632     8.0746   100.0790     0.0098     0.1150     2.4620
  563.5000   -43.1942    11.5986    11.7969    11.4833     8.0756   100.2444     0.0121     0.1146     2.4665
  564.0000   -43.1822    11.4387    11.7153    11.4039     8.0766   100.2617     0.0107     0.1174     2.4605
  564.5000   -43.3223    11.2810    11.7153    11.3251     8.0628   100.1298     0.0055     0.1155     2.4688
  565.0000   -43.4593    11.1255    11.3154    11.2468     8.0638   100.2991     0.0052     0.1117     2.4763
  565.5000   -43.5934    10.9721    10.9292    11.2322     8.0649   100.7605     0.0146     0.1038     2.4823
  566.0000   -43.7335    10.8209    10.7784    11.0152     8.0659   101.6664     0.0207     0.0966     2.4869
  566.5000   -44.0166    10.5979    10.7038    10.9391     8.0669   101.8272     0.0245     0.0984     2.4862
  567.0000   -44.3027    10.5246    10.7038    10.8635     8.0680   101.1034     0.0095     0.1041     2.4780
  567.5000   -44.5888    10.3077    10.6297    10.6398     8.0690   102.3098     0.0111     0.1020     2.4810
  568.0000   -44.7258    10.1656    10.3384    10.2772     8.0700   103.6601     0.0079     0.1083     2.4781
  568.5000   -44.8629     9.9545     9.9855    10.0655     8.0562   105.0104     0.0029     0.1059     2.4766
  569.0000   -44.7019     9.6795     9.7119     9.8583     8.0721   105.1755     0.0023     0.0969     2.4901
  569.5000   -44.6899     9.3408     9.4458     9.6553     8.0733   104.1358     0.0039     0.0933     2.4947
  570.0000   -44.6780     8.9015     8.9975     9.3911     8.0744   102.6749     0.0069     0.0957     2.4954
  570.5000   -44.6660     8.5005     8.3357     9.1342     8.0754   102.8602     0.0137     0.0903     2.4979
  571.0000   -44.8031     7.3871     7.7225     8.8842     8.0613   104.6550     0.0130     0.0995     2.4957
  571.5000   -45.3873     6.5196     6.1834     8.6412     8.0626   107.9312     0.0063     0.1091     2.4785
  572.0000   -45.9714     6.1674     5.8899     7.7336     8.0488   110.7629     0.0004     0.1159     2.4676
  572.5000   -46.5586     6.0824     5.8899     6.1515     8.0347   110.7799     0.0065     0.1141     2.4621
  573.0000   -46.8447     6.0403     5.9723     4.9960     8.0509   109.0191     0.0140     0.1168     2.4591
  573.5000   -46.9817     6.0403     6.1834     5.2810     8.0368   104.8879     0.0178     0.1171     2.4607
  574.0000   -46.8178     6.0863     7.0557     7.2656     8.0381   100.9048     0.0142     0.1138     2.4667
  574.5000   -46.5077     6.2707     7.7763     9.3262     8.0390    99.7366     0.0014     0.1087     2.4802
  575.0000   -46.3467     6.6417     8.3938    10.0655     8.0401   100.4943     0.0038     0.0961     2.5004
  575.5000   -46.1857     7.7013     9.1268    10.1356     8.0411   101.9927     0.0083     0.0907     2.5004
  576.0000   -46.0248     8.7869     9.5815    10.1356     8.0421   103.0535     0.0099     0.0919     2.5012
  576.5000   -45.8638     9.5500     9.7173    10.1356     8.0432   103.3600     0.0084     0.0871     2.5117
  577.0000   -45.7028     9.8873     9.7796    10.1356     8.0442   102.4880     0.0183     0.0796     2.5215
  577.5000   -45.5418    10.0953     9.8569    10.2061     8.0455   102.8055     0.0183     0.0817     2.5252
  578.0000   -45.5298    10.1656     9.9967    10.2061     8.0465   103.8595     0.0146     0.0742     2.5290
  578.5000   -45.3688    10.2364    10.2091    10.2772     8.0475   104.3167     0.0207     0.0757     2.5283
  579.0000   -45.2078    10.3077    10.3384    10.4207     8.0485   104.0373     0.0102     0.0805     2.5194
  579.5000   -45.1959    10.4518    10.4830    10.7139     8.0496   104.2067     0.0080     0.0804     2.5172
  580.0000   -45.0373    10.5979    10.7038    10.8635     8.0506   104.5199     0.0090     0.0798     2.5232
  580.5000   -44.8763    10.8963    10.8535    11.0152     8.0516   104.8332     0.0209     0.0735     2.5307
  581.0000   -44.7153    11.4387    11.1593    11.2468     8.0527   105.4427     0.0154     0.0750     2.5248
