~VERSION INFORMATION
 VERS.                2.0:   CWLS LOG ASCII STANDARD - VERSION 2.0
 WRAP.                 NO:   ONE LINE PER DEPTH STEP
~WELL INFORMATION
#MNEM.UNIT      DATA TYPE    INFORMATION
#----------   ------------   ------------------------------
 STRT.F            8.0000:   START DEPTH
 STOP.F          513.0000:   STOP DEPTH
 STEP.F            0.5000:   STEP LENGTH
 NULL.          -999.2500:   NO VALUE
 COMP. LAWRENCE-ALLISON &AS:   COMPANY
 WELL. NPR 3 #51-63SX10UP3:   WELL
 FLD .             TEAPOT:   FIELD
 LOC .      S10 T38N R78W:   LOCATION
 CNTY.            NATRONA:   COUNTY
 STAT.            WYOMING:   STATE
 CTRY. UNITED STATES OF AMERICA:   COUNTRY
 SRVC.      Dresser Atlas:   SERVICE COMPANY
 DATE.        09-DEC-1984:   LOGDATE
 API .       490251099400:   API NUMBER
~CURVE INFORMATION
#MNEM.UNIT       API CODE    CURVE DESCRIPTION
#----------   ------------   ------------------------------
 DEPT.F                  :   
 RFOC.OHMM   07 220 01 00:   RESISTIVITY FOCUSED LOG
 RILD.OHMM   07 120 46 00:   INDUCTION LOG DEEP RESISTIVITY
 RILM.OHMM   07 120 44 00:   RESITIVITY LONG MEDIUM
 SPR .MV     07 010 01 00:   SPONTANEOUS POTENTIAL
 CALD.IN     45 280 60 00:   CALIPER FROM DENSITY LOG
 CORR.none               :   
 DEN .G/C3   45 350 01 00:   COMPENSATED BULK DENSTIY
 GRD .GAPI   45 310 01 00:   GAMMA RAY FROM DENSITY LOG
 PORD.DEC    45 890 12 00:   POROSITY DENSITY SANDSTONE
 CNC .DEC    42 890 03 00:   NEUTRON POROSITY SANDSTONE
~PARAMETER INFORMATION
#MNEM.UNIT          VALUE    DESCRIPTION
#----------   ------------   ------------------------------
 PD  .                 GL:   PERMANENT DATUM
 EPD .F              5162:   ELEVATION PERMANENT DATUM
 LMF .                 GL:   LOG MEASURED FROM
 DMF .                 GL:   DRILLING MEASURED FROM
 EGL .F              5162:   GROUND LEVEL
 DATE.        09-DEC-1984:   RUN DATE
 RUN .                  1:   RUN NUMBER
 DD  .F               510:   DEPTH DRILLER
 DL  .F               515:   DEPTH LOGGER
 BLI .F               513:   BOTTOM LOG INTERVAL
 TLI .F                20:   TOP LOG INTERVAL
 CS  .IN            8.625:   CASING SIZE
 CBD .F                20:   CASING BOTTOM DRILLER
 CBL .F                20:   CASING BOTTOM LOGGER
 BS  .IN            7.875:   BIT SIZE
 BSD .F               510:   BIT SIZE AT DEPTH
 DFT .          KCL-WATER:   DRILLING FLUID TYPE
 MSS .            MUDTANK:   MUD SAMPLE SOURCE
 RMS .OHMM           0.41:   RESISTIVITY MUD SAMPLE
 MST .F                45:   MUD SAMPLE TEMPERATURE
 RMF .OHMM           0.31:   RESISTIVITY MUD FILTRATE SAMPLE
 MFST.F                45:   MUD FILTRATE SAMPLE TEMPERATURE
 RMC .OHMM           0.51:   RESISTIVITY MUD CAKE
 MCST.F                45:   MUD CAKE SAMPLE TEMPERATURE
 MFSS.               CALC:   MUD FILTRATE SAMPLE SOURCE
 MCSS.               CALC:   MUD CAKE SAMPLE SOURCE
 RMB .OHMM           0.22:   RESISTIVITY MUD AT BHT
 BHT .F                85:   BOTTOM HOLE TEMPERATURE
 TCS .HRS               2:   TIME CURCULATED STOPPED
 MRT .F               100:   MAXIMUM RECORDED TEMPERATURE
 LUN .               6270:   LOGGING UNIT NUMBER
 LUL .                 FM:   LOGGING UNIT LOCATION
 ENGI.          E. GOVETT:   RECORDING ENGINEER
 WITN.              LUERS:   WITNESSED BY
 CLNT.            A2DTECH:   CLIENT CODE
 ORIG.           5" PRINT:   ORIGIN OF DATA
 UWI .       490251099400:   UNIQUE WELL ID
 DICO. A2D Technologies, Inc.:   DIGITIZING COMPANY
~OTHER INFORMATION
~A    DEPT    RFOC       RILD       RILM        SPR       CALD       CORR        DEN        GRD       PORD          CNC 
# ...
   75.0000    11.3690     9.9591     9.7578   -48.8856     8.1235     0.0133     2.4324    92.9574     0.1442     0.2551
   75.5000    11.3763    10.0358    10.1785   -49.0221     8.1380     0.0299     2.4460    91.3445     0.1363     0.2590
   76.0000    11.4615    10.1836    10.6174   -49.0105     8.1373     0.0389     2.4642    90.5852     0.1215     0.2548
   76.5000    11.6279    10.3337    10.9986   -49.1654     8.1366     0.0418     2.4809    91.1793     0.1193     0.2588
   77.0000    11.8790    10.4133    11.2361   -49.5787     8.1361     0.0242     2.4718    91.9256     0.1343     0.2700
   77.5000    12.1355    10.2055     9.9616   -49.8672     8.1204     0.0006     2.4505    90.8638     0.1522     0.2892
   78.0000    12.3976    10.1402     8.9431   -50.0042     8.1198     0.0066     2.4231    90.2549     0.1589     0.3084
   78.5000    11.8962    10.2202     8.5822   -49.6925     8.1192     0.0232     2.4124    93.1046     0.1607     0.2994
   79.0000    11.5693    10.4432     8.2933   -49.2351     8.1186     0.0307     2.4100    95.2025     0.1574     0.2877
   79.5000    11.4229    10.5971     8.1819   -49.0749     8.1180     0.0290     2.4154    97.7515     0.1547     0.2711
   80.0000    11.3495    10.4534     8.4767   -48.9147     8.1326     0.0274     2.4215    99.8494     0.1496     0.2571
   80.5000    11.2767    10.0977     8.9039   -48.6059     8.1319     0.0349     2.4300   101.4961     0.1457     0.2345
   81.0000    11.2043     9.7033     9.2235   -48.4457     8.1313     0.0409     2.4388   100.2827     0.1427     0.2329
   81.5000    11.1337     9.4438     9.5546   -48.2719     8.1458     0.0423     2.4418    96.6000     0.1415     0.2508
   82.0000    11.0609     9.3200     9.7609   -47.8138     8.1602     0.0346     2.4410    92.7699     0.1418     0.2651
   82.5000    10.9151     9.3267     9.7659   -47.5165     8.1747     0.0299     2.4410    90.0361     0.1421     0.2761
   83.0000    10.9207     9.3333     9.7709   -47.3563     8.1892     0.0253     2.4424    91.0814     0.1418     0.2846
   83.5000    11.0792     9.4052     9.7760   -47.1961     8.2035     0.0252     2.4447    92.1285     0.1398     0.2904
   84.0000    11.2401     9.4120     9.9190   -47.1845     8.2181     0.0341     2.4462    90.4651     0.1377     0.2914
   84.5000    11.0882     9.4187     9.9933   -47.1729     8.2174     0.0447     2.4484    88.6532     0.1389     0.2877
   85.0000    10.8586     9.3599    10.1384   -47.1613     8.2017     0.0537     2.4446    87.5932     0.1405     0.2881
   85.5000    10.5027     9.3668     9.9342   -47.2987     8.1861     0.0460     2.4392    90.1422     0.1496     0.2960
   86.0000    10.4339     9.3736     9.5333   -47.5838     8.1704     0.0276     2.4316    90.7382     0.1560     0.2993
   86.5000    10.4406     9.3804     9.2123   -48.0180     8.1397     0.0154     2.4201    91.0297     0.1591     0.2972
   87.0000    10.4459     9.3886     8.8405   -48.1659     8.1391     0.0122     2.4131    93.5787     0.1606     0.2854
   87.5000    10.4513     9.3953     8.5429   -48.3098     8.1235     0.0121     2.4093    95.5262     0.1619     0.2730
   88.0000    10.4566     9.3352     8.4292   -48.5775     8.1229     0.0105     2.4071    93.4135     0.1628     0.2636
   88.5000    10.3895     9.3436     8.3751   -48.8602     8.1223     0.0119     2.4079    92.1945     0.1616     0.2587
   89.0000    10.3948     9.2211     8.4380   -49.0001     8.1217     0.0255     2.4078    91.1238     0.1610     0.2673
   89.5000    10.3279     9.1621     8.4424   -49.1342     8.1362     0.0392     2.4070    90.0812     0.1626     0.2722
   90.0000    10.3333     9.1051     8.4476   -49.2711     8.1505     0.0485     2.4055    89.3220     0.1632     0.2628
   90.5000    10.3387     9.0484     8.4519   -49.2595     8.1499     0.0540     2.4039    90.3672     0.1638     0.2667
   91.0000    10.4162     8.9935     8.4562   -49.2479     8.1494     0.0509     2.4054    92.0139     0.1635     0.2734
   91.5000    10.4954     8.9377     8.4008   -49.2363     8.1487     0.0462     2.4084    93.8111     0.1614     0.2750
   92.0000    10.2128     9.0696     8.4062   -49.0758     8.1482     0.0324     2.4121    94.5574     0.1569     0.2705
   92.5000    10.1459     9.2103     8.3511   -49.0616     8.1475     0.0171     2.4174    91.5406     0.1533     0.2684
   93.0000    10.2232     9.4713     8.3565   -48.9014     8.1469     0.0049     2.4219    90.7814     0.1506     0.2693
   93.5000    10.3716     9.6780     8.3607   -48.8898     8.1410     0.0002     2.4257    91.2251     0.1494     0.2723
   94.0000    10.3769     9.4832     8.3070   -48.7296     8.1307     0.0047     2.4248    91.0674     0.1528     0.2859
   94.5000    10.2376     9.2312     8.1939   -49.0152     8.1150     0.0292     2.4203    90.1577     0.1543     0.2964
   95.0000    10.1718     8.9843     8.1439   -49.3008     8.1144     0.0212     2.4172    90.1454     0.1559     0.2973
   95.5000     9.6949     8.8035     8.1491   -49.4406     8.1139     0.0165     2.4187    92.2867     0.1553     0.2928
   96.0000     9.3036     8.7487     8.2102   -49.6414     8.1133     0.0243     2.4210    96.3809     0.1535     0.2843
   96.5000     8.8006     9.0036     8.2716   -49.8603     8.1126     0.0456     2.4209    94.9839     0.1544     0.2780
   97.0000     8.4994     8.5818     8.1606   -49.9973     8.1120     0.0435     2.4201    92.2242     0.1530     0.2801
   97.5000     8.3371     8.2369     7.9419   -50.2799     8.1113     0.0358     2.4246    91.3145     0.1490     0.2783
   98.0000     8.5182     7.9607     7.8352   -50.4198     8.1177     0.0327     2.4314    91.7583     0.1475     0.2720
   98.5000     8.8856     7.7435     7.6252   -50.4053     8.1404     0.0326     2.4337    92.9539     0.1476     0.2845
   99.0000     9.2687     7.5935     7.4717   -50.5452     8.1397     0.0325     2.4329    94.2999     0.1476     0.2938
   99.5000     9.5349     7.7068     7.3723   -50.5307     8.1390     0.0324     2.4336    95.4955     0.1473     0.2921
  100.0000     9.6721     7.9297     7.3249   -50.5220     8.1397     0.0353     2.4358    94.4351     0.1464     0.2872
  100.5000     9.0928     7.9340     7.2774   -50.5255     8.1464     0.0307     2.4387    95.0307     0.1455     0.2794
  101.0000     9.0984     7.8822     7.3325   -50.5285     8.1531     0.0396     2.4426    95.9271     0.1430     0.2690
  101.5000     9.2314     7.7786     7.3872   -50.5316     8.1597     0.0380     2.4456    96.0731     0.1404     0.2794
  102.0000     9.4317     7.7278     7.4942   -50.5346     8.1687     0.0348     2.4502    96.0657     0.1377     0.2903
  102.5000     9.7036     7.6785     7.6027   -50.5376     8.1951     0.0317     2.4576    96.8117     0.1331     0.2949
  103.0000     9.7199     7.6837     7.7129   -50.5406     8.1942     0.0332     2.4644    98.0089     0.1271     0.2900
  103.5000     9.5150     7.6879     7.7704   -50.5436     8.1935     0.0361     2.4711    99.6571     0.1225     0.2749
  104.0000     9.4540     7.7458     7.8283   -50.5467     8.1626     0.0451     2.4787    98.2616     0.1189     0.2682
  104.5000     9.3300     7.7501     7.9140   -50.5497     8.1468     0.0693     2.4832    96.0822     0.1198     0.2764
  105.0000     9.5340     7.8094     7.9881   -50.5521     8.1461     0.0813     2.4786    93.4726     0.1217     0.2798
  105.5000     9.8088     7.9231     8.0627   -50.5375     8.1453     0.0630     2.4755    92.1133     0.1229     0.2804
  106.0000    10.1619     8.0385     8.1783   -50.5259     8.1444     0.0492     2.4754    93.3105     0.1235     0.2795
  106.5000    10.3105     8.0990     8.1822   -50.5141     8.1437     0.0461     2.4762    98.2670     0.1229     0.2759
  107.0000    10.3168     8.1034     8.1861   -50.5022     8.1431     0.0522     2.4769   100.3664     0.1220     0.2701
  107.5000    10.3231     8.1078     8.1900   -50.3394     8.1423     0.0413     2.4768   100.2101     0.1211     0.2628
  108.0000    10.1868     8.0001     8.1939   -50.3278     8.1415     0.0275     2.4729    97.3471     0.1227     0.2621
