~VERSION INFORMATION
 VERS.                2.0:   CWLS LOG ASCII STANDARD - VERSION 2.0
 WRAP.                 NO:   ONE LINE PER DEPTH STEP
~WELL INFORMATION
#MNEM.UNIT      DATA TYPE    INFORMATION
#----------   ------------   ------------------------------
 STRT.F            0.0000:   START DEPTH
 STOP.F          795.0000:   STOP DEPTH
 STEP.F            0.5000:   STEP LENGTH
 NULL.          -999.2500:   NO VALUE
 COMP. BROWN JOHN E&C INC:   COMPANY
 WELL. NPR 3 SX-11 #41-11:   WELL
 FLD .             TEAPOT:   FIELD
 LOC .      S11 T38N R78W:   LOCATION
 CNTY.            NATRONA:   COUNTY
 STAT.            WYOMING:   STATE
 CTRY. UNITED STATES OF AMERICA:   COUNTRY
 SRVC.           Gearhart:   SERVICE COMPANY
 DATE.        19-AUG-1988:   LOGDATE
 API .       490251125300:   API NUMBER
~CURVE INFORMATION
#MNEM.UNIT       API CODE    CURVE DESCRIPTION
#----------   ------------   ------------------------------
 DEPT.F                  :   
 ILD .OHMM   07 120 46 00:   INDUCTION LOG DEEP
 ILM .OHMM   07 120 44 00:   INDUCTION LOG MEDIUM
 GRR .GAPI   07 310 01 00:   GAMMA RAY FROM RES. LOG.
~PARAMETER INFORMATION
#MNEM.UNIT          VALUE    DESCRIPTION
#----------   ------------   ------------------------------
 PD  .                 GL:   PERMANENT DATUM
 EPD .F              5093:   ELEVATION PERMANENT DATUM
 LMF .                 KB:   LOG MEASURED FROM
 DAPD.F                10:   FEET ABOVE PERMANENT DATUM
 DMF .                 KB:   DRILLING MEASURED FROM
 EKB .F              5103:   KELLING BUSHING
 EGL .F              5093:   GROUND LEVEL
 DATE.            8-19-88:   RUN DATE
 RUN .                  1:   RUN NUMBER
 DD  .F               800:   DEPTH DRILLER
 DL  .F             802.5:   DEPTH LOGGER
 BLI .F               794:   BOTTOM LOG INTERVAL
 CS  .IN            9.625:   CASING SIZE
 CBD .F                48:   CASING BOTTOM DRILLER
 CBL .F                48:   CASING BOTTOM LOGGER
 BS  .IN             8.75:   BIT SIZE
 BSD .F               800:   BIT SIZE AT DEPTH
 DFT .                AIR:   DRILLING FLUID TYPE
 TCS .HRS            1900:   TIME CURCULATED STOPPED
 TLAB.HRS            2000:   TIME LOGGER AT BOTTOM
 MRT .F                70:   MAXIMUM RECORDED TEMPERATURE
 LUN .               7597:   LOGGING UNIT NUMBER
 LUL .           GILLETTE:   LOGGING UNIT LOCATION
 ENGI.          HUCKFELDT:   RECORDING ENGINEER
 WITN.             STRONG:   WITNESSED BY
 CLNT.            A2DTECH:   CLIENT CODE
 ORIG.        2" 5" PRINT:   ORIGIN OF DATA
 UWI .       490251125300:   UNIQUE WELL ID
 DICO. A2D Technologies, Inc.:   DIGITIZING COMPANY
~OTHER INFORMATION
~A    DEPT     ILD        ILM         GRR  
# ...
  546.0000     6.5970     6.4165   129.5845
  546.5000     6.8351     6.6919   127.0098
  547.0000     7.0817     6.8796   125.4718
  547.5000     7.2318     7.0109   126.4670
  548.0000     7.4047     7.1448   127.5237
  548.5000     7.4651     7.1914   127.5499
  549.0000     7.4061     7.1914   127.8030
  549.5000     7.2822     7.0759   129.0623
  550.0000     7.1604     6.9465   130.1802
  550.5000     7.0077     6.8197   130.9220
  551.0000     6.8632     6.6943   128.5204
  551.5000     6.7035     6.5462   126.0370
  552.0000     6.5336     6.3429   123.5993
  552.5000     6.3679     6.1469   125.0751
  553.0000     6.2065     5.9680   126.8372
  553.5000     5.9230     5.6137   128.5771
  554.0000     5.5564     5.2895   129.9547
  554.5000     5.2125     5.0280   129.3983
  555.0000     5.0033     4.7794   128.8755
  555.5000     4.8349     4.4995   128.3799
  556.0000     4.7677     4.2109   128.6988
  556.5000     4.7677     4.0271   129.1113
  557.0000     4.7936     4.1618   127.4711
  557.5000     4.9182     4.3215   125.7760
  558.0000     5.0426     4.6168   124.0917
  558.5000     5.3678     5.0178   125.6152
  559.0000     5.7043     5.4338   129.4902
  559.5000     6.0620     5.7958   133.2234
  560.0000     6.4421     6.1660   134.8215
  560.5000     6.7758     6.5585   135.7241
  561.0000     6.9268     6.7246   134.3950
  561.5000     7.0807     6.8554   132.9184
  562.0000     7.2042     6.9896   132.2663
  562.5000     7.2485     7.0766   131.6628
  563.0000     7.2932     7.1137   131.9520
  563.5000     7.3381     7.1510   132.3058
  564.0000     7.3833     7.1885   132.1357
  564.5000     7.3957     7.2262   131.6033
  565.0000     7.3957     7.2589   131.0634
  565.5000     7.3561     7.2014   130.5173
  566.0000     7.3030     7.1514   130.0441
  566.5000     7.2589     7.1017   130.9430
  567.0000     7.2336     7.0523   131.8527
  567.5000     7.2071     6.9920   133.7748
  568.0000     7.1915     7.0086   135.1779
  568.5000     7.2288     7.0497   135.6802
  569.0000     7.2562     7.0915   134.8180
  569.5000     7.2838     7.1333   133.1512
  570.0000     7.3111     7.1754   133.0045
  570.5000     7.3270     7.1914   133.6517
  571.0000     7.2220     7.1650   134.4581
  571.5000     7.1375     7.0534   136.5388
  572.0000     7.0582     6.9192   138.7190
  572.5000     6.8291     6.7585   139.3842
  573.0000     6.6043     6.6010   136.7984
  573.5000     6.3502     6.4473   135.6905
  574.0000     6.1059     6.2974   136.2169
  574.5000     6.0133     6.2082   138.9578
  575.0000     5.9196     6.1211   141.9220
  575.5000     5.8275     6.0585   143.1467
  576.0000     5.7158     6.0215   142.8258
  576.5000     5.4531     5.9849   139.4666
  577.0000     5.2038     5.8741   136.1512
  577.5000     5.0261     5.4644   132.9338
  578.0000     4.9092     4.9734   130.8662
  578.5000     4.8576     4.5738   128.2798
  579.0000     4.8853     4.4524   125.7119
  579.5000     4.9625     4.4244   123.1230
  580.0000     5.0426     4.4244   121.8478
  580.5000     5.2620     4.6572   124.6209
  581.0000     5.4957     4.9073   127.7215
  581.5000     5.7580     5.1703   130.4765
  582.0000     6.0615     5.4846   129.5698
  582.5000     6.3404     5.8691   128.6390
  583.0000     6.4771     6.0959   127.7344
  583.5000     6.6136     6.2167   127.4182
  584.0000     6.6115     6.3098   128.2310
  584.5000     6.4539     6.0426   129.0546
  585.0000     6.1354     5.6516   128.2373
  585.5000     5.5897     5.2847   127.6471
  586.0000     5.2583     4.9466   128.8452
  586.5000     5.0889     4.6360   133.6170
  587.0000     5.0899     4.4701   138.3091
  587.5000     5.1001     4.4244   138.4144
  588.0000     5.1377     4.6111   137.7224
  588.5000     5.3910     4.8996   137.3893
  589.0000     5.7042     5.2800   134.8116
  589.5000     6.0806     5.6900   131.1422
  590.0000     6.4818     6.1317   127.2802
  590.5000     6.7914     6.4483   125.5913
  591.0000     7.0138     6.7362   125.5805
  591.5000     7.2434     6.9495   125.7654
  592.0000     7.4805     7.1797   126.0678
  592.5000     7.6064     7.3653   127.0956
  593.0000     7.6993     7.4680   127.6546
  593.5000     7.7935     7.5721   125.4095
  594.0000     7.8887     7.6777   123.2091
  594.5000     7.9853     7.7848   121.6534
  595.0000     8.0828     7.8933   124.0630
  595.5000     8.1452     8.0034   127.3870
  596.0000     8.1855     8.0570   127.9479
  596.5000     8.2261     8.0770   127.1013
  597.0000     8.2670     8.0970   125.0102
  597.5000     8.3565     8.1169   122.9165
  598.0000     8.4553     8.1364   121.4260
  598.5000     8.5556     8.1555   122.0368
  599.0000     8.6570     8.1748   124.2505
  599.5000     8.7504     8.1940   126.4461
  600.0000     8.7505     8.3865   127.5656
  600.5000     8.7509     8.6048   127.1527
  601.0000     8.4825     8.8305   123.5627
  601.5000     8.1210     9.0609   119.9042
  602.0000     7.7127     9.1719   116.3059
  602.5000     6.9680     8.4341   116.7976
  603.0000     6.2966     7.1576   121.8431
  603.5000     5.7063     6.3343   126.8453
  604.0000     5.1859     6.0784   131.8254
  604.5000     4.8125     6.0784   136.1735
  605.0000     5.0113     6.0939   137.5125
  605.5000     5.3613     6.1201   130.6736
  606.0000     6.0072     6.2059   123.4947
  606.5000     6.7959     6.5398   117.3871
  607.0000     7.6237     7.0429   112.6998
  607.5000     8.3287     7.8008   111.4350
  608.0000     9.0990     8.5880   112.4180
  608.5000     9.8797     9.1797   115.1599
  609.0000    10.0050     9.6570   117.8437
  609.5000    10.0660     9.7878   118.1504
  610.0000    10.0657     9.7903   117.2869
  610.5000    10.0654     9.6083   115.6665
  611.0000    10.0644     9.4893   115.7264
  611.5000    10.7103     9.3722   116.1444
  612.0000    11.2278     9.3412   115.4024
  612.5000    11.7694     9.9524   114.5729
  613.0000    12.3943    10.6462   112.1158
  613.5000    13.3568    11.5085   106.7328
  614.0000    14.3969    13.1026    97.8613
  614.5000    15.5173    14.9175    86.9663
  615.0000    16.7247    16.2210    76.5346
  615.5000    18.0263    17.4268    72.3722
  616.0000    19.4275    18.7222    72.6280
  616.5000    20.7862    20.1139    73.7125
  617.0000    22.0199    21.6091    74.2940
  617.5000    23.3268    22.8704    74.0755
  618.0000    24.7112    24.1372    70.7409
  618.5000    25.7515    25.3792    64.5738
  619.0000    26.7649    28.6561    60.4801
  619.5000    28.0866    30.5924    56.4251
  620.0000    29.4779    31.7001    56.1620
  620.5000    29.4757    32.7525    60.2701
  621.0000    28.7027    33.5878    60.3499
  621.5000    27.2680    32.7841    60.4794
  622.0000    25.9051    30.3080    60.6219
  622.5000    24.6103    27.3272    61.1456
  623.0000    23.3328    24.4789    65.1071
  623.5000    22.5169    22.8836    69.9908
  624.0000    21.6976    21.7008    72.4624
  624.5000    21.0144    21.3012    73.7538
  625.0000    20.8030    21.1106    74.9044
  625.5000    20.5938    20.9218    75.4176
  626.0000    20.3867    20.7347    73.6619
  626.5000    20.1816    20.6647    72.1372
  627.0000    19.9787    20.8424    73.7365
  627.5000    19.9068    21.2561    75.4251
  628.0000    20.2089    21.6528    77.1073
  628.5000    20.6226    21.6512    78.8154
  629.0000    21.1949    21.6483    77.5819
  629.5000    21.7821    24.0361    76.1098
  630.0000    22.3792    25.4884    74.6335
  630.5000    22.7964    26.7433    75.0100
  631.0000    23.0125    28.1225    75.7690
  631.5000    23.1159    28.1257    75.2412
  632.0000    22.4037    26.8360    74.4655
  632.5000    21.8815    24.6971    76.2038
  633.0000    21.3714    22.2681    78.4990
  633.5000    20.7593    20.8051    80.8081
  634.0000    20.1304    19.8202    83.1042
  634.5000    19.5205    18.9984    82.2591
  635.0000    18.9291    18.4303    80.7248
  635.5000    18.4011    17.8738    79.1562
  636.0000    18.0571    17.3341    78.5698
  636.5000    17.7191    16.8259    78.9320
