~VERSION INFORMATION
 VERS.                2.0:   CWLS LOG ASCII STANDARD - VERSION 2.0
 WRAP.                 NO:   ONE LINE PER DEPTH STEP
~WELL INFORMATION
#MNEM.UNIT      DATA TYPE    INFORMATION
#----------   ------------   ------------------------------
 STRT.F         1099.5000:   START DEPTH
 STOP.F         2700.0000:   STOP DEPTH
 STEP.F            0.5000:   STEP LENGTH
 NULL.          -999.2500:   NO VALUE
 COMP. LAWRENCE/ALLISON INC NPR #3:   COMPANY
 WELL.   47 STX 14 #47-14:   WELL
 FLD .             TEAPOT:   FIELD
 LOC .      S14 T38N R78W:   LOCATION
 CNTY.            NATRONA:   COUNTY
 STAT.            WYOMING:   STATE
 CTRY. UNITED STATES OF AMERICA:   COUNTRY
 SRVC.            Unknown:   SERVICE COMPANY
 DATE.        01-SEP-1988:   LOGDATE
 API .       490251124400:   API NUMBER
~CURVE INFORMATION
#MNEM.UNIT       API CODE    CURVE DESCRIPTION
#----------   ------------   ------------------------------
 DEPT.F                  :   
 ROP .MIN/FT 91 810 01 00:   RATE OF DRILLING PENETRATION
 TGAS.UNITS  91 830 01 00:   TOTAL GAS FROM HOTWIRE
~PARAMETER INFORMATION
#MNEM.UNIT          VALUE    DESCRIPTION
#----------   ------------   ------------------------------
 EKB .F              5286:   KELLING BUSHING
 EGL .F              5276:   GROUND LEVEL
 DATE.             9-1-88:   RUN DATE
 DD  .F              2700:   DEPTH DRILLER
 CBD .F              1088:   CASING BOTTOM DRILLER
 TCS .HRS            1200:   TIME CURCULATED STOPPED
 TLAB.HRS            1223:   TIME LOGGER AT BOTTOM
 ENGI.               HUSK:   RECORDING ENGINEER
 WITN.           PETERSON:   WITNESSED BY
 CLNT.            A2DTECH:   CLIENT CODE
 ORIG.           5" PRINT:   ORIGIN OF DATA
 UWI .       490251124400:   UNIQUE WELL ID
 DICO. A2D Technologies, Inc.:   DIGITIZING COMPANY
~OTHER INFORMATION
~A  DEPT       ROP       TGAS   
# ...
 1585.5000     0.4436     3.3047
 1586.0000     0.4023     3.3047
 1586.5000     0.3913     3.3046
 1587.0000     0.3906     3.3045
 1587.5000     0.4002     3.3045
 1588.0000     0.3995     3.3044
 1588.5000     0.4092     3.3043
 1589.0000     0.4085     3.3043
 1589.5000     0.4076     3.3042
 1590.0000     0.3962     3.3041
 1590.5000     0.3856     3.3041
 1591.0000     0.3849     3.3040
 1591.5000     0.3857     3.3039
 1592.0000     0.3974     3.3039
 1592.5000     0.4158     3.3038
 1593.0000     0.4233     3.3037
 1593.5000     0.4226     3.3037
 1594.0000     0.4219     3.3036
 1594.5000     0.4246     3.3035
 1595.0000     0.4308     3.3035
 1595.5000     0.4301     3.3034
 1596.0000     0.4293     3.3033
 1596.5000     0.4240     3.3033
 1597.0000     0.4126     3.3032
 1597.5000     0.3906     3.3031
 1598.0000     0.3523     3.3031
 1598.5000     0.3565     3.3030
 1599.0000     0.3858     3.3029
 1599.5000     0.4064     3.3029
 1600.0000     0.4270     3.3028
 1600.5000     0.4332     3.3028
 1601.0000     0.4324     3.3028
 1601.5000     0.4160     3.3027
 1602.0000     0.3859     3.3027
 1602.5000     0.3578     3.3027
 1603.0000     0.3459     3.3027
 1603.5000     0.3351     3.3026
 1604.0000     0.3344     3.3026
 1604.5000     0.3452     3.3026
 1605.0000     0.3602     3.3026
 1605.5000     0.4021     3.3025
 1606.0000     0.4464     3.3025
 1606.5000     0.5017     3.3025
 1607.0000     0.4738     3.3025
 1607.5000     0.4420     3.3024
 1608.0000     0.4309     3.3024
 1608.5000     0.4301     3.3024
 1609.0000     0.4293     3.3024
 1609.5000     0.4285     3.3023
 1610.0000     0.4277     3.3023
 1610.5000     0.4269     3.3023
 1611.0000     0.4261     3.3023
 1611.5000     0.4356     3.3022
 1612.0000     0.4347     3.3022
 1612.5000     0.4356     3.3022
 1613.0000     0.4435     3.3022
 1613.5000     0.4147     3.3022
 1614.0000     0.3846     3.3021
 1614.5000     0.3717     3.3021
 1615.0000     0.3850     3.3021
 1615.5000     0.4093     3.3021
 1616.0000     0.4405     3.3020
 1616.5000     0.4627     3.3020
 1617.0000     0.4678     3.3020
 1617.5000     0.4566     3.3020
 1618.0000     0.4289     3.3019
 1618.5000     0.4136     3.3019
 1619.0000     0.4066     3.3019
 1619.5000     0.4017     3.3019
 1620.0000     0.4008     3.3018
 1620.5000     0.4000     3.3018
 1621.0000     0.3916     3.3018
 1621.5000     0.3880     3.3018
 1622.0000     0.3974     3.3017
 1622.5000     0.3966     3.3017
 1623.0000     0.4164     3.3017
 1623.5000     0.4673     3.3017
 1624.0000     0.4975     3.3016
 1624.5000     0.5277     3.3016
 1625.0000     0.5269     3.3016
 1625.5000     0.4937     3.3016
 1626.0000     0.4522     3.3016
 1626.5000     0.4407     3.3015
 1627.0000     0.4292     3.3015
 1627.5000     0.4194     3.3015
 1628.0000     0.4207     3.3015
 1628.5000     0.4281     3.3014
 1629.0000     0.4273     3.3014
 1629.5000     0.4264     3.3014
 1630.0000     0.4222     3.3014
 1630.5000     0.4182     3.3013
 1631.0000     0.4240     3.3013
 1631.5000     0.4231     3.3013
 1632.0000     0.4223     3.3013
 1632.5000     0.4163     3.3012
 1633.0000     0.3938     3.3012
 1633.5000     0.3668     3.3012
 1634.0000     0.3508     3.3012
 1634.5000     0.3655     3.3011
 1635.0000     0.3898     3.3011
 1635.5000     0.4103     3.3011
 1636.0000     0.4233     3.3011
 1636.5000     0.4252     3.3010
 1637.0000     0.4242     3.3010
 1637.5000     0.4234     3.3010
 1638.0000     0.4123     3.3010
 1638.5000     0.4115     3.3010
 1639.0000     0.4107     3.3009
 1639.5000     0.3996     3.3009
 1640.0000     0.4091     3.3009
 1640.5000     0.4196     3.3009
 1641.0000     0.4501     3.3008
 1641.5000     0.4707     3.3008
 1642.0000     0.4885     3.3008
 1642.5000     0.4618     3.3008
 1643.0000     0.4289     3.3007
 1643.5000     0.4033     3.3007
 1644.0000     0.4025     3.3007
 1644.5000     0.4017     3.3007
 1645.0000     0.3974     3.3006
 1645.5000     0.3897     3.3006
 1646.0000     0.3888     3.3006
 1646.5000     0.3925     3.3006
 1647.0000     0.3975     3.3005
 1647.5000     0.3967     3.3005
 1648.0000     0.4014     3.3005
 1648.5000     0.3995     3.3005
 1649.0000     0.3880     3.3004
 1649.5000     0.3634     3.3004
 1650.0000     0.3306     3.2975
 1650.5000     0.3127     3.2609
 1651.0000     0.3439     3.2243
 1651.5000     0.3698     3.1877
 1652.0000     0.4073     3.1511
 1652.5000     0.4599     3.1145
 1653.0000     0.4947     3.0779
 1653.5000     0.4616     3.0412
 1654.0000     0.4317     3.0046
 1654.5000     0.4056     2.9680
 1655.0000     0.4048     2.9314
 1655.5000     0.4040     2.8948
 1656.0000     0.4032     2.8582
 1656.5000     0.4025     2.8216
 1657.0000     0.4017     2.7850
 1657.5000     0.4008     2.7484
 1658.0000     0.4000     2.7118
 1658.5000     0.4006     2.6752
 1659.0000     0.4023     2.6386
 1659.5000     0.4040     2.6020
 1660.0000     0.4056     2.5654
 1660.5000     0.4073     2.5288
 1661.0000     0.4090     2.4922
 1661.5000     0.4106     2.4556
 1662.0000     0.4123     2.4190
 1662.5000     0.3971     2.3824
 1663.0000     0.3463     2.3516
 1663.5000     0.3027     2.3229
 1664.0000     0.2663     2.2942
 1664.5000     0.3151     2.2654
 1665.0000     0.3621     2.2367
 1665.5000     0.4226     2.2080
 1666.0000     0.4656     2.1793
 1666.5000     0.4753     2.1505
 1667.0000     0.4519     2.1218
 1667.5000     0.4169     2.0931
 1668.0000     0.3900     2.0644
 1668.5000     0.3672     2.0357
 1669.0000     0.3557     2.0069
 1669.5000     0.3558     1.9782
 1670.0000     0.3657     1.9495
 1670.5000     0.3821     1.9208
 1671.0000     0.4027     1.8906
 1671.5000     0.4379     1.8866
 1672.0000     0.4261     3.9633
 1672.5000     0.3932     5.2380
 1673.0000     0.3544     6.4480
 1673.5000     0.3226     6.8248
 1674.0000     0.3158     6.8202
 1674.5000     0.3419     6.8160
 1675.0000     0.3568     6.8119
 1675.5000     0.3607     6.8078
 1676.0000     0.3472     6.8036
 1676.5000     0.3384     6.7995
 1677.0000     0.3376     6.7954
 1677.5000     0.3517     6.7913
 1678.0000     0.3722     6.7871
 1678.5000     0.3928     6.7830
 1679.0000     0.4065     6.7789
 1679.5000     0.3953     6.7748
 1680.0000     0.3945     6.7706
 1680.5000     0.3938     6.7665
 1681.0000     0.3930     6.7624
 1681.5000     0.3921     6.7582
 1682.0000     0.3913     6.7541
 1682.5000     0.3897     6.7500
 1683.0000     0.3758     6.7459
 1683.5000     0.2649     6.7417
 1684.0000     0.3374     6.7376
 1684.5000     0.3895     6.7335
 1685.0000     0.4315     6.7293
 1685.5000     0.4745     6.7252
 1686.0000     0.4814     6.7211
 1686.5000     0.4176     6.7170
 1687.0000     0.3996     6.7128
 1687.5000     0.3926     6.7087
 1688.0000     0.3917     6.7046
 1688.5000     0.3962     6.7004
 1689.0000     0.4004     6.6963
 1689.5000     0.4009     6.6922
 1690.0000     0.4017     6.6881
 1690.5000     0.4025     6.6839
 1691.0000     0.4034     6.6798
 1691.5000     0.4042     6.6757
 1692.0000     0.4050     6.6715
 1692.5000     0.4106     6.6674
 1693.0000     0.4205     6.6633
 1693.5000     0.4495     6.6592
 1694.0000     0.5117     6.6550
 1694.5000     0.5279     6.6509
 1695.0000     0.4736     6.6468
 1695.5000     0.4281     6.6427
 1696.0000     0.4095     6.6385
 1696.5000     0.4087     6.6344
 1697.0000     0.4079     6.6303
 1697.5000     0.4070     6.6261
 1698.0000     0.4125     6.6220
 1698.5000     0.4157     6.6179
 1699.0000     0.4079     6.6138
 1699.5000     0.4037     6.6096
 1700.0000     0.4029     6.6055
 1700.5000     0.4102     6.6008
 1701.0000     0.4424     6.5958
 1701.5000     0.4933     6.5909
 1702.0000     0.4710     6.5860
 1702.5000     0.4493     6.5811
 1703.0000     0.4238     6.5762
 1703.5000     0.3718     6.5712
 1704.0000     0.2859     6.5663
 1704.5000     0.3487     6.5614
 1705.0000     0.3890     6.5565
 1705.5000     0.3984     6.5515
 1706.0000     0.3979     6.5466
 1706.5000     0.3991     6.5417
