~VERSION INFORMATION
 VERS.                2.0:   CWLS LOG ASCII STANDARD - VERSION 2.0
 WRAP.                 NO:   ONE LINE PER DEPTH STEP
~WELL INFORMATION
#MNEM.UNIT      DATA TYPE    INFORMATION
#----------   ------------   ------------------------------
 STRT.F            0.0000:   START DEPTH
 STOP.F          825.0000:   STOP DEPTH
 STEP.F            0.5000:   STEP LENGTH
 NULL.          -999.2500:   NO VALUE
 COMP. BROWN JOHN E&C INC:   COMPANY
 WELL. NAVAL PETROLEUM RESERVE 3 SHX- #21-1-2:   WELL
 FLD .             TEAPOT:   FIELD
 LOC .       S2 T38N R78W:   LOCATION
 CNTY.            NATRONA:   COUNTY
 STAT.            WYOMING:   STATE
 CTRY. UNITED STATES OF AMERICA:   COUNTRY
 SRVC.     Atlas Wireline:   SERVICE COMPANY
 DATE.        11-NOV-1991:   LOGDATE
 API .       490252247600:   API NUMBER
~CURVE INFORMATION
#MNEM.UNIT       API CODE    CURVE DESCRIPTION
#----------   ------------   ------------------------------
 DEPT.F                  :   
 GRR .GAPI   07 310 01 00:   GAMMA RAY
 RFOC.OHMM   07 220 04 00:   RESISTIVITY FOCUSED LOG
 RILD.OHMM   07 120 46 00:   INDUCTION LOG DEEP RESISTIVITY
 RILM.OHMM   07 120 44 00:   INDUCTION LOG MEDIUM RESISTIVITY
 SPR .MV     07 010 01 00:   SPONTANEOUS POTENTIAL
~PARAMETER INFORMATION
#MNEM.UNIT          VALUE    DESCRIPTION
#----------   ------------   ------------------------------
 PD  .                 GL:   PERMANENT DATUM
 EPD .F              5110:   ELEVATION PERMANENT DATUM
 LMF .                 KB:   LOG MEASURED FROM
 DAPD.F                10:   FEET ABOVE PERMANENT DATUM
 DMF .                 KB:   DRILLING MEASURED FROM
 EKB .F              5120:   KELLING BUSHING
 EGL .F              5110:   GROUND LEVEL
 DATE.        11-NOV-1991:   RUN DATE
 RUN .                  1:   RUN NUMBER
 DD  .F               830:   DEPTH DRILLER
 DL  .F               527:   DEPTH LOGGER
 BLI .F               525:   BOTTOM LOG INTERVAL
 CS  .IN            9.625:   CASING SIZE
 CBD .F                58:   CASING BOTTOM DRILLER
 CBL .F                58:   CASING BOTTOM LOGGER
 BS  .IN             8.75:   BIT SIZE
 BSD .F               830:   BIT SIZE AT DEPTH
 DFT .          KCL WATER:   DRILLING FLUID TYPE
 RMS .OHMM          0.248:   RESISTIVITY MUD SAMPLE
 MST .F                93:   MUD SAMPLE TEMPERATURE
 BHT .F               104:   BOTTOM HOLE TEMPERATURE
 TCS .HRS               2:   TIME CURCULATED STOPPED
 MRT .F               104:   MAXIMUM RECORDED TEMPERATURE
 LUN .            HL 6274:   LOGGING UNIT NUMBER
 LUL .             CASPER:   LOGGING UNIT LOCATION
 ENGI.       P. RASMUSSEN:   RECORDING ENGINEER
 WITN.        GARY STRONG:   WITNESSED BY
 CLNT.            A2DTECH:   CLIENT CODE
 ORIG.           5" PRINT:   ORIGIN OF DATA
 UWI .       490252247600:   UNIQUE WELL ID
 DICO. A2D Technologies, Inc.:   DIGITIZING COMPANY
~OTHER INFORMATION
~A    DEPT       GRR     RFOC       RILD       RILM        SPR   
# ...
  732.0000    95.7241     9.6244     9.5858     9.2399   -59.6045
  732.5000    95.4188     9.5174     9.3844     9.1109   -59.6103
  733.0000    94.8142     9.1624     9.1849     9.0461   -59.6162
  733.5000    95.1208     8.9093     9.0593     8.9819   -59.6222
  734.0000    97.4054     8.7839     8.9317     8.8564   -59.4779
  734.5000    98.6891     8.7809     8.7451     8.8225   -59.4851
  735.0000    96.2866     8.7174     8.6818     8.7815   -59.4909
  735.5000    91.1910     8.7145     8.6789     8.5492   -59.4963
  736.0000    87.2930     8.7116     8.6161     8.4298   -59.5026
  736.5000    85.1914     8.7087     8.6132     8.3121   -59.5084
  737.0000    85.4850     8.7050     8.6102     8.2530   -59.5142
  737.5000    86.7265     8.7021     8.6672     8.2513   -59.5202
  738.0000    94.4539     8.6992     8.6636     8.2497   -59.6772
  738.5000    94.7490     8.6363     8.7216     8.2480   -60.1328
  739.0000    92.0471     8.5738     8.5980     8.1837   -60.4384
  739.5000    91.7434     8.5119     8.4769     8.0746   -60.8940
  740.0000    95.6284     8.3920     8.3575     7.9619   -61.0498
  740.5000    97.1198     8.3283     8.2398     7.7965   -60.9055
  741.0000    96.5150     8.2115     8.1801     7.4258   -60.4538
  741.5000    94.7126     8.1463     8.0643     7.0239   -60.0192
  742.0000    95.9031     7.9838     7.9507     6.9258   -61.2244
  742.5000    99.1907     7.7633     7.8387     6.9244   -61.9798
  743.0000   104.5741     7.6012     7.6750     6.9230   -62.1356
  743.5000   105.4680     7.4942     7.5146     6.8263   -62.1414
  744.0000   106.0610     7.3887     7.2564     6.6380   -62.1472
  744.5000   105.4261     7.3353     7.0071     6.4106   -62.1530
  745.0000   106.6468     7.4418     6.3988     5.9802   -62.6187
  745.5000   106.3413     7.4841     4.9526     5.3887   -63.5154
  746.0000   101.2445     7.2768     4.1929     4.6579   -64.1209
  746.5000    98.8435     6.8351     4.1053     3.6036   -64.4266
  747.0000   100.9335     5.7077     4.1039     3.5533   -64.4324
  747.5000   109.9097     3.8195     4.1886     3.7617   -64.1369
  748.0000   115.8919     3.5630     4.2456     4.1366   -63.9940
  748.5000   116.2025     3.6365     4.4243     4.4020   -64.0001
  749.0000   114.0398     4.2056     4.6803     4.7169   -63.8560
  749.5000   110.1845     5.8983     5.1129     5.0544   -63.5619
  750.0000   101.1966     8.0503     5.5541     5.3786   -63.1194
  750.5000   100.8929     7.7203     6.0334     5.8438   -62.6754
  751.0000   102.9814     7.4553     6.7849     6.3935   -62.5299
  751.5000   103.8753     7.4528     7.1689     6.9481   -62.5371
  752.0000   101.1734     7.6066     7.4706     7.2467   -62.6929
  752.5000    99.0718     7.8174     7.5200     7.3906   -62.6987
  753.0000   101.4612     7.8148     7.5174     7.3887   -62.7047
  753.5000   103.6546     7.7582     7.6191     7.4904   -62.7118
  754.0000   104.1441     7.8089     7.7764     7.5937   -62.5662
  754.5000    98.4482     7.9151     7.9370     7.8052   -62.4221
  755.0000    96.6460     8.0784     8.1572     7.7759   -61.9796
  755.5000    97.5384     8.3600     8.0863     7.9902   -61.3857
  756.0000    99.3290     8.3365     8.3086     8.0973   -60.7918
  756.5000   100.5208     8.4471     8.4790     8.3204   -60.7976
  757.0000   100.2115     8.5603     8.5942     8.4907   -61.2326
  757.5000    99.6110     8.6162     8.7694     8.5463   -62.1365
  758.0000   102.5977     8.7911     8.8262     8.7199   -62.7526
  758.5000    98.4003     8.8485     8.8834     8.8393   -62.8959
  759.0000    95.1025     8.9042     9.0092     8.9554   -62.7503
  759.5000    96.5923     9.0232     9.1866     9.0128   -62.4538
  760.0000   101.9757     9.1441     9.3103     9.1325   -62.1583
  760.5000   105.6067     9.3296     9.4369     9.1910   -62.0127
  761.0000   103.1616     9.5202     9.5640     9.2512   -61.8681
  761.5000   100.0781     9.6490     9.6259     9.3740   -62.0225
  762.0000    95.9629     9.8448     9.6871     9.4341   -61.7270
  762.5000    94.1607     9.9779     9.7499     9.4291   -61.2816
  763.0000    94.4543    10.0418     9.8129     9.4895   -60.8362
  763.5000    96.5443    10.0351     9.8081     9.4831   -60.5407
  764.0000    99.2331     9.9586     9.8718     9.5452   -60.3951
  764.5000    98.9279     9.7504     9.9357     9.5388   -60.5505
  765.0000    98.3232     9.8117    10.0001     9.5337   -60.7048
  765.5000    99.5955    10.0135     9.9942     9.4628   -61.1680
  766.0000   105.3015    10.1476    10.0601     9.3923   -61.8111
  766.5000   106.0902    10.2126    10.0542     9.3562   -62.8179
  767.0000   105.7836    10.2057    10.0494     9.3173   -63.5718
  767.5000   103.6820    10.1299    10.0443     9.3112   -64.1759
  768.0000    99.1851    10.1245    10.0396     9.3062   -64.3291
  768.5000    94.6883    10.0491    10.0348     9.2369   -63.5849
  769.0000    94.3831     9.9732    10.0300     9.1687   -62.9896
  769.5000    98.3020     9.8991     9.9550     9.1000   -62.9940
  770.0000   105.7487     9.8256     9.8135     9.0323   -63.1493
  770.5000   103.9450     9.7526     9.6596     8.9031   -63.1537
  771.0000   102.1428     9.5471     9.4706     8.8344   -63.1580
  771.5000   101.2388     9.4108     9.2715     8.7008   -63.0124
  772.0000    99.7360     9.2125     9.1396     8.5849   -63.0168
  772.5000    98.8319     9.0142     8.9475     8.5210   -63.0212
  773.0000    99.7243     8.7058     8.7574     8.3992   -63.0255
  773.5000   105.1077     8.5224     8.5662     8.2791   -63.0465
  774.0000   107.1977     8.4602     8.5111     7.9928   -63.3352
  774.5000   107.1905     8.5735     8.6267     7.8786   -63.6394
  775.0000   105.6877     8.6284     8.6217     7.9291   -63.7936
  775.5000   102.9872     8.5631     8.6785     7.9799   -63.6470
  776.0000   104.4784     8.4409     8.6135     8.0311   -63.2027
  776.5000   105.0729     8.3189     8.5501     8.0257   -62.9072
  777.0000   103.8680     8.2015     8.4285     7.9660   -62.7616
  777.5000   102.6646     8.0835     8.2465     7.7440   -62.9385
  778.0000   102.3433     7.9681     8.0769     7.1222   -63.9708
  778.5000   101.4032     7.9089     7.9071     6.6880   -64.4249
  779.0000   100.8493     7.7960     7.7947     6.6382   -64.2783
  779.5000   100.8443     7.7381     7.7372     6.7272   -64.1338
  780.0000   100.8376     7.6806     7.7873     6.8639   -63.9882
  780.5000   101.1312     7.7835     7.8387     6.9569   -63.8427
  781.0000   102.6224     8.1210     7.8886     7.1477   -63.6971
  781.5000   107.4070     8.4471     7.8848     7.3446   -63.4016
  782.0000   107.3890     8.4426     7.8810     7.2396   -63.5570
  782.5000   100.0499     8.3670     7.8221     7.0869   -63.8612
  783.0000    96.6097     8.2033     7.7644     6.9373   -63.7145
  783.5000    99.5979     8.0304     7.7072     6.8838   -63.2702
  784.0000   106.1789     7.8612     7.6504     6.8343   -62.5249
  784.5000   109.1671     7.8570     7.5417     6.7827   -62.8291
  785.0000   112.1553     7.8491     7.3322     6.7322   -63.4333
  785.5000   115.1435     7.7396     7.0304     6.6360   -63.2876
  786.0000   114.2395     7.7355     6.8826     6.5411   -63.1420
  786.5000   108.6762     7.7313     6.9264     6.6288   -62.5478
  787.0000   104.3462     7.7272     6.9721     6.6715   -62.1024
  787.5000   104.9391     7.7230     7.0172     6.7608   -61.8069
  788.0000   111.2208     7.7735     7.0626     6.7572   -61.8112
  788.5000   113.6102     7.6087     7.0585     6.7496   -61.8156
  789.0000   111.8079     7.6046     7.0065     6.7024   -61.8201
  789.5000   106.4129     7.6533     6.9068     6.5609   -61.9753
  790.0000   105.1698     7.7023     6.7150     6.2903   -61.9797
  790.5000   107.0160     7.8054     6.5231     5.9068   -62.1339
  791.0000   107.9441     7.7464     6.1730     5.5852   -62.4382
  791.5000   110.5798     6.7884     6.0439     5.6211   -62.7424
  792.0000   114.4662     6.3751     6.2100     5.8193   -62.2969
  792.5000   119.5502     6.2841     6.3814     6.0590   -61.8441
