~VERSION INFORMATION
 VERS.                2.0:   CWLS LOG ASCII STANDARD - VERSION 2.0
 WRAP.                 NO:   ONE LINE PER DEPTH STEP
~WELL INFORMATION
#MNEM.UNIT      DATA TYPE    INFORMATION
#----------   ------------   ------------------------------
 STRT.F          534.0000:   START DEPTH
 STOP.F         1847.5000:   STOP DEPTH
 STEP.F            0.5000:   STEP LENGTH
 NULL.          -999.2500:   NO VALUE
 COMP. LAWRENCE/ALLISON INC:   COMPANY
 WELL.      18 SHX #18-27:   WELL
 FLD .             TEAPOT:   FIELD
 LOC .      S27 T39N R78W:   LOCATION
 CNTY.            NATRONA:   COUNTY
 STAT.            WYOMING:   STATE
 CTRY. UNITED STATES OF AMERICA:   COUNTRY
 SRVC.            Unknown:   SERVICE COMPANY
 DATE.        01-MAR-1985:   LOGDATE
 API .       490251102000:   API NUMBER
~CURVE INFORMATION
#MNEM.UNIT       API CODE    CURVE DESCRIPTION
#----------   ------------   ------------------------------
 DEPT.F                  :   
 ROP .MIN/FT 91 810 01 00:   RATE OF DRILLING PENETRATION
 TGAS.UNITS  91 830 01 00:   TOTAL GAS FROM HOTWIRE
~PARAMETER INFORMATION
#MNEM.UNIT          VALUE    DESCRIPTION
#----------   ------------   ------------------------------
 DATE.           3-1-1985:   RUN DATE
 DD  .F              1848:   DEPTH DRILLER
 DL  .F              1825:   DEPTH LOGGER
 TLI .F               535:   TOP LOG INTERVAL
 WITN.  ALBERT C. KRAVATZ:   WITNESSED BY
 CLNT.            A2DTECH:   CLIENT CODE
 ORIG.           5" PRINT:   ORIGIN OF DATA
 UWI .       490251102000:   UNIQUE WELL ID
 DICO. A2D Technologies, Inc.:   DIGITIZING COMPANY
~OTHER INFORMATION
~A   DEPT      ROP       TGAS   
# ...
 1263.0000     1.0091     5.6714
 1263.5000     1.0090     5.6506
 1264.0000     1.0088     5.6297
 1264.5000     1.0086     5.6088
 1265.0000     1.0085     5.5880
 1265.5000     1.0083     5.5671
 1266.0000     1.0081     5.5462
 1266.5000     1.0080     5.5254
 1267.0000     1.0078     5.5045
 1267.5000     1.0077     5.4836
 1268.0000     1.0075     5.4628
 1268.5000     1.0073     5.4419
 1269.0000     1.0072     5.4210
 1269.5000     1.0070     5.4002
 1270.0000     1.0068     5.3793
 1270.5000     1.0067     5.3584
 1271.0000     1.0065     5.3376
 1271.5000     1.0064     5.3167
 1272.0000     1.0062     5.2959
 1272.5000     1.0060     5.2750
 1273.0000     1.0059     5.2541
 1273.5000     1.0057     5.2333
 1274.0000     1.0055     5.2124
 1274.5000     1.0054     5.1915
 1275.0000     1.0052     5.1707
 1275.5000     1.0051     5.1498
 1276.0000     1.0049     5.1289
 1276.5000     1.0047     5.1081
 1277.0000     1.0046     5.0872
 1277.5000     1.0044     5.0663
 1278.0000     1.0042     5.0455
 1278.5000     1.0041     5.0246
 1279.0000     1.0039     5.0038
 1279.5000     1.0038     4.9829
 1280.0000     1.0036     4.9620
 1280.5000     1.0034     4.9412
 1281.0000     1.0033     4.9203
 1281.5000     1.0031     4.8994
 1282.0000     1.0029     4.8786
 1282.5000     1.0028     4.8577
 1283.0000     1.0026     4.8368
 1283.5000     1.0025     4.8160
 1284.0000     1.0023     4.7951
 1284.5000     1.0021     4.7742
 1285.0000     1.0020     4.7534
 1285.5000     1.0018     4.7325
 1286.0000     1.0016     4.7116
 1286.5000     1.0015     4.6908
 1287.0000     1.0013     4.6699
 1287.5000     1.0012     4.6491
 1288.0000     1.0010     4.6282
 1288.5000     1.0008     4.6073
 1289.0000     1.0007     4.5865
 1289.5000     1.0005     4.5656
 1290.0000     1.0003     4.5447
 1290.5000     1.0002     4.5239
 1291.0000     1.0000     4.5030
 1291.5000     0.9999     4.4821
 1292.0000     0.9997     4.4613
 1292.5000     0.9995     4.4404
 1293.0000     0.9994     4.4195
 1293.5000     0.9992     4.3987
 1294.0000     0.9990     4.3778
 1294.5000     0.9989     4.3569
 1295.0000     0.9987     4.3361
 1295.5000     0.9986     4.3152
 1296.0000     0.9984     4.2944
 1296.5000     0.9982     4.2735
 1297.0000     0.9981     4.2526
 1297.5000     0.9979     4.2318
 1298.0000     0.9977     4.2109
 1298.5000     0.9976     4.1900
 1299.0000     0.9974     4.1692
 1299.5000     0.9973     4.1483
 1300.0000     0.9971     4.1342
 1300.5000     0.9969     4.1342
 1301.0000     0.9968     4.1342
 1301.5000     0.9966     4.1343
 1302.0000     0.9964     4.1343
 1302.5000     0.9963     4.1343
 1303.0000     0.9961     4.1344
 1303.5000     0.9960     4.1344
 1304.0000     0.9958     4.1345
 1304.5000     0.9956     4.1345
 1305.0000     0.9955     4.1345
 1305.5000     0.9953     4.1346
 1306.0000     0.9951     4.1346
 1306.5000     0.9950     4.1346
 1307.0000     0.9948     4.1347
 1307.5000     0.9947     4.1347
 1308.0000     0.9945     4.1348
 1308.5000     0.9943     4.1348
 1309.0000     0.9942     4.1348
 1309.5000     0.9940     4.1349
 1310.0000     0.9938     4.1349
 1310.5000     0.9937     4.1349
 1311.0000     0.9935     4.1350
 1311.5000     0.9934     4.1350
 1312.0000     0.9932     4.1351
 1312.5000     0.9930     4.1351
 1313.0000     0.9929     4.1351
 1313.5000     0.9927     4.1352
 1314.0000     0.9925     4.1352
 1314.5000     0.9924     4.1352
 1315.0000     0.9922     4.1353
 1315.5000     0.9921     4.1353
 1316.0000     0.9919     4.1354
 1316.5000     0.9917     4.1354
 1317.0000     0.9916     4.1354
 1317.5000     0.9914     4.1355
 1318.0000     0.9912     4.1355
 1318.5000     0.9911     4.1355
 1319.0000     0.9909     4.1356
 1319.5000     0.9908     4.1356
 1320.0000     0.9906     4.1357
 1320.5000     0.9904     4.1357
 1321.0000     0.9903     4.1357
 1321.5000     0.9901     4.1358
 1322.0000     0.9899     4.1358
 1322.5000     0.9898     4.1358
 1323.0000     0.9896     4.1359
 1323.5000     0.9895     4.1359
 1324.0000     0.9893     4.1360
 1324.5000     0.9891     4.1360
 1325.0000     0.9890     4.1360
 1325.5000     0.9888     4.1361
 1326.0000     0.9886     4.1361
 1326.5000     0.9885     4.1361
 1327.0000     0.9887     4.1362
 1327.5000     0.9890     4.1362
 1328.0000     0.9892     4.1363
 1328.5000     0.9895     4.1363
 1329.0000     0.9897     4.1363
 1329.5000     0.9900     4.1364
 1330.0000     0.9903     4.1364
 1330.5000     0.9905     4.1364
 1331.0000     0.9908     4.1365
 1331.5000     0.9910     4.1365
 1332.0000     0.9913     4.1366
 1332.5000     0.9915     4.1366
 1333.0000     0.9918     4.1366
 1333.5000     0.9921     4.1367
 1334.0000     0.9923     4.1367
 1334.5000     0.9926     4.1367
 1335.0000     0.9928     4.1368
 1335.5000     0.9931     4.1368
 1336.0000     0.9933     4.1369
 1336.5000     0.9936     4.1369
 1337.0000     0.9939     4.1369
 1337.5000     0.9941     4.1370
 1338.0000     0.9944     4.1370
 1338.5000     0.9946     4.1370
 1339.0000     0.9949     4.1371
 1339.5000     0.9951     4.1371
 1340.0000     0.9954     4.1372
 1340.5000     0.9957     4.1372
 1341.0000     0.9959     4.1372
 1341.5000     0.9962     4.1373
 1342.0000     0.9964     4.1373
 1342.5000     0.9967     4.1373
 1343.0000     0.9969     4.1374
 1343.5000     0.9972     4.1374
 1344.0000     0.9975     4.1375
 1344.5000     0.9977     4.1375
 1345.0000     0.9980     4.1375
 1345.5000     0.9982     4.1376
 1346.0000     0.9985     4.1376
 1346.5000     0.9987     4.1376
 1347.0000     0.9990     4.1377
 1347.5000     0.9993     4.1377
 1348.0000     0.9995     4.1378
 1348.5000     0.9998     4.1378
 1349.0000     1.0000     4.1378
 1349.5000     1.0003     4.1379
 1350.0000     1.0006     4.1379
 1350.5000     1.0008     4.1379
 1351.0000     1.0011     4.1380
 1351.5000     1.0013     4.1380
 1352.0000     1.0016     4.1381
 1352.5000     1.0018     4.1381
 1353.0000     1.0021     4.1381
 1353.5000     1.0024     4.1382
 1354.0000     1.0026     4.1382
 1354.5000     1.0029     4.1382
 1355.0000     1.0031     4.1383
 1355.5000     1.0034     4.1383
 1356.0000     1.0036     4.1384
 1356.5000     1.0039     4.1384
 1357.0000     1.0042     4.1384
 1357.5000     1.0044     4.1385
 1358.0000     1.0047     4.1385
 1358.5000     1.0049     4.1385
 1359.0000     1.0052     4.1386
 1359.5000     1.0054     4.1386
 1360.0000     1.0057     4.1386
 1360.5000     1.0060     4.1387
 1361.0000     1.0062     4.1387
 1361.5000     1.0065     4.1388
 1362.0000     1.0067     4.1388
 1362.5000     1.0070     4.1388
 1363.0000     1.0072     4.1389
 1363.5000     1.0075     4.1389
 1364.0000     1.0078     4.1389
 1364.5000     1.0080     4.1390
 1365.0000     1.0083     4.1390
 1365.5000     1.0085     4.1391
 1366.0000     1.0088     4.1391
 1366.5000     1.0090     4.1391
 1367.0000     1.0093     4.1392
 1367.5000     1.0096     4.1392
 1368.0000     1.0098     4.1392
 1368.5000     1.0101     4.1393
 1369.0000     1.0103     4.1393
 1369.5000     1.0106     4.1394
 1370.0000     1.0108     4.1394
 1370.5000     1.0111     4.1394
 1371.0000     1.0114     4.1395
 1371.5000     1.0116     4.1395
 1372.0000     1.0119     4.1395
 1372.5000     1.0121     4.1396
 1373.0000     1.0124     4.1396
 1373.5000     1.0126     4.1397
 1374.0000     1.0129     4.1397
 1374.5000     1.0132     4.1397
 1375.0000     1.0134     4.1398
 1375.5000     1.0137     4.1398
 1376.0000     1.0139     4.1398
 1376.5000     1.0142     4.1399
 1377.0000     1.0145     4.1399
 1377.5000     1.0147     4.1400
 1378.0000     1.0150     4.1400
 1378.5000     1.0152     4.1400
 1379.0000     1.0155     4.1401
 1379.5000     1.0157     4.1401
 1380.0000     1.0160     4.1401
 1380.5000     1.0163     4.1402
 1381.0000     1.0165     4.1402
 1381.5000     1.0168     4.1403
 1382.0000     1.0170     4.1403
 1382.5000     1.0173     4.1403
 1383.0000     1.0175     4.1404
 1383.5000     1.0178     4.1404
 1384.0000     1.0181     4.1404
