~VERSION INFORMATION
 VERS.                2.0:   CWLS LOG ASCII STANDARD - VERSION 2.0
 WRAP.                 NO:   ONE LINE PER DEPTH STEP
~WELL INFORMATION
#MNEM.UNIT      DATA TYPE    INFORMATION
#----------   ------------   ------------------------------
 STRT.F           42.0000:   START DEPTH
 STOP.F          530.5000:   STOP DEPTH
 STEP.F            0.5000:   STEP LENGTH
 NULL.          -999.2500:   NO VALUE
 COMP. LAWRENCE/ALLISON INC:   COMPANY
 WELL. 65-25-1 SX FI #3-3:   WELL
 FLD .              NPR 3:   FIELD
 LOC .       S3 T38N R78W:   LOCATION
 CNTY.            NATRONA:   COUNTY
 STAT.            WYOMING:   STATE
 CTRY. UNITED STATES OF AMERICA:   COUNTRY
 SRVC.       Schlumberger:   SERVICE COMPANY
 DATE.        08-JUL-1982:   LOGDATE
 API .       490251093000:   API NUMBER
~CURVE INFORMATION
#MNEM.UNIT       API CODE    CURVE DESCRIPTION
#----------   ------------   ------------------------------
 DEPT.F                  :   
 GRD .GAPI   45 310 01 00:   GAMMA RAY FROM DENSITY LOG
 CALD.IN     45 280 60 00:   CALIPER
 RHOB.G/C3   45 350 01 00:   BULK DENSITY
 DPHI.DEC    45 890 12 00:   DENSITY POROSITY SANDSTONE
 CORR.G/C3   45 356 01 00:   DENSITY CORRECTION
~PARAMETER INFORMATION
#MNEM.UNIT          VALUE    DESCRIPTION
#----------   ------------   ------------------------------
 PD  .                 GL:   PERMANENT DATUM
 EPD .F              5162:   ELEVATION PERMANENT DATUM
 LMF .                 KB:   LOG MEASURED FROM
 DAPD.F                 9:   FEET ABOVE PERMANENT DATUM
 DMF .                 KB:   DRILLING MEASURED FROM
 EKB .F              5171:   KELLING BUSHING
 EGL .F              5162:   GROUND LEVEL
 DATE.             7-8-82:   RUN DATE
 RUN .                  1:   RUN NUMBER
 DD  .F               531:   DEPTH DRILLER
 DL  .F               533:   DEPTH LOGGER
 BLI .F               530:   BOTTOM LOG INTERVAL
 TLI .F                52:   TOP LOG INTERVAL
 CS  .IN           13.375:   CASING SIZE
 CBD .F                50:   CASING BOTTOM DRILLER
 CBL .F                52:   CASING BOTTOM LOGGER
 BS  .IN            12.25:   BIT SIZE
 BSD .F               531:   BIT SIZE AT DEPTH
 DFT .                AIR:   DRILLING FLUID TYPE
 TCS .HRS            0500:   TIME CURCULATED STOPPED
 TLAB.HRS            0700:   TIME LOGGER AT BOTTOM
 LUL .               CSPR:   LOGGING UNIT LOCATION
 WITN.             TAYLOR:   WITNESSED BY
 CLNT.            A2DTECH:   CLIENT CODE
 ORIG.           5" PRINT:   ORIGIN OF DATA
 UWI .       490251093000:   UNIQUE WELL ID
 DICO. A2D Technologies, Inc.:   DIGITIZING COMPANY
~OTHER INFORMATION
~A   DEPT       GRD      CALD       RHOB       DPHI       CORR   
# ...
  408.0000    68.3093    12.2574     2.4251     0.1564     0.0091
  408.5000    70.3670    12.2574     2.4416     0.1437     0.0344
  409.0000    72.5566    12.2574     2.4562     0.1331     0.0425
  409.5000    72.2907    12.2574     2.4548     0.1331     0.0414
  410.0000    70.9678    12.2574     2.4563     0.1305     0.0337
  410.5000    70.2887    12.2574     2.4712     0.1236     0.0309
  411.0000    70.8910    12.2574     2.4859     0.1168     0.0360
  411.5000    72.0086    12.2574     2.4973     0.1102     0.0439
  412.0000    73.1273    12.2574     2.4968     0.1098     0.0503
  412.5000    73.7568    12.2574     2.4855     0.1180     0.0486
  413.0000    73.5563    12.2574     2.4727     0.1294     0.0356
  413.5000    73.3738    12.2574     2.4482     0.1424     0.0232
  414.0000    73.3667    12.2574     2.4228     0.1556     0.0106
  414.5000    73.9826    12.2574     2.4191     0.1552     0.0055
  415.0000    74.1032    12.2574     2.4372     0.1452     0.0091
  415.5000    72.7719    12.2574     2.4499     0.1379     0.0156
  416.0000    71.5386    12.2574     2.4538     0.1290     0.0250
  416.5000    72.9245    12.2574     2.4663     0.1182     0.0344
  417.0000    74.5097    12.2574     2.4960     0.1086     0.0423
  417.5000    76.0853    12.2574     2.4959     0.1082     0.0358
  418.0000    77.6627    12.2574     2.4695     0.1296     0.0235
  418.5000    78.7795    12.2574     2.4388     0.1428     0.0109
  419.0000    79.6422    12.2574     2.4512     0.1365     0.0113
  419.5000    80.4971    12.2574     2.4663     0.1258     0.0206
  420.0000    81.3578    12.2574     2.4811     0.1174     0.0302
  420.5000    81.0065    12.2574     2.4813     0.1222     0.0311
  421.0000    79.5055    12.2574     2.4641     0.1295     0.0225
  421.5000    78.9173    12.2574     2.4518     0.1347     0.0134
  422.0000    79.0254    12.2574     2.4577     0.1321     0.0139
  422.5000    78.8759    12.2574     2.4687     0.1257     0.0282
  423.0000    77.4539    12.2574     2.4722     0.1230     0.0265
  423.5000    76.1001    12.2574     2.4727     0.1218     0.0203
  424.0000    77.3777    12.2574     2.4753     0.1197     0.0163
  424.5000    82.0851    12.2574     2.4850     0.1128     0.0266
  425.0000    85.7456    12.2574     2.5000     0.1037     0.0385
  425.5000    87.7560    12.2574     2.5135     0.1008     0.0509
  426.0000    87.8153    12.2574     2.5066     0.1031     0.0538
  426.5000    84.2144    12.2574     2.4977     0.1071     0.0472
  427.0000    80.1888    12.2574     2.4910     0.1111     0.0404
  427.5000    76.1761    12.2574     2.4859     0.1163     0.0338
  428.0000    73.5807    12.2574     2.4766     0.1232     0.0271
  428.5000    76.2793    12.2574     2.4652     0.1291     0.0204
  429.0000    79.2966    12.2574     2.4585     0.1312     0.0187
  429.5000    81.1403    12.2574     2.4661     0.1280     0.0186
  430.0000    80.2357    12.2574     2.4762     0.1223     0.0227
  430.5000    78.1615    12.2574     2.4922     0.1123     0.0287
  431.0000    76.4228    12.2574     2.5083     0.1040     0.0377
  431.5000    76.7185    12.2574     2.5239     0.0955     0.0467
  432.0000    79.1004    12.2574     2.5314     0.0906     0.0531
  432.5000    82.2054    12.2574     2.5205     0.0988     0.0457
  433.0000    85.3011    12.2574     2.5067     0.1045     0.0368
  433.5000    87.7821    12.2574     2.4969     0.1066     0.0279
  434.0000    87.6343    12.2574     2.5043     0.1042     0.0283
  434.5000    85.2104    12.2574     2.5040     0.1054     0.0352
  435.0000    83.5216    12.2574     2.4969     0.1080     0.0303
  435.5000    83.8296    12.2574     2.4952     0.1106     0.0265
  436.0000    85.3349    12.2574     2.5014     0.1076     0.0299
  436.5000    88.3193    12.2574     2.5021     0.1042     0.0466
  437.0000    92.5369    12.2574     2.4865     0.1151     0.0595
  437.5000    98.6019    12.2574     2.4595     0.1325     0.0528
  438.0000   104.0265    12.2575     2.4330     0.1500     0.0430
  438.5000   103.7233    12.2541     2.4185     0.1580     0.0330
  439.0000    96.2523    12.2502     2.4386     0.1420     0.0282
  439.5000    87.8131    12.2463     2.4752     0.1251     0.0273
  440.0000    81.7535    12.2423     2.5081     0.1082     0.0269
  440.5000    78.1141    12.2384     2.5194     0.0970     0.0285
  441.0000    78.7231    12.2345     2.5124     0.1011     0.0302
  441.5000    79.6397    12.2306     2.5004     0.1074     0.0255
  442.0000    80.5156    12.2266     2.4882     0.1137     0.0181
  442.5000    82.7998    12.2227     2.4813     0.1163     0.0149
  443.0000    86.0204    12.2187     2.4989     0.1063     0.0257
  443.5000    89.2863    12.2196     2.5190     0.0976     0.0380
  444.0000    90.0516    12.2213     2.5275     0.0946     0.0471
  444.5000    87.3696    12.2232     2.5152     0.0991     0.0380
  445.0000    85.4551    12.2250     2.4995     0.1066     0.0227
  445.5000    83.8739    12.2268     2.4836     0.1140     0.0073
  446.0000    84.2165    12.2286     2.4767     0.1207    -0.0027
  446.5000    86.8448    12.2304     2.4875     0.1122     0.0071
  447.0000    88.6093    12.2322     2.5022     0.1045     0.0230
  447.5000    87.5686    12.2340     2.5181     0.0974     0.0200
  448.0000    86.5617    12.2358     2.5096     0.1041     0.0126
  448.5000    86.2664    12.2376     2.4965     0.1131     0.0050
  449.0000    87.0045    12.2394     2.4892     0.1085     0.0051
  449.5000    88.6961    12.2412     2.5037     0.1040     0.0147
  450.0000    91.2162    12.2430     2.5186     0.1025     0.0235
  450.5000    90.1813    12.2448     2.5171     0.1054     0.0225
  451.0000    87.3275    12.2466     2.4853     0.1115     0.0184
  451.5000    83.9859    12.2484     2.4798     0.1176     0.0145
  452.0000    81.0244    12.2502     2.4865     0.1187     0.0105
  452.5000    80.5115    12.2520     2.4963     0.1092     0.0200
  453.0000    79.9451    12.2538     2.5030     0.1054     0.0312
  453.5000    79.1135    12.2557     2.4874     0.1126     0.0290
  454.0000    78.1192    12.2571     2.4552     0.1272     0.0066
  454.5000    78.0100    12.2512     2.4414     0.1408    -0.0096
  455.0000    78.5409    12.2451     2.4497     0.1391    -0.0102
  455.5000    79.0872    12.2390     2.4610     0.1301     0.0039
  456.0000    79.6217    12.2330     2.4724     0.1231     0.0138
  456.5000    79.8358    12.2270     2.4837     0.1161     0.0130
  457.0000    79.2270    12.2209     2.4951     0.1091     0.0127
  457.5000    79.2102    12.2181     2.5063     0.1021     0.0167
  458.0000    82.0637    12.2181     2.5138     0.1002     0.0211
  458.5000    84.5009    12.2181     2.5076     0.1046     0.0214
  459.0000    83.6731    12.2181     2.4974     0.1100     0.0195
  459.5000    82.3597    12.2181     2.4870     0.1142     0.0176
  460.0000    81.0481    12.2181     2.4858     0.1155     0.0180
  460.5000    80.4894    12.2181     2.4990     0.1082     0.0210
  461.0000    83.1518    12.2181     2.5121     0.1015     0.0248
  461.5000    88.6386    12.2181     2.5254     0.0949     0.0339
  462.0000    92.0851    12.2181     2.5267     0.0894     0.0357
  462.5000    91.0002    12.2183     2.5152     0.0975     0.0251
  463.0000    89.7941    12.2193     2.5030     0.1045     0.0153
  463.5000    88.6662    12.2203     2.4979     0.1061     0.0185
  464.0000    87.2580    12.2212     2.5025     0.1038     0.0231
  464.5000    84.4832    12.2222     2.5024     0.1032     0.0233
  465.0000    81.7086    12.2232     2.4965     0.1068     0.0184
  465.5000    79.7010    12.2241     2.4898     0.1116     0.0136
  466.0000    81.5619    12.2251     2.4823     0.1167     0.0087
  466.5000    86.2238    12.2260     2.4801     0.1159     0.0047
  467.0000    90.5875    12.2270     2.4927     0.1100     0.0093
  467.5000    91.2818    12.2280     2.5099     0.1038     0.0176
  468.0000    90.1950    12.2289     2.5130     0.0997     0.0212
  468.5000    89.9477    12.2299     2.5038     0.1032     0.0177
