~VERSION INFORMATION
 VERS.                2.0:   CWLS LOG ASCII STANDARD - VERSION 2.0
 WRAP.                 NO:   ONE LINE PER DEPTH STEP
~WELL INFORMATION
#MNEM.UNIT      DATA TYPE    INFORMATION
#----------   ------------   ------------------------------
 STRT.F           33.0000:   START DEPTH
 STOP.F          957.0000:   STOP DEPTH
 STEP.F            0.5000:   STEP LENGTH
 NULL.          -999.2500:   NO VALUE
 COMP. TESORO PETROLEUM CORP:   COMPANY
 WELL.  NPR #3 46-S-14 #3:   WELL
 FLD .             TEAPOT:   FIELD
 LOC .      S14 T38N R78W:   LOCATION
 CNTY.            NATRONA:   COUNTY
 STAT.            WYOMING:   STATE
 CTRY. UNITED STATES OF AMERICA:   COUNTRY
 SRVC.       Schlumberger:   SERVICE COMPANY
 DATE.        25-JUN-1970:   LOGDATE
 API .       490251023100:   API NUMBER
~CURVE INFORMATION
#MNEM.UNIT       API CODE    CURVE DESCRIPTION
#----------   ------------   ------------------------------
 DEPT.F                  :   
 SPR .MV     05 010 01 00:   SPONTANEOUS POTENTIAL FROM RES.
 ILD .OHMM   05 120 46 00:   INDUCTION LOG DEEP
 CILD.MMHO   05 110 46 00:   CONDUCTIVITY INDUCTION LOG DEEP
 ASN .OHMM   05 041 16 00:   AMPLIFIED SHORT NORMAL 16"
 GR  .GAPI   30 310 01 00:   GAMMA RAY
 CALD.IN     45 280 60 00:   CALIPER FROM DENSITY LOG
 CORR.G/C3   45 356 01 00:   DENSITY CORRECTION
 DPHI.DEC    45 890 12 00:   DENSITY POROSITY SANDSTONE
 RHOB.G/C3   45 350 01 00:   BULK DENSITY
~PARAMETER INFORMATION
#MNEM.UNIT          VALUE    DESCRIPTION
#----------   ------------   ------------------------------
 PD  .                 GL:   PERMANENT DATUM
 EPD .F              5271:   ELEVATION PERMANENT DATUM
 LMF .                 KB:   LOG MEASURED FROM
 DAPD.F                10:   FEET ABOVE PERMANENT DATUM
 DMF .                 KB:   DRILLING MEASURED FROM
 EKB .F              5281:   KELLING BUSHING
 EDF .F              5280:   DRILLING FLOOR
 EGL .F              5271:   GROUND LEVEL
 DATE.        25-JUN-1970:   RUN DATE
 RUN .                  1:   RUN NUMBER
 DD  .F               950:   DEPTH DRILLER
 DL  .F               958:   DEPTH LOGGER
 BLI .F               957:   BOTTOM LOG INTERVAL
 TLI .F                33:   TOP LOG INTERVAL
 CS  .IN            10.75:   CASING SIZE
 CBD .F                30:   CASING BOTTOM DRILLER
 CBL .F                33:   CASING BOTTOM LOGGER
 BS  .IN                9:   BIT SIZE
 BSD .F               950:   BIT SIZE AT DEPTH
 DFT .         MO-MAR MUD:   DRILLING FLUID TYPE
 DFD .                9.7:   DRILLING FLUID DENSITY
 DFV .                 62:   DRILLING FLUID VISCOSITY
 DFPH.                7.4:   DRILLING FLUID PH
 DFL .                5.6:   DRILLING FLUID LOSS
 MSS .           FLOWLINE:   MUD SAMPLE SOURCE
 RMS .OHMM           1.40:   RESISTIVITY MUD SAMPLE
 MST .F                85:   MUD SAMPLE TEMPERATURE
 RMF .OHMM           0.85:   RESISTIVITY MUD FILTRATE SAMPLE
 MFST.F                87:   MUD FILTRATE SAMPLE TEMPERATURE
 MFSS.               MEAS:   MUD FILTRATE SAMPLE SOURCE
 RMB .OHMM           1.06:   RESISTIVITY MUD AT BHT
 BHT .F               112:   BOTTOM HOLE TEMPERATURE
 TCS .HRS               1:   TIME CURCULATED STOPPED
 MRT .F               112:   MAXIMUM RECORDED TEMPERATURE
 LUN .               7037:   LOGGING UNIT NUMBER
 LUL .                GLT:   LOGGING UNIT LOCATION
 ENGI.           KNOSTMAN:   RECORDING ENGINEER
 WITN.                MAY:   WITNESSED BY
 CLNT.            A2DTECH:   CLIENT CODE
 ORIG.         2.5" PRINT:   ORIGIN OF DATA
 UWI .       490251023100:   UNIQUE WELL ID
 DICO. A2D Technologies, Inc.:   DIGITIZING COMPANY
~OTHER INFORMATION
~A   DEPT       SPR        ILD       CILD       ASN         GR       CALD       CORR       DPHI       RHOB   
# ...
  909.0000   -28.4347     9.6970   106.1086     9.8758    61.8289     9.5032     0.0391     0.1278     2.4466
  909.5000   -27.8179     9.6970   106.0942     9.9247    64.3934     9.5025     0.0340     0.1234     2.4316
  910.0000   -27.8108     9.6970   106.0790     9.9699    66.8073     9.5018     0.0325     0.1245     2.4242
  910.5000   -27.8037     9.6970   105.6658    10.0017    68.8253     9.4546     0.0359     0.1288     2.4269
  911.0000   -27.6359     9.6970   105.0363    10.0589    67.1687     9.3492     0.0413     0.1361     2.4345
  911.5000   -27.4848     9.6970   104.4069    10.1223    64.7590     9.2579     0.0231     0.1410     2.4376
  912.0000   -27.1733     9.6970   103.7774    10.1856    64.2911     9.2572     0.0192     0.1341     2.4408
  912.5000   -27.1657     9.6970   103.0057    10.2490    63.1024     9.2566     0.0338     0.1236     2.4512
  913.0000   -27.1567     9.6970   101.8237    10.3124    60.2410     9.2559     0.0369     0.1161     2.4665
  913.5000   -27.1496     9.6970   101.8237    10.3758    62.9518     9.2855     0.0168     0.1147     2.4618
  914.0000   -27.1429     9.6970   101.8237    10.4392    64.1647     9.3150     0.0122     0.1215     2.4407
  914.5000   -27.1353     9.6970   101.8237    10.4580    67.7711     9.3445     0.0122     0.1282     2.4377
  915.0000   -27.1277     9.6970   101.8237    10.4584    71.6867     9.3439     0.0183     0.1237     2.4504
  915.5000   -27.1201     9.6970   101.8237    10.4587    66.8675     9.3432     0.0214     0.1228     2.4574
  916.0000   -26.9774     9.6970   101.8237    10.4591    65.6506     9.3383     0.0213     0.1277     2.4411
  916.5000   -26.7418     9.6970   101.8237    10.4595    67.1687     9.3116     0.0221     0.1349     2.4347
  917.0000   -26.4884     9.6970   101.8237    10.5192    62.6506     9.3109     0.0310     0.1367     2.4589
  917.5000   -26.4813     9.6970   103.3435    10.6117    64.0060     9.3102     0.0412     0.1201     2.4862
  918.0000   -26.4742     9.6970   103.3435    10.6122    64.1566     9.2793     0.0335     0.1090     2.4762
  918.5000   -26.4666     9.6970   104.4276    10.6125    64.3072     9.2786     0.0212     0.1104     2.4598
  919.0000   -26.4590     9.6970   106.3830    10.4614    64.9096     9.2779     0.0113     0.1191     2.4461
  919.5000   -26.4514     9.6970   108.4499    10.6133    66.8675     9.2773     0.0057     0.1264     2.4560
  920.0000   -26.4438     9.6970   110.0810    10.6136    70.4819     9.2766     0.0155     0.1185     2.4575
  920.5000   -26.4362     9.6970   111.7122    10.4626    72.5904     9.2758     0.0210     0.1155     2.4545
  921.0000   -26.4280     9.6970   112.5837    10.4629    70.9337     9.3054     0.0164     0.1214     2.4515
  921.5000   -26.4209     9.6970   114.2148    10.4633    68.3735     9.3046     0.0148     0.1249     2.4570
  922.0000   -26.4134     9.6970   115.8460    10.4636    67.4699     9.3040     0.0183     0.1191     2.4635
  922.5000   -26.1018     9.6970   117.0213    10.3125    69.8795     9.3033     0.0214     0.1161     2.4651
  923.0000   -26.0942     9.6970   117.0213    10.1388    74.2892     9.3026     0.0240     0.1167     2.4651
  923.5000   -26.0866     9.6177   117.0213    10.0281    72.2892     9.3020     0.0209     0.1161     2.4667
  924.0000   -25.7739     9.5455   117.0213     9.9175    71.6867     9.3013     0.0085     0.1159     2.4652
  924.5000   -25.7668     9.5455   117.0213     9.7989    75.7530     9.3308     0.0039     0.1155     2.4632
  925.0000   -25.4557     9.5455   115.5015     9.7993    75.7530     9.3301     0.0108     0.1155     2.4622
  925.5000   -25.1444     9.5455   115.5015     9.7996    71.5361     9.3294     0.0166     0.1149     2.4637
  926.0000   -25.1368     9.3939   115.5015     9.8000    69.2771     9.3288     0.0169     0.1143     2.4683
  926.5000   -25.1292     9.3939   115.5015     9.8004    78.7651     9.3281     0.0114     0.1137     2.4683
  927.0000   -24.9696     9.3939   115.5015     9.8008    67.0181     9.3274     0.0114     0.1143     2.4683
  927.5000   -24.8087     9.3939   115.5015     9.8012    67.6806     9.3267     0.0176     0.1137     2.4672
  928.0000   -24.8016     9.3939   115.5015     9.8015    69.1265     9.3260     0.0209     0.1185     2.4599
  928.5000   -24.7945     9.3939   115.5015     9.7716    69.5783     9.3253     0.0153     0.1361     2.4532
  929.0000   -24.7872     9.3939   115.5015     9.7416    69.5783     9.3246     0.0254     0.1302     2.4593
  929.5000   -24.7796     9.3939   117.0213     9.7221    78.8256     9.3238     0.0311     0.1188     2.4593
  930.0000   -24.5694     9.2803   117.0213     9.6667  -999.2500     9.3224     0.0112     0.1197     2.4490
  930.5000   -24.4605     9.2424   117.0213     9.6216  -999.2500     9.3190    -0.0012     0.1313     2.4370
  931.0000   -24.4529     9.2424   117.1631     9.5614  -999.2500     9.3156    -0.0061     0.1385     2.4320
  931.5000   -24.4453     9.1799   118.5410     9.5011  -999.2500     9.3122     0.0017     0.1404     2.4276
  932.0000   -24.4373     9.0909   118.5410     9.4409  -999.2500     9.3088     0.0136     0.1299     2.4274
  932.5000   -24.4301     9.0909   119.3515     9.4003  -999.2500     9.3054     0.0172     0.1273     2.4325
  933.0000   -24.4225     9.0909   121.5805     9.3045  -999.2500     9.3020     0.0172     0.1240     2.4401
  933.5000   -24.4149     9.0811   123.1003     9.2300  -999.2500     9.2986     0.0125     0.1215     2.4413
  934.0000   -24.4073     9.0013   124.6201     9.1394  -999.2500     9.2952     0.0079     0.1215     2.4413
  934.5000   -24.3982     8.9394   124.6201     9.0477  -999.2500     9.2918     0.0205     0.1252     2.4443
  935.0000   -24.3911     8.7879   126.5452     8.9520  -999.2500     9.2884     0.0263     0.1243     2.4458
  935.5000   -24.3840     8.7879   127.6596     8.8751  -999.2500     9.2821     0.0247     0.1198     2.4569
  936.0000   -24.3769     8.7879   128.8450     8.7439  -999.2500     9.1348     0.0293     0.1149     2.4701
  936.5000   -24.0653     8.7191   130.6991     8.6262  -999.2500     9.2964     0.0324     0.1191     2.4625
  937.0000   -23.9733     8.5593   130.6991     8.5356  -999.2500     9.3307     0.0185     0.1264     2.4383
  937.5000   -23.7462     8.4848   133.7386     8.4432  -999.2500     9.3444     0.0064     0.1325     2.4247
  938.0000   -23.7386     8.3333   133.7386     8.3475  -999.2500     9.3136     0.0033     0.1304     2.4142
  938.5000   -23.7310     8.1818   135.2584     8.2698  -999.2500     9.3130     0.0215     0.1181     2.4360
  939.0000   -23.7228     8.1818   136.7781     8.1130  -999.2500     9.3124     0.0291     0.1118     2.4529
  939.5000   -23.7157     7.9457   139.8176     8.0224  -999.2500     9.3118     0.0306     0.1094     2.4747
  940.0000   -23.4043     7.8788   142.8571     7.9015  -999.2500     9.3112     0.0310     0.1058     2.4808
  940.5000   -23.3967     7.5758   145.8967     7.7727  -999.2500     9.3106     0.0379     0.1032     2.4778
  941.0000   -23.2708     7.4242   150.5372     7.6061  -999.2500     9.3099     0.0505     0.1021     2.4793
  941.5000   -23.0775     7.1212   160.8923     7.3788  -999.2500     9.3100     0.0509     0.1067     2.4929
  942.0000   -23.0687     6.6515   180.1820     7.1152  -999.2500     9.3108     0.0197     0.1156     2.4692
  942.5000   -23.0616     6.3005   209.4230     6.7216  -999.2500     9.3116     0.0026     0.1331     2.4509
  943.0000   -23.0545     5.7096   227.9635     6.1765  -999.2500     9.3124     0.0012     0.1373     2.4385
  943.5000   -23.0471     5.3258   235.5623     5.7659  -999.2500     9.3132     0.0019     0.1418     2.4249
  944.0000   -22.9719     4.9899   237.0821     5.3899  -999.2500     9.3140     0.0134     0.1515     2.4159
  944.5000   -22.4240     4.5455   235.3999     5.0592  -999.2500     9.3148     0.0226     0.1651     2.3742
  945.0000   -22.4164     4.5455   230.0914     4.9659  -999.2500     9.3156     0.0318     0.1786     2.3631
