~VERSION INFORMATION
 VERS.                2.0:   CWLS LOG ASCII STANDARD - VERSION 2.0
 WRAP.                 NO:   ONE LINE PER DEPTH STEP
~WELL INFORMATION
#MNEM.UNIT      DATA TYPE    INFORMATION
#----------   ------------   ------------------------------
 STRT.F            8.0000:   START DEPTH
 STOP.F          614.0000:   STOP DEPTH
 STEP.F            0.5000:   STEP LENGTH
 NULL.          -999.2500:   NO VALUE
 COMP. FENIX & SCISSON INC:   COMPANY
 WELL.       SX 10 #34-10:   WELL
 FLD .             TEAPOT:   FIELD
 LOC .      S10 T38N R78W:   LOCATION
 CNTY.            NATRONA:   COUNTY
 STAT.            WYOMING:   STATE
 CTRY. UNITED STATES OF AMERICA:   COUNTRY
 SRVC.            Unknown:   SERVICE COMPANY
 DATE.        29-JUN-1992:   LOGDATE
 API .       490251065800:   API NUMBER
~CURVE INFORMATION
#MNEM.UNIT       API CODE    CURVE DESCRIPTION
#----------   ------------   ------------------------------
 DEPT.F                  :   
 SPR .MV     05 010 01 00:   SPONTANEOUS POTENTIAL
 ILD .OHMM   05 120 46 00:   INDUCTION LOG DEEP
 SN  .OHMM   05 040 16 00:   SHORT NORMAL 16"
 GR  .GAPI   30 310 01 00:   GAMMA RAY
~PARAMETER INFORMATION
#MNEM.UNIT          VALUE    DESCRIPTION
#----------   ------------   ------------------------------
 PD  .                 GL:   PERMANENT DATUM
 EPD .F              5244:   ELEVATION PERMANENT DATUM
 LMF .                 KB:   LOG MEASURED FROM
 DMF .                 KB:   DRILLING MEASURED FROM
 EKB .F              5246:   KELLING BUSHING
 EGL .F              5244:   GROUND LEVEL
 DATE.        29-JUN-1992:   RUN DATE
 RUN .                  1:   RUN NUMBER
 DD  .F               620:   DEPTH DRILLER
 DL  .F               381:   DEPTH LOGGER
 BLI .F               381:   BOTTOM LOG INTERVAL
 TLI .F                 8:   TOP LOG INTERVAL
 BS  .IN            7.875:   BIT SIZE
 BSD .F               620:   BIT SIZE AT DEPTH
 DFT .                KCL:   DRILLING FLUID TYPE
 LUN .                509:   LOGGING UNIT NUMBER
 LUL .           GILLETTE:   LOGGING UNIT LOCATION
 ENGI.          O. METORF:   RECORDING ENGINEER
 WITN.         JEFF CLARK:   WITNESSED BY
 CLNT.            A2DTECH:   CLIENT CODE
 ORIG.           5" PRINT:   ORIGIN OF DATA
 UWI .       490251065800:   UNIQUE WELL ID
 DICO. A2D Technologies, Inc.:   DIGITIZING COMPANY
~OTHER INFORMATION
~A    DEPT     SPR        ILD         SN          GR  
    8.0000  -999.2500  -999.2500  -999.2500    56.8012
    8.5000  -999.2500  -999.2500  -999.2500    58.0323
    9.0000  -999.2500  -999.2500  -999.2500    69.0583
    9.5000  -999.2500  -999.2500  -999.2500    76.8311
   10.0000  -999.2500  -999.2500  -999.2500    86.3131
   10.5000  -999.2500  -999.2500  -999.2500    89.9851
   11.0000  -999.2500  -999.2500  -999.2500    86.3976
   11.5000  -999.2500  -999.2500  -999.2500    86.0987
   12.0000  -999.2500  -999.2500  -999.2500    88.4903
   12.5000  -999.2500  -999.2500  -999.2500    90.8819
   13.0000  -999.2500  -999.2500  -999.2500    93.8715
   13.5000  -999.2500  -999.2500  -999.2500    93.2735
   14.0000  -999.2500  -999.2500  -999.2500    93.2735
   14.5000  -999.2500  -999.2500  -999.2500    96.8610
   15.0000  -999.2500  -999.2500  -999.2500   103.1390
   15.5000  -999.2500  -999.2500  -999.2500   106.1747
   16.0000  -999.2500  -999.2500  -999.2500   103.7369
   16.5000  -999.2500  -999.2500  -999.2500   101.0463
   17.0000  -999.2500  -999.2500  -999.2500    98.3558
   17.5000  -999.2500  -999.2500  -999.2500    94.1704
   18.0000  -999.2500  -999.2500  -999.2500    91.7788
   18.5000  -999.2500  -999.2500  -999.2500    99.8505
   19.0000  -999.2500  -999.2500  -999.2500   102.8401
   19.5000  -999.2500  -999.2500  -999.2500   102.2421
   20.0000  -999.2500  -999.2500  -999.2500   102.5411
   20.5000  -999.2500  -999.2500  -999.2500   114.9326
   21.0000  -999.2500  -999.2500  -999.2500   119.5815
   21.5000  -999.2500  -999.2500  -999.2500   117.4888
   22.0000  -999.2500  -999.2500  -999.2500   113.0045
   22.5000  -999.2500  -999.2500  -999.2500    98.0568
   23.0000  -999.2500  -999.2500  -999.2500    90.8272
   23.5000  -999.2500  -999.2500  -999.2500    89.9851
   24.0000  -999.2500  -999.2500  -999.2500    94.4694
   24.5000  -999.2500  -999.2500  -999.2500    99.2526
   25.0000  -999.2500  -999.2500  -999.2500   100.1495
   25.5000  -999.2500  -999.2500  -999.2500   104.1202
   26.0000  -999.2500  -999.2500  -999.2500   111.2108
   26.5000  -999.2500  -999.2500  -999.2500   115.6951
   27.0000  -999.2500  -999.2500  -999.2500   117.4888
   27.5000  -999.2500  -999.2500  -999.2500   112.4066
   28.0000  -999.2500  -999.2500  -999.2500   101.7777
   28.5000  -999.2500  -999.2500  -999.2500    84.3049
   29.0000  -999.2500  -999.2500  -999.2500    76.2332
   29.5000  -999.2500  -999.2500  -999.2500    75.6353
   30.0000  -999.2500  -999.2500  -999.2500    76.8311
   30.5000  -999.2500  -999.2500  -999.2500    76.5145
   31.0000    -2.0761  -999.2500  -999.2500    74.4395
   31.5000    -2.0747  -999.2500  -999.2500    74.1405
   32.0000    -2.2192  -999.2500  -999.2500    76.5321
   32.5000    -2.2107  -999.2500  -999.2500    75.9342
   33.0000    -1.6024  -999.2500  -999.2500    70.8495
   33.5000    -0.5539  -999.2500  -999.2500    75.6353
   34.0000    -6.0848  1986.2286     0.4945    76.8311
   34.5000   -21.5202   386.2348     1.0214    81.0164
   35.0000   -22.8627    84.4669     5.7068    81.9133
   35.5000   -30.8002    61.4684     7.5757    77.7280
   36.0000   -36.4905    44.4239     8.5790    79.2227
   36.5000   -41.4312    30.3791     9.1295    82.8102
   37.0000   -44.8709    21.8042     9.6483    85.2018
   37.5000   -49.9615    17.4790    10.0567    85.2018
   38.0000   -50.8525     8.4613    10.1264    86.0987
   38.5000   -51.5953     7.0213    10.1966    93.5725
   39.0000   -52.6379     6.2002     9.9874    95.0673
   39.5000   -53.5289     5.8263     9.5819    88.4903
   40.0000   -53.8237     5.6025     9.2565    83.1091
   40.5000   -54.1150     5.3999     8.9422    83.0602
   41.0000   -54.1064     5.3627     8.7587    86.5248
   41.5000   -54.0996     5.3627     8.5790    89.9851
   42.0000   -54.5425     5.3999     8.3452    90.8819
   42.5000   -55.8833     5.3999     8.3452    92.3767
   43.0000   -55.7265     5.4374     8.1740    94.1704
   43.5000   -55.8679     5.5130     8.0618    94.0982
   44.0000   -57.2104     5.6675     7.9511    95.0673
   44.5000   -57.5051     5.6675     7.3692    97.1599
   45.0000   -57.7947     5.6675     6.9249    99.2526
   45.5000   -58.3875     5.6675     6.7362   100.7474
   46.0000   -59.2785     5.6675     6.5074   103.4673
   46.5000   -66.3182     5.6675     6.2431   112.4066
   47.0000   -67.3591     5.6675     6.1151   109.1181
   47.5000   -67.6555     5.5897     5.9896   108.5202
   48.0000   -67.6453     5.5513     5.9484   107.3244
   48.5000   -67.4868     5.5130     5.9484   103.9651
   49.0000   -67.3300     5.5130     5.9896    99.5516
   49.5000   -67.3232     5.5130     5.9896    97.4589
   50.0000   -67.1548     5.5130     6.0674    99.6425
   50.5000   -67.8694     5.5288     6.2849   101.0353
   51.0000   -67.7210     5.5478     6.4597    94.7436
   51.5000   -67.6722     5.5081     6.6854    96.8610
   52.0000   -67.5736     5.5066     6.8240    97.4121
   52.5000   -67.5754     5.5053     6.8703    97.1022
   53.0000   -67.5766     5.6191     7.0125   100.1016
   53.5000   -67.5782     5.6569     7.0107   102.7548
   54.0000   -67.5800     5.6942     7.0586   107.2281
   54.5000   -67.6312     5.8123     7.1061   109.6087
   55.0000   -67.7329     5.8506     7.1539   107.5023
   55.5000   -67.8848     5.8487     7.1518   106.2955
   56.0000   -67.8859     5.8471     7.1011   103.8901
   56.5000   -67.8875     5.8865     7.0997   102.3870
   57.0000   -67.9388     5.8845     7.1478   107.1565
   57.5000   -68.0404     5.9241     7.1956   107.4445
   58.0000   -68.0422     5.9636     7.1938   106.8328
   58.5000   -68.2707     6.0033     7.2429   105.0281
   59.0000   -68.2206     6.0009     7.2407   105.0144
   59.5000   -67.9699     5.8762     7.1894   104.1065
   60.0000   -67.8195     5.7940     7.0893   103.7965
   60.5000   -67.8195     5.7925     7.0391   105.5765
   61.0000   -67.8195     5.7909     7.0377   105.8672
   61.5000   -67.8195     5.7890     7.0359   106.1525
   62.0000   -67.8195     5.7874     6.9861   104.3449
   62.5000   -67.6692     5.7859     6.9366   101.9423
   63.0000   -67.3684     5.8252     6.9352   105.2315
   63.5000   -67.1679     5.8229     6.9338   107.0025
   64.0000   -66.9173     5.8213     6.8847   106.6898
   64.5000   -66.6165     5.8197     6.8833   104.2552
   65.0000   -66.5664     5.8585     6.8819    99.1912
   65.5000   -66.3158     5.8569     6.8802    98.2833
   66.0000   -66.1654     5.8684     6.8788    97.3755
   66.5000   -66.0150     5.8800     6.9258   104.5366
   67.0000   -65.8647     5.8915     6.9724   102.1339
   67.5000   -65.6672     5.9031     7.0190    99.4296
   68.0000   -65.5172     5.9146     7.0172    98.5245
   68.5000   -65.0675     5.9285     7.0158    99.4076
   69.0000   -64.9175     5.9269     7.0144    98.7959
   69.5000   -64.9175     5.8436     7.0126    97.5891
   70.0000   -64.9175     5.8018     7.0112    96.0833
   70.5000   -64.7676     5.8003     7.0098    97.5644
   71.0000   -64.7676     5.7987     7.0084   102.0377
   71.5000   -64.9175     5.7972     7.0070   104.4183
   72.0000   -64.9175     5.7956     7.0056   104.4045
   72.5000   -64.9175     5.7941     7.0531   101.1050
   73.0000   -64.7676     5.8331     7.1498    93.9191
   73.5000   -64.3178     5.7906     7.1979    97.1966
   74.0000   -63.8681     5.6702     7.1957    93.2965
   74.5000   -63.8681     5.6297     7.1943    92.3886
   75.0000   -64.0180     5.6282     7.1928    95.9623
   75.5000   -64.3178     5.6267     7.0927    96.2530
   76.0000   -64.4678     5.6252     6.9940    96.5462
   76.5000   -63.8681     5.6237     6.9444    98.6171
   77.0000   -63.2684     5.5834     6.8952   100.7015
   77.5000   -63.2684     5.5431     6.8460    98.2759
   78.0000   -63.2684     5.5416     6.8921    95.8908
   78.5000   -63.1184     5.5020     6.8907    94.6839
   79.0000   -62.8186     5.5005     6.8893    94.5322
   79.5000   -62.8186     5.4991     6.8405    97.5741
   80.0000   -62.9685     5.4976     6.8391   102.0078
   80.5000   -62.8186     5.4961     6.8377   105.5977
