~VERSION INFORMATION
 VERS.                2.0:   CWLS LOG ASCII STANDARD - VERSION 2.0
 WRAP.                 NO:   ONE LINE PER DEPTH STEP
~WELL INFORMATION
#MNEM.UNIT      DATA TYPE    INFORMATION
#----------   ------------   ------------------------------
 STRT.F           34.0000:   START DEPTH
 STOP.F          638.0000:   STOP DEPTH
 STEP.F            0.5000:   STEP LENGTH
 NULL.          -999.2500:   NO VALUE
 COMP. FENIX & SCISSON INC:   COMPANY
 WELL. S N.P.R. #3 #33-34:   WELL
 FLD .             TEAPOT:   FIELD
 LOC .      S34 T39N R78W:   LOCATION
 CNTY.            NATRONA:   COUNTY
 STAT.            WYOMING:   STATE
 CTRY. UNITED STATES OF AMERICA:   COUNTRY
 SRVC.       Schlumberger:   SERVICE COMPANY
 DATE.        18-MAR-1977:   LOGDATE
 API .       490251030400:   API NUMBER
~CURVE INFORMATION
#MNEM.UNIT       API CODE    CURVE DESCRIPTION
#----------   ------------   ------------------------------
 DEPT.F                  :   
 LL8 .OHMM   07 220 08 00:   LATEROLOG-8 RES.
 ILD .OHMM   07 120 46 00:   INDUCTION LOG DEEP
 ILM .OHMM   07 120 44 00:   INDUCTION LOG MEDIUM
 SPR .MV     07 010 01 00:   SPONTANEOUS POTENTIAL
 GRD .GAPI   45 310 01 00:   GAMMA RAY FROM DENSITY LOG
 CALD.IN     45 280 60 00:   CALIPER FROM DENSITY LOG
 RHOB.G/C3   45 350 01 00:   BULK DENSITY
 CORR.G/C3   45 356 01 00:   DENSITY CORRECTION
 DPHI.DEC    45 890 12 00:   DENSITY POROSITY SANDSTONE
~PARAMETER INFORMATION
#MNEM.UNIT          VALUE    DESCRIPTION
#----------   ------------   ------------------------------
 PD  .                 GL:   PERMANENT DATUM
 EPD .F              5081:   ELEVATION PERMANENT DATUM
 LMF .                 KB:   LOG MEASURED FROM
 DAPD.F                 5:   FEET ABOVE PERMANENT DATUM
 DMF .                 KB:   DRILLING MEASURED FROM
 EKB .F              5086:   KELLING BUSHING
 EGL .F              5081:   GROUND LEVEL
 DATE.            3-18-77:   RUN DATE
 RUN .                  1:   RUN NUMBER
 DD  .F               631:   DEPTH DRILLER
 DL  .F               637:   DEPTH LOGGER
 BLI .F               631:   BOTTOM LOG INTERVAL
 TLI .F                45:   TOP LOG INTERVAL
 CS  .IN            8.625:   CASING SIZE
 CBD .F                40:   CASING BOTTOM DRILLER
 CBL .F                45:   CASING BOTTOM LOGGER
 BS  .IN            7.875:   BIT SIZE
 BSD .F               631:   BIT SIZE AT DEPTH
 DFT .            KCL MUD:   DRILLING FLUID TYPE
 DFD .                8.7:   DRILLING FLUID DENSITY
 DFV .                 31:   DRILLING FLUID VISCOSITY
 DFPH.                  8:   DRILLING FLUID PH
 DFL .                8.2:   DRILLING FLUID LOSS
 MSS .                PIT:   MUD SAMPLE SOURCE
 RMS .OHMM            .27:   RESISTIVITY MUD SAMPLE
 MST .F                60:   MUD SAMPLE TEMPERATURE
 RMF .OHMM            .25:   RESISTIVITY MUD FILTRATE SAMPLE
 MFST.F                60:   MUD FILTRATE SAMPLE TEMPERATURE
 MFSS.                  M:   MUD FILTRATE SAMPLE SOURCE
 TCS .HRS            0400:   TIME CURCULATED STOPPED
 TLAB.HRS            0530:   TIME LOGGER AT BOTTOM
 LUN .               7711:   LOGGING UNIT NUMBER
 LUL .               CSPR:   LOGGING UNIT LOCATION
 ENGI.             SAYLER:   RECORDING ENGINEER
 WITN.         STUEBINGER:   WITNESSED BY
 CLNT.            A2DTECH:   CLIENT CODE
 ORIG.        2" 5" PRINT:   ORIGIN OF DATA
 UWI .       490251030400:   UNIQUE WELL ID
 DICO. A2D Technologies, Inc.:   DIGITIZING COMPANY
~OTHER INFORMATION
~A   DEPT      LL8        ILD        ILM        SPR         GRD      CALD       RHOB       CORR       DPHI   
# ...
  581.5000    11.9535    13.0321    12.6718   -37.9651    76.9293     7.9970     2.4227     0.0134     0.1370
  582.0000    11.8768    12.9176    12.4362   -37.6930    77.5237     7.9943     2.4195     0.0089     0.1394
  582.5000    11.7143    12.5829    12.1135   -37.1243    78.1033     7.9915     2.4180     0.0125     0.1394
  583.0000    11.1883    12.2569    11.7992   -35.9389    77.9084     7.9887     2.4130     0.0170     0.1426
  583.5000    10.3572    11.9393    11.4934   -34.6251    77.6671     7.9859     2.4031     0.0162     0.1460
  584.0000     9.5602    11.6300    11.1956   -33.3157    77.4309     7.9832     2.3844     0.0171     0.1553
  584.5000     8.8256    11.3287    10.9342   -31.9995    77.2149     7.9804     2.3653     0.0264     0.1671
  585.0000     8.0627    11.2037    10.8791   -30.6320    75.8586     7.9797     2.3529     0.0512     0.1790
  585.5000     8.0744    11.1524    10.8292   -30.6819    74.2169     7.9899     2.3457     0.0881     0.1868
  586.0000     8.8209    11.1012    10.7796   -31.3532    72.5760     7.9998     2.3382     0.1251     0.1924
  586.5000     9.5594    11.0504    10.7302   -32.4152    71.2508     8.0098     2.3180     0.1299     0.2017
  587.0000    10.0664    10.9997    10.6810   -33.8634    72.9972     8.0231     2.2810     0.0313     0.2114
  587.5000    10.1600    10.9493    10.6321   -35.3093    75.2815     8.0520     2.3192     0.0271     0.2106
  588.0000    10.1386    10.8991    10.5833   -36.7567    77.5852     8.0803     2.3841     0.0250     0.1718
  588.5000    10.1181    10.8342    10.5397   -38.2340    79.8925     8.0949     2.3986     0.0203     0.1522
  589.0000    10.0967    10.8610    10.5807   -38.9997    81.5288     8.0880     2.4094     0.0156     0.1488
  589.5000    10.0750    10.8995    10.6183   -39.3396    82.7652     8.0814     2.4125     0.0175     0.1449
  590.0000    10.0535    10.9381    10.6559   -39.6704    82.9027     8.0747     2.4176     0.0304     0.1410
  590.5000    10.0320    10.9768    10.6938   -40.0000    83.0607     8.0680     2.4259     0.0433     0.1346
  591.0000    10.0100    11.0157    10.7353   -40.3290    83.2213     8.0617     2.4335     0.0518     0.1298
  591.5000     9.9909    11.0351    10.6037   -40.6636    83.3818     8.0867     2.4265     0.0573     0.1365
  592.0000     9.9723    10.7856    10.4188   -40.9614    83.5408     8.1767     2.4147     0.0585     0.1448
  592.5000     9.7951    10.5975    10.2371   -41.4806    83.7134     8.3089     2.4072     0.0312     0.1506
  593.0000     9.6156    10.4127    10.0586   -41.9838    84.1737     8.0812     2.4147     0.0267     0.1422
  593.5000     9.3526    10.2311     9.8831   -42.4852    84.6324     8.0069     2.4239     0.0220     0.1362
  594.0000     9.3536    10.0527     9.7108   -42.9876    84.7214     8.0035     2.4284     0.0172     0.1342
  594.5000     9.1741     9.8773     9.5414   -43.4898    84.8206     8.0106     2.4321     0.0155     0.1337
  595.0000     9.0153     9.7051     9.3750   -43.9921    85.5480     8.0176     2.4264     0.0176     0.1366
  595.5000     8.8591     9.5358     9.2115   -44.4944    85.9789     8.0245     2.4198     0.0223     0.1394
  596.0000     8.7055     9.3531     8.9866   -44.9967    85.4572     8.0314     2.4236     0.0149     0.1384
  596.5000     8.5544     9.0114     8.6226   -45.4989    85.2146     8.0378     2.4274     0.0107     0.1346
  597.0000     8.4060     8.6108     8.2848   -46.0012    85.8113     8.0392     2.4295     0.0119     0.1349
  597.5000     8.2602     8.1526     7.8991   -46.5035    86.3878     8.0405     2.4283     0.0129     0.1350
  598.0000     8.1169     7.6721     7.3419   -47.0057    86.8878     8.0418     2.4279     0.0128     0.1318
  598.5000     7.9456     7.2200     6.8239   -47.5080    88.1252     8.0431     2.4337     0.0098     0.1310
  599.0000     7.7652     6.7944     6.3425   -48.0105    90.1092     8.0444     2.4313     0.0060     0.1330
  599.5000     7.2325     6.3940     5.8951   -48.5144    92.9846     8.0457     2.4175     0.0024     0.1444
  600.0000     6.0214     6.0171     5.4792   -49.0176    97.3002     8.0470     2.4053     0.0048     0.1518
  600.5000     5.0131     5.8540     5.4391   -49.5096   101.2941     8.0483     2.4022     0.0134     0.1500
  601.0000     4.0404     5.8514     6.1243   -49.4867   103.7584     8.0496     2.4018     0.0205     0.1498
  601.5000     4.5690     5.9071     6.7109   -48.4134   106.0673     8.0509     2.3919     0.0242     0.1591
  602.0000     7.0059     6.0692     7.2982   -47.3739   106.1993     8.0522     2.3823     0.0244     0.1630
  602.5000     9.6235     6.3036     7.7275   -46.3385   100.4060     8.0535     2.3890     0.0187     0.1576
  603.0000     9.6144     6.7533     8.1463   -45.3724    93.7065     8.0548     2.4042     0.0130     0.1451
  603.5000     9.1307     7.2329     8.4948   -44.6107    87.2277     8.0562     2.4406     0.0198     0.1291
  604.0000     8.8168     7.7466     8.7508   -43.8877    84.0894     8.0579     2.4549     0.0301     0.1170
  604.5000     8.5320     8.2967     9.0145   -43.1754    82.5454     8.0408     2.4602     0.0355     0.1141
  605.0000     8.7876     8.8514     9.2861   -42.5989    83.7169     8.0213     2.4655     0.0355     0.1112
  605.5000     9.0333     9.1696     9.5660   -42.7313    85.0648     7.9997     2.4709     0.0355     0.1083
  606.0000     9.2864     9.4813     9.8543   -42.9639    85.7011     8.0877     2.4668     0.0348     0.1099
  606.5000     9.5473     9.8036    10.1512   -43.2000    86.3493     8.1348     2.4600     0.0317     0.1174
  607.0000     9.8153    10.1368    10.4572   -43.1445    87.6629     8.1336     2.4531     0.0285     0.1201
  607.5000    10.0908    10.4814    10.7723   -42.8752    88.9584     8.1314     2.4477     0.0255     0.1218
  608.0000    10.3741    10.5397    11.0969   -42.6158    90.2256     8.1290     2.4559     0.0287     0.1186
  608.5000    10.6582    10.5397    11.4313   -42.3571    91.4461     8.1268     2.4654     0.0365     0.1159
  609.0000    10.9405    10.1492    11.7682   -42.0897    90.3669     8.1245     2.4729     0.0440     0.1131
  609.5000    11.3420     9.6954    11.8768   -42.0546    89.3012     8.1223     2.4734     0.0514     0.1126
  610.0000    11.3356     9.2620    11.8273   -42.1184    89.0699     8.1201     2.4642     0.0548     0.1137
  610.5000    11.3226     8.8514    11.7868   -42.1851    88.8457     8.1179     2.4518     0.0433     0.1199
  611.0000    11.3097     9.2072    11.7464   -42.2516    87.7315     8.1114     2.4393     0.0180     0.1306
  611.5000    11.2967     9.6676    11.7062   -42.3179    86.5176     8.1038     2.4322     0.0192     0.1326
  612.0000    11.2838    10.1510    11.6661   -42.3841    86.7369     8.0962     2.4415     0.0329     0.1233
  612.5000    11.2709    10.6585    11.6262   -42.4504    87.3502     8.0886     2.4519     0.0416     0.1178
  613.0000    11.2580    11.1914    11.5863   -42.5165    87.0816     8.0810     2.4535     0.0370     0.1198
  613.5000    11.2398    11.7510    11.5539   -42.5825    86.5643     8.0786     2.4489     0.0258     0.1222
  614.0000    11.3352    11.9621    11.6849   -42.6156    86.0402     8.0804     2.4444     0.0148     0.1256
  614.5000    11.5014    12.0720    11.7968   -42.6158    85.3184     8.0822     2.4398     0.0053     0.1292
  615.0000    11.6700    12.1829    11.9098   -42.6159    83.9844     8.0841     2.4357     0.0009     0.1311
  615.5000    11.8411    12.2949    12.0238   -42.6158    81.6668     8.0859     2.4329    -0.0025     0.1320
  616.0000    11.9864    12.4352    12.0909   -42.6150    79.2940     8.0878     2.4298     0.0005     0.1326
  616.5000    11.8486    12.3920    11.9945   -42.6171    76.8847     8.0896     2.4267     0.0035     0.1352
  617.0000    11.7069    12.3214    12.0296   -42.7912    77.7689     8.0915     2.4235     0.0064     0.1366
  617.5000    11.5668    12.4195    12.1525   -42.9868    77.2676     8.0933     2.4229     0.0092     0.1342
