~VERSION INFORMATION
 VERS.                2.0:   CWLS LOG ASCII STANDARD - VERSION 2.0
 WRAP.                 NO:   ONE LINE PER DEPTH STEP
~WELL INFORMATION
#MNEM.UNIT      DATA TYPE    INFORMATION
#----------   ------------   ------------------------------
 STRT.F            4.0000:   START DEPTH
 STOP.F          747.0000:   STOP DEPTH
 STEP.F            0.5000:   STEP LENGTH
 NULL.          -999.2500:   NO VALUE
 COMP.          U.S. NAVY:   COMPANY
 WELL. RES 3 TEAPOT DOM #61S-34:   WELL
 FLD .        TRAPOT DOME:   FIELD
 LOC .      S34 T39N R78W:   LOCATION
 CNTY.            NATRONA:   COUNTY
 STAT.            WYOMING:   STATE
 CTRY. UNITED STATES OF AMERICA:   COUNTRY
 SRVC.      NL McCullough:   SERVICE COMPANY
 DATE.        11-AUG-1961:   LOGDATE
 API .       490250656900:   API NUMBER
~CURVE INFORMATION
#MNEM.UNIT       API CODE    CURVE DESCRIPTION
#----------   ------------   ------------------------------
 DEPT.F                  :   
 GRN .GAPI   35 310 30 00:   GAMMA RAY
 NEUT.NAPI   35 330 22 00:   NEUTRON POROSITY
~PARAMETER INFORMATION
#MNEM.UNIT          VALUE    DESCRIPTION
#----------   ------------   ------------------------------
 PD  .                 GL:   PERMANENT DATUM
 EPD .F              5043:   ELEVATION PERMANENT DATUM
 LMF .                 KB:   LOG MEASURED FROM
 DAPD.F                 5:   FEET ABOVE PERMANENT DATUM
 DMF .                 KB:   DRILLING MEASURED FROM
 EKB .F              5048:   KELLING BUSHING
 EGL .F              5043:   GROUND LEVEL
 DATE.        11-AUG-1961:   RUN DATE
 RUN .                  1:   RUN NUMBER
 DD  .F               750:   DEPTH DRILLER
 DL  .F             748.5:   DEPTH LOGGER
 BLI .F               747:   BOTTOM LOG INTERVAL
 TLI .F                 0:   TOP LOG INTERVAL
 BS  .IN            7.875:   BIT SIZE
 BSD .F               750:   BIT SIZE AT DEPTH
 DFT .       OIL EMULSION:   DRILLING FLUID TYPE
 DFD .                9.5:   DRILLING FLUID DENSITY
 ENGI.            JACKSON:   RECORDING ENGINEER
 WITN.          JORGENSON:   WITNESSED BY
 CLNT.            A2DTECH:   CLIENT CODE
 ORIG.        2" 5" PRINT:   ORIGIN OF DATA
 UWI .       490250656900:   UNIQUE WELL ID
 DICO. A2D Technologies, Inc.:   DIGITIZING COMPANY
~OTHER INFORMATION
~A    DEPT       GRN     NEUT   
# ...
  368.5000     7.6392   461.0310
  369.0000     7.6471   457.2459
  369.5000     7.5942   436.4087
  370.0000     7.4046   414.8522
  370.5000     7.2355   414.8522
  371.0000     7.1623   414.0952
  371.5000     7.1426   412.5811
  372.0000     7.1491   407.9181
  372.5000     7.2004   400.1467
  373.0000     7.2043   398.7754
  373.5000     7.1227   422.5440
  374.0000     6.8521   436.0594
  374.5000     6.8446   437.5631
  375.0000     6.8523   437.5631
  375.5000     6.9254   437.5631
  376.0000     7.0305   434.5450
  376.5000     7.0352   429.7314
  377.0000     7.0192   426.9647
  377.5000     7.0193   426.2076
  378.0000     7.0194   426.9647
  378.5000     7.0270   429.0881
  379.0000     7.0116   434.7039
  379.5000     6.9333   429.9928
  380.0000     6.8338   407.9899
  380.5000     6.8077   385.6829
  381.0000     6.8038   379.2718
  381.5000     6.7904   378.2637
  382.0000     6.7624   379.2718
  382.5000     6.7110   388.9245
  383.0000     6.7020   402.4032
  383.5000     6.7245   417.1233
  384.0000     6.8509   430.9633
  384.5000     6.9674   439.8342
  385.0000     7.0957   439.8342
  385.5000     7.2248   440.0650
  386.0000     7.2706   441.3482
  386.5000     7.1547   446.4517
  387.0000     7.1038   460.6600
  387.5000     7.0915   459.5170
  388.0000     7.0815   452.2906
  388.5000     7.0967   437.4835
  389.0000     7.1320   435.2920
  389.5000     7.1667   435.5027
  390.0000     7.3849   439.8342
  390.5000     7.4260   463.2360
  391.0000     7.4305   472.3865
  391.5000     7.4305   472.3865
  392.0000     7.4283   472.9719
  392.5000     7.4231   478.5064
  393.0000     7.4359   489.3510
  393.5000     7.4611   496.6166
  394.0000     7.3627   501.1536
  394.5000     7.3173   496.6496
  395.0000     7.3255   479.7077
  395.5000     7.3402   458.0029
  396.0000     7.3627   453.9452
  396.5000     7.3934   451.9467
  397.0000     7.3805   432.3705
  397.5000     7.3193   422.3278
  398.0000     7.2724   408.0389
  398.5000     7.2326   404.6562
  399.0000     7.1880   402.6714
  399.5000     7.1590   400.4686
  400.0000     7.0939   404.8351
  400.5000     7.0144   433.4331
  401.0000     6.9349   463.3176
  401.5000     6.8555   465.2602
  402.0000     6.8605   465.6026
  402.5000     6.9171   464.0978
  403.0000     7.0700   463.0093
  403.5000     7.0990   462.5977
  404.0000     7.0915   462.6070
  404.5000     7.0716   463.1230
  405.0000     7.0235   464.8920
  405.5000     6.8845   465.6564
  406.0000     6.7945   460.8615
  406.5000     6.7434   444.4747
  407.0000     6.7394   444.4823
  407.5000     6.7594   444.4898
  408.0000     6.7815   444.4987
  408.5000     6.7687   446.1174
  409.0000     6.7286   451.3954
  409.5000     6.6434   470.6060
  410.0000     6.4106   483.7419
  410.5000     6.4031   482.3873
  411.0000     6.3919   477.0952
  411.5000     6.3729   478.9723
  412.0000     6.3730   484.6816
  412.5000     6.3864   494.3406
  413.0000     6.4263   503.1470
  413.5000     6.4709   512.7149
  414.0000     6.4870   513.4781
  414.5000     6.4946   512.7288
  415.0000     6.5218   508.7491
  415.5000     6.6182   502.6046
  416.0000     6.6388   502.0216
  416.5000     6.6464   505.7488
  417.0000     6.6465   526.3890
  417.5000     6.6466   544.5706
  418.0000     6.6153   544.8391
  418.5000     6.5104   549.1266
  419.0000     6.3160   562.2164
  419.5000     6.1516   583.7054
  420.0000     6.0409   590.7865
  420.5000     6.0258   588.9083
  421.0000     6.0183   583.7005
  421.5000     6.0184   580.2113
  422.0000     6.0356   579.4608
  422.5000     6.1474   579.4683
  423.0000     6.3226   579.4758
  423.5000     6.4656   579.6929
  424.0000     6.5415   580.2484
  424.5000     6.5926   577.0616
  425.0000     6.6326   565.3752
  425.5000     6.6175   562.1030
  426.0000     6.5770   562.1096
  426.5000     6.5040   566.2886
  427.0000     6.4044   582.5660
  427.5000     6.3055   614.6569
  428.0000     6.3073   625.7306
  428.5000     6.3559   626.4949
  429.0000     6.4167   624.4938
  429.5000     6.5272   609.0991
  430.0000     6.4528   594.7721
  430.5000     6.4137   565.0861
  431.0000     6.3816   550.0741
  431.5000     6.3760   546.7823
  432.0000     6.3533   546.3029
  432.5000     6.2042   546.7772
  433.0000     6.0735   547.0739
  433.5000     6.0202   543.2980
  434.0000     6.0292   525.4996
  434.5000     6.1798   523.4230
  435.0000     6.1947   518.3392
  435.5000     6.1863   510.0559
  436.0000     6.1151   491.5736
  436.5000     6.0263   480.2721
  437.0000     5.9829   477.5950
  437.5000     5.9940   474.4687
  438.0000     6.0064   472.9618
  438.5000     6.0080   488.1091
  439.0000     5.9132   472.2208
  439.5000     5.7484   461.4898
  440.0000     5.7167   462.3914
  440.5000     5.7107   478.3003
  441.0000     5.7335   479.0634
  441.5000     5.7861   479.0712
  442.0000     5.8271   476.2321
  442.5000     5.8701   471.4525
  443.0000     5.8985   464.7109
  443.5000     5.9233   456.2074
  444.0000     5.9499   446.9099
  444.5000     6.0810   442.0232
  445.0000     6.2189   443.6955
  445.5000     6.2571   466.2621
  446.0000     6.2645   464.5638
  446.5000     6.2646   463.0548
  447.0000     6.2753   460.9861
  447.5000     6.2803   458.6968
  448.0000     6.3001   456.2364
  448.5000     6.3222   454.1961
  449.0000     6.2802   453.1377
  449.5000     6.0279   453.4808
  450.0000     5.9684   455.2270
  450.5000     5.9774   463.0919
  451.0000     6.0774   477.7011
  451.5000     6.3044   470.4668
  452.0000     6.2276   456.1449
  452.5000     6.1828   449.7143
  453.0000     6.1595   450.0591
  453.5000     6.1596   453.5107
  454.0000     6.1822   467.1492
  454.5000     6.3946   467.1477
  455.0000     6.4799   460.3498
  455.5000     6.5008   439.5154
  456.0000     6.5085   425.1984
  456.5000     6.5136   420.2505
  457.0000     6.5314   420.2574
  457.5000     6.5359   421.1104
  458.0000     6.5391   424.8159
  458.5000     6.4937   428.8927
  459.0000     6.4263   430.1489
  459.5000     6.4105   436.0561
  460.0000     6.4561   444.3259
  460.5000     6.6047   464.2186
  461.0000     6.7062   463.4686
  461.5000     6.7838   463.4762
  462.0000     6.7897   463.4848
  462.5000     6.7822   462.7343
  463.0000     6.7861   460.9805
  463.5000     6.8585   451.3955
  464.0000     6.9415   440.6316
  464.5000     7.0030   430.2126
  465.0000     7.1386   430.2199
  465.5000     7.1067   432.0392
  466.0000     7.0589   434.0210
  466.5000     7.0480   436.9903
  467.0000     7.0480   441.3082
  467.5000     7.0493   453.7270
  468.0000     7.0709   456.5294
  468.5000     7.1000   457.5261
  469.0000     7.1317   456.6151
  469.5000     7.1267   453.7964
  470.0000     7.0485   446.1938
  470.5000     6.8895   438.2802
  471.0000     6.7472   423.6801
  471.5000     6.7154   419.7199
  472.0000     6.7155   419.4347
  472.5000     6.7122   414.9287
  473.0000     6.6827   393.4282
  473.5000     6.6172   384.6364
  474.0000     6.5921   380.3926
  474.5000     6.5870   378.8857
  475.0000     6.5871   378.7672
  475.5000     6.5996   377.3878
  476.0000     6.6327   376.3144
  476.5000     6.6515   371.8023
  477.0000     6.6730   364.5415
  477.5000     6.7163   362.7939
  478.0000     6.6259   362.2841
  478.5000     6.3528   364.7947
  479.0000     6.3453   383.9355
  479.5000     6.2970   406.9723
  480.0000     6.1561   405.1621
  480.5000     6.0691   401.3944
  481.0000     6.0577   397.1541
  481.5000     6.0654   397.4305
  482.0000     6.1083   401.7102
  482.5000     6.2708   412.3787
  483.0000     6.3728   413.8378
  483.5000     6.4318   413.8459
  484.0000     6.4824   413.4694
  484.5000     6.5362   413.1028
  485.0000     6.5617   413.1121
  485.5000     6.5752   413.1186
  486.0000     6.5568   413.1261
  486.5000     6.5199   411.6424
  487.0000     6.4679   397.8831
  487.5000     6.4407   384.3822
  488.0000     6.4149   376.8095
  488.5000     6.3915   367.3410
  489.0000     6.3553   363.2085
  489.5000     6.2939   360.2831
