~VERSION INFORMATION
 VERS.                2.0:   CWLS LOG ASCII STANDARD - VERSION 2.0
 WRAP.                 NO:   ONE LINE PER DEPTH STEP
~WELL INFORMATION
#MNEM.UNIT      DATA TYPE    INFORMATION
#----------   ------------   ------------------------------
 STRT.F            6.0000:   START DEPTH
 STOP.F          458.0000:   STOP DEPTH
 STEP.F            0.5000:   STEP LENGTH
 NULL.          -999.2500:   NO VALUE
 COMP. BROWN JOHN E&C INC:   COMPANY
 WELL.   73-61 X10 #61-10:   WELL
 FLD .             TEAPOT:   FIELD
 LOC .      S10 T38N R78W:   LOCATION
 CNTY.            NATRONA:   COUNTY
 STAT.            WYOMING:   STATE
 CTRY. UNITED STATES OF AMERICA:   COUNTRY
 SRVC.           Gearhart:   SERVICE COMPANY
 DATE.        12-JUN-1987:   LOGDATE
 API .       490251113200:   API NUMBER
~CURVE INFORMATION
#MNEM.UNIT       API CODE    CURVE DESCRIPTION
#----------   ------------   ------------------------------
 DEPT.F                  :   
 GRR .GAPI   07 310 01 00:   GAMMA RAY FROM RES. LOG.
 RILD.OHMM   07 120 46 00:   INDUCTION LOG DEEP RESISTIVITY
 RILM.OHMM   07 120 44 00:   INDUCTION LOG MEDIUM RESISTIVITY
~PARAMETER INFORMATION
#MNEM.UNIT          VALUE    DESCRIPTION
#----------   ------------   ------------------------------
 PD  .                 GL:   PERMANENT DATUM
 EPD .F              5170:   ELEVATION PERMANENT DATUM
 LMF .                 KB:   LOG MEASURED FROM
 DAPD.F                 8:   FEET ABOVE PERMANENT DATUM
 DMF .                 KB:   DRILLING MEASURED FROM
 EKB .F              5178:   KELLING BUSHING
 EDF .F              5176:   DRILLING FLOOR
 EGL .F              5170:   GROUND LEVEL
 DATE.            6-12-87:   RUN DATE
 RUN .                  1:   RUN NUMBER
 DD  .F               560:   DEPTH DRILLER
 DL  .F               466:   DEPTH LOGGER
 BLI .F               463:   BOTTOM LOG INTERVAL
 TLI .F                46:   TOP LOG INTERVAL
 CS  .IN            8.625:   CASING SIZE
 CBD .F                50:   CASING BOTTOM DRILLER
 CBL .F                46:   CASING BOTTOM LOGGER
 BS  .IN             7.87:   BIT SIZE
 BSD .F               560:   BIT SIZE AT DEPTH
 DFT .               FOAM:   DRILLING FLUID TYPE
 TCS .HRS            0645:   TIME CURCULATED STOPPED
 TLAB.HRS            0845:   TIME LOGGER AT BOTTOM
 LUN .               7597:   LOGGING UNIT NUMBER
 LUL .           GILLETTE:   LOGGING UNIT LOCATION
 ENGI.           JOHNSTON:   RECORDING ENGINEER
 WITN.             STRONG:   WITNESSED BY
 CLNT.            A2DTECH:   CLIENT CODE
 ORIG.       2", 5" PRINT:   ORIGIN OF DATA
 UWI .       490251113200:   UNIQUE WELL ID
 DICO. A2D Technologies, Inc.:   DIGITIZING COMPANY
~OTHER INFORMATION
~A    DEPT      GRR      RILD       RILM   
# ...
   97.0000   116.1283     8.7931     8.4983
   97.5000   113.7638     8.8687     8.5233
   98.0000   111.1394     8.9845     8.5471
   98.5000   110.3613     9.0982     8.5954
   99.0000   110.0794     9.2059     8.6411
   99.5000   109.6173     9.3157     8.6867
  100.0000   108.9365     9.4490     8.8130
  100.5000   108.4057     9.6371     9.0234
  101.0000   109.2681     9.8291     9.2412
  101.5000   110.1598    10.0248     9.4806
  102.0000   110.0303    10.2245     9.6622
  102.5000   107.0208    10.4282     9.8644
  103.0000   105.1162    10.6358    10.0707
  103.5000   105.2259    10.8475    10.2454
  104.0000   105.3296    11.0629    10.4221
  104.5000   105.4404    11.2851    10.5929
  105.0000   105.3572    11.6598    10.7817
  105.5000   103.4831    12.1097    10.9758
  106.0000   101.2423    12.5770    11.4726
  106.5000    99.7931    13.0623    12.1177
  107.0000    99.9849    13.3504    12.7628
  107.5000   100.5932    13.5627    13.1927
  108.0000   100.5009    13.7777    13.5777
  108.5000    98.8443    13.9753    13.6366
  109.0000    97.2288    14.0120    13.7065
  109.5000    96.0888    14.0514    13.6531
  110.0000    97.2715    14.1004    13.5545
  110.5000    98.6762    13.8778    13.4507
  111.0000    99.0870    13.5823    13.1731
  111.5000    99.2871    13.2933    12.8853
  112.0000    99.4786    13.0103    12.5894
  112.5000    99.6668    12.8030    12.5112
  113.0000    99.6288    12.7275    12.4292
  113.5000    98.6081    12.6524    12.3478
  114.0000    97.1898    12.5778    12.2669
  114.5000    95.7929    12.5036    12.1865
  115.0000    96.0046    12.4619    12.1067
  115.5000    95.3950    12.4455    12.0273
  116.0000    94.1238    12.4291    11.9971
  116.5000    93.6821    12.4128    11.9815
  117.0000    96.3241    12.3965    11.9662
  117.5000    98.9897    12.3802    11.9509
  118.0000    99.0079    12.3638    11.9355
  118.5000    96.5403    12.3370    11.9198
  119.0000    94.0785    12.2921    11.9052
  119.5000    91.6140    12.2475    11.7900
  120.0000    89.2613    12.0344    11.5142
  120.5000    91.0044    11.7783    11.2866
  121.0000    96.6814    11.5276    11.0749
  121.5000   101.0118    11.2823    10.9618
  122.0000   102.5606    11.1157    10.8757
  122.5000   101.8207    11.0646    10.7902
  123.0000   100.4313    11.0152    10.7054
  123.5000    99.0317    10.9658    10.6213
  124.0000    97.6179    10.9158    10.5210
  124.5000    97.7215    10.8632    10.6208
  125.0000    98.6534    10.8109    10.5674
  125.5000    99.4542    10.7588    10.5341
  126.0000    97.5377    10.7070    10.5012
  126.5000    96.0619    10.6554    10.4685
  127.0000    95.9082    10.6040    10.4339
  127.5000    95.7012    10.5530    10.2495
  128.0000    94.6993    10.5021     9.9723
  128.5000    93.7154    10.4515     9.7552
  129.0000    93.7522    10.4079     9.8478
  129.5000    95.4823    10.3740     9.8478
  130.0000    97.2580    10.3402     9.8478
  130.5000    98.9156    10.3065     9.8478
  131.0000    99.3804    10.2729     9.8374
  131.5000    99.1774    10.2395     9.8249
  132.0000    99.0110    10.2061     9.8123
  132.5000    98.2401    10.1728     9.7997
  133.0000    97.5374    10.1397     9.7872
  133.5000    96.8119    10.1067     9.7744
  134.0000    96.7543    10.0738     9.7618
  134.5000    97.9641    10.0409     9.7041
  135.0000    99.2952     9.9204     9.5929
  135.5000   100.0508     9.6629     9.3462
  136.0000    99.4233     9.4138     9.0852
  136.5000    98.7982     9.1719     8.8308
  137.0000    98.5499     8.9362     8.5836
  137.5000   100.5387     8.7066     8.3433
  138.0000   103.4927     8.6152     8.1097
  138.5000   106.3477     8.5958     8.0037
  139.0000   106.2588     8.5765     7.9246
  139.5000   104.1394     8.5571     7.9246
  140.0000   103.4449     8.5467     8.0903
  140.5000   104.6844     8.5467     8.2060
  141.0000   106.5168     8.6647     8.3231
  141.5000   107.0872     8.7772     8.4191
  142.0000   106.1176     8.9231     8.4876
  142.5000   103.9539     9.0765     8.5572
  143.0000   101.8076     9.2324     8.6273
  143.5000    99.6879     9.3911     8.6980
  144.0000    99.2366     9.5524     8.7692
  144.5000   100.1902     9.5799     8.9473
  145.0000   100.1462     9.5907     9.1813
  145.5000    99.8778     9.6016     9.3051
  146.0000    99.6192     9.6123     9.3222
  146.5000    99.4054     9.6232     9.3575
  147.0000    99.6727     9.6340     9.3930
  147.5000   100.3351     9.6449     9.4287
  148.0000   101.4557     9.6559     9.4644
  148.5000   102.6996     9.6626     9.4826
  149.0000   104.5607     9.6047     9.3923
  149.5000   106.3747     9.5594     9.3105
  150.0000   108.2362     9.5143     9.2294
  150.5000   108.3985     9.4695     9.1490
  151.0000   108.4906     9.4249     9.0693
  151.5000   108.5868     9.3805     8.8858
  152.0000   108.6757     9.3364     8.5485
  152.5000   108.0151     9.3051     8.8225
  153.0000   106.5496     9.3620     9.0539
  153.5000   105.0802     9.4061     9.0844
  154.0000   102.6341     9.4506     9.1151
  154.5000   100.1974     9.4824     9.1458
  155.0000   100.1818     9.4720     9.1767
  155.5000   100.9391     9.4637     9.2076
  156.0000   101.7834     9.4555     9.2176
  156.5000   101.5887     9.4472     9.2184
  157.0000   101.5832     9.4390     9.1983
  157.5000   104.5225     9.4307     9.1596
  158.0000   107.2780     9.4225     9.1205
  158.5000   108.9306     9.4144     9.0815
  159.0000   110.6087     9.4061     9.0451
  159.5000   112.3242     9.3979     8.9170
  160.0000   111.0714     9.2997     8.7971
  160.5000   107.2932     9.0996     8.6793
  161.0000   103.6394     8.9038     8.5633
  161.5000   101.7782     8.8164     8.5221
  162.0000   101.5754     8.7474     8.4935
  162.5000   101.4027     8.6789     8.4664
  163.0000   101.2373     8.5385     8.2391
  163.5000   101.0528     8.1881     7.9010
  164.0000   101.3617     7.8521     7.5768
  164.5000   101.8372     7.5299     7.2787
  165.0000   102.3212     7.4086     7.0731
  165.5000   102.8167     7.3946     6.8813
  166.0000   103.5095     7.3807     6.7489
  166.5000   104.4240     7.3668     6.7489
  167.0000   104.8927     7.3478     6.9517
  167.5000   104.0828     7.4176     7.1913
  168.0000   102.2264     7.7113     7.4112
  168.5000   100.5102     7.9998     7.6367
  169.0000   103.0043     8.1467     7.8693
  169.5000   105.6168     8.2918     8.1089
  170.0000   107.4857     8.4396     8.2431
  170.5000   107.2110     8.5395     8.3549
  171.0000   105.0599     8.6296     8.4664
  171.5000   102.2548     8.7199     8.4664
  172.0000    99.9625     8.7919     8.4480
  172.5000   100.6933     8.6676     8.3618
  173.0000   102.5470     8.5661     8.2766
  173.5000   103.2675     8.4664     8.1922
  174.0000   102.9412     8.3576     8.1087
  174.5000   102.6393     8.2508     7.9951
  175.0000   102.9453     8.1454     7.8634
  175.5000   104.1887     8.0414     7.7334
  176.0000   104.8061     7.8472     7.5816
  176.5000   105.0160     7.5984     7.3295
  177.0000   103.9422     7.3572     7.0753
  177.5000   103.5451     7.1243     6.7072
  178.0000   105.0141     6.7469     6.3554
  178.5000   106.3451     6.3564     6.0221
  179.0000   103.5890     6.1959     5.7062
  179.5000   100.2531     6.2109     5.4691
  180.0000    98.9522     6.2263     5.3799
  180.5000   100.1781     6.2418     5.4825
  181.0000   102.2585     6.2577     5.7984
  181.5000   104.5808     6.5523     6.1207
  182.0000   106.9820     6.8686     6.4632
  182.5000   107.1602     7.2010     6.8255
  183.0000   105.6701     7.5578     7.1872
  183.5000   103.6599     7.7867     7.4584
  184.0000   101.5358     8.0267     7.7414
  184.5000   101.0247     8.2752     7.9759
  185.0000   101.1294     8.4373     8.1232
  185.5000   101.3729     8.5282     8.2715
  186.0000   101.6175     8.6201     8.3630
  186.5000   102.0245     8.7129     8.4363
  187.0000   102.6590     8.8050     8.5103
  187.5000   103.7287     8.8884     8.5849
