~VERSION INFORMATION
 VERS.                2.0:   CWLS LOG ASCII STANDARD - VERSION 2.0
 WRAP.                 NO:   ONE LINE PER DEPTH STEP
~WELL INFORMATION
#MNEM.UNIT      DATA TYPE    INFORMATION
#----------   ------------   ------------------------------
 STRT.F           30.0000:   START DEPTH
 STOP.F          507.0000:   STOP DEPTH
 STEP.F            0.5000:   STEP LENGTH
 NULL.          -999.2500:   NO VALUE
 COMP. FENIX & SCISSON INC:   COMPANY
 WELL.      NPR-3 #42S-10:   WELL
 FLD .             TEAPOT:   FIELD
 LOC .      S10 T38N R78W:   LOCATION
 CNTY.            NATRONA:   COUNTY
 STAT.            WYOMING:   STATE
 CTRY. UNITED STATES OF AMERICA:   COUNTRY
 SRVC.            Unknown:   SERVICE COMPANY
 DATE.        15-JUL-1978:   LOGDATE
 API .       490251065700:   API NUMBER
~CURVE INFORMATION
#MNEM.UNIT       API CODE    CURVE DESCRIPTION
#----------   ------------   ------------------------------
 DEPT.F                  :   
 SPR .MV     07 010 01 00:   SPONTANEOUS POTENTIAL
 ILD .OHMM   07 120 46 00:   INDUCTION LOG DEEP
 SN  .OHMM   07 040 16 00:   SHORT NORMAL
 CALD.IN     45 280 60 00:   CALIPER FROM DENSITY LOG
 GRD .GAPI   45 310 01 00:   GAMMA RAY FROM DENSITY LOG
 CORR.G/C3   45 356 01 00:   DENSITY CORRECTION
 RHOB.G/C3   45 350 01 00:   BULK DENSITY
 DPHI.DEC    45 890 12 00:   DENSITY POROSITY SANDSTONE
~PARAMETER INFORMATION
#MNEM.UNIT          VALUE    DESCRIPTION
#----------   ------------   ------------------------------
 PD  .                 GL:   PERMANENT DATUM
 EPD .F              5204:   ELEVATION PERMANENT DATUM
 LMF .                 KB:   LOG MEASURED FROM
 DAPD.F                 4:   FEET ABOVE PERMANENT DATUM
 DMF .                 KB:   DRILLING MEASURED FROM
 EKB .F              5208:   KELLING BUSHING
 EGL .F              5204:   GROUND LEVEL
 DATE.        15-JUL-1978:   RUN DATE
 RUN .                  1:   RUN NUMBER
 DD  .F               500:   DEPTH DRILLER
 DL  .F               511:   DEPTH LOGGER
 BLI .F               504:   BOTTOM LOG INTERVAL
 TLI .F                30:   TOP LOG INTERVAL
 CS  .IN            8.625:   CASING SIZE
 CBD .F                40:   CASING BOTTOM DRILLER
 CBL .F                40:   CASING BOTTOM LOGGER
 BS  .IN            7.875:   BIT SIZE
 BSD .F               500:   BIT SIZE AT DEPTH
 DFT .                KCL:   DRILLING FLUID TYPE
 DFD .                8.7:   DRILLING FLUID DENSITY
 DFV .                 32:   DRILLING FLUID VISCOSITY
 DFPH.                9.0:   DRILLING FLUID PH
 RMS .OHMM           0.18:   RESISTIVITY MUD SAMPLE
 MST .F                78:   MUD SAMPLE TEMPERATURE
 RMF .OHMM           0.16:   RESISTIVITY MUD FILTRATE SAMPLE
 MFST.F                88:   MUD FILTRATE SAMPLE TEMPERATURE
 RMC .OHMM           0.28:   RESISTIVITY MUD CAKE
 MCST.F                88:   MUD CAKE SAMPLE TEMPERATURE
 MFSS.               MEAS:   MUD FILTRATE SAMPLE SOURCE
 MCSS.               MEAS:   MUD CAKE SAMPLE SOURCE
 TCS .HRS               1:   TIME CURCULATED STOPPED
 LUN .               2958:   LOGGING UNIT NUMBER
 LUL .               CASP:   LOGGING UNIT LOCATION
 ENGI.              HONEA:   RECORDING ENGINEER
 WITN.           MCGINLEY:   WITNESSED BY
 CLNT.            A2DTECH:   CLIENT CODE
 ORIG.           5" PRINT:   ORIGIN OF DATA
 UWI .       490251065700:   UNIQUE WELL ID
 DICO. A2D Technologies, Inc.:   DIGITIZING COMPANY
~OTHER INFORMATION
~A   DEPT      SPR        ILD         SN       CALD        GRD       CORR       RHOB       DPHI   
# ...
  475.5000   -35.3834    11.5049     8.7028     8.1996    81.8589     0.0181     2.5057     0.1046
  476.0000   -35.3731    11.5088     8.6449     8.2018    80.2905     0.0183     2.5058     0.1072
  476.5000   -35.3629    11.4338     8.6467     8.2040    81.9486     0.0170     2.5052     0.1108
  477.0000   -35.3526    11.4378     8.6484     8.2062    83.3049     0.0171     2.5023     0.1134
  477.5000   -35.3424    11.2853     8.6502     8.2089    83.6162     0.0144     2.4994     0.1098
  478.0000   -35.3321    11.1350     8.6520     8.2110    81.1139     0.0130     2.4988     0.1059
  478.5000   -35.3219    10.9867     8.6541     8.2132    80.5338     0.0102     2.5019     0.1043
  479.0000   -35.3115    10.8403     8.7156     8.2154    81.3004     0.0089     2.5050     0.1056
  479.5000   -35.3010    10.6235     8.7174     8.2175    82.9538     0.0076     2.4991     0.1125
  480.0000   -35.2886    10.4811     8.6594     8.2197    85.6473     0.0078     2.4850     0.1191
  480.5000   -35.2783    10.2716     8.6013     8.2219    86.7064     0.0064     2.4821     0.1215
  481.0000   -35.2681     9.9279     8.4278     8.2241    83.6049     0.0081     2.4822     0.1209
  481.5000   -35.4094     9.7285     8.3139     8.2263    80.9376     0.0083     2.4823     0.1169
  482.0000   -35.3966     9.5332     8.2020     8.2285    80.3739     0.0115     2.4862     0.1163
  482.5000   -35.3863     9.4062     8.1477     8.2460    82.0320     0.0146     2.4892     0.1169
  483.0000   -35.8257     9.3449     8.0936     8.2481    84.7208     0.0148     2.4886     0.1144
  483.5000   -36.2600     9.3489     7.9846     8.2503    84.5912     0.0150     2.4895     0.1132
  484.0000   -36.4014     9.4165     7.9804     8.2525    85.9521     0.0137     2.4971     0.1146
  484.5000   -36.5380     9.4197     7.9331     8.2547    86.5654     0.0139     2.4957     0.1229
  485.0000   -36.3783     9.4229     7.8803     8.2568    86.2872     0.0155     2.4853     0.1319
  485.5000   -36.3680     9.2966     7.7746     8.2590    83.3344     0.0187     2.4697     0.1256
  486.0000   -36.2086     8.6827     7.7762     8.2612    82.4570     0.0234     2.4631     0.1168
  486.5000   -36.0492     8.0531     7.7240     8.2485    82.4807     0.0220     2.4864     0.1147
  487.0000   -36.0387     8.0558     7.7793     8.2507    82.4996     0.0162     2.4902     0.1177
  487.5000   -35.8774     8.0585     7.7809     8.2534    82.8158     0.0104     2.4910     0.1179
  488.0000   -35.8671     8.0613     7.8362     8.2556    87.6852     0.0076     2.4911     0.1146
  488.5000   -35.8569     8.1757     7.9463     8.2578    89.8373     0.0093     2.4927     0.1107
  489.0000   -35.6976     8.2917     8.0581     8.2599    85.4033     0.0110     2.4974     0.1073
  489.5000   -35.6873     8.4099     8.2277     8.2621    85.2689     0.0142     2.5036     0.1031
  490.0000   -35.5280     8.7068     8.4629     8.2489    85.2926     0.0173     2.5125     0.0998
  490.5000   -35.3688     9.0765     8.7056     8.2516    83.8256     0.0175     2.5171     0.0962
  491.0000   -35.3585     9.5271     8.8803     8.2538    82.9530     0.0192     2.5164     0.0949
  491.5000   -35.1992     9.8635     9.0051     8.2560    82.5215     0.0209     2.5203     0.0970
  492.0000   -35.1890    10.3531     9.1317     8.2433    83.1395     0.0225     2.5234     0.0990
  492.5000   -35.1787    10.5724     9.1335     8.2455    83.4509     0.0242     2.5205     0.0996
  493.0000   -35.1684    10.6489     9.1354     8.2328    82.5830     0.0229     2.5198     0.0971
  493.5000   -35.1580    10.7260     9.1372     8.2201    82.8991     0.0186     2.5214     0.0992
  494.0000   -35.1475    10.7296     9.1391     8.2226    85.6284     0.0128     2.5200     0.1150
  494.5000   -35.2842    10.7333     9.1411  -999.2500    87.8767     0.0100     2.5097     0.1063
  495.0000   -35.7210    10.7369     9.1428  -999.2500    88.3051     0.0084     2.5007     0.1039
  495.5000   -36.4559    10.7413     9.2077  -999.2500    87.1401     0.0073     2.4912     0.1258
  496.0000   -37.0418    10.7449     9.2096  -999.2500    86.5647     0.0060     2.4839     0.1241
  496.5000   -37.4812    10.7485     9.2115  -999.2500    86.4303     0.0047     2.4840     0.1223
  497.0000   -37.9155    10.6776     9.2138  -999.2500    86.4540     0.0064     2.4818     0.1312
  497.5000   -38.0568    10.6821     9.2157  -999.2500    86.4729     0.0081     2.4789     0.1266
  498.0000   -37.8950    10.6125     9.2175  -999.2500    86.4919     0.0112     2.4843     0.1230
  498.5000   -37.7357    10.5434     9.2194  -999.2500    85.9164     0.0144     2.4836     0.1239
  499.0000   -37.5764    10.4745     9.2213  -999.2500    84.4495     0.0161     2.4867     0.1232
  499.5000   -37.5661    10.4064     9.2231  -999.2500    84.3076     0.0177     2.4877     0.1226
  500.0000   -37.8539    10.3386     9.1613  -999.2500    84.3388     0.0179     2.4824     0.1237
  500.5000   -38.0030    10.2678     9.0942  -999.2500    83.4547     0.0166     2.4811     0.1290
  501.0000   -38.4501    10.1975     8.9130  -999.2500    82.7422     0.0135     2.4772     0.1470
  501.5000   -38.4501    10.0583     8.6711  -999.2500    82.6125     0.0080     2.4566     0.1613
  502.0000   -38.3010     9.8530     8.4940  -999.2500    82.6362     0.0037     2.4358     0.1857
  502.5000   -38.3010     9.6519     8.3205  -999.2500    82.6551     0.0024     2.3971     0.1976
  503.0000   -38.1520     9.5145     8.1505  -999.2500    82.8202     0.0011     2.3785     0.2194
  503.5000   -38.1520     9.3158     7.9841  -999.2500  -999.2500     0.0043     2.3279     0.2384
  504.0000   -38.4501     9.0729     7.7674  -999.2500  -999.2500     0.0084     2.2942     0.2619
  504.5000   -38.7481     8.9490     7.5048  -999.2500  -999.2500  -999.2500  -999.2500  -999.2500
  505.0000   -38.5991     8.7063     7.2014  -999.2500  -999.2500  -999.2500  -999.2500  -999.2500
  505.5000   -38.3010     8.4702     6.8628  -999.2500  -999.2500  -999.2500  -999.2500  -999.2500
  506.0000   -38.3010     7.5881     6.5402  -999.2500  -999.2500  -999.2500  -999.2500  -999.2500
  506.5000   -38.4702     6.7051     6.1901  -999.2500  -999.2500  -999.2500  -999.2500  -999.2500
  507.0000   -38.9265     6.7051     5.9387  -999.2500  -999.2500  -999.2500  -999.2500  -999.2500
