~VERSION INFORMATION
 VERS.                2.0:   CWLS LOG ASCII STANDARD - VERSION 2.0
 WRAP.                 NO:   ONE LINE PER DEPTH STEP
~WELL INFORMATION
#MNEM.UNIT      DATA TYPE    INFORMATION
#----------   ------------   ------------------------------
 STRT.F           20.0000:   START DEPTH
 STOP.F          505.0000:   STOP DEPTH
 STEP.F            0.5000:   STEP LENGTH
 NULL.          -999.2500:   NO VALUE
 COMP.    FENIX & SCISSON:   COMPANY
 WELL.   NPR #3 #56-SX-10:   WELL
 FLD .             TEAPOT:   FIELD
 LOC .      S10 T38N R78W:   LOCATION
 CNTY.            NATRONA:   COUNTY
 STAT.            WYOMING:   STATE
 CTRY. UNITED STATES OF AMERICA:   COUNTRY
 SRVC.              Welex:   SERVICE COMPANY
 DATE.        01-MAY-1980:   LOGDATE
 API .       490251081300:   API NUMBER
~CURVE INFORMATION
#MNEM.UNIT       API CODE    CURVE DESCRIPTION
#----------   ------------   ------------------------------
 DEPT.F                  :   
 ILD .OHMM   07 120 46 00:   INDUCTION LOG DEEP
 ILM .OHMM   07 120 44 00:   INDUCTION LOG MEDIUM
 SGRD.OHMM   07 220 05 00:   SHALLOW GUARD RESISTIVITY
 SPR .MV     07 010 01 00:   SPONATANEOUS POTENTIAL FROM RES.
 CALD.IN     45 280 60 00:   CALIPER FROM DENSITY LOG
 DPHI.DEC    45 890 12 00:   DENSITY POROSITY SANDSTONE
 DRHO.G/C3   45 356 01 00:   DENSITY CORRECTION
 GRD .GAPI   45 310 01 00:   GAMMA RAY FROM DENSITY LOG
 RHOB.G/C3   45 350 01 00:   BULK DENSITY
~PARAMETER INFORMATION
#MNEM.UNIT          VALUE    DESCRIPTION
#----------   ------------   ------------------------------
 PD  .                 GL:   PERMANENT DATUM
 EPD .F              5180:   ELEVATION PERMANENT DATUM
 LMF .                 KB:   LOG MEASURED FROM
 DAPD.F                 4:   FEET ABOVE PERMANENT DATUM
 DMF .                 KB:   DRILLING MEASURED FROM
 EKB .F              5184:   KELLING BUSHING
 EGL .F              5180:   GROUND LEVEL
 DATE.        01-MAY-1980:   RUN DATE
 RUN .                  1:   RUN NUMBER
 DD  .F               489:   DEPTH DRILLER
 DL  .F               506:   DEPTH LOGGER
 BLI .F               504:   BOTTOM LOG INTERVAL
 TLI .F                30:   TOP LOG INTERVAL
 BS  .IN            7.875:   BIT SIZE
 BSD .F               489:   BIT SIZE AT DEPTH
 DFT .    WATER BASED MUD:   DRILLING FLUID TYPE
 DFD .                9.9:   DRILLING FLUID DENSITY
 DFV .                 46:   DRILLING FLUID VISCOSITY
 MSS .                PIT:   MUD SAMPLE SOURCE
 RMS .OHMM           0.99:   RESISTIVITY MUD SAMPLE
 MST .F                75:   MUD SAMPLE TEMPERATURE
 RMF .OHMM           0.78:   RESISTIVITY MUD FILTRATE SAMPLE
 MFST.F                75:   MUD FILTRATE SAMPLE TEMPERATURE
 RMC .OHMM           1.18:   RESISTIVITY MUD CAKE
 MCST.F                75:   MUD CAKE SAMPLE TEMPERATURE
 MFSS.               MEAS:   MUD FILTRATE SAMPLE SOURCE
 MCSS.               MEAS:   MUD CAKE SAMPLE SOURCE
 BHT .F               100:   BOTTOM HOLE TEMPERATURE
 TCS .HRS               1:   TIME CURCULATED STOPPED
 MRT .F               100:   MAXIMUM RECORDED TEMPERATURE
 LUN .               9685:   LOGGING UNIT NUMBER
 LUL .             CASPER:   LOGGING UNIT LOCATION
 ENGI.            TOTHILL:   RECORDING ENGINEER
 WITN.           DINSMORE:   WITNESSED BY
 CLNT.            A2DTECH:   CLIENT CODE
 ORIG.           5" PRINT:   ORIGIN OF DATA
 UWI .       490251081300:   UNIQUE WELL ID
 DICO. A2D Technologies, Inc.:   DIGITIZING COMPANY
~OTHER INFORMATION
~A   DEPT       ILD        ILM      SGRD        SPR       CALD       DPHI       DRHO        GRD       RHOB   
# ...
  275.5000     5.9999    10.0567    10.5449   -22.2720     8.3137     0.1144     0.0188   108.2240     2.4554
  276.0000     5.9179    10.1957    10.4722   -22.1226     8.2701     0.1302    -0.0111   107.5684     2.4171
  276.5000     5.7170    10.1142    10.0432   -21.9731     8.2561     0.1452    -0.0246   107.5860     2.4014
  277.0000     5.3717     9.9149     9.3470   -21.8236     8.1813     0.1497    -0.0200   107.3734     2.3984
  277.5000     5.1150     9.7101     8.3342   -21.6741     8.1509     0.1536    -0.0229   107.6214     2.3917
  278.0000     4.8769     8.5128     7.5647   -21.6741     8.0349     0.1617    -0.0349   108.0908     2.3614
  278.5000     4.7441     6.7741     7.0589   -21.3752     8.0207     0.1883    -0.0408   108.5603     2.3325
  279.0000     4.6149     5.1356     6.2322   -21.6741     7.9921     0.2015    -0.0483   109.4819     2.3055
  279.5000     4.4582     7.3082     6.2755   -21.9731     7.9629     0.2102    -0.0527   109.9910     2.2965
  280.0000     4.3972     8.4503    10.0463   -22.4215     8.0540     0.2018    -0.0166   109.7472     2.3243
  280.5000     4.7126     9.2447    11.6983   -22.8700     8.1448     0.1484     0.0224   108.8613     2.3551
  281.0000     4.9469     9.5789    11.8613   -22.8700     8.1608     0.1329     0.0285   107.2976     2.3965
  281.5000     5.1214    10.0552    12.0290   -23.0194     8.1768     0.1212     0.0165   104.1526     2.4491
  282.0000     5.3759    10.4672    12.1208   -23.0194     8.1938     0.1110     0.0016   100.1040     2.4709
  282.5000     5.9643    10.6858    12.5365   -23.1689     8.2113     0.0995    -0.0014    98.5403     2.4778
  283.0000     6.5789    10.9088    12.7994   -23.2373     8.2250     0.0951     0.0122    98.3313     2.4839
  283.5000     7.2117    10.9833    12.7994   -23.3543     8.2108     0.1040     0.0062    98.5757     2.4725
  284.0000     7.7599    11.0583    12.4500   -23.4679     8.2271     0.1169    -0.0029    98.8193     2.4575
  284.5000     8.0336    11.0567    12.4500   -23.6173     8.2580     0.1241    -0.0116    98.3614     2.4418
  285.0000     8.2027    10.9793    12.3642   -23.9163     8.3040     0.1313    -0.0295    97.5035     2.4268
  285.5000     8.3753    11.0550    12.4500   -24.0658     8.3349     0.1334    -0.0235    95.7140     2.4171
  286.0000     8.6110    12.4795    12.6235   -24.2152     8.3659     0.1370    -0.0264    93.0208     2.4126
  286.5000     9.1649    13.8869    12.8904   -24.6637     8.3370     0.1486    -0.0413    89.8758     2.3939
  287.0000    10.0979    13.3203    13.4657   -25.1121     8.2931     0.1579    -0.0473    87.1826     2.3797
  287.5000    11.5976    13.9798    15.3224   -25.5605     8.2942     0.1612    -0.0412    80.8750     2.3822
  288.0000    13.1368    15.2940    27.7830   -26.0090     8.3253     0.1537    -0.0245    76.1486     2.3865
  288.5000    14.7806    16.6163    28.5628   -26.4574     8.3563     0.1549    -0.0047    69.6151     2.3933
  289.0000    16.5414    19.4808    27.2122   -26.9058     8.3573     0.1501     0.0084    62.6298     2.4001
  289.5000    17.8384    22.0624    26.8382   -27.2048     8.3583     0.1561     0.0085    56.2862     2.3851
  290.0000    17.8172    25.6874    35.8901   -27.8027     8.3145     0.1621     0.0041    53.3433     2.3784
  290.5000    17.6956    28.6989    48.6638   -28.3481     8.3003     0.1692     0.0011    51.1617     2.3664
  291.0000    17.8199    30.5614    37.9329   -28.8610     8.2566     0.1764    -0.0048    50.5060     2.3514
  291.5000    19.2306    32.2652    33.4905   -29.4469     8.2277     0.1764    -0.0063    50.5237     2.3515
  292.0000    19.7714    33.3973    31.6869   -29.7897     8.1988     0.1767     0.0013    50.9931     2.3523
  292.5000    18.0720    33.6264    33.7231   -30.1943     8.1699     0.1825     0.0103    51.9144     2.3429
  293.0000    17.7016    32.2543    37.1536   -30.4933     8.0664     0.1914     0.0027    53.0616     2.3253
  293.5000    18.7107    31.1539    36.6429   -30.7922     7.9925     0.2003    -0.0015    54.6606     2.3163
  294.0000    19.6407    30.5104    31.9069   -31.0912     7.9484     0.2099    -0.0165    54.9307     2.2984
  294.5000    18.6953    30.5070    30.8218   -31.2407     8.0095     0.2207    -0.0254    53.7923     2.2796
  295.0000    17.6582    30.5036    33.0302   -31.5396     8.0555     0.2297    -0.0268    53.1322     2.2654
  295.5000    16.8708    29.8590    35.3968   -31.6891     8.0715     0.2312    -0.0268    54.8042     2.2632
  296.0000    16.5253    28.8542    32.1285   -31.8386     8.0575     0.2270    -0.0102    56.5605     2.2715
  296.5000    16.8731    28.2575    28.7611   -32.1375     8.0136     0.2153     0.0123    56.3523     2.2910
  297.0000    17.7118    28.0595    28.5628   -32.4365     8.0147     0.2024     0.0484    55.9137     2.3139
  297.5000    18.5921    28.0563    29.4361   -32.5859     8.0132     0.1888     0.0814    55.9358     2.3354
  298.0000    21.0597    28.0532    31.2514   -32.7354     7.9720     0.1808     0.0740    56.6312     2.3429
  298.5000    21.6522    28.8373    33.2596   -32.8849     7.9431     0.1847     0.0725    57.5524     2.3385
  299.0000    26.2832    30.4753    35.8901   -33.0344     7.9142     0.1799     0.0816    57.7916     2.3438
  299.5000    28.9589    33.1102    37.6714   -33.1839     7.9452     0.1867     0.0727    56.6841     2.3348
  300.0000    29.7737    36.4743    37.1536   -33.3333     8.1109     0.1915     0.0520    56.0241     2.3153
  300.5000    29.1620    39.9316    37.4116   -33.1807     8.2170     0.1918     0.0487    56.2679     2.3271
  301.0000    27.9760    39.0777    37.9329   -33.3274     8.2199     0.1801     0.0623    55.8276     2.3462
  301.5000    26.6531    34.7369    39.8156   -33.4738     8.1897     0.1702     0.0683    55.6170     2.3545
  302.0000    25.0438    31.5260    36.2908   -33.6204     8.1910     0.1621     0.0743    55.8621     2.3703
  302.5000    22.8893    30.2405    33.2596   -33.6168     8.1178     0.1702     0.0623    56.1034     2.3666
  303.0000    20.2087    29.6158    32.5762   -33.6138     8.1038     0.1753     0.0503    56.3614     2.3576
  303.5000    21.9687    30.2345    32.5762   -33.7611     8.1503     0.1762     0.0353    57.7192     2.3516
  304.0000    20.4157    31.0787    32.1285   -33.6080     8.1816     0.1720     0.0309    59.0900     2.3539
  304.5000    21.9584    32.3926    33.0302   -33.6051     8.1529     0.1723     0.0324    60.2348     2.3577
  305.0000    22.4190    33.7777    34.9103   -33.6022     8.1240     0.1726     0.0339    61.1538     2.3576
  305.5000    20.6326    35.4337    36.3902   -33.4498     8.1705     0.1764     0.0219    61.6209     2.3518
  306.0000    19.3868    31.7155    34.6695   -33.3998     8.2018     0.1653     0.0324    62.0881     2.3691
  306.5000    17.9659    30.0041    32.5093   -33.2945     8.2031     0.1641     0.0399    62.5552     2.3639
  307.0000    18.3427    28.7806    29.3645   -33.1839     8.1598     0.1752     0.0115    63.0226     2.3459
  307.5000    19.6570    28.3818    28.3658   -33.1385     8.0713     0.1872    -0.0065    63.9451     2.3339
  308.0000    19.5214    27.9886    28.1702   -32.9861     8.0127     0.1895    -0.0095    64.6382     2.3324
  308.5000    18.4575    27.0337    28.3658   -32.7982     7.9688     0.1940    -0.0063    65.1053     2.3212
  309.0000    17.4754    26.4753    28.9609   -32.5318     8.1501     0.1976    -0.0125    65.1207     2.3175
  309.5000    17.2352    26.4724    29.3645   -32.5291     8.1813     0.1882    -0.0047    64.9063     2.3402
  310.0000    17.1164    26.4693    28.1702   -32.3169     8.2575     0.1717     0.0265    64.9255     2.3671
  310.5000    17.1164    26.2529    26.8382   -32.0747     8.3800     0.1616     0.0385    64.9408     2.3754
  311.0000    17.3549    25.5628    26.8382   -31.9223     8.4398     0.1604     0.0356    65.0746     2.3702
  311.5000    16.9983    24.8621    26.8382   -31.8356     8.4713     0.1664     0.0266    65.8758     2.3732
