~VERSION INFORMATION
 VERS.                2.0:   CWLS LOG ASCII STANDARD - VERSION 2.0
 WRAP.                 NO:   ONE LINE PER DEPTH STEP
~WELL INFORMATION
#MNEM.UNIT      DATA TYPE    INFORMATION
#----------   ------------   ------------------------------
 STRT.F           29.0000:   START DEPTH
 STOP.F          642.0000:   STOP DEPTH
 STEP.F            0.5000:   STEP LENGTH
 NULL.          -999.2500:   NO VALUE
 COMP. FENIX & SCISSON INC:   COMPANY
 WELL.    NPR-3 SX #21-10:   WELL
 FLD .  TEAPOT DOME NPR 3:   FIELD
 LOC .      S10 T38N R78W:   LOCATION
 CNTY.            NATRONA:   COUNTY
 STAT.            WYOMING:   STATE
 CTRY. UNITED STATES OF AMERICA:   COUNTRY
 SRVC.            Unknown:   SERVICE COMPANY
 DATE.        03-JUL-1978:   LOGDATE
 API .       490251065400:   API NUMBER
~CURVE INFORMATION
#MNEM.UNIT       API CODE    CURVE DESCRIPTION
#----------   ------------   ------------------------------
 DEPT.F                  :   
 SPR .MV     05 010 01 00:   SPONTANEOUS POTENTIAL FROM RES.
 SN  .OHMM   05 040 16 00:   SHORT NORMAL 16"
 ILD .OHMM   05 120 46 00:   INDUCTION LOG DEEP
 CALD.IN     45 280 60 00:   CALIPER FROM DENSITY
 GRD .GAPI   45 310 01 00:   GAMMA RAY FROM DENSITY LOG
 CORR.G/C3   45 356 01 00:   DENSITY CORRECTION
 DPHI.DEC    45 890 12 00:   DENSITY POROSITY SANDSTONE
 DEN .G/C3   45 350 01 00:   COMPENSATED BULK DENSTIY
~PARAMETER INFORMATION
#MNEM.UNIT          VALUE    DESCRIPTION
#----------   ------------   ------------------------------
 PD  .                 GL:   PERMANENT DATUM
 EPD .F              5253:   ELEVATION PERMANENT DATUM
 LMF .                 KB:   LOG MEASURED FROM
 DAPD.F                 4:   FEET ABOVE PERMANENT DATUM
 DMF .                 KB:   DRILLING MEASURED FROM
 EKB .F              5257:   KELLING BUSHING
 EGL .F              5253:   GROUND LEVEL
 DATE.           7-3-1978:   RUN DATE
 RUN .                  1:   RUN NUMBER
 DD  .F               650:   DEPTH DRILLER
 DL  .F               648:   DEPTH LOGGER
 BLI .F               642:   BOTTOM LOG INTERVAL
 TLI .F                40:   TOP LOG INTERVAL
 CS  .IN            8.625:   CASING SIZE
 CBD .F                40:   CASING BOTTOM DRILLER
 CBL .F                40:   CASING BOTTOM LOGGER
 BS  .IN            7.875:   BIT SIZE
 BSD .F               650:   BIT SIZE AT DEPTH
 DFT .                KCL:   DRILLING FLUID TYPE
 DFD .                8.6:   DRILLING FLUID DENSITY
 DFV .                 32:   DRILLING FLUID VISCOSITY
 DFPH.                  9:   DRILLING FLUID PH
 MSS .           FLOWLINE:   MUD SAMPLE SOURCE
 RMS .OHMM            .24:   RESISTIVITY MUD SAMPLE
 MST .F                88:   MUD SAMPLE TEMPERATURE
 RMF .OHMM            .24:   RESISTIVITY MUD FILTRATE SAMPLE
 MFST.F                94:   MUD FILTRATE SAMPLE TEMPERATURE
 RMC .OHMM            .46:   RESISTIVITY MUD CAKE
 MCST.F                96:   MUD CAKE SAMPLE TEMPERATURE
 MFSS.               MEAS:   MUD FILTRATE SAMPLE SOURCE
 MCSS.               MEAS:   MUD CAKE SAMPLE SOURCE
 TCS .HRS               2:   TIME CURCULATED STOPPED
 LUN .               2958:   LOGGING UNIT NUMBER
 LUL .               CASP:   LOGGING UNIT LOCATION
 CLNT.            A2DTECH:   CLIENT CODE
 ORIG.           5" PRINT:   ORIGIN OF DATA
 UWI .       490251065400:   UNIQUE WELL ID
 DICO. A2D Technologies, Inc.:   DIGITIZING COMPANY
~OTHER INFORMATION
~A   DEPT      SPR         SN        ILD       CALD        GRD       CORR       DPHI        DEN   
# ...
  393.5000   -23.5432     7.4834     7.0338     8.1249   127.2288     0.0116     0.1263     2.4692
  394.0000   -23.5179     7.4890     7.1365     8.1102   130.3305     0.0068     0.1278     2.4811
  394.5000   -23.4926     7.3401     7.1419     8.0955   128.5650     0.0026     0.1323     2.4803
  395.0000   -23.4623     7.1970     7.0496     8.0808   128.7169     0.0040     0.1320     2.4699
  395.5000   -23.4373     7.1516     7.0064     8.0512   128.7212     0.0085     0.1461     2.4586
  396.0000   -23.4122     7.1079     6.9637     8.0515   124.7433     0.0129     0.1449     2.4466
  396.5000   -23.3872     6.9680     6.8266     8.0518   125.2583     0.0084     0.1320     2.4563
  397.0000   -23.3622     6.9254     6.7815     8.0521   126.3746     0.0039     0.1344     2.4735
  397.5000   -23.3372     6.7890     6.6512     8.0674   124.7492     0.0024     0.1374     2.4795
  398.0000   -23.3122     6.6110     6.5133     8.0677   122.0787     0.0039     0.1389     2.4578
  398.5000   -23.4423     6.4808     6.3046     8.0830   121.5204     0.0038     0.1416     2.4553
  399.0000   -23.4110     6.3097     6.0971     8.0833   123.2958     0.0038     0.1488     2.4601
  399.5000   -23.5411     6.1009     5.7750     8.0985   127.5775     0.0038     0.1506     2.4435
  400.0000   -23.6880     5.9398     5.4135     8.1287   128.0232     0.0037     0.1521     2.4375
  400.5000   -23.6354     5.6142     5.1809     8.1140   126.2199     0.0037     0.1512     2.4390
  401.0000   -23.4613     5.3294     5.0790     8.1294   123.7414    -0.0068     0.1521     2.4390
  401.5000   -23.5864     5.3348     5.0833     8.0847   123.7743    -0.0053     0.1596     2.4398
  402.0000   -23.4066     5.4131     5.0874     8.0550   128.1553     0.0006     0.1800     2.4188
  402.5000   -23.2330     5.4925     5.0940     8.0529   131.5708     0.0140     0.1779     2.4001
  403.0000   -23.2082     5.6503     5.2073     8.1006   131.7433     0.0335     0.1743     2.3919
  403.5000   -23.1834     5.9338     5.3157     8.1758   130.8737     0.0337     0.1485     2.3911
  404.0000   -23.1586     6.2315     5.5062     8.1761   120.6610     0.0035     0.1372     2.4173
  404.5000   -23.1339     6.5442     6.0677     8.1464   116.8277     0.0035     0.1336     2.4614
  405.0000   -22.9603     6.8726     6.5499     8.1617   116.8292     0.0079     0.1312     2.4629
  405.5000   -22.9355     7.0700     6.7381     8.1770   119.6330     0.0094     0.1300     2.4674
  406.0000   -22.9107     7.2731     6.9317     8.1773   122.8789     0.0094     0.1300     2.4726
  406.5000   -22.8854     7.4308     7.0819     8.1625   122.4379     0.0093     0.1306     2.4734
  407.0000   -23.0100     7.4883     7.1859     8.1629   123.3247     0.0078     0.1312     2.4711
  407.5000   -22.9790     7.5474     7.3416     8.1482   126.2760     0.0078     0.1312     2.4703
  408.0000   -23.1092     7.6582     7.3476     8.1485   125.9825     0.0033     0.1279     2.4718
  408.5000   -23.0782     7.7173     7.3549     8.1338   124.2141     0.0002     0.1241     2.4764
  409.0000   -23.0534     7.7235     7.4104     8.1341   122.7406    -0.0058     0.1289     2.4853
  409.5000   -23.0287     7.6752     7.5205     8.1344   122.1517    -0.0088     0.1319     2.4819
  410.0000   -23.1527     7.6830     7.5266     8.1347   122.3011    -0.0073     0.1361     2.4656
  410.5000   -23.2829     7.6892     7.4811     8.1350   123.0400    -0.0044     0.1373     2.4636
  411.0000   -23.4008     7.6955     7.4871     8.1353   126.2863    -0.0029     0.1385     2.4628
  411.5000   -23.3760     7.7099     7.4932     8.1371   129.2376    -0.0029     0.1397     2.4673
  412.0000   -23.3512     7.7611     7.4992     8.1529   129.8287     0.0015     0.1385     2.4583
  412.5000   -23.3259     7.7674     7.4524     8.1662   124.5208     0.0030     0.1373     2.4583
  413.0000   -23.1518     7.7738     7.4073     8.1815   120.0975     0.0030     0.1361     2.4635
  413.5000   -23.1218     7.7802     7.4148     8.1818   119.8036     0.0074     0.1325     2.4673
  414.0000   -23.0971     7.7879     7.4208     8.1670   121.4278     0.0089     0.1298     2.4702
  414.5000   -23.0723     7.7942     7.4268     8.1374   123.7892     0.0074     0.1283     2.4740
  415.0000   -23.0475     7.8005     7.4329     8.1227   126.0030     0.0028     0.1256     2.4807
  415.5000   -23.0227     7.8068     7.4390     8.1081   126.8894     0.0028     0.1205     2.4859
  416.0000   -22.8491     7.8131     7.4463     8.1084   127.4809     0.0013     0.1247     2.4942
  416.5000   -22.6755     7.8194     7.4524     8.1087   128.0723     0.0013     0.1265     2.4822
  417.0000   -22.6508     7.7705     7.4584     8.1240   128.0738     0.0027     0.1254     2.4844
  417.5000   -22.7753     7.6706     7.4644     8.1243   127.1903     0.0042     0.1254     2.4829
  418.0000   -22.7500     7.6255     7.4178     8.1396   125.1269     0.0071     0.1257     2.4709
  418.5000   -22.7247     7.5276     7.2237     8.1399   123.3584     0.0086     0.1308     2.4836
  419.0000   -22.5258     7.4308     7.0805     8.1551   121.5861     0.0086     0.1314     2.4717
  419.5000   -22.3718     7.4368     7.0377     8.1554   120.2464     0.0086     0.1296     2.4724
  420.0000   -22.6509     7.2423     7.0448     8.1557   118.1513     0.0053     0.1356     2.4761
  420.5000   -22.7749     7.1001     6.7654     8.1560   116.8746     0.0025     0.1380     2.4687
  421.0000   -22.7439     6.8656     6.4936     8.1413   117.3363     0.0040     0.1425     2.4627
  421.5000   -22.7191     6.6834     6.2351     8.1416   119.3673     0.0084     0.1449     2.4634
  422.0000   -22.2479     6.5086     6.1592     8.1419   127.7288     0.0099     0.1506     2.4349
  422.5000   -22.0743     6.5138     6.0812     8.1422   137.3823    -0.0021     0.1503     2.4400
  423.0000   -22.0496     6.4744     6.0432     8.1425   142.8410    -0.0066     0.1476     2.4499
  423.5000   -22.0248     6.4796     5.8852     8.1278   143.1374    -0.0051     0.1531     2.4297
  424.0000   -22.0000     6.3524     5.7301     8.0832   140.3365    -0.0022     0.1597     2.4275
  424.5000   -21.9747     6.3140     5.4651     8.0536   132.6684     0.0038     0.1614     2.4342
  425.0000   -21.9494     6.1901     5.3937     8.0389   127.8026     0.0082     0.1639     2.4215
  425.5000   -21.9195     5.8507     5.3992     8.0242   125.1492     0.0142     0.1704     2.4162
  426.0000   -21.8947     5.5923     5.4036     8.0395   125.2982     0.0246     0.1686     2.4095
  426.5000   -21.8699     5.7146     5.4079     8.0398   129.2819     0.0156     0.1626     2.4117
  427.0000   -21.8451     5.8385     5.4497     8.0551   134.2981     0.0051     0.1449     2.4312
  427.5000   -21.8203     5.9651     5.4995     8.0554   134.5942     0.0021     0.1351     2.4484
  428.0000   -21.7956     6.2644     5.9465     8.0557   124.8615     0.0006     0.1339     2.4768
  428.5000   -21.7708     6.5787     6.4006     8.0560   123.8302     0.0020     0.1384     2.4685
  429.0000   -21.7460     6.7677     6.6299     8.0413   124.4220     0.0035     0.1399     2.4588
  429.5000   -21.7212     6.9621     6.8204     8.0266   125.0134     0.0050     0.1381     2.4543
  430.0000   -21.6964     6.9678     6.8259     8.0270   125.4574     0.0064     0.1360     2.4640
  430.5000   -21.8448     6.9734     6.8314     8.0273   125.9013     0.0079     0.1354     2.4670
  431.0000   -22.2659     6.9791     6.7901     8.0125   126.3453     0.0079     0.1378     2.4670
  431.5000   -22.8126     6.9368     6.6093     7.9979   125.7568     0.0063     0.1387     2.4640
  432.0000   -22.9366     6.7952     6.0506     7.9832   121.7759     0.0078     0.1354     2.4550
  432.5000   -23.2094     6.5323     5.6142     7.9985   121.3345     0.0093     0.1348     2.4625
  433.0000   -23.3335     6.1030     5.2818     7.9988   123.5488     0.0107     0.1399     2.4662
  433.5000   -23.4575     5.7413     5.1781     7.9991   125.9101     0.0141     0.1417     2.4594
