~VERSION INFORMATION
 VERS.                2.0:   CWLS LOG ASCII STANDARD - VERSION 2.0
 WRAP.                 NO:   ONE LINE PER DEPTH STEP
~WELL INFORMATION
#MNEM.UNIT      DATA TYPE    INFORMATION
#----------   ------------   ------------------------------
 STRT.F            0.0000:   START DEPTH
 STOP.F          978.0000:   STOP DEPTH
 STEP.F            0.5000:   STEP LENGTH
 NULL.          -999.2500:   NO VALUE
 COMP. FENIX & SCISSON INC:   COMPANY
 WELL. N.P.R #3 SX-14 #53:   WELL
 FLD .             TEAPOT:   FIELD
 LOC .      S14 T38N R78W:   LOCATION
 CNTY.            NATRONA:   COUNTY
 STAT.            WYOMING:   STATE
 CTRY. UNITED STATES OF AMERICA:   COUNTRY
 SRVC.              Welex:   SERVICE COMPANY
 DATE.        06-MAR-1977:   LOGDATE
 API .       490251029800:   API NUMBER
~CURVE INFORMATION
#MNEM.UNIT       API CODE    CURVE DESCRIPTION
#----------   ------------   ------------------------------
 DEPT.F                  :   
 SPR .MV     07 010 01 00:   SPONTANEOUS POTENTIAL
 SGRD.OHMM   07 220 05 00:   SHALLOW RESISTIVITY
 ILD .OHMM   07 120 46 00:   INDUCTION LOG DEEP
 ILM .OHMM   07 120 44 00:   INDUCTION LOG MEDIUM
 GRD .GAPI   45 310 01 00:   GAMMA RAY FROM DENSITY LOG
 CALD.IN     45 280 60 00:   CALIPER
 RHOB.G/C3   45 350 01 00:   BULK DENSITY
 DPHI.DEC    45 890 12 00:   DENSITY POROSITY SANDSTONE
 CORR.G/C3   45 356 01 00:   DENSITY CORRECTION
~PARAMETER INFORMATION
#MNEM.UNIT          VALUE    DESCRIPTION
#----------   ------------   ------------------------------
 PD  .                 GL:   PERMANENT DATUM
 EPD .F              5230:   ELEVATION PERMANENT DATUM
 LMF .                 GL:   LOG MEASURED FROM
 DMF .                 GL:   DRILLING MEASURED FROM
 EGL .F              5230:   GROUND LEVEL
 DATE.             3-6-77:   RUN DATE
 RUN .                  1:   RUN NUMBER
 DD  .F               989:   DEPTH DRILLER
 DL  .F               980:   DEPTH LOGGER
 BLI .F               978:   BOTTOM LOG INTERVAL
 TLI .F                50:   TOP LOG INTERVAL
 CS  .IN            8.625:   CASING SIZE
 CBD .F                42:   CASING BOTTOM DRILLER
 CBL .F                42:   CASING BOTTOM LOGGER
 BS  .IN            7.875:   BIT SIZE
 BSD .F               989:   BIT SIZE AT DEPTH
 DFT .            KCL MUD:   DRILLING FLUID TYPE
 DFD .                8.4:   DRILLING FLUID DENSITY
 DFV .                 30:   DRILLING FLUID VISCOSITY
 DFPH.                7.2:   DRILLING FLUID PH
 DFL .               14.4:   DRILLING FLUID LOSS
 MSS .            MUD PIT:   MUD SAMPLE SOURCE
 RMS .OHMM            .41:   RESISTIVITY MUD SAMPLE
 MST .F                48:   MUD SAMPLE TEMPERATURE
 RMF .OHMM            .39:   RESISTIVITY MUD FILTRATE SAMPLE
 MFST.F                48:   MUD FILTRATE SAMPLE TEMPERATURE
 RMC .OHMM            .55:   RESISTIVITY MUD CAKE
 MCST.F                48:   MUD CAKE SAMPLE TEMPERATURE
 MFSS.           FANN KIT:   MUD FILTRATE SAMPLE SOURCE
 MCSS.           FANN KIT:   MUD CAKE SAMPLE SOURCE
 RMB .OHMM            .34:   RESISTIVITY MUD AT BHT
 BHT .F                58:   BOTTOM HOLE TEMPERATURE
 TCS .HRS               2:   TIME CURCULATED STOPPED
 MRT .F                58:   MAXIMUM RECORDED TEMPERATURE
 LUN .               8611:   LOGGING UNIT NUMBER
 LUL .           GILLETTE:   LOGGING UNIT LOCATION
 ENGI.            C. DOAK:   RECORDING ENGINEER
 WITN.           S. BURKE:   WITNESSED BY
 CLNT.            A2DTECH:   CLIENT CODE
 ORIG.        2" 5" PRINT:   ORIGIN OF DATA
 UWI .       490251029800:   UNIQUE WELL ID
 DICO. A2D Technologies, Inc.:   DIGITIZING COMPANY
~OTHER INFORMATION
~A    DEPT     SPR       SGRD        ILD        ILM        GRD       CALD       RHOB       DPHI       CORR   
# ...
  766.5000   -44.7445    19.0889    16.7667    21.2889    64.8455     7.8058     2.4077     0.1439     0.0684
  767.0000   -44.7224    18.4136    17.2277    19.0352    67.4072     7.8022     2.4074     0.1439     0.0694
  767.5000   -44.7003    18.2274    17.7072    17.0201    70.2863     7.7987     2.4075     0.1412     0.0707
  768.0000   -44.6783    17.9972    18.2008    15.2183    76.2287     7.7952     2.4194     0.1320     0.0719
  768.5000   -44.6562    17.7495    18.7549    14.3701    81.9823     7.7917     2.4377     0.1228     0.0732
  769.0000   -44.6341    17.9558    18.7549    15.4202    87.6924     7.7882     2.4560     0.1136     0.0744
  769.5000   -44.6121    18.1855    18.3552    16.1784    91.8460     7.7846     2.4696     0.1059     0.0756
  770.0000   -44.5900    18.4181    17.9419    16.9723    87.0440     7.7786     2.4798     0.0994     0.0769
  770.5000   -44.5678    18.6536    17.5380    17.7968    85.2349     7.7697     2.4898     0.0900     0.0782
  771.0000   -44.5460    18.8922    17.1432    18.2452    87.2557     7.7608     2.4943     0.0923     0.0753
  771.5000   -44.5569    19.1025    16.7572    15.9903    88.9031     7.7520     2.4899     0.0965     0.0718
  772.0000   -44.5719    17.7682    16.3800    14.1316    90.3169     7.7431     2.4738     0.1057     0.0684
  772.5000   -44.5869    16.6082    16.0112    15.0182    89.7830     7.7342     2.4576     0.1149     0.0649
  773.0000   -44.6018    16.1922    15.6508    13.3525    87.8445     7.7248     2.4413     0.1241     0.0624
  773.5000   -44.6168    19.5238    15.2984    13.4858    89.0154     7.7333     2.4366     0.1275     0.0631
  774.0000   -44.6317    20.2015    14.9540    13.6903    90.3956     7.7469     2.4370     0.1280     0.0638
  774.5000   -44.6466    17.0301    14.6173    13.8979    91.7641     7.7606     2.4328     0.1301     0.0637
  775.0000   -44.6615    16.1870    14.2883    14.1086    93.1531     7.7742     2.4247     0.1349     0.0601
  775.5000   -44.6765    18.4443    13.9666    13.6313    95.4265     7.7879     2.4161     0.1397     0.0565
  776.0000   -44.6914    21.6728    13.6522    13.1701    98.0415     7.8015     2.4074     0.1445     0.0529
  776.5000   -44.7064    24.2537    13.3448    12.5210    98.9537     7.8151     2.3988     0.1493     0.0493
  777.0000   -44.7212    18.6912    13.0444    12.6206    99.7866     7.8228     2.3898     0.1542     0.0463
  777.5000   -44.7366    15.3242    12.7507    12.8100   100.2057     7.8227     2.3939     0.1570     0.0463
  778.0000   -44.7131    15.8990    12.4795    13.0022   100.3792     7.8227     2.4009     0.1491     0.0463
  778.5000   -44.6664    16.4886    12.1067    13.1093    99.3760     7.8227     2.4080     0.1425     0.0465
  779.0000   -44.6191    16.5095    11.8262    12.7375    98.3786     7.8227     2.4150     0.1359     0.0490
  779.5000   -44.5718    16.5229    11.7460    12.5210    97.3873     7.8227     2.4220     0.1294     0.0515
  780.0000   -44.5245    16.5369    11.6345    13.3380    96.3883     7.8227     2.4241     0.1271     0.0539
  780.5000   -44.4773    16.5515    11.7032    14.2388    95.9680     7.8227     2.4190     0.1323     0.0575
  781.0000   -44.4301    16.5662    11.8232    13.9557    96.1019     7.8227     2.4313     0.1263     0.0613
  781.5000   -44.3828    16.5808    11.9435    13.7253    96.8234     7.8227     2.4451     0.1206     0.0652
  782.0000   -44.3356    16.5954    12.0648    14.5463    98.1326     7.8227     2.4532     0.1165     0.0684
  782.5000   -44.2883    16.6101    12.1874    15.2200    99.4254     7.8227     2.4502     0.1187     0.0667
  783.0000   -44.2411    16.6247    12.3112    15.9250   100.7218     7.8227     2.4504     0.1169     0.0635
  783.5000   -44.1939    16.6430    12.4066    16.3416   102.2746     7.8227     2.4535     0.1156     0.0600
  784.0000   -44.1466    16.6250    12.3385    15.5886   104.0432     7.8227     2.4512     0.1171     0.0595
  784.5000   -44.0994    16.5963    12.2837    15.0487   104.1712     7.8227     2.4470     0.1185     0.0617
  785.0000   -44.0522    16.5674    12.2292    15.2389   103.0680     7.8227     2.4462     0.1194     0.0640
  785.5000   -44.0049    16.5386    12.1749    15.4586   102.6702     7.8227     2.4462     0.1185     0.0631
  786.0000   -43.9577    16.5098    12.1209    15.7522   103.9296     7.8227     2.4443     0.1196     0.0617
  786.5000   -43.9105    16.4810    12.0671    15.2722   105.1526     7.8227     2.4363     0.1255     0.0603
  787.0000   -43.8632    16.4523    12.0136    14.5614   105.9567     7.8227     2.4287     0.1313     0.0588
  787.5000   -43.8160    16.4237    11.9602    14.1086   105.2564     7.8227     2.4209     0.1371     0.0574
  788.0000   -43.7687    16.3950    11.9072    15.4655   104.2822     7.8227     2.4200     0.1360     0.0563
  788.5000   -43.7215    16.3665    11.8543    14.9317   101.9345     7.8227     2.4227     0.1347     0.0563
  789.0000   -43.6743    16.3380    11.8017    13.9797   100.9912     7.8226     2.4254     0.1333     0.0563
  789.5000   -43.6270    16.3095    11.7492    15.1841   100.0824     7.8238     2.4282     0.1320     0.0563
  790.0000   -43.5798    16.2811    11.6972    14.8429   101.0268     7.8427     2.4309     0.1307     0.0564
  790.5000   -43.5326    16.2527    11.6342    14.2084   102.1191     7.8240     2.4336     0.1293     0.0553
  791.0000   -43.4853    16.2243    11.7352    13.7253   103.1994     7.8031     2.4364     0.1280     0.0542
  791.5000   -43.4381    16.1927    11.8650    14.4058   104.3195     7.7834     2.4381     0.1278     0.0530
  792.0000   -43.3909    16.2156    11.9962    15.4655   102.7371     7.7843     2.4336     0.1297     0.0518
  792.5000   -43.3436    16.2435    12.1289    15.0655    99.6511     7.7859     2.4287     0.1317     0.0506
  793.0000   -43.2964    16.2712    12.2630    14.3118    97.6984     7.7875     2.4238     0.1337     0.0494
  793.5000   -43.2491    16.2989    12.2932    13.5998    95.6833     7.7890     2.4204     0.1353     0.0482
  794.0000   -43.2019    16.3257    12.2932    14.1003    95.6747     7.7905     2.4178     0.1367     0.0470
  794.5000   -43.1547    16.3868    12.2932    15.0453    98.1228     7.7920     2.4156     0.1380     0.0459
  795.0000   -43.1074    16.4904    12.3077    14.0885    97.9037     7.7936     2.4134     0.1393     0.0447
  795.5000   -43.0602    16.8590    12.4340    13.2358    98.7199     7.7951     2.4111     0.1406     0.0435
  796.0000   -43.0130    17.5140    12.5617    13.7048   100.7925     7.7966     2.4088     0.1408     0.0423
  796.5000   -42.9657    18.5834    12.6365    14.1055   103.4393     7.7981     2.4100     0.1404     0.0411
  797.0000   -42.9185    17.4911    12.6365    13.7410   103.7614     7.7997     2.4124     0.1400     0.0399
  797.5000   -42.8713    16.4946    12.5483    13.2327   103.0815     7.8012     2.4148     0.1396     0.0387
  798.0000   -42.8240    16.0442    12.3705    13.3944   101.9277     7.8027     2.4147     0.1387     0.0375
  798.5000   -42.7769    16.0442    12.1953    13.7208    99.5904     7.8011     2.4073     0.1490     0.0364
  799.0000   -42.7219    16.0442    12.0226    14.1086    99.4218     7.7993     2.3991     0.1509     0.0352
  799.5000   -42.6622    16.0442    11.8523    13.6701   103.7946     7.7974     2.3909     0.1530     0.0346
  800.0000   -42.6023    15.9348    11.6843    13.1584   106.3397     7.7956     2.3850     0.1565     0.0353
  800.5000   -42.5425    15.7740    11.5190    12.6394   105.3646     7.7938     2.3807     0.1600     0.0359
  801.0000   -42.4827    15.6148    11.3165    12.5940   103.7930     7.7920     2.3783     0.1606     0.0368
  801.5000   -42.4229    15.4572    11.3288    12.5543   103.2802     7.7902     2.3782     0.1602     0.0387
  802.0000   -42.3631    15.3012    11.3557    12.5210   102.5602     7.7883     2.3849     0.1576     0.0411
  802.5000   -42.3032    15.0453    11.3834    12.6913   100.0549     7.7865     2.3940     0.1501     0.0462
