~VERSION INFORMATION
 VERS.                2.0:   CWLS LOG ASCII STANDARD - VERSION 2.0
 WRAP.                 NO:   ONE LINE PER DEPTH STEP
~WELL INFORMATION
#MNEM.UNIT      DATA TYPE    INFORMATION
#----------   ------------   ------------------------------
 STRT.F           95.0000:   START DEPTH
 STOP.F          922.0000:   STOP DEPTH
 STEP.F            0.5000:   STEP LENGTH
 NULL.          -999.2500:   NO VALUE
 COMP.          U.S. NAVY:   COMPANY
 WELL. RES 3 TEAPOT DOM #57S-11:   WELL
 FLD .             TEAPOT:   FIELD
 LOC .      S11 T38N R78W:   LOCATION
 CNTY.            NATRONA:   COUNTY
 STAT.            WYOMING:   STATE
 CTRY. UNITED STATES OF AMERICA:   COUNTRY
 SRVC.       Schlumberger:   SERVICE COMPANY
 DATE.        02-AUG-1961:   LOGDATE
 API .       490250632800:   API NUMBER
~CURVE INFORMATION
#MNEM.UNIT       API CODE    CURVE DESCRIPTION
#----------   ------------   ------------------------------
 DEPT.F                  :   
 GR  .GAPI   30 310 01 00:   GAMMA RAY
 SPR .MV     05 010 01 00:   SPONTANEOUS POTENTIAL FROM RES.
 CILD.MMHO   05 110 46 00:   CONDUCTIVITY INDUCTION LOG DEEP
 ASN .OHMM   05 041 16 00:   AMPLIFIED SHORT NORMAL 16"
 ILD .OHMM   05 120 46 00:   INDUCTION LOG DEEP
~PARAMETER INFORMATION
#MNEM.UNIT          VALUE    DESCRIPTION
#----------   ------------   ------------------------------
 PD  .                 GL:   PERMANENT DATUM
 EPD .F              5213:   ELEVATION PERMANENT DATUM
 LMF .                 KB:   LOG MEASURED FROM
 DAPD.F                 6:   FEET ABOVE PERMANENT DATUM
 DMF .                 KB:   DRILLING MEASURED FROM
 EKB .F              5219:   KELLING BUSHING
 EGL .F              5213:   GROUND LEVEL
 DATE.             8-2-61:   RUN DATE
 RUN .                  1:   RUN NUMBER
 DD  .F               920:   DEPTH DRILLER
 DL  .F               921:   DEPTH LOGGER
 BLI .F               920:   BOTTOM LOG INTERVAL
 TLI .F               100:   TOP LOG INTERVAL
 BS  .IN             6.75:   BIT SIZE
 BSD .F               920:   BIT SIZE AT DEPTH
 DFT .       OIL EMULSION:   DRILLING FLUID TYPE
 DFD .                9.2:   DRILLING FLUID DENSITY
 DFV .                 55:   DRILLING FLUID VISCOSITY
 MFSS.                  M:   MUD FILTRATE SAMPLE SOURCE
 MCSS.                  M:   MUD CAKE SAMPLE SOURCE
 RMB .OHMM            .75:   RESISTIVITY MUD AT BHT
 BHT .F                80:   BOTTOM HOLE TEMPERATURE
 TCS .HRS               1:   TIME CURCULATED STOPPED
 MRT .F                80:   MAXIMUM RECORDED TEMPERATURE
 LUN .               2552:   LOGGING UNIT NUMBER
 LUL .                RIV:   LOGGING UNIT LOCATION
 ENGI.             RANDLE:   RECORDING ENGINEER
 WITN.          VORGENSEN:   WITNESSED BY
 CLNT.            A2DTECH:   CLIENT CODE
 ORIG.       2", 5" PRINT:   ORIGIN OF DATA
 UWI .       490250632800:   UNIQUE WELL ID
 DICO. A2D Technologies, Inc.:   DIGITIZING COMPANY
~OTHER INFORMATION
~A   DEPT       GR        SPR       CILD        ASN        ILD   
# ...
  217.0000  -999.2500   -53.1632   167.9304     7.0000     5.6568
  217.5000  -999.2500   -53.0765   169.0290     6.8873     5.6013
  218.0000  -999.2500   -52.9907   170.1275     6.7714     5.5305
  218.5000  -999.2500   -52.9032   171.2261     6.7330     5.4678
  219.0000  -999.2500   -52.8236   172.8457     6.6991     5.3918
  219.5000  -999.2500   -52.9482   171.8437     6.6840     5.3678
  220.0000  -999.2500   -53.1415   170.8417     6.7262     5.4842
  220.5000  -999.2500   -53.3058   167.5081     6.7987     5.6285
  221.0000  -999.2500   -53.5126   165.6909     6.8822     5.7284
  221.5000  -999.2500   -53.5779   167.3467     6.9074     5.6227
  222.0000  -999.2500   -53.4473   170.9064     6.9015     5.5453
  222.5000  -999.2500   -53.3415   174.4624     6.8879     5.4622
  223.0000  -999.2500   -53.2101   178.0094     6.8516     5.3977
  223.5000  -999.2500   -53.0493   181.7924     6.6878     5.3258
  224.0000  -999.2500   -52.8585   185.8282     6.4979     5.2716
  224.5000  -999.2500   -52.6765   189.8597     6.3204     5.2071
  225.0000  -999.2500   -52.4851   193.8878     6.1259     5.0826
  225.5000  -999.2500   -52.3079   197.9158     6.0157     4.9690
  226.0000  -999.2500   -52.1017   201.9439     5.9820     4.8479
  226.5000  -999.2500   -52.0042   205.9118     5.9576     4.7343
  227.0000  -999.2500   -52.2093   207.4449     5.9648     4.6100
  227.5000  -999.2500   -52.4439   208.9178     5.9673     4.5521
  228.0000  -999.2500   -52.6798   208.9178     5.9726     4.5669
  228.5000  -999.2500   -52.9142   206.6551     5.9775     4.6319
  229.0000  -999.2500   -53.1506   204.4580     5.9802     4.7079
  229.5000  -999.2500   -53.3847   202.2609     5.9973     4.7806
  230.0000  -999.2500   -53.4044   200.0638     6.0357     4.8536
  230.5000  -999.2500   -53.2650   197.8666     6.0635     4.9286
  231.0000  -999.2500   -53.1024   195.6695     6.1312     4.9737
  231.5000  -999.2500   -52.9409   193.4724     6.2359     4.9923
  232.0000  -999.2500   -52.7804   191.2753     6.3187     5.0149
  232.5000  -999.2500   -52.6181   189.0782     6.3689     5.0353
  233.0000  -999.2500   -52.4598   186.8810     6.3803     5.0569
  233.5000  -999.2500   -52.2905   184.8697     6.3493     5.0778
  234.0000  -999.2500   -52.1856   184.8697     6.3136     5.0992
  234.5000  -999.2500   -52.3289   185.3467     6.3224     5.1201
  235.0000  -999.2500   -52.6765   186.1523     6.3692     5.1419
  235.5000  -999.2500   -52.9282   186.8737     6.4052     5.1593
  236.0000  -999.2500   -52.7447   186.1752     6.4512     5.1606
  236.5000  -999.2500   -52.6166   185.0243     6.4237     5.1601
  237.0000  -999.2500   -52.4768   183.8735     6.3843     5.1604
  237.5000  -999.2500   -52.3882   182.8657     6.3480     5.1595
  238.0000  -999.2500   -52.4949   182.8657     6.3114     5.1609
  238.5000  -999.2500   -52.6889   183.2899     6.2724     5.1585
  239.0000  -999.2500   -52.8769   183.8677     6.2450     5.1635
  239.5000  -999.2500   -52.8949   182.8657     6.2418     5.1544
  240.0000  -999.2500   -52.5829   178.9312     6.3230     5.2355
  240.5000  -999.2500   -52.3030   175.4897     6.4393     5.3897
  241.0000  -999.2500   -52.0436   172.0188     6.5289     5.5100
  241.5000  -999.2500   -52.2267   168.5351     6.6276     5.6653
  242.0000  -999.2500   -52.4793   167.3309     6.6786     5.7105
  242.5000  -999.2500   -52.7131   183.0757     6.7223     5.3175
  243.0000  -999.2500   -52.9645   205.1056     6.5933     4.9309
  243.5000  -999.2500   -53.1810   227.1731     6.1309     4.5522
  244.0000  -999.2500   -53.2232   249.2576     5.7292     4.1576
  244.5000  -999.2500   -53.0947   267.0357     5.3002     3.8580
  245.0000  -999.2500   -52.8242   268.0735     4.9740     3.7505
  245.5000  -999.2500   -52.5705   271.0608     4.8005     3.6686
  246.0000  -999.2500   -52.3097   271.9791     4.7125     3.5742
  246.5000  -999.2500   -52.0495   279.1453     4.5988     3.5613
  247.0000  -999.2500   -51.7949   283.7442     4.8129     3.5335
  247.5000  -999.2500   -51.5244   283.0661     5.2235     3.7819
  248.0000  -999.2500   -51.3806   249.6135     5.5438     4.1983
  248.5000  -999.2500   -51.4890   222.2803     5.7826     4.5470
  249.0000  -999.2500   -51.6743   194.9470     5.9676     4.9208
  249.5000  -999.2500   -51.8593   181.0507     6.1240     5.2895
  250.0000  -999.2500   -52.0382   171.8437     6.3085     5.5820
  250.5000  -999.2500   -52.2311   162.6367     6.5157     5.7924
  251.0000  -999.2500   -52.3839   154.8096     6.7175     5.9769
  251.5000  -999.2500   -52.4265   152.5981     6.8035     6.1651
  252.0000  -999.2500   -52.2199   149.9739     6.8725     6.3418
  252.5000  -999.2500   -51.7901   146.5218     6.9794     6.5486
  253.0000  -999.2500   -51.4012   143.0348     7.1631     6.6875
  253.5000  -999.2500   -50.9874   138.7457     7.2427     6.7005
  254.0000  -999.2500   -50.6246   135.7126     7.3204     6.7513
  254.5000  -999.2500   -50.6252   138.4785     7.3499     6.7298
  255.0000  -999.2500   -50.9648   142.6883     7.3405     6.6080
  255.5000  -999.2500   -51.3343   144.7214     7.2534     6.4745
  256.0000  -999.2500   -51.6877   147.1383     7.1142     6.3036
  256.5000  -999.2500   -52.0677   151.0701     6.9847     6.0997
  257.0000  -999.2500   -52.3667   158.3206     6.8313     5.8792
  257.5000  -999.2500   -52.5420   166.8337     6.6808     5.6568
  258.0000  -999.2500   -52.7977   171.3903     6.5301     5.4032
  258.5000  -999.2500   -52.7871   182.2157     6.3776     5.1517
  259.0000  -999.2500   -52.5784   193.0411     6.2069     4.8794
  259.5000  -999.2500   -52.3477   203.8665     5.8734     4.6555
  260.0000  -999.2500   -52.1305   211.9238     5.4722     4.4135
  260.5000  -999.2500   -51.8958   244.4790     5.2841     4.1712
  261.0000  -999.2500   -51.7925   269.0381     4.8422     3.9286
  261.5000  -999.2500   -51.8077   268.1713     4.5777     3.6812
  262.0000  -999.2500   -51.7966   267.1643     4.5517     3.6504
  262.5000  -999.2500   -51.8231   266.0321     4.4850     3.6635
  263.0000  -999.2500   -52.0141   264.7094     4.4520     3.8359
  263.5000  -999.2500   -52.2192   263.0261     4.6248     4.0028
  264.0000  -999.2500   -52.4184   252.5365     4.9479     4.3063
  264.5000  -999.2500   -52.6231   230.6699     5.3019     4.6632
  265.0000  -999.2500   -52.7979   208.8033     5.5212     5.0640
  265.5000  -999.2500   -52.7867   184.8697     5.5559     5.2953
  266.0000  -999.2500   -52.5585   176.3594     5.6254     5.3064
  266.5000  -999.2500   -52.3325   172.1723     5.6789     5.3535
  267.0000  -999.2500   -52.0940   175.3948     5.7378     5.3884
  267.5000  -999.2500   -51.9948   178.8577     5.7441     5.4199
  268.0000  -999.2500   -52.0078   178.8577     5.7180     5.4732
  268.5000  -999.2500   -52.0012   178.8577     5.7038     5.3399
  269.0000  -999.2500   -52.0046   178.8577     5.5927     5.0294
  269.5000  -999.2500   -52.0028   183.6139     5.3780     4.7194
  270.0000  -999.2500   -52.0039   194.8898     5.1585     4.4649
  270.5000  -999.2500   -52.0037   215.9319     4.9610     4.2425
  271.0000  -999.2500   -52.0041   273.2951     4.7134     3.7663
  271.5000  -999.2500   -52.0040   333.8406     4.5838     3.2191
  272.0000  -999.2500   -52.0042   384.7968     3.9950     2.7898
  272.5000  -999.2500   -52.0039   424.7516     3.6011     2.4851
  273.0000  -999.2500   -52.0046   444.3684     3.1980     2.1672
  273.5000  -999.2500   -52.0034   443.0013     3.1817     2.1748
  274.0000  -999.2500   -52.0058   436.1967     3.2005     2.2530
  274.5000  -999.2500   -51.9872   429.3587     3.3848     2.2856
  275.0000  -999.2500   -51.9530   422.3447     3.8812     2.3685
  275.5000  -999.2500   -51.9233   388.7776     4.4142     2.4974
  276.0000  -999.2500   -51.8918   334.0882     4.9372     3.1389
  276.5000  -999.2500   -51.8609   260.0201     5.4764     3.8218
  277.0000  -999.2500   -51.8302   227.3146     5.4153     4.6309
  277.5000  -999.2500   -51.8028   195.8918     5.3362     4.8742
