~VERSION INFORMATION
 VERS.                2.0:   CWLS LOG ASCII STANDARD - VERSION 2.0
 WRAP.                 NO:   ONE LINE PER DEPTH STEP
~WELL INFORMATION
#MNEM.UNIT      DATA TYPE    INFORMATION
#----------   ------------   ------------------------------
 STRT.F            8.5000:   START DEPTH
 STOP.F          642.0000:   STOP DEPTH
 STEP.F            0.5000:   STEP LENGTH
 NULL.          -999.2500:   NO VALUE
 COMP. FENIX & SCISSON INC:   COMPANY
 WELL. 26-36 S11 W1 #26-36 SX11:   WELL
 FLD .             TEAPOT:   FIELD
 LOC .      S11 T38N R78W:   LOCATION
 CNTY.            NATRONA:   COUNTY
 STAT.            WYOMING:   STATE
 CTRY. UNITED STATES OF AMERICA:   COUNTRY
 SRVC.      Dresser Atlas:   SERVICE COMPANY
 DATE.        16-JUL-1980:   LOGDATE
 API .       490251083500:   API NUMBER
~CURVE INFORMATION
#MNEM.UNIT       API CODE    CURVE DESCRIPTION
#----------   ------------   ------------------------------
 DEPT.F                  :   
 NPHI.DEC    42 890 03 00:   NEUTRON POROSITY SANDSTONE
 RHOB.G/C3   45 350 01 00:   BULK DENSITY
 CORR.G/C3   45 356 01 00:   DENSITY CORRECTION
 GRD .GAPI   45 310 01 00:   GAMMA RAY FROM DENSITY LOG
 CALD.IN     45 280 60 00:   CALIPER
 SPR .MV     07 010 01 00:   SPONTANEOUS POTENTIAL
 SFL .OHMM   07 220 01 00:   SHALLOW FOCUSED LOG RESISTIVITY
 ILD .OHMM   07 120 46 00:   INDUCTION LOG DEEP
 ILM .OHMM   07 120 44 00:   INDUCTION LOG MEDIUM
 DPHI.DEC    45 890 12 00:   DENSITY POROSITY SANDSTONE
~PARAMETER INFORMATION
#MNEM.UNIT          VALUE    DESCRIPTION
#----------   ------------   ------------------------------
 PD  .                 GL:   PERMANENT DATUM
 EPD .F              5184:   ELEVATION PERMANENT DATUM
 LMF .                 KB:   LOG MEASURED FROM
 DAPD.F                 5:   FEET ABOVE PERMANENT DATUM
 DMF .                 KB:   DRILLING MEASURED FROM
 EKB .F              5189:   KELLING BUSHING
 EGL .F              5184:   GROUND LEVEL
 DATE.            7-16-80:   RUN DATE
 RUN .                  1:   RUN NUMBER
 DD  .F               630:   DEPTH DRILLER
 DL  .F               637:   DEPTH LOGGER
 BLI .F               635:   BOTTOM LOG INTERVAL
 TLI .F                 8:   TOP LOG INTERVAL
 BS  .IN            7.875:   BIT SIZE
 BSD .F               630:   BIT SIZE AT DEPTH
 DFT .           CHEM GEL:   DRILLING FLUID TYPE
 DFD .                9.2:   DRILLING FLUID DENSITY
 DFV .                 65:   DRILLING FLUID VISCOSITY
 DFPH.                 10:   DRILLING FLUID PH
 DFL .                  8:   DRILLING FLUID LOSS
 MSS .           FLOWLINE:   MUD SAMPLE SOURCE
 RMS .OHMM            .61:   RESISTIVITY MUD SAMPLE
 MST .F                60:   MUD SAMPLE TEMPERATURE
 RMC .OHMM            .62:   RESISTIVITY MUD CAKE
 MCST.F                58:   MUD CAKE SAMPLE TEMPERATURE
 MFSS.               MEAS:   MUD FILTRATE SAMPLE SOURCE
 MCSS.               MEAS:   MUD CAKE SAMPLE SOURCE
 RMB .OHMM            .41:   RESISTIVITY MUD AT BHT
 BHT .F                90:   BOTTOM HOLE TEMPERATURE
 TCS .HRS               5:   TIME CURCULATED STOPPED
 MRT .F                90:   MAXIMUM RECORDED TEMPERATURE
 LUN .               6109:   LOGGING UNIT NUMBER
 LUL .              GLTTE:   LOGGING UNIT LOCATION
 ENGI.            GARONER:   RECORDING ENGINEER
 WITN.              AMEND:   WITNESSED BY
 CLNT.            A2DTECH:   CLIENT CODE
 ORIG.           5" PRINT:   ORIGIN OF DATA
 UWI .       490251083500:   UNIQUE WELL ID
 DICO. A2D Technologies, Inc.:   DIGITIZING COMPANY
~OTHER INFORMATION
~A    DEPT    NPHI       RHOB       CORR        GRD       CALD        SPR        SFL          ILD      ILM       DPHI   
# ...
  410.5000     0.3397     2.4536     0.0456    91.8392     7.8571   -38.3532     6.9175     4.8263     5.1032     0.1904
  411.0000     0.3523     2.4311     0.0383    91.6656     7.8523   -38.3523     5.2271     4.8254     5.1032     0.1683
  411.5000     0.3600     2.3859     0.0297    91.4913     7.8536   -38.3544     5.5190     4.8283     5.1032     0.1373
  412.0000     0.3350     2.3634     0.0362    91.3159     7.8602   -38.3567     7.8704     4.8283     5.3281     0.1056
  412.5000     0.3127     2.4274     0.0551    91.1368     7.8670   -38.4759    10.1027     5.0617     5.5966     0.1085
  413.0000     0.2988     2.4813     0.0678    91.1703     7.8699   -38.6147    10.1027     5.4193     5.8786     0.1052
  413.5000     0.2974     2.5041     0.0674    91.6456     7.8694   -38.7561     9.8806     5.8020     6.1747     0.1005
  414.0000     0.2990     2.5028     0.0611    92.1163     7.8960   -38.8955     9.6848     6.2118     6.4859     0.0864
  414.5000     0.2982     2.5040     0.0555    92.5167     7.9297   -39.0356     9.5585     6.6506     6.8126     0.0926
  415.0000     0.3066     2.5212     0.0574    91.8952     7.9633   -39.1749     9.5585     6.8565     7.1559     0.1005
  415.5000     0.3172     2.5351     0.0598    90.8884     7.9907   -39.3158     9.6886     6.5133     7.3818     0.1060
  416.0000     0.3237     2.5202     0.0548    89.8795     7.9888   -39.4568     9.8024     6.2385     7.2468     0.1072
  416.5000     0.3117     2.5049     0.0470    89.0629     7.9855   -39.5580     9.9179     5.9753     6.8307     0.1090
  417.0000     0.3022     2.5003     0.0392    89.9306     7.9824   -39.5333    10.0863     5.7232     6.4985     0.1190
  417.5000     0.3069     2.5003     0.0314    90.1868     7.9792   -39.5068    10.4826     5.4818     6.1802     0.1343
  418.0000     0.3130     2.4912     0.0299    88.6822     7.9761   -39.4775     9.0981     5.3351     5.8777     0.1399
  418.5000     0.3201     2.4705     0.0298    89.2240     7.9729   -39.4487     7.2518     5.2425     5.5901     0.1541
  419.0000     0.3272     2.4500     0.0296    90.2913     7.9697   -39.4204     5.5966     5.1515     5.3914     0.1622
  419.5000     0.3343     2.4293     0.0257    91.3796     7.9666   -39.3917     6.3708     5.1032     5.2924     0.1401
  420.0000     0.3364     2.4141     0.0242    91.4415     7.9634   -39.3631     8.4310     5.1032     5.5813     0.1251
  420.5000     0.3200     2.4435     0.0304    90.3949     7.9603   -39.3345    10.8768     5.3542     5.8773     0.1138
  421.0000     0.3080     2.4776     0.0359    89.3536     7.9571   -39.3060     8.2463     5.6540     6.1894     0.1088
  421.5000     0.3043     2.4873     0.0358    88.9088     7.9540   -39.2776     8.5972     5.9706     6.5182     0.0939
  422.0000     0.3006     2.4933     0.0391    88.8993     7.9507   -39.2493     9.3293     6.3049     6.8644     0.0817
  422.5000     0.2921     2.5129     0.0492    88.8969     7.9500   -39.2208    10.1237     6.6580     7.2288     0.0876
  423.0000     0.2862     2.5327     0.0593    88.7353     7.9502   -39.1929    10.6779     7.0307     7.6123     0.0986
  423.5000     0.2994     2.5414     0.0633    88.2552     7.9506   -39.1647    10.6779     7.4244     7.9490     0.1054
  424.0000     0.3059     2.5231     0.0547    87.7777     7.9717   -39.1562    10.6779     7.5789     8.1233     0.1038
  424.5000     0.2994     2.5098     0.0454    87.3103     7.9355   -39.1579    10.7652     7.7415     8.2750     0.1005
  425.0000     0.2985     2.5037     0.0418    86.9757     7.8767   -39.1591    10.9170     7.9075     8.4310     0.1002
  425.5000     0.2974     2.5090     0.0418    86.1449     7.8289   -39.1208    11.0710     8.0772     8.5900     0.1025
  426.0000     0.2933     2.5144     0.0416    85.3182     7.8293   -38.9590    11.2858     8.2463     8.7519     0.1009
  426.5000     0.2946     2.5087     0.0372    84.4927     7.8286   -38.7994    11.1214     8.2463     8.8782     0.1000
  427.0000     0.2913     2.5091     0.0327    83.7364     7.8278   -38.6370    10.8768     8.2463     8.8782     0.1033
  427.5000     0.2872     2.5114     0.0282    83.8586     7.8270   -38.4746    10.8768     8.2463     8.8782     0.1103
  428.0000     0.2835     2.5107     0.0224    84.6700     7.8262   -38.3123    10.8768     8.2463     8.9180     0.1132
  428.5000     0.2853     2.4991     0.0147    84.8364     7.8253   -38.1524    10.9918     8.2463     8.9644     0.1079
  429.0000     0.2880     2.4908     0.0070    83.8057     7.8245   -37.9902    11.1643     8.1961     9.0110     0.1005
  429.5000     0.2908     2.4969    -0.0004    83.1714     7.8237   -37.9490    11.3394     8.0947     9.0436     0.0960
  430.0000     0.2938     2.5061    -0.0002    84.8700     7.8229   -37.9510    11.4961     7.9945     9.0042     0.0957
  430.5000     0.2986     2.5153     0.0059    86.5384     7.8220   -37.9520    11.3845     7.8956     8.9281     0.1032
  431.0000     0.3006     2.5235     0.0114    88.2254     7.8212   -37.9507    11.0512     7.7979     8.8526     0.1078
  431.5000     0.2978     2.5152     0.0125    88.9785     7.8204   -37.9533    10.7276     7.7014     8.7778     0.1059
  432.0000     0.2994     2.5064     0.0082    89.3205     7.8196   -37.9504    10.4135     7.6594     8.7168     0.1024
  432.5000     0.2951     2.5012     0.0039    88.1856     7.8187   -37.9439    10.1027     7.7540     8.8220     0.0892
  433.0000     0.2901     2.5067     0.0020    86.6939     7.8179   -37.8245    10.4140     8.0117     9.1129     0.0922
  433.5000     0.2848     2.5126     0.0033    85.1934     7.8171   -37.7160    10.9686     8.2779     9.4136     0.0976
  434.0000     0.2795     2.5313     0.0056    83.6929     7.8162   -37.5960    11.5528     8.5529     9.7242     0.1048
  434.5000     0.2781     2.5233     0.0038    82.1853     7.8154   -37.5481    12.1506     8.7135    10.2042     0.1080
  435.0000     0.2709     2.5097     0.0010    80.7418     7.8146   -37.5516    11.9284     8.0506    10.1057     0.0863
  435.5000     0.2663     2.5051     0.0037    80.8829     7.8138   -37.5486    11.9284     7.4535     9.1056     0.0856
  436.0000     0.2722     2.5220     0.0124    82.2182     7.8129   -37.5585    12.3541     6.9003     8.0449     0.0932
  436.5000     0.2807     2.5413     0.0210    83.5084     7.8121   -37.5439    12.7731     6.3874     7.1073     0.1004
  437.0000     0.2775     2.5286     0.0259    84.6613     7.8113   -37.5165    13.0816     5.9123     6.2793     0.1053
  437.5000     0.2912     2.5118     0.0248    87.3046     7.8105   -36.9920     9.5806     5.4728     5.5487     0.1101
  438.0000     0.2993     2.4838     0.0188    90.1612     7.8100   -36.4959     6.7497     5.1883     5.0946     0.1149
  438.5000     0.3345     2.4128     0.0112    90.9228     7.8100   -36.2939     4.7554     5.2052     5.5645     0.1179
  439.0000     0.3520     2.3443     0.0035    86.0618     7.8100   -36.1704     6.2798     5.1983     6.1297     0.1090
  439.5000     0.3003     2.3098    -0.0022    82.0426     7.8100   -36.0476    14.6136     5.5319     6.7528     0.0956
  440.0000     0.2995     2.3641     0.0014    77.8647     7.8100   -35.9430    14.2303     5.9387     7.4387     0.0793
  440.5000     0.2733     2.4780     0.0061    77.9847     7.8100   -35.9437    13.2058     7.0165     8.1935     0.0818
  441.0000     0.2531     2.5398     0.0109    79.0214     7.8100   -35.9420    12.6075     8.2899     9.0239     0.0861
  441.5000     0.2515     2.5512     0.0157    80.0635     7.8100   -35.9430    12.6075     9.0757     9.4866     0.0928
  442.0000     0.2577     2.5398     0.0179    79.4861     7.8100   -35.9438    12.6075     9.4212     9.6538     0.0970
  442.5000     0.2641     2.5290     0.0142    79.3045     7.8100   -35.9443    12.6075     9.5585     9.8227     0.0956
  443.0000     0.2619     2.5182     0.0075    79.2985     7.8100   -35.9443    12.5386     9.5585     9.9192     0.0879
  443.5000     0.2687     2.5150     0.0019    79.3001     7.8100   -35.9439    12.4552     9.5585     9.9162     0.0867
