~VERSION INFORMATION
 VERS.                2.0:   CWLS LOG ASCII STANDARD - VERSION 2.0
 WRAP.                 NO:   ONE LINE PER DEPTH STEP
~WELL INFORMATION
#MNEM.UNIT      DATA TYPE    INFORMATION
#----------   ------------   ------------------------------
 STRT.F           42.0000:   START DEPTH
 STOP.F          866.0000:   STOP DEPTH
 STEP.F            0.5000:   STEP LENGTH
 NULL.          -999.2500:   NO VALUE
 COMP. FENIX & SCISSON INC:   COMPANY
 WELL.      NPR-SX #47-11:   WELL
 FLD .             TEAPOT:   FIELD
 LOC .      S11 T38N R78W:   LOCATION
 CNTY.            NATRONA:   COUNTY
 STAT.            WYOMING:   STATE
 CTRY. UNITED STATES OF AMERICA:   COUNTRY
 SRVC.            Unknown:   SERVICE COMPANY
 DATE.        25-FEB-1978:   LOGDATE
 API .       490251058700:   API NUMBER
~CURVE INFORMATION
#MNEM.UNIT       API CODE    CURVE DESCRIPTION
#----------   ------------   ------------------------------
 DEPT.F                  :   
 SPR .MV     07 010 01 00:   SPONTANEOUS POTENTIAL
 SN  .OHMM   07 040 16 00:   SHORT NORMAL 16'
 ILD .OHMM   07 120 46 00:   INDUCTION LOG DEEP
 CORR.G/C3   45 356 01 00:   DENSITY CORRECTION
 RHOB.G/C3   45 350 01 00:   BULK DENSITY
 DPHI.DEC    45 890 12 00:   DENSITY POROSITY SANDSTONE
 CALD.IN     45 280 60 00:   CALIPER FROM DENSITY LOG
 GRD .GAPI   45 310 01 00:   GAMMA RAY FROM DENSITY LOG
~PARAMETER INFORMATION
#MNEM.UNIT          VALUE    DESCRIPTION
#----------   ------------   ------------------------------
 PD  .                 GL:   PERMANENT DATUM
 EPD .F              5202:   ELEVATION PERMANENT DATUM
 LMF .                 KB:   LOG MEASURED FROM
 DAPD.F                 4:   FEET ABOVE PERMANENT DATUM
 DMF .                 KB:   DRILLING MEASURED FROM
 EKB .F              5206:   KELLING BUSHING
 EGL .F              5202:   GROUND LEVEL
 DATE.            2-25-78:   RUN DATE
 RUN .                  1:   RUN NUMBER
 DD  .F               870:   DEPTH DRILLER
 DL  .F               870:   DEPTH LOGGER
 BLI .F               865:   BOTTOM LOG INTERVAL
 TLI .F                47:   TOP LOG INTERVAL
 CS  .IN            8.625:   CASING SIZE
 CBD .F                40:   CASING BOTTOM DRILLER
 CBL .F                47:   CASING BOTTOM LOGGER
 BS  .IN            7.875:   BIT SIZE
 BSD .F               870:   BIT SIZE AT DEPTH
 DFT .                KCL:   DRILLING FLUID TYPE
 DFD .                8.7:   DRILLING FLUID DENSITY
 DFV .                 35:   DRILLING FLUID VISCOSITY
 DFL .                4.8:   DRILLING FLUID LOSS
 MSS .         CIRCULATED:   MUD SAMPLE SOURCE
 RMS .OHMM            1.5:   RESISTIVITY MUD SAMPLE
 MST .F                70:   MUD SAMPLE TEMPERATURE
 RMF .OHMM            .75:   RESISTIVITY MUD FILTRATE SAMPLE
 MFST.F                74:   MUD FILTRATE SAMPLE TEMPERATURE
 RMC .OHMM            1.8:   RESISTIVITY MUD CAKE
 MCST.F                68:   MUD CAKE SAMPLE TEMPERATURE
 MFSS.              PRESS:   MUD FILTRATE SAMPLE SOURCE
 RMB .OHMM            1.5:   RESISTIVITY MUD AT BHT
 BHT .F                70:   BOTTOM HOLE TEMPERATURE
 TCS .HRS               2:   TIME CURCULATED STOPPED
 MRT .F                70:   MAXIMUM RECORDED TEMPERATURE
 LUN .               2958:   LOGGING UNIT NUMBER
 LUL .               CASP:   LOGGING UNIT LOCATION
 CLNT.            A2DTECH:   CLIENT CODE
 ORIG.        2" 5" PRINT:   ORIGIN OF DATA
 UWI .       490251058700:   UNIQUE WELL ID
 DICO. A2D Technologies, Inc.:   DIGITIZING COMPANY
~OTHER INFORMATION
~A   DEPT      SPR         SN        ILD       CORR       RHOB       DPHI         CALD      GRD   
# ...
  771.0000   -27.9892    10.3783    10.1201     0.0158     2.4439     0.1251     8.9299    78.0225
  771.5000   -28.0345    10.3997    10.1045     0.0190     2.4465     0.1257     8.9301    78.4815
  772.0000   -28.0813    10.4299    10.0949     0.0192     2.4511     0.1213     8.9304    77.6762
  772.5000   -28.1285    10.4597    10.1252     0.0147     2.4548     0.1243     8.9306    76.8146
  773.0000   -28.1809    10.4745    10.1485     0.0102     2.4516     0.1223     8.9309    78.8761
  773.5000   -28.0162    10.4620    10.1721     0.0057     2.4532     0.1239     8.9311    82.5403
  774.0000   -27.7910    10.4507    10.1880     0.0061     2.4527     0.1227     8.9313    85.0696
  774.5000   -27.6127    10.4395    10.1774     0.0085     2.4560     0.1185     8.9316    88.6099
  775.0000   -27.7937    10.4284    10.1569     0.0105     2.4581     0.1227     8.9318    90.0304
  775.5000   -27.9819    10.4172    10.1360     0.0093     2.4519     0.1254     8.9321    89.8921
  776.0000   -28.1620    10.4061    10.1153     0.0050     2.4524     0.1243     8.9323    89.1188
  776.5000   -27.7234    10.3949    10.0947     0.0059     2.4548     0.1213     8.9326    89.1052
  777.0000   -27.1977    10.3838    10.0740     0.0087     2.4599     0.1189     8.9328    89.0980
  777.5000   -26.7807    10.3727    10.0535     0.0117     2.4625     0.1170     8.9331    88.7393
  778.0000   -26.7722    10.3616    10.0329     0.0115     2.4615     0.1184     8.9333    87.6982
  778.5000   -26.7531    10.3505    10.0124     0.0095     2.4584     0.1212     8.9335    88.1025
  779.0000   -26.7329    10.3395     9.9920     0.0074     2.4548     0.1235     8.9338    91.4416
  779.5000   -26.7133    10.3284     9.9716     0.0053     2.4515     0.1248     8.9340    88.2508
  780.0000   -26.6936    10.3174     9.9512     0.0047     2.4518     0.1244     8.9343    84.6760
  780.5000   -26.6739    10.3063     9.9309     0.0050     2.4523     0.1227     8.9345    84.9152
  781.0000   -26.6543    10.2954     9.9106     0.0053     2.4525     0.1235     8.9348    81.5384
  781.5000   -26.6346    10.2848     9.8904     0.0053     2.4525     0.1238     8.9350    80.1595
  782.0000   -26.6147    10.2655     9.8701     0.0049     2.4525     0.1235     8.9353    81.1921
  782.5000   -26.5944    10.2451     9.8500     0.0044     2.4512     0.1248     8.9355    87.0159
  783.0000   -26.5935    10.2248     9.8302     0.0019     2.4498     0.1261     8.9357    87.1534
  783.5000   -26.5936    10.2046     9.8188    -0.0006     2.4487     0.1246     8.9360    84.7743
  784.0000   -26.5936    10.1845     9.8185     0.0039     2.4557     0.1207     8.9362    82.8541
  784.5000   -26.5936    10.1643     9.8185     0.0093     2.4624     0.1169     8.9365    83.0015
  785.0000   -26.5936    10.1443     9.8185     0.0144     2.4671     0.1125     8.9367    82.3054
  785.5000   -26.5938    10.1242     9.8185     0.0146     2.4708     0.1163     8.9370    83.1033
  786.0000   -26.5935    10.1042     9.8185     0.0121     2.4640     0.1209     8.9372    83.6804
  786.5000   -26.5901    10.0842     9.8186     0.0082     2.4560     0.1232     8.9375    81.2160
  787.0000   -26.6810    10.0643     9.8185     0.0083     2.4545     0.1230     8.9377    78.3080
  787.5000   -26.8034    10.0444     9.8185     0.0093     2.4543     0.1168     8.9380    79.8728
  788.0000   -27.2968    10.0245     9.7510     0.0103     2.4605     0.1159     8.9382    81.9180
  788.5000   -27.1484    10.0047     9.6839     0.0079     2.4621     0.1216     8.9384    82.6655
  789.0000   -26.8533     9.9850     9.6173     0.0037     2.4558     0.1197     8.9387    84.5951
  789.5000   -26.5823     9.9653     9.5512    -0.0004     2.4496     0.1207     8.9389    87.1542
  790.0000   -26.6987     9.9456     9.4855     0.0012     2.4506     0.1235     8.9392    90.8074
  790.5000   -26.7667     9.9262     9.4203     0.0027     2.4502     0.1245     8.9394    89.8427
  791.0000   -26.5516     9.8919     9.3555     0.0033     2.4463     0.1243     8.9397    88.9583
  791.5000   -26.3371     9.7901     9.2912     0.0049     2.4523     0.1261     8.9399    88.0555
  792.0000   -26.1239     9.6892     9.2273     0.0106     2.4641     0.1141     8.9402    86.8101
  792.5000   -25.9111     9.5895     9.1638     0.0124     2.4626     0.1157     8.9404    85.1740
  793.0000   -25.7970     9.4907     9.1008     0.0108     2.4646     0.1166     8.9406    83.7011
  793.5000   -25.7765     9.3930     9.0382     0.0103     2.4647     0.1193     8.9409    84.0118
  794.0000   -25.7560     9.2963     8.9761     0.0080     2.4596     0.1245     8.9411    85.5331
  794.5000   -25.7363     9.2005     8.9143     0.0035     2.4498     0.1213     8.9414    86.3052
  795.0000   -25.7167     9.0940     8.8530     0.0065     2.4591     0.1162     8.9416    88.6849
  795.5000   -25.6971     8.9164     8.7882     0.0119     2.4634     0.1169     8.9419    86.6540
  796.0000   -25.6774     8.7422     8.5826     0.0155     2.4635     0.1180     8.9421    91.2846
  796.5000   -25.6577     8.5718     8.3682     0.0151     2.4600     0.1210     8.9424    89.7146
  797.0000   -25.6378     8.4042     8.1591     0.0148     2.4535     0.1261     8.9426    88.5177
  797.5000   -25.6171     8.2401     7.9391     0.0147     2.4469     0.1290     8.9429    92.7158
  798.0000   -25.6017     8.0361     7.6641     0.0161     2.4402     0.1321     8.9431    95.0244
  798.5000   -25.7930     7.6513     7.3758     0.0175     2.4366     0.1337     8.9433    99.4201
  799.0000   -26.0014     7.2849     7.0984     0.0194     2.4336     0.1194     8.9436   100.3202
  799.5000   -26.2090     6.9760     6.7495     0.0287     2.4514     0.1228     8.9438    98.2760
  800.0000   -26.3729     6.6319     6.2437     0.0371     2.4534     0.1292     8.9441    99.6970
  800.5000   -26.1920     5.9963     5.7758     0.0099     2.4662     0.1041     8.9443    98.0559
  801.0000   -26.0044     5.5330     5.3431     0.0114     2.4876     0.1117     8.9446    95.2534
  801.5000   -25.8207     5.2389     5.0488     0.0078     2.4766     0.1197     8.9448    95.4911
  802.0000   -25.8875     5.2389     5.0488     0.0035     2.4566     0.1157     8.9451    95.1799
  802.5000   -25.9915     5.3079     5.1979    -0.0004     2.4735     0.1063     8.9453    94.3403
  803.0000   -26.0964     5.8638     5.3365     0.0045     2.4837     0.1094     8.9455    90.7676
  803.5000   -26.1922     6.6220     5.7658     0.0149     2.4849     0.1011     8.9458    90.8007
  804.0000   -26.1617     7.5574     6.4641     0.0169     2.4988     0.0977     8.9460    86.4857
  804.5000   -26.1280     8.1176     7.2529     0.0163     2.5000     0.0996     8.9463    88.0488
  805.0000   -26.0949     8.2625     7.9863     0.0149     2.4963     0.1014     8.9465    90.7365
  805.5000   -26.0620     8.4101     8.1719     0.0113     2.4926     0.1026     8.9470    91.8624
  806.0000   -26.0291     8.5603     8.3938     0.0097     2.4942     0.1008     8.9475    91.7004
  806.5000   -25.9961     8.7132     8.4151     0.0107     2.4965     0.0969     8.9480    92.9385
  807.0000   -25.9632     8.8683     8.4392     0.0116     2.4985     0.0975     8.9485    94.6067
  807.5000   -25.9303     9.0340     8.4633     0.0121     2.4981     0.0997     8.9490    95.2868
  808.0000   -25.8973     9.2053     8.5905     0.0087     2.4948     0.1010     8.9495    95.9063
  808.5000   -25.8642     9.2928     8.7551     0.0052     2.4915     0.1030     8.9500    95.5532
  809.0000   -25.8299     9.3753     8.9228     0.0091     2.4959     0.0992     8.9505    92.9284
  809.5000   -25.8020     9.5809     9.0938     0.0132     2.4964     0.1011     8.9510    91.1198
  810.0000   -26.0295     9.8097     9.2681     0.0149     2.4956     0.0993     8.9515    93.2815
  810.5000   -26.2777    10.0440     9.4457     0.0166     2.4992     0.0972     8.9521    95.5350
  811.0000   -26.5271    10.2839     9.6267     0.0175     2.4979     0.1005     8.9525    93.9592
