~VERSION INFORMATION
 VERS.                2.0:   CWLS LOG ASCII STANDARD - VERSION 2.0
 WRAP.                 NO:   ONE LINE PER DEPTH STEP
~WELL INFORMATION
#MNEM.UNIT      DATA TYPE    INFORMATION
#----------   ------------   ------------------------------
 STRT.F           12.0000:   START DEPTH
 STOP.F          448.0000:   STOP DEPTH
 STEP.F            0.5000:   STEP LENGTH
 NULL.          -999.2500:   NO VALUE
 COMP. LAWRENCE/ALLISON INC:   COMPANY
 WELL. LI2 -52-61 SX10 #10-10:   WELL
 FLD .             TEAPOT:   FIELD
 LOC .      S10 T38N R78W:   LOCATION
 CNTY.            NATRONA:   COUNTY
 STAT.            WYOMING:   STATE
 CTRY. UNITED STATES OF AMERICA:   COUNTRY
 SRVC.      Dresser Atlas:   SERVICE COMPANY
 DATE.        13-JAN-1985:   LOGDATE
 API .       490251100400:   API NUMBER
~CURVE INFORMATION
#MNEM.UNIT       API CODE    CURVE DESCRIPTION
#----------   ------------   ------------------------------
 DEPT.F                  :   
 AC  .US/F   60 520 00 00:   ACCOUSTIC
 SPR .MV     11 010 01 00:   SPONTANEOUS POTENTIAL FROM RES.
 RD  .OHMM   11 220 10 00:   RESISTIVITY DEEP
 RS  .OHMM   11 220 09 00:   RESISTIVITY SHALLOW
 RMLL.OHMM   11 270 04 00:   MICRO LATEROLOG
 GRD .GAPI   45 310 01 00:   GAMMA RAY FROM DENSITY LOG
 CALD.IN     45 280 60 00:   CALIPER FROM DENSITY LOG
 CORR.G/C3   45 356 01 00:   DENSITY CORRECTION
 DEN .G/C3   45 350 01 00:   COMPENSATED BULK DENSTIY
 PORD.DEC    45 890 12 00:   POROSITY DENSITY SANDSTONE
 CNC .DEC    42 890 03 00:   NEUTRON POROSITY SANDSTONE
~PARAMETER INFORMATION
#MNEM.UNIT          VALUE    DESCRIPTION
#----------   ------------   ------------------------------
 PD  .                 GL:   PERMANENT DATUM
 EPD .F              5156:   ELEVATION PERMANENT DATUM
 LMF .                 GL:   LOG MEASURED FROM
 DMF .                 GL:   DRILLING MEASURED FROM
 EGL .F              5156:   GROUND LEVEL
 DATE.        13-JAN-1985:   RUN DATE
 RUN .                  1:   RUN NUMBER
 DD  .F               450:   DEPTH DRILLER
 DL  .F               450:   DEPTH LOGGER
 BLI .F               448:   BOTTOM LOG INTERVAL
 TLI .F                20:   TOP LOG INTERVAL
 CS  .IN            8.625:   CASING SIZE
 CBD .F                20:   CASING BOTTOM DRILLER
 CBL .F                20:   CASING BOTTOM LOGGER
 BS  .IN            7.875:   BIT SIZE
 BSD .F               450:   BIT SIZE AT DEPTH
 DFT .            KCL-H2O:   DRILLING FLUID TYPE
 MSS .               TANK:   MUD SAMPLE SOURCE
 RMS .OHMM           0.16:   RESISTIVITY MUD SAMPLE
 MST .F                20:   MUD SAMPLE TEMPERATURE
 RMF .OHMM           0.12:   RESISTIVITY MUD FILTRATE SAMPLE
 MFST.F                20:   MUD FILTRATE SAMPLE TEMPERATURE
 RMC .OHMM            0.2:   RESISTIVITY MUD CAKE
 MCST.F                20:   MUD CAKE SAMPLE TEMPERATURE
 MFSS.               CALC:   MUD FILTRATE SAMPLE SOURCE
 MCSS.               CALC:   MUD CAKE SAMPLE SOURCE
 BHT .F               100:   BOTTOM HOLE TEMPERATURE
 TCS .HRS               2:   TIME CURCULATED STOPPED
 MRT .F               100:   MAXIMUM RECORDED TEMPERATURE
 LUN .               6270:   LOGGING UNIT NUMBER
 LUL .                 FM:   LOGGING UNIT LOCATION
 ENGI.          E. GOVETT:   RECORDING ENGINEER
 WITN.             GROOMS:   WITNESSED BY
 CLNT.            A2DTECH:   CLIENT CODE
 ORIG.        2" 5" PRINT:   ORIGIN OF DATA
 UWI .       490251100400:   UNIQUE WELL ID
 DICO. A2D Technologies, Inc.:   DIGITIZING COMPANY
 R1  . POROSITY WITH SANDSTONE:   REMARKS 1
~OTHER INFORMATION
~A   DEPT       AC        SPR         RD         RS       RMLL         GRD      CALD       CORR        DEN       PORD        CNC   
# ...
  286.5000    97.0478   -30.2198    24.5763    20.5747    16.3859    84.4531     8.1295     0.0737     2.4196     0.1575     0.2543
  287.0000    96.5139   -30.3776    24.5644    20.2850    15.9227    82.7904     8.1287     0.0767     2.4219     0.1545     0.2507
  287.5000    95.7350   -30.5354    24.7260    20.2796    15.3799    81.5788     8.1278     0.0434     2.4150     0.1558     0.2455
  288.0000    93.6868   -30.6932    25.0623    20.7018    15.0573    82.4303     8.1269     0.0237     2.4056     0.1616     0.2437
  288.5000    89.4088   -30.7004    25.4037    21.1327    14.7414    85.0181     8.1259     0.0085     2.3961     0.1658     0.2441
  289.0000    88.1360   -30.8755    25.3931    21.2746    14.6343    83.2050     8.1100     0.0055     2.3900     0.1710     0.2387
  289.5000    87.6886   -31.1684    25.1775    21.1201    14.3273    79.7378     8.1091     0.0145     2.3846     0.1750     0.2344
  290.0000    87.6941   -31.3263    24.1644    20.6784    14.0266    79.5090     8.1233     0.0281     2.3838     0.1765     0.2342
  290.5000    88.2996   -31.3335    23.1673    20.1055    13.9237    84.3751     8.1224     0.0401     2.3920     0.1732     0.2378
  291.0000    91.0840   -31.4913    22.5225    19.4131    13.9191    87.9805     8.1214     0.0493     2.4034     0.1653     0.2424
  291.5000    92.7413   -31.6491    22.2024    19.0071    13.9144    89.1750     8.1205     0.0567     2.4177     0.1593     0.2439
  292.0000    93.5722   -31.9593    22.0397    18.8690    13.9098    87.3619     8.1196     0.0611     2.4275     0.1495     0.2421
  292.5000    94.0275   -32.1171    22.0304    18.7332    13.9051    84.7969     8.1188     0.0611     2.4327     0.1461     0.2376
  293.0000    94.4076   -32.4256    22.1758    18.5984    13.8994    85.7593     8.1179     0.0613     2.4357     0.1455     0.2328
  293.5000    94.6374   -32.4328    22.1646    18.5934    13.7984    87.3340     8.1018     0.0563     2.4349     0.1470     0.2301
  294.0000    94.9424   -32.5906    22.1558    18.5885    13.6032    88.0794     8.1010     0.0428     2.4288     0.1504     0.2295
  294.5000    95.0971   -32.5979    22.1469    18.4546    13.4108    88.5198     8.1001     0.0307     2.4235     0.1538     0.2404
  295.0000    95.0264   -32.6068    22.1380    18.3207    13.3134    88.3608     8.0992     0.0216     2.4166     0.1595     0.2447
  295.5000    95.0309   -32.6140    22.1288    18.3158    13.4090    86.2448     8.0982     0.0185     2.4068     0.1628     0.2450
  296.0000    94.8850   -32.6212    22.1181    18.3109    13.6799    84.1310     8.0973     0.0201     2.4037     0.1644     0.2452
  296.5000    94.7388   -32.6284    21.8037    18.1791    13.9626    82.3179     8.0814     0.0290     2.4074     0.1635     0.2626
  297.0000    94.4393   -32.6357    21.7950    18.0483    14.0554    81.7099     8.0806     0.0380     2.4111     0.1613     0.2645
  297.5000    94.2149   -32.6431    21.4853    17.9038    14.1500    83.5037     8.0797     0.0425     2.4164     0.1578     0.2608
  298.0000    93.8292   -32.8025    21.0331    17.3001    14.0461    87.4028     8.0636     0.0440     2.4209     0.1548     0.2554
  298.5000    93.4059   -32.8097    20.4237    16.9383    13.6429    87.6971     8.0477     0.0393     2.4239     0.1521     0.2499
  299.0000    93.0347   -32.9675    19.8766    16.5840    13.1837    87.6863     8.0468     0.0333     2.4276     0.1506     0.2464
  299.5000    92.9629   -33.1253    19.8686    16.5796    13.0880    87.6778     8.0460     0.0272     2.4275     0.1494     0.2461
  300.0000    93.2431   -33.1325    19.9014    16.8074    13.2334    87.6692     8.0451     0.0254     2.4254     0.1513     0.2484
  300.5000    93.7993   -33.2921    20.1431    16.8027    13.6353    83.9019     8.0570     0.0234     2.4161     0.1570     0.2577
  301.0000    93.5773   -33.2994    20.1182    16.7981    13.3483    83.4436     8.0689     0.0180     2.4100     0.1622     0.2595
  301.5000    93.2824   -33.4618    19.6974    16.5612    13.2505    85.5558     8.0569     0.0059     2.4062     0.1628     0.2520
  302.0000    92.8360   -33.6211    19.2829    16.1024    13.2452    88.8409     8.0559     0.0013     2.4100     0.1525     0.2381
  302.5000    92.6151   -33.6297    19.0089    16.0979    13.6135    90.6382     8.0549     0.0224     2.4248     0.1426     0.2242
  303.0000    92.3179   -33.6536    18.8696    16.0927    13.4187    90.9335     8.0537     0.0404     2.4393     0.1366     0.2227
  303.5000    92.3987   -33.7997    18.9939    16.0884    13.0452    88.6688     8.0526     0.0585     2.4514     0.1342     0.2309
  304.0000    92.6285   -33.9590    19.1187    16.0841    12.9496    86.8571     8.0516     0.0509     2.4551     0.1375     0.2527
  304.5000    92.8584   -33.9676    19.2445    16.0798    12.9444    86.3987     8.0506     0.0387     2.4521     0.1436     0.2539
  305.0000    93.0131   -34.1269    19.3711    16.1878    12.9391    88.4950     8.0496     0.0341     2.4415     0.1460     0.2555
  305.5000    93.1678   -34.1355    19.6327    16.4102    12.9328    92.3975     8.0486     0.0356     2.4353     0.1451     0.2588
  306.0000    93.2474   -34.2969    19.8998    16.7507    12.9276    94.6459     8.0473     0.0355     2.4361     0.1452     0.2573
  306.5000    93.2519   -34.3055    20.1706    16.9819    13.1963    95.5410     8.0463     0.0355     2.4361     0.1470     0.2468
  307.0000    93.1811   -34.4648    20.3033    17.2153    13.2831    89.5187     8.0453     0.0354     2.4330     0.1509     0.2413
  307.5000    93.1104   -34.6240    20.4368    17.4508    13.1844    86.9198     8.0443     0.0353     2.4269     0.1540     0.2435
  308.0000    93.1150   -34.7833    20.4266    17.4460    13.1790    84.6904     8.0433     0.0323     2.4231     0.1543     0.2444
  308.5000    93.1946   -34.9428    20.4185    17.4411    13.4503    82.8787     8.0423     0.0247     2.4216     0.1534     0.2444
  309.0000    93.2742   -34.9533    20.4103    17.3146    13.6347    81.9692     8.0410     0.0170     2.4223     0.1544     0.2436
  309.5000    93.3539   -34.9620    20.1200    17.0708    13.7244    83.0146     8.0400     0.0109     2.4222     0.1571     0.2415
  310.0000    93.3584   -34.9706    19.6949    16.8305    13.8146    85.2630     8.0390     0.0124     2.4184     0.1580     0.2451
  310.5000    93.2125   -35.1298    19.4151    16.5935    13.5226    86.9243     8.0380     0.0229     2.4146     0.1514     0.2621
  311.0000    93.0667   -35.2892    19.0065    16.3598    13.1193    87.8050     8.0370     0.0334     2.4176     0.1440     0.2651
  311.5000    92.8458   -35.4505    18.6065    16.1107    12.5151    86.4426     8.0359     0.0379     2.4289     0.1393     0.2579
  312.0000    92.6260   -35.4591    18.2064    16.0123    12.3373    87.6384     8.0347     0.0333     2.4432     0.1366     0.2467
  312.5000    92.4802   -35.4678    17.9544    16.0081    12.3323    89.8868     8.0337     0.0284     2.4492     0.1345     0.2425
  313.0000    92.4846   -35.4764    17.6992    16.0038    12.2420    90.6446     8.0327     0.0226     2.4537     0.1334     0.2407
  313.5000    92.4891   -35.6357    17.5695    15.9995    12.0680    89.4096     8.0317     0.0256     2.4537     0.1331     0.2395
  314.0000    92.5687   -35.7952    17.5625    15.9952    11.8953    88.8125     8.0307     0.0300     2.4551     0.1343     0.2390
  314.5000    92.7234   -35.8057    17.5555    16.1026    11.8081    91.6606     8.0296     0.0375     2.4559     0.1352     0.2423
  315.0000    92.8782   -35.8143    17.5467    16.0972    11.8034    94.6609     8.0284     0.0420     2.4558     0.1365     0.2454
  315.5000    93.0329   -35.8230    17.7855    16.3184    11.7987    96.1574     8.0274     0.0387     2.4528     0.1368     0.2554
  316.0000    93.2628   -35.6807    18.1533    17.0094    11.8764    96.1502     8.0264     0.0283     2.4512     0.1359     0.2608
  316.5000    93.6429   -35.3884    19.0515    18.1035    11.8714    93.2090     8.0406     0.0222     2.4512     0.1393     0.2609
