~VERSION INFORMATION
 VERS.                2.0:   CWLS LOG ASCII STANDARD - VERSION 2.0
 WRAP.                 NO:   ONE LINE PER DEPTH STEP
~WELL INFORMATION
#MNEM.UNIT      DATA TYPE    INFORMATION
#----------   ------------   ------------------------------
 STRT.F           17.0000:   START DEPTH
 STOP.F         1345.0000:   STOP DEPTH
 STEP.F            0.5000:   STEP LENGTH
 NULL.          -999.2500:   NO VALUE
 COMP. DEPARTMENT OF ENERGY:   COMPANY
 WELL. RES 3 TEAPOT DOME ##86S-11:   WELL
 FLD .             TEAPOT:   FIELD
 LOC .      S11 T38N R78W:   LOCATION
 CNTY.            NATRONA:   COUNTY
 STAT.            WYOMING:   STATE
 CTRY. UNITED STATES OF AMERICA:   COUNTRY
 SRVC.       Schlumberger:   SERVICE COMPANY
 DATE.        13-AUG-1959:   LOGDATE
 API .       490250633200:   API NUMBER
~CURVE INFORMATION
#MNEM.UNIT       API CODE    CURVE DESCRIPTION
#----------   ------------   ------------------------------
 DEPT.F                  :   
 SPR .MV     05 010 01 00:   SPONTANEOUS POTENTIAL FROM RES.
 CILD.MMHO   05 110 46 00:   CONDUCTIVITY INDUCTION LOG DEEP
 ILD .OHMM   05 120 46 00:   INDUCTION LOG DEEP
 ASN .OHMM   05 041 16 00:   AMPLIFIED SHORT NORMAL 16"
~PARAMETER INFORMATION
#MNEM.UNIT          VALUE    DESCRIPTION
#----------   ------------   ------------------------------
 PD  .                 GL:   PERMANENT DATUM
 EPD .F              5295:   ELEVATION PERMANENT DATUM
 LMF .                 KB:   LOG MEASURED FROM
 DAPD.F                 4:   FEET ABOVE PERMANENT DATUM
 DMF .                 KB:   DRILLING MEASURED FROM
 EKB .F              5299:   KELLING BUSHING
 EGL .F              5295:   GROUND LEVEL
 DATE.            8-13-59:   RUN DATE
 RUN .                  1:   RUN NUMBER
 DD  .F              1350:   DEPTH DRILLER
 DL  .F              1350:   DEPTH LOGGER
 BLI .F              1345:   BOTTOM LOG INTERVAL
 TLI .F                17:   TOP LOG INTERVAL
 CBD .F                17:   CASING BOTTOM DRILLER
 CBL .F                17:   CASING BOTTOM LOGGER
 BS  .IN             6.75:   BIT SIZE
 BSD .F              1350:   BIT SIZE AT DEPTH
 DFT .                GEL:   DRILLING FLUID TYPE
 DFD .                9.8:   DRILLING FLUID DENSITY
 DFV .                 65:   DRILLING FLUID VISCOSITY
 DFPH.                9.5:   DRILLING FLUID PH
 DFL .                5.4:   DRILLING FLUID LOSS
 RMS .OHMM           2.84:   RESISTIVITY MUD SAMPLE
 MST .F                69:   MUD SAMPLE TEMPERATURE
 RMF .OHMM            2.5:   RESISTIVITY MUD FILTRATE SAMPLE
 MFST.F                69:   MUD FILTRATE SAMPLE TEMPERATURE
 RMC .OHMM           2.46:   RESISTIVITY MUD CAKE
 MCST.F                69:   MUD CAKE SAMPLE TEMPERATURE
 MFSS.                  M:   MUD FILTRATE SAMPLE SOURCE
 MCSS.                  M:   MUD CAKE SAMPLE SOURCE
 TCS .HRS               1:   TIME CURCULATED STOPPED
 LUN .               2523:   LOGGING UNIT NUMBER
 LUL .               CSPR:   LOGGING UNIT LOCATION
 ENGI.             KNOBEL:   RECORDING ENGINEER
 WITN.             MARTIN:   WITNESSED BY
 CLNT.            A2DTECH:   CLIENT CODE
 ORIG.         2"5" PRINT:   ORIGIN OF DATA
 UWI .       490250633200:   UNIQUE WELL ID
 DICO. A2D Technologies, Inc.:   DIGITIZING COMPANY
~OTHER INFORMATION
~A   DEPT      SPR        CILD         ILD      ASN   
# ...
  601.0000   -13.5121   177.2260     5.8582     6.8500
  601.5000   -13.4753   179.0394     5.8430     6.7785
  602.0000   -13.3752   180.8528     5.8245     6.6888
  602.5000   -13.2898   183.3609     5.7378     6.4802
  603.0000   -13.1969   187.7130     5.6170     6.3411
  603.5000   -13.1081   192.0652     5.5019     6.1759
  604.0000   -13.0170   196.4173     5.3842     5.8748
  604.5000   -12.9270   200.7694     5.2675     5.7982
  605.0000   -12.8364   205.1216     5.1506     5.8129
  605.5000   -12.7463   209.4737     5.0268     5.8542
  606.0000   -12.6555   214.6486     5.0229     5.8917
  606.5000   -12.5662   215.5508     5.0466     5.9416
  607.0000   -12.4742   215.2209     5.0632     5.9392
  607.5000   -12.3870   214.1846     5.0834     5.8570
  608.0000   -12.2860   213.1484     5.1015     5.7728
  608.5000   -12.3214   211.9421     5.1208     5.7874
  609.0000   -12.4561   210.5156     5.1395     5.8678
  609.5000   -12.5866   208.8088     5.1585     5.9408
  610.0000   -12.7151   207.1021     5.1772     6.0183
  610.5000   -12.8547   205.3954     5.1960     6.0935
  611.0000   -12.9719   203.6887     5.2148     6.1704
  611.5000   -13.0466   201.9820     5.2336     6.1551
  612.0000   -13.1857   200.2752     5.2523     6.1223
  612.5000   -13.1159   198.5685     5.2711     6.0892
  613.0000   -13.0540   197.3861     5.2899     6.0720
  613.5000   -12.9829   197.0369     5.3087     6.1073
  614.0000   -12.9169   196.7282     5.3274     6.1478
  614.5000   -12.8484   196.4182     5.3462     6.1874
  615.0000   -12.7810   196.1042     5.3650     6.2301
  615.5000   -12.7131   195.7859     5.3838     6.2652
  616.0000   -12.6455   195.4653     5.4026     6.2286
  616.5000   -12.5782   195.1426     5.4214     6.1798
  617.0000   -12.5100   194.7946     5.4402     6.1333
  617.5000   -12.4436   193.2599     5.4592     6.0857
  618.0000   -12.3735   191.5965     5.4780     6.0397
  618.5000   -12.3105   189.9379     5.4971     6.0410
  619.0000   -12.2344   188.2751     5.5157     6.1287
  619.5000   -12.1834   186.6125     5.5360     6.2291
  620.0000   -12.0625   184.8662     5.5471     6.3324
  620.5000   -11.9101   186.1627     5.4707     6.4128
  621.0000   -11.9433   187.5829     5.3777     6.2660
  621.5000   -11.9506   193.3871     5.2809     6.0777
  622.0000   -11.9721   200.5625     5.1075     5.9012
  622.5000   -11.9859   209.2355     4.9307     5.6981
  623.0000   -12.0039   230.0468     4.6761     5.3239
  623.5000   -12.0196   251.3890     4.3209     4.9233
  624.0000   -12.0372   272.7312     3.9952     4.5183
  624.5000   -12.0523   294.0735     3.6289     4.1303
  625.0000   -12.0716   315.4156     3.4594     3.7042
  625.5000   -12.0831   336.7579     3.4795     3.5018
  626.0000   -12.1088   349.0741     3.5276     3.7926
  626.5000   -12.0267   349.0741     3.6603     4.0702
  627.0000   -11.8512   339.2222     3.8310     4.3667
  627.5000   -11.6928   323.8129     4.0893     4.6284
  628.0000   -11.5258   312.0845     4.4273     4.8677
  628.5000   -11.3630   283.1379     4.7524     5.1084
  629.0000   -11.1984   255.0304     5.0769     5.3465
  629.5000   -11.0334   226.9228     5.4127     5.5631
  630.0000   -10.8710   200.2137     5.6111     5.7611
  630.5000   -10.7031   193.7414     5.6842     5.9514
  631.0000   -10.5458   187.5759     5.7772     6.1546
  631.5000   -10.3686   182.4978     5.8601     6.2490
  632.0000   -10.3244   178.2665     5.9482     6.3182
  632.5000   -10.5745   174.0353     6.0340     6.3953
  633.0000   -10.8241   170.7357     6.1201     6.5231
  633.5000   -11.0725   168.2414     6.2074     6.7071
  634.0000   -11.3285   165.7536     6.2920     6.8733
  634.5000   -11.5666   163.2602     6.3833     7.0288
  635.0000   -11.8378   160.7748     6.4443     7.0066
  635.5000   -11.9175   158.2799     6.3691     6.9061
  636.0000   -12.0653   156.0286     6.2832     6.8380
  636.5000   -12.0111   161.1557     6.2052     6.6879
  637.0000   -11.7716   165.8430     6.1148     6.4834
  637.5000   -11.5922   170.5060     6.0490     6.2976
  638.0000   -11.3831   176.4682     5.8699     6.1031
  638.5000   -11.1900   183.2036     5.6064     5.9139
  639.0000   -10.9879   189.9391     5.3726     5.7201
  639.5000   -10.7915   195.7027     5.1258     5.5329
  640.0000   -10.5897   205.6268     4.8855     5.3418
  640.5000   -10.3956   227.8566     4.6470     5.0523
  641.0000   -10.1920   247.1994     4.4881     4.7754
  641.5000   -10.1229   263.3666     4.3794     4.5055
  642.0000   -10.1240   270.1221     4.2670     4.2715
  642.5000   -10.1576   275.9250     4.1634     4.5773
  643.0000   -10.4306   289.1510     4.0469     4.5218
  643.5000   -10.6880   305.9249     4.0388     4.3239
  644.0000   -10.9456   311.1823     4.0715     4.4366
  644.5000   -11.2062   311.1823     4.1537     4.7305
  645.0000   -11.4590   278.0851     4.5389     4.9766
  645.5000   -11.7282   250.3661     4.9132     5.2344
  646.0000   -11.9154   222.6471     5.1866     5.3632
  646.5000   -11.9286   209.0581     5.2224     5.4262
  647.0000   -11.9027   202.9202     5.2476     5.4974
  647.5000   -11.7222   201.9993     5.2730     5.4897
  648.0000   -11.5578   201.2437     5.2938     5.4373
  648.5000   -11.3916   200.4881     5.3257     5.4003
  649.0000   -11.2265   199.7325     5.3357     5.3509
  649.5000   -11.0605   198.9769     5.3878     5.3187
  650.0000   -10.8953   198.4093     5.1722     5.2391
  650.5000   -10.7287   218.0348     4.8074     4.9223
  651.0000   -10.5653   233.7509     4.5075     4.6386
  651.5000   -10.3961   253.1859     4.1457     4.3528
  652.0000   -10.2378   283.0061     3.9466     4.0671
  652.5000   -10.0531   312.8263     3.7446     3.7830
  653.0000    -9.9343   342.6465     3.5206     3.4739
  653.5000    -9.9941   378.8462     3.2878     3.4511
  654.0000   -10.1270   385.3347     3.1730     3.4948
  654.5000   -10.2697   407.8207     3.0543     3.5208
  655.0000   -10.4088   434.7816     2.9345     3.5704
  655.5000   -10.5503   434.7816     3.0707     3.8157
  656.0000   -10.6900   395.5027     3.5257     4.1673
  656.5000   -10.8322   346.7679     3.9842     4.4767
  657.0000   -10.9699   298.0330     4.4211     4.8514
  657.5000   -11.1184   240.8120     4.9292     5.0547
  658.0000   -11.3374   211.0399     5.2076     4.9974
  658.5000   -11.4393   214.6486     5.1306     4.9951
  659.0000   -11.5671   218.4378     5.1111     5.0102
  659.5000   -11.4291   222.9713     5.0612     5.0427
  660.0000   -11.2671   228.1814     5.0286     5.0653
  660.5000   -11.1040   228.1814     4.9847     5.0996
  661.0000   -10.9421   228.1814     4.9503     5.0596
  661.5000   -10.7786   228.1814     4.8668     4.9440
  662.0000   -10.6175   232.6923     4.7152     4.8341
  662.5000   -10.4515   237.8235     4.5650     4.7196
  663.0000   -10.2952   244.4207     4.4129     4.6072
  663.5000   -10.1207   251.8306     4.2615     4.4602
  664.0000    -9.9804   270.8564     4.1104     4.2740
  664.5000    -9.8047   290.2539     3.9577     4.0750
  665.0000    -9.8184   309.6400     3.8082     3.8933
  665.5000    -9.9971   330.8613     3.6498     3.6759
  666.0000   -10.1434   337.3481     3.4912     3.6110
  666.5000   -10.3090   344.4380     3.4695     3.7310
  667.0000   -10.4609   351.5413     3.4808     3.8306
  667.5000   -10.6265   358.6116     3.4630     3.9318
  668.0000   -10.7730   366.2156     3.5882     4.1185
  668.5000   -10.9540   345.2957     3.8801     4.4201
  669.0000   -11.0229   322.8097     4.1556     4.7140
  669.5000   -11.1597   268.9285     4.4387     5.0043
  670.0000   -11.2112   214.9193     4.7225     5.0880
  670.5000   -11.0716   209.4791     4.9869     5.1569
  671.0000   -10.9415   204.6614     5.0333     5.2669
  671.5000   -10.7997   200.5813     5.0666     5.4045
  672.0000   -10.6639   198.4093     5.1023     5.4431
  672.5000   -10.5256   201.5519     5.0997     5.3859
  673.0000   -10.3874   208.3333     5.0032     5.3123
  673.5000   -10.2512   225.4126     4.7558     5.0079
