~VERSION INFORMATION
 VERS.                2.0:   CWLS LOG ASCII STANDARD - VERSION 2.0
 WRAP.                 NO:   ONE LINE PER DEPTH STEP
~WELL INFORMATION
#MNEM.UNIT      DATA TYPE    INFORMATION
#----------   ------------   ------------------------------
 STRT.F           15.0000:   START DEPTH
 STOP.F          557.0000:   STOP DEPTH
 STEP.F            0.5000:   STEP LENGTH
 NULL.          -999.2500:   NO VALUE
 COMP. FENIX & SICISSOR INC.:   COMPANY
 WELL.       NPR #85-S-10:   WELL
 FLD .             TEAPOT:   FIELD
 LOC .      S10 T38N R78W:   LOCATION
 CNTY.            NATRONA:   COUNTY
 STAT.            WYOMING:   STATE
 CTRY. UNITED STATES OF AMERICA:   COUNTRY
 SRVC.           BIRDWELL:   SERVICE COMPANY
 DATE.        27-NOV-1978:   LOGDATE
 API .       490251075300:   API NUMBER
~CURVE INFORMATION
#MNEM.UNIT       API CODE    CURVE DESCRIPTION
#----------   ------------   ------------------------------
 DEPT.F                  :   
 CALD.IN     45 280 60 00:   CALIPER FROM DENSITY LOG
 DPHI.DEC    45 890 12 00:   DENSITY POROSITY SANDSTONE
 GRD .GAPI   45 310 01 00:   GAMMA RAY FROM DENSITY LOG
 RHOB.G/C3   45 350 01 00:   BULK DENSITY
 CORR.G/C3   45 356 01 00:   DENSITY CORRECTION
 ILD .OHMM   05 120 46 00:   INDUCTION LOG DEEP
 SN  .OHMM   05 040 00 00:   SHORT NORMAL
 SPR .MV     05 010 01 00:   SPONTANEOUS POTENTIAL
~PARAMETER INFORMATION
#MNEM.UNIT          VALUE    DESCRIPTION
#----------   ------------   ------------------------------
 PD  .                 GL:   PERMANENT DATUM
 EPD .F              5196:   ELEVATION PERMANENT DATUM
 LMF .                 KB:   LOG MEASURED FROM
 DAPD.F                 4:   FEET ABOVE PERMANENT DATUM
 DMF .                 KB:   DRILLING MEASURED FROM
 EKB .F              5200:   KELLING BUSHING
 EGL .F              5196:   GROUND LEVEL
 DATE.        27-NOV-1978:   RUN DATE
 RUN .                  1:   RUN NUMBER
 DD  .F               557:   DEPTH DRILLER
 DL  .F               551:   DEPTH LOGGER
 BLI .F               545:   BOTTOM LOG INTERVAL
 TLI .F                48:   TOP LOG INTERVAL
 CS  .IN            8.625:   CASING SIZE
 CBD .F                40:   CASING BOTTOM DRILLER
 CBL .F                35:   CASING BOTTOM LOGGER
 BS  .IN            7.875:   BIT SIZE
 BSD .F               557:   BIT SIZE AT DEPTH
 DFT .                KCL:   DRILLING FLUID TYPE
 DFD .                8.8:   DRILLING FLUID DENSITY
 DFV .                 38:   DRILLING FLUID VISCOSITY
 DFPH.               11.1:   DRILLING FLUID PH
 DFL .                 14:   DRILLING FLUID LOSS
 MSS .           FLOWLINE:   MUD SAMPLE SOURCE
 RMS .OHMM           0.32:   RESISTIVITY MUD SAMPLE
 MST .F                58:   MUD SAMPLE TEMPERATURE
 RMF .OHMM           0.31:   RESISTIVITY MUD FILTRATE SAMPLE
 MFST.F                74:   MUD FILTRATE SAMPLE TEMPERATURE
 RMC .OHMM           0.53:   RESISTIVITY MUD CAKE
 MCST.F                75:   MUD CAKE SAMPLE TEMPERATURE
 MFSS.               MEAS:   MUD FILTRATE SAMPLE SOURCE
 MCSS.               MEAS:   MUD CAKE SAMPLE SOURCE
 RMB .OHMM           0.31:   RESISTIVITY MUD AT BHT
 BHT .F                59:   BOTTOM HOLE TEMPERATURE
 TCS .HRS               2:   TIME CURCULATED STOPPED
 MRT .F                59:   MAXIMUM RECORDED TEMPERATURE
 LUN .               2958:   LOGGING UNIT NUMBER
 LUL .             CASPER:   LOGGING UNIT LOCATION
 ENGI.             MILLER:   RECORDING ENGINEER
 WITN.           DINSMORE:   WITNESSED BY
 CLNT.            A2DTECH:   CLIENT CODE
 ORIG.         2.5" PRINT:   ORIGIN OF DATA
 UWI .       490251075300:   UNIQUE WELL ID
 DICO. A2D Technologies, Inc.:   DIGITIZING COMPANY
~OTHER INFORMATION
~A   DEPT     CALD       DPHI         GRD      RHOB       CORR        ILD         SN        SPR   
# ...
  217.5000     8.3052     0.1560   105.0309     2.4134     0.0126     9.1252     9.6751    -1.7226
  218.0000     8.3055     0.1579   105.1502     2.4118     0.0156     9.1270     9.5431    -1.7195
  218.5000     8.3058     0.1608   105.6605     2.4090     0.0156     9.1290     9.5462    -1.7165
  219.0000     8.2754     0.1614   105.6667     2.4055     0.0156     9.1309     9.5488    -1.6138
  219.5000     8.2758     0.1590   100.4271     2.4018     0.0156     9.1328     9.5513    -1.4055
  220.0000     8.2761     0.1566    98.2726     2.4014     0.0157     9.0072     9.5539    -1.2602
  220.5000     8.2764     0.1547    97.3526     2.4170     0.0157     9.0094     9.5565    -1.0945
  221.0000     8.2767     0.1535    96.4326     2.4273     0.0157     9.0113     9.5592    -1.0909
  221.5000     8.2770     0.1549    95.8213     2.4212     0.0157     9.0132     9.5619    -1.0879
  222.0000     8.2773     0.1594    95.5186     2.4152     0.0127     9.0155     9.5646    -1.0850
  222.5000     8.2776     0.1640    95.5247     2.4092     0.0097     9.0173     9.5672    -1.3872
  223.0000     8.2472     0.1624    96.6728     2.4031     0.0067     9.0191     9.5699    -1.3840
  223.5000     8.2475     0.1583   101.8745     2.4092     0.0067     8.8952     9.5726    -1.6860
  224.0000     8.2479     0.1554   106.0370     2.4184     0.0158     8.7733     9.5753    -1.9878
  224.5000     8.2175     0.1553   105.6137     2.4213     0.0158     8.6519     9.5785    -2.2898
  225.0000     8.2101     0.1613    99.8250     2.4160     0.0098     8.4057     9.4473    -2.3374
  225.5000     8.1567     0.1607    96.1842     2.4067     0.0038     8.1844     9.3187    -2.8936
  226.0000     8.2425     0.1595   100.4959     2.3993     0.0003     7.9597     9.0635    -3.2886
  226.5000     8.2801     0.1710   102.9825     2.3930    -0.0022     7.9274     8.9396    -3.6118
  227.0000     8.2804     0.1740   103.2971     2.3889    -0.0052     7.8521     8.9422    -4.1037
  227.5000     8.2807     0.1698   104.2290     2.3882    -0.0052     7.8541     8.8160    -4.2581
  228.0000     8.2810     0.1619   104.5844     2.4018    -0.0052     7.8557     8.6741    -4.0970
  228.5000     8.2813     0.1583   103.9323     2.4108    -0.0067     7.8577     8.3229    -3.7891
  229.0000     8.2816     0.1584   103.9382     2.4094    -0.0082     7.8593     8.2297    -3.4813
  229.5000     8.2819     0.1605   103.3269     2.4033    -0.0081     7.9718     8.3485    -2.8686
  230.0000     8.2515     0.1634   104.6708     2.4064    -0.0081     7.9734     8.3980    -2.8657
  230.5000     8.2518     0.1659   105.5746     2.4124    -0.0051     8.2018     8.4711    -2.5578
  231.0000     8.2521     0.1662   105.0998     2.4094    -0.0051     8.2035     8.4735    -2.8598
  231.5000     8.2469     0.1588   104.5853     2.4049    -0.0021     8.2052     8.4763    -2.8567
  232.0000     8.2220     0.1540   104.4486     2.4159    -0.0020     8.3228     8.4786    -2.8537
  232.5000     8.1917     0.1516   105.1003     2.4241    -0.0020     8.3490     8.4809    -2.8506
  233.0000     8.2042     0.1510   107.6925     2.4315     0.0010     8.4438     8.4832    -2.8476
  233.5000     8.2374     0.1522   108.3157     2.4337    -0.0020     8.4883     8.6053    -2.8445
  234.0000     8.2847     0.1558   108.9390     2.4279    -0.0060     8.6191     8.6076    -2.8415
  234.5000     8.3157     0.1618   108.9449     2.4194    -0.0080     8.6894     8.7389    -2.8384
  235.0000     8.3160     0.1661   108.3336     2.4091    -0.0036     8.8139     8.9823    -2.8354
  235.5000     8.2856     0.1678   104.0185     2.3990     0.0027     8.8161     8.9849    -2.8318
  236.0000     8.2552     0.1650   102.4609     2.4035     0.0071     8.8179     9.1143    -2.8288
  236.5000     8.2249     0.1611   102.1353     2.4096     0.0071     8.8197     9.2455    -3.1308
  237.0000     8.2252     0.1625   102.1852     2.4051     0.0041     8.9460     9.2481    -3.1278
  237.5000     8.2242     0.1659   102.5514     2.4005     0.0006     8.9478     9.2507    -3.1249
  238.0000     8.1644     0.1689   106.3026     2.3975     0.0011     8.9455     9.2533    -3.1219
  238.5000     8.1284     0.1721   110.6013     2.3929    -0.0019     8.6780     9.2563    -3.1189
  239.0000     8.0651     0.1738   112.2459     2.3883     0.0047     8.3260     9.1299    -2.8110
  239.5000     8.0326     0.1678   112.7111     2.3903     0.0264     8.2032     9.0050    -2.8079
  240.0000     8.0675     0.1630   113.0257     2.4052     0.0349     8.1197     8.8823    -2.8049
  240.5000     8.1949     0.1611   113.0316     2.4122     0.0344     8.2363     8.8847    -2.6992
  241.0000     8.2443     0.1654   113.0376     2.4158     0.0283     8.2381     8.8871    -2.3699
  241.5000     8.2893     0.1684   113.0435     2.3925     0.0253     8.2398     8.8896    -2.1860
  242.0000     8.1669     0.1696   113.0495     2.3777     0.0284     8.3582     8.8921    -1.7114
  242.5000     8.0138     0.1702   112.7212     2.3810     0.0378     8.3599     8.8946    -1.5696
  243.0000     7.9221     0.1702   110.7932     2.3916     0.0646     8.3616     8.8971    -1.2617
  243.5000     7.8304     0.1699   108.9372     2.3977     0.0867     8.3633     8.8996    -0.9539
  244.0000     7.9227     0.1631   107.8264     2.3977     0.1135     8.3650     8.9021    -0.0363
  244.5000     8.0485     0.1519   107.5237     2.4007     0.1402     8.3667     8.9046    -0.9480
  245.0000     8.1723     0.1481   108.2767     2.4189     0.1670     8.3684     8.9076    -1.5548
  245.5000     8.2304     0.1539   109.3838     2.4477     0.1770     8.2535     8.9100    -2.1616
  246.0000     8.2307     0.1593   110.0535     2.4393     0.1369     8.2554     8.9124    -2.4959
  246.5000     8.2310     0.1653   110.6369     2.4234     0.1159     8.2571     8.9148    -2.8729
  247.0000     8.2313     0.1665   110.9515     2.4091     0.1068     8.2589     8.9172    -3.4472
  247.5000     8.2316     0.1617   111.2661     2.4084     0.1129     8.2606     8.9196    -3.9791
  248.0000     8.2319     0.1544   110.9634     2.4126     0.1128     8.1473     8.9221    -4.5859
  248.5000     8.2323     0.1484   109.4261     2.4218     0.1065     8.1494     8.8002    -5.0264
  249.0000     8.2632     0.1459   108.1924     2.4304     0.1003     8.0375     8.8028    -5.3496
  249.5000     8.2635     0.1502   108.2320     2.4296     0.0933     8.0392     8.8053    -5.7957
  250.0000     8.2638     0.1607   108.5185     2.4266     0.0818     8.0408     8.8078    -5.7922
  250.5000     8.2641     0.1628   108.5247     2.4191     0.0696     8.0424     8.8102    -6.0941
  251.0000     8.2951     0.1610   108.3354     2.4070     0.0603     8.0441     8.6900    -6.0912
  251.5000     8.2954     0.1647   107.1816     2.4040     0.0494     8.0392     8.6925    -6.0882
  252.0000     8.2957     0.1682   106.5473     2.3995     0.0317     7.9353     8.5739    -6.3902
  252.5000     8.3326     0.1707   106.5561     2.3964     0.0197     7.8264     8.4572    -6.3872
  253.0000     8.3577     0.1737   107.3221     2.3867     0.0106     7.5522     8.3415    -6.4106
  253.5000     8.3580     0.1761   107.6367     2.3798     0.0046     7.0920     8.1131    -6.6862
  254.0000     8.3583     0.1797   106.4081     2.3761     0.0046     6.7255     7.8911    -6.6138
  254.5000     8.3586     0.1821   103.6363     2.3719     0.0047     6.4819     7.6750    -6.3750
  255.0000     8.3589     0.1827   102.0990     2.3708     0.0047     6.4386     7.3541    -6.4837
  255.5000     8.3285     0.1773   102.7223     2.3795     0.0047     6.4402     7.2464    -6.8069
  256.0000     8.2982     0.1687   104.6214     2.3890     0.0047     6.4415     7.0616    -6.9756
  256.5000     8.2985     0.1607   105.8647     2.4009     0.0047     6.4428     7.0638    -6.9726
  257.0000     8.2988     0.1523   106.5113     2.4208     0.0047     6.4441     7.0657    -6.9690
  257.5000     8.2684     0.1452   106.7593     2.4344     0.0047     6.6287     7.2558    -6.9660
