~VERSION INFORMATION
 VERS.                2.0:   CWLS LOG ASCII STANDARD - VERSION 2.0
 WRAP.                 NO:   ONE LINE PER DEPTH STEP
~WELL INFORMATION
#MNEM.UNIT      DATA TYPE    INFORMATION
#----------   ------------   ------------------------------
 STRT.F           25.0000:   START DEPTH
 STOP.F          867.0000:   STOP DEPTH
 STEP.F            0.5000:   STEP LENGTH
 NULL.          -999.2500:   NO VALUE
 COMP. LAWRENCE/ALLISON INC:   COMPANY
 WELL.    38-11 SX #35-35:   WELL
 FLD .             TEAPOT:   FIELD
 LOC .      S35 T39N R78W:   LOCATION
 CNTY.            NATRONA:   COUNTY
 STAT.            WYOMING:   STATE
 CTRY. UNITED STATES OF AMERICA:   COUNTRY
 SRVC.      Dresser Atlas:   SERVICE COMPANY
 DATE.        07-AUG-1985:   LOGDATE
 API .       490251104100:   API NUMBER
~CURVE INFORMATION
#MNEM.UNIT       API CODE    CURVE DESCRIPTION
#----------   ------------   ------------------------------
 DEPT.F                  :   
 SPR .MV     07 010 01 00:   SPONTANEOUS POTENTIAL
 RILD.OHMM   07 120 46 00:   INDUCTION LOG DEEP RESISTIVITY
 RILM.OHMM   07 120 44 00:   INDUCTION LOG MEDIUM RESISTIVITY
 RFOC.OHMM   07 220 04 00:   RESISTIVITY FOCUSED LOG
 PORD.DEC    45 890 12 00:   POROSITY DENSITY SANDSTONE
 CNC .DEC    42 890 03 00:   NEUTRON POROSITY SANDSTONE
 GRD .GAPI   45 310 01 00:   GAMMA RAY FROM DENSITY LOG
 CALD.IN     45 280 60 00:   CALIPER FROM DENSITY LOG
 CORR.G/C3   45 356 01 00:   DENSITY CORRECTION
 DEN .G/C3   45 350 01 00:   COMPENSATED BULK DENSTIY
~PARAMETER INFORMATION
#MNEM.UNIT          VALUE    DESCRIPTION
#----------   ------------   ------------------------------
 PD  .                 GL:   PERMANENT DATUM
 EPD .F              5110:   ELEVATION PERMANENT DATUM
 LMF .                 GL:   LOG MEASURED FROM
 DMF .                 GL:   DRILLING MEASURED FROM
 EGL .F              5110:   GROUND LEVEL
 DATE.             8-7-85:   RUN DATE
 RUN .                  1:   RUN NUMBER
 DD  .F               900:   DEPTH DRILLER
 DL  .F               869:   DEPTH LOGGER
 BLI .F               867:   BOTTOM LOG INTERVAL
 TLI .F                40:   TOP LOG INTERVAL
 CS  .IN            8.625:   CASING SIZE
 CBD .F                40:   CASING BOTTOM DRILLER
 CBL .F                40:   CASING BOTTOM LOGGER
 BS  .IN            7.875:   BIT SIZE
 BSD .F               900:   BIT SIZE AT DEPTH
 DFT .             4% KCL:   DRILLING FLUID TYPE
 MSS .           FLOWLINE:   MUD SAMPLE SOURCE
 RMS .OHMM           .222:   RESISTIVITY MUD SAMPLE
 MST .F                71:   MUD SAMPLE TEMPERATURE
 TCS .HRS               2:   TIME CURCULATED STOPPED
 MRT .F               100:   MAXIMUM RECORDED TEMPERATURE
 LUN .               6264:   LOGGING UNIT NUMBER
 LUL .               GLTE:   LOGGING UNIT LOCATION
 ENGI.           FAHLSING:   RECORDING ENGINEER
 WITN.              FIVAS:   WITNESSED BY
 CLNT.            A2DTECH:   CLIENT CODE
 ORIG.       2", 5" PRINT:   ORIGIN OF DATA
 UWI .       490251104100:   UNIQUE WELL ID
 DICO. A2D Technologies, Inc.:   DIGITIZING COMPANY
~OTHER INFORMATION
~A   DEPT      SPR       RILD       RILM       RFOC       PORD          CNC      GRD       CALD       CORR        DEN   
# ...
  293.0000   -71.0655     9.6681     9.7350     8.1029     0.1787     0.2838    77.3367     8.0893     0.0019     2.3745
  293.5000   -70.3181    10.1459    10.9457     8.5036     0.1765     0.2880    75.2551     8.0900     0.0202     2.3777
  294.0000   -69.8714    10.1450    11.1740     8.6214     0.1765     0.2939    74.6729     8.0908     0.0308     2.3815
  294.5000   -69.8758     9.9366    10.5731     8.6206     0.1759     0.2973    75.3089     8.0915     0.0336     2.3838
  295.0000   -70.0307     9.2735     9.0835     8.5607     0.1747     0.2936    76.2394     8.1074     0.0232     2.3853
  295.5000   -70.6366     7.8579     7.3848     8.5012     0.1741     0.2959    77.1699     8.1383     0.0233     2.3854
  296.0000   -71.3930     6.3883     6.1717     8.5007     0.1762     0.3226    77.7992     8.1391     0.0309     2.3862
  296.5000   -71.9989     5.0522     5.5263     8.2686     0.1806     0.3813    80.2357     8.1549     0.0369     2.3822
  297.0000   -72.6049     4.4928     5.4503     7.6106     0.1955     0.3909    87.1903     8.1557     0.0415     2.3675
  297.5000   -73.3612     4.8467     5.8795     5.7736     0.2201     0.3592    96.2534     8.1715     0.0460     2.3270
  298.0000   -73.8168     5.2286     5.9199     3.4876     0.2435     0.3260   110.1357     8.1723     0.0461     2.2832
  298.5000   -73.5205     5.1565     5.8383     3.4362     0.2300     0.3089   107.4495     8.1577     0.0447     2.2863
  299.0000   -72.3219     4.9813     6.0846     4.2602     0.2033     0.2874    98.1390     8.1434     0.0493     2.3237
  299.5000   -71.1234     5.0851     6.5188     5.5378     0.1850     0.2793    88.5273     8.1443     0.0613     2.3634
  300.0000   -70.2256     5.6983     6.9840     8.3795     0.1784     0.2781    77.4096     8.1466     0.0738     2.3822
  300.5000   -69.5605     6.5791     6.9350     8.6130     0.1757     0.2794    73.1877     8.1567     0.0809     2.3839
  301.0000   -69.0253     7.4599     6.9523     8.0303     0.1754     0.2819    71.4508     8.1629     0.0824     2.3882
  301.5000   -68.1249     8.4102     8.4102     7.9260     0.1766     0.2878    73.6000     8.1491     0.0794     2.3860
  302.0000   -67.2241     9.0097     9.5869     8.1466     0.1778     0.2929    77.2471     8.1504     0.0734     2.3852
  302.5000   -66.3233     9.1969    10.2703     8.4316     0.1781     0.2858    79.9824     8.1518     0.0658     2.3837
  303.0000   -65.5659     9.3237    10.5566     8.7265     0.1822     0.2807    78.8102     8.1685     0.0592     2.3770
  303.5000   -64.8061     9.5171    10.7014     9.0944     0.1933     0.2882    79.7545     8.1850     0.0271     2.3583
  304.0000   -64.3469     9.7148    10.6264     9.3478     0.1990     0.2978    83.1004     8.1863    -0.0029     2.3456
  304.5000   -64.2240     9.7811    10.6989     9.4765     0.1912     0.2940    84.9348     8.1876     0.0226     2.3658
  305.0000   -64.2258    10.1227    10.8460     9.4752     0.1825     0.2847    81.3611     8.1735     0.0436     2.3778
  305.5000   -63.9266    10.7697    11.1476     9.5398     0.1804     0.2829    78.6829     8.1752     0.0675     2.3770
  306.0000   -63.6269    10.9935    11.3010     9.6712     0.1822     0.2797    77.5025     8.1765     0.0660     2.3666
  306.5000   -63.0273    10.9919    11.4565     9.7365     0.1920     0.2761    80.8566     8.1624     0.0601     2.3569
  307.0000   -62.4272    10.7653    11.4549     9.7352     0.1965     0.2788    82.3952     8.1641     0.0316     2.3492
  307.5000   -62.1280    10.6163    11.4533     9.8013     0.1989     0.2914    79.7170     8.1654     0.0047     2.3457
  308.0000   -61.8287    10.5419    11.5311     9.8000     0.1978     0.2956    77.6330     8.1667     0.0182     2.3599
  308.5000   -61.8302    10.7606    11.6093     9.9401     0.1846     0.2957    80.6858     8.1681     0.0856     2.3741
  309.0000   -61.6809    10.9845    11.7803    10.2215     0.1834     0.3025    81.0115     8.1697     0.1339     2.3771
  309.5000   -61.8331    11.2127    12.6948    10.5686     0.1907     0.3032    79.2450     8.1560     0.1577     2.3592
  310.0000   -61.9850    11.4452    13.5062    10.5671     0.1859     0.2993    78.0728     8.1271     0.1365     2.3704
  310.5000   -61.9865    11.6031    13.8827    10.6393     0.1872     0.2809    78.4067     8.1133     0.1081     2.3629
  311.0000   -61.9789    11.6011    13.6901    10.7115     0.1978     0.2720    79.6807     8.0693     0.0737     2.3510
  311.5000   -61.6702    11.5995    13.3157    10.7843     0.2024     0.2707    81.8605     8.0404     0.0483     2.3412
  312.0000   -61.3894    11.6786    12.7740    10.9324     0.1931     0.2752    83.0241     8.0569     0.0273     2.3502
  312.5000   -61.2405    11.8393    12.3392    11.1596     0.1897     0.2800    82.4609     8.0884     0.0333     2.3577
  313.0000   -61.0916    11.9193    12.4229    11.2358     0.1921     0.2863    80.9875     8.1049     0.0423     2.3592
  313.5000   -60.9427    11.9176    13.0358    11.3121     0.1966     0.2831    78.6105     8.1062     0.0483     2.3558
  314.0000   -60.6434    11.9985    13.3992    11.3102     0.1984     0.2654    76.8359     8.0924     0.0423     2.3502
  314.5000   -60.4945    12.0799    13.4898    11.3871     0.1963     0.2628    75.9567     8.0786     0.0424     2.3495
  315.0000   -60.1953    12.1619    13.4878    11.4643     0.1909     0.2667    77.5035     8.0649     0.0484     2.3562
  315.5000   -59.8964    12.2444    13.5794    11.5986     0.1822     0.2655    77.5362     8.0511     0.0590     2.3697
  316.0000   -59.5971    12.2424    13.6740    11.7822     0.1753     0.2548    79.6772     8.0528     0.0723     2.3869
  316.5000   -59.1475    12.3254    13.7643    12.0346     0.1693     0.2578    81.2158     8.0692     0.0679     2.3952
  317.0000   -58.8482    12.4950    13.8577    12.1216     0.1660     0.2788    83.6581     8.0856     0.0604     2.4019
  317.5000   -58.3985    12.7546    13.8554    12.2755     0.1674     0.3009    85.4979     8.0870     0.0544     2.4012
  318.0000   -57.7985    13.2918    15.1534    12.4441     0.1731     0.2887    84.9281     8.0883     0.0664     2.3944
  318.5000   -57.3474    13.7565    16.3459    12.6158     0.1731     0.2776    81.9400     8.0745     0.0949     2.3922
  319.0000   -56.8882    14.6357    18.1257    12.9669     0.1770     0.2687    78.0222     8.0456     0.1548     2.3891
  319.5000   -56.4496    15.2522    21.6839    13.3282     0.1832     0.2588    75.3062     8.0319     0.1922     2.3745
  320.0000   -56.3007    16.4525    24.2114    13.7944     0.1629     0.2499    69.1029     8.0483     0.2042     2.4281
  320.5000   -56.1518    17.3838    24.5453    14.2770     0.1452     0.2417    70.0391     8.0500     0.1249     2.4491
  321.0000   -56.0029    18.3677    22.5912    15.2955     0.1353     0.2389    72.1802     8.0815     0.0485     2.4648
  321.5000   -55.8540    19.1442    20.2274    16.3866     0.1269     0.2380    74.0200     8.0979     0.0246     2.4738
  322.0000   -55.8558    19.4047    17.6180    16.9599     0.1218     0.2434    76.1611     8.0993     0.0251     2.4754
  322.5000   -55.8573    19.4020    16.5550    16.8409     0.1242     0.2515    78.0009     8.0852     0.0833     2.4708
  323.0000   -55.5580    18.7410    15.8816    15.7152     0.1272     0.2605    80.1420     8.0868     0.1339     2.4618
  323.5000   -55.4088    17.9787    15.0267    14.8687     0.1325     0.2761    81.3794     8.0882     0.1444     2.4479
  324.0000   -55.4106    17.1287    14.2101    14.1575     0.1436     0.3027    81.4120     8.0895     0.1265     2.4213
  324.5000   -55.5625    16.0953    13.7242    13.4665     0.1642     0.3085    81.7458     8.1059     0.0846     2.3841
  325.0000   -56.0151    15.2290    13.2512    12.3639     0.1825     0.2921    82.6821     8.1073     0.0472     2.3549
  325.5000   -56.4677    14.5090    12.7264    11.2741     0.1998     0.2906    80.3051     8.1086     0.0157     2.3385
  326.0000   -56.6196    13.9188    12.7246    11.1180     0.2040     0.2966    74.3136     8.1126     0.0397     2.3444
