~VERSION INFORMATION
 VERS.                2.0:   CWLS LOG ASCII STANDARD - VERSION 2.0
 WRAP.                 NO:   ONE LINE PER DEPTH STEP
~WELL INFORMATION
#MNEM.UNIT      DATA TYPE    INFORMATION
#----------   ------------   ------------------------------
 STRT.F          350.0000:   START DEPTH
 STOP.F         2259.0000:   STOP DEPTH
 STEP.F            0.5000:   STEP LENGTH
 NULL.          -999.2500:   NO VALUE
 COMP. LAWRENCE/ALLISON INC:   COMPANY
 WELL.        45 X #33-33:   WELL
 FLD .             TEAPOT:   FIELD
 LOC .      S33 T39N R78W:   LOCATION
 CNTY.            NATRONA:   COUNTY
 STAT.            WYOMING:   STATE
 CTRY. UNITED STATES OF AMERICA:   COUNTRY
 SRVC.      NL McCullough:   SERVICE COMPANY
 DATE.        19-MAY-1988:   LOGDATE
 API .       490251119400:   API NUMBER
~CURVE INFORMATION
#MNEM.UNIT       API CODE    CURVE DESCRIPTION
#----------   ------------   ------------------------------
 DEPT.F                  :   
 ROP .MIN/FT 91 810 01 00:   RATE OF DRILLING PENETRATION
 GR  .GAPI   81 310 01 00:   GAMMA RAY
 TGAS.UNITS  91 830 01 00:   TOTAL GAS FROM HOTWIRE
~PARAMETER INFORMATION
#MNEM.UNIT          VALUE    DESCRIPTION
#----------   ------------   ------------------------------
 PD  .                 GL:   PERMANENT DATUM
 EPD .F              5198:   ELEVATION PERMANENT DATUM
 LMF .                 KB:   LOG MEASURED FROM
 DAPD.F                11:   FEET ABOVE PERMANENT DATUM
 DMF .                 KB:   DRILLING MEASURED FROM
 EKB .F              5209:   KELLING BUSHING
 EGL .F              5198:   GROUND LEVEL
 DATE.            5-19-88:   RUN DATE
 RUN .                  1:   RUN NUMBER
 DD  .F              2232:   DEPTH DRILLER
 DL  .F               750:   DEPTH LOGGER
 BLI .F               746:   BOTTOM LOG INTERVAL
 TLI .F               350:   TOP LOG INTERVAL
 CS  .IN                7:   CASING SIZE
 CBD .F               808:   CASING BOTTOM DRILLER
 DFT .              WATER:   DRILLING FLUID TYPE
 TCS .HRS            0830:   TIME CURCULATED STOPPED
 TLAB.HRS            0930:   TIME LOGGER AT BOTTOM
 ENGI.          SANGERTER:   RECORDING ENGINEER
 WITN.             NORMAN:   WITNESSED BY
 CLNT.            A2DTECH:   CLIENT CODE
 ORIG.           5" PRINT:   ORIGIN OF DATA
 UWI .       490251119400:   UNIQUE WELL ID
 DICO. A2D Technologies, Inc.:   DIGITIZING COMPANY
~OTHER INFORMATION
~A   DEPT      ROP          GR      TGAS   
# ...
 2170.0000     0.7307  -999.2500    55.0624
 2170.5000     0.7414  -999.2500    54.9821
 2171.0000     0.7730  -999.2500    54.9018
 2171.5000     0.8150  -999.2500    54.8216
 2172.0000     0.8466  -999.2500    54.7413
 2172.5000     0.8574  -999.2500    54.6610
 2173.0000     0.8993  -999.2500    54.5807
 2173.5000     0.8996  -999.2500    54.5005
 2174.0000     0.8998  -999.2500    54.4202
 2174.5000     0.9001  -999.2500    54.3399
 2175.0000     0.9003  -999.2500    54.2596
 2175.5000     0.9006  -999.2500    54.1793
 2176.0000     0.9009  -999.2500    54.0991
 2176.5000     0.8906  -999.2500    54.0188
 2177.0000     0.8910  -999.2500    53.9385
 2177.5000     0.8912  -999.2500    53.8582
 2178.0000     0.8915  -999.2500    53.7780
 2178.5000     0.8917  -999.2500    53.6977
 2179.0000     0.8606  -999.2500    53.6174
 2179.5000     0.8192  -999.2500    53.5371
 2180.0000     0.7777  -999.2500    53.4568
 2180.5000     0.7362  -999.2500    53.3766
 2181.0000     0.6946  -999.2500    53.2963
 2181.5000     0.6532  -999.2500    53.2160
 2182.0000     0.6430  -999.2500    53.1357
 2182.5000     0.6538  -999.2500    53.0554
 2183.0000     0.6853  -999.2500    52.9752
 2183.5000     0.7065  -999.2500    52.8949
 2184.0000     0.7380  -999.2500    52.8146
 2184.5000     0.7487  -999.2500    52.7343
 2185.0000     0.7699  -999.2500    52.6541
 2185.5000     0.7596  -999.2500    52.5738
 2186.0000     0.7494  -999.2500    52.4935
 2186.5000     0.7393  -999.2500    52.4132
 2187.0000     0.7292  -999.2500    52.3329
 2187.5000     0.6981  -999.2500    52.2527
 2188.0000     0.6984  -999.2500    52.1724
 2188.5000     0.6881  -999.2500    52.0921
 2189.0000     0.6779  -999.2500    52.0118
 2189.5000     0.6678  -999.2500    51.9316
 2190.0000     0.6681  -999.2500    51.8513
 2190.5000     0.6684  -999.2500    51.7710
 2191.0000     0.6895  -999.2500    51.6907
 2191.5000     0.7002  -999.2500    51.6104
 2192.0000     0.7109  -999.2500    51.5302
 2192.5000     0.7529  -999.2500    51.4499
 2193.0000     0.7949  -999.2500    51.3696
 2193.5000     0.8265  -999.2500    51.2893
 2194.0000     0.8685  -999.2500    51.2090
 2194.5000     0.8792  -999.2500    51.1288
 2195.0000     0.9003  -999.2500    51.0485
 2195.5000     0.8693  -999.2500    50.9682
 2196.0000     0.8591  -999.2500    50.8879
 2196.5000     0.8385  -999.2500    50.8077
 2197.0000     0.8282  -999.2500    50.7274
 2197.5000     0.8077  -999.2500    50.6471
 2198.0000     0.7975  -999.2500    50.5668
 2198.5000     0.7873  -999.2500    50.4865
 2199.0000     0.7876  -999.2500    50.4063
 2199.5000     0.7774  -999.2500    50.3260
 2200.0000     0.7567  -999.2500    50.2393
 2200.5000     0.7359  -999.2500    49.9498
 2201.0000     0.7255  -999.2500    49.6351
 2201.5000     0.7255  -999.2500    49.3204
 2202.0000     0.7255  -999.2500    49.0057
 2202.5000     0.7359  -999.2500    48.6909
 2203.0000     0.7359  -999.2500    48.3762
 2203.5000     0.7359  -999.2500    48.0615
 2204.0000     0.7255  -999.2500    47.7468
 2204.5000     0.7046  -999.2500    47.4321
 2205.0000     0.7046  -999.2500    47.1174
 2205.5000     0.7046  -999.2500    46.8027
 2206.0000     0.7046  -999.2500    46.4880
 2206.5000     0.7046  -999.2500    46.1733
 2207.0000     0.7046  -999.2500    46.0465
 2207.5000     0.7359  -999.2500    48.1395
 2208.0000     0.7359  -999.2500    54.4186
 2208.5000     0.7777  -999.2500    56.5116
 2209.0000     0.8194  -999.2500    62.7907
 2209.5000     0.9029  -999.2500    64.8837
 2210.0000     0.9760  -999.2500    69.0698
 2210.5000     0.9969  -999.2500    71.1628
 2211.0000     0.9969  -999.2500    71.1628
 2211.5000     0.9864  -999.2500    71.1628
 2212.0000     0.9864  -999.2500    71.1628
 2212.5000     0.9551  -999.2500    71.1628
 2213.0000     0.9238  -999.2500    71.1392
 2213.5000     0.8716  -999.2500    71.0651
 2214.0000     0.8299  -999.2500    70.9911
 2214.5000     0.7985  -999.2500    70.9170
 2215.0000     0.7777  -999.2500    70.8429
 2215.5000     0.7568  -999.2500    70.7688
 2216.0000     0.7463  -999.2500    70.6947
 2216.5000     0.7463  -999.2500    70.6206
 2217.0000     0.7359  -999.2500    70.5465
 2217.5000     0.6942  -999.2500    70.4725
 2218.0000     0.6524  -999.2500    70.3984
 2218.5000     0.6106  -999.2500    70.3243
 2219.0000     0.5793  -999.2500    70.2502
 2219.5000     0.5376  -999.2500    70.1761
 2220.0000     0.5167  -999.2500    70.1020
 2220.5000     0.4854  -999.2500    70.0279
 2221.0000     0.4854  -999.2500    69.9538
 2221.5000     0.4854  -999.2500    69.8797
 2222.0000     0.4958  -999.2500    69.8057
 2222.5000     0.5271  -999.2500    69.7316
 2223.0000     0.5689  -999.2500    69.6575
 2223.5000     0.6524  -999.2500    69.5834
 2224.0000     0.7359  -999.2500    69.5093
 2224.5000     0.7777  -999.2500    69.4352
 2225.0000     0.8194  -999.2500    69.3611
 2225.5000     0.8299  -999.2500    69.2870
 2226.0000     0.8507  -999.2500    69.2130
 2226.5000     0.8299  -999.2500    69.1389
 2227.0000     0.8299  -999.2500    66.9767
 2227.5000     0.8299  -999.2500    62.7907
 2228.0000     0.8612  -999.2500    56.5116
 2228.5000     0.8716  -999.2500    48.1395
 2229.0000     0.9029  -999.2500    43.9535
 2229.5000     0.9342  -999.2500    37.6744
 2230.0000     0.9864  -999.2500    29.3023
 2230.5000     0.9864  -999.2500    27.2093
 2231.0000     0.9760  -999.2500    23.0233
 2231.5000     0.9760  -999.2500    20.9302
 2232.0000     0.9760  -999.2500    20.9302
 2232.5000     0.9864  -999.2500    20.9302
 2233.0000     1.0282  -999.2500    20.9302
 2233.5000     1.0699  -999.2500    20.9302
 2234.0000     1.1221  -999.2500    20.9302
 2234.5000     1.2056  -999.2500    20.9302
 2235.0000     1.2891  -999.2500    20.9302
 2235.5000     1.3727  -999.2500    23.0233
 2236.0000     1.4770  -999.2500    22.9838
 2236.5000     1.2370  -999.2500    22.9148
 2237.0000     0.9969  -999.2500    22.8459
 2237.5000     0.8507  -999.2500    22.7769
 2238.0000     0.7881  -999.2500    22.7079
 2238.5000     0.8299  -999.2500    22.6389
 2239.0000     0.8716  -999.2500    22.5699
 2239.5000     0.9134  -999.2500    22.5009
 2240.0000     0.9551  -999.2500    22.4319
 2240.5000     0.9447  -999.2500    22.3629
 2241.0000     0.9029  -999.2500    22.2939
 2241.5000     0.8507  -999.2500    22.2249
 2242.0000     0.8194  -999.2500    22.1559
 2242.5000     0.7777  -999.2500    22.0869
 2243.0000     0.7777  -999.2500    22.0179
 2243.5000     0.7777  -999.2500    21.9490
 2244.0000     0.7881  -999.2500    21.8800
 2244.5000     0.8194  -999.2500    21.8110
 2245.0000     0.8612  -999.2500    21.7420
 2245.5000     0.9029  -999.2500    21.6730
 2246.0000     0.9551  -999.2500    21.6040
 2246.5000     1.0282  -999.2500    21.5350
 2247.0000     1.0699  -999.2500    21.4660
 2247.5000     1.0804  -999.2500    21.3970
 2248.0000     1.1013  -999.2500    21.3280
 2248.5000     1.1013  -999.2500    21.2590
 2249.0000     1.0804  -999.2500    21.1900
 2249.5000     1.0699  -999.2500    21.1210
 2250.0000     1.0177  -999.2500    21.0520
 2250.5000  -999.2500  -999.2500    20.9831
 2251.0000  -999.2500  -999.2500    20.9302
 2251.5000  -999.2500  -999.2500    20.9302
 2252.0000  -999.2500  -999.2500    20.9302
 2252.5000  -999.2500  -999.2500    20.9302
 2253.0000  -999.2500  -999.2500    20.9302
 2253.5000  -999.2500  -999.2500    23.0233
 2254.0000  -999.2500  -999.2500    23.0233
 2254.5000  -999.2500  -999.2500    27.2093
 2255.0000  -999.2500  -999.2500    29.3023
 2255.5000  -999.2500  -999.2500    29.3023
 2256.0000  -999.2500  -999.2500    31.3953
 2256.5000  -999.2500  -999.2500    37.6744
 2257.0000  -999.2500  -999.2500    37.6744
 2257.5000  -999.2500  -999.2500    39.7674
 2258.0000  -999.2500  -999.2500    46.0465
 2258.5000  -999.2500  -999.2500    46.0465
 2259.0000  -999.2500  -999.2500    46.0465
