~VERSION INFORMATION
 VERS.                2.0:   CWLS LOG ASCII STANDARD - VERSION 2.0
 WRAP.                 NO:   ONE LINE PER DEPTH STEP
~WELL INFORMATION
#MNEM.UNIT      DATA TYPE    INFORMATION
#----------   ------------   ------------------------------
 STRT.F           27.0000:   START DEPTH
 STOP.F          760.0000:   STOP DEPTH
 STEP.F            0.5000:   STEP LENGTH
 NULL.          -999.2500:   NO VALUE
 COMP. FENIX & SCISSON INC:   COMPANY
 WELL.    NPR #3 #33-S-14:   WELL
 FLD .             TEAPOT:   FIELD
 LOC .      S14 T38N R78W:   LOCATION
 CNTY.            NATRONA:   COUNTY
 STAT.            WYOMING:   STATE
 CTRY. UNITED STATES OF AMERICA:   COUNTRY
 SRVC.              Welex:   SERVICE COMPANY
 DATE.        02-FEB-1977:   LOGDATE
 API .       490251027700:   API NUMBER
~CURVE INFORMATION
#MNEM.UNIT       API CODE    CURVE DESCRIPTION
#----------   ------------   ------------------------------
 DEPT.F                  :   
 SPR .MV     07 010 01 00:   SPONTANEOUS POTENTIAL
 SGRD.OHMM   07 220 05 00:   SHALLOW RESISTIVITY
 ILD .OHMM   07 120 46 00:   INDUCTION LOG DEEP
 ILM .OHMM   07 120 44 00:   INDUCTION LOG MEDIUM
 GRD .GAPI   45 310 01 00:   GAMMA RAY FROM DENSITY LOG
 CALD.IN     45 280 60 00:   CALIPER
 RHOB.G/C3   45 350 01 00:   BULK DENSITY
 CORR.G/C3   45 356 01 00:   DENSITY CORRECTION
 DPHI.DEC    45 890 00 00:   DENSITY POROSITY
~PARAMETER INFORMATION
#MNEM.UNIT          VALUE    DESCRIPTION
#----------   ------------   ------------------------------
 PD  .                 GL:   PERMANENT DATUM
 EPD .F              5219:   ELEVATION PERMANENT DATUM
 LMF .                 GL:   LOG MEASURED FROM
 DMF .                 GL:   DRILLING MEASURED FROM
 EKB .F              5224:   KELLING BUSHING
 EGL .F              5219:   GROUND LEVEL
 DATE.           2-2-1977:   RUN DATE
 RUN .                  1:   RUN NUMBER
 DD  .F               761:   DEPTH DRILLER
 DL  .F               762:   DEPTH LOGGER
 BLI .F               760:   BOTTOM LOG INTERVAL
 TLI .F                25:   TOP LOG INTERVAL
 CS  .IN            8.625:   CASING SIZE
 CBD .F              42.5:   CASING BOTTOM DRILLER
 CBL .F                46:   CASING BOTTOM LOGGER
 BS  .IN            7.875:   BIT SIZE
 BSD .F               761:   BIT SIZE AT DEPTH
 DFT .           CHEM-GEL:   DRILLING FLUID TYPE
 DFD .                8.9:   DRILLING FLUID DENSITY
 DFV .                 37:   DRILLING FLUID VISCOSITY
 DFPH.                  7:   DRILLING FLUID PH
 DFL .                8.4:   DRILLING FLUID LOSS
 MSS .          FLOW LINE:   MUD SAMPLE SOURCE
 RMS .OHMM           .231:   RESISTIVITY MUD SAMPLE
 MST .F                45:   MUD SAMPLE TEMPERATURE
 RMF .OHMM           .322:   RESISTIVITY MUD FILTRATE SAMPLE
 MFST.F                45:   MUD FILTRATE SAMPLE TEMPERATURE
 RMC .OHMM           .439:   RESISTIVITY MUD CAKE
 MCST.F                45:   MUD CAKE SAMPLE TEMPERATURE
 MFSS.           MEASURED:   MUD FILTRATE SAMPLE SOURCE
 MCSS.           MEASURED:   MUD CAKE SAMPLE SOURCE
 RMB .OHMM           .182:   RESISTIVITY MUD AT BHT
 BHT .F                57:   BOTTOM HOLE TEMPERATURE
 TCS .HRS             5.5:   TIME CURCULATED STOPPED
 MRT .F                57:   MAXIMUM RECORDED TEMPERATURE
 LUN .               8611:   LOGGING UNIT NUMBER
 LUL .           GILLETTE:   LOGGING UNIT LOCATION
 ENGI.             LAWSON:   RECORDING ENGINEER
 WITN. VOORHEES/RHOADES/JAPP/PETTINGILL/STUEBINGER:   WITNESSED BY
 CLNT.            A2DTECH:   CLIENT CODE
 ORIG.     1", 2.5" PRINT:   ORIGIN OF DATA
 UWI .       490251027700:   UNIQUE WELL ID
 DICO. A2D Technologies, Inc.:   DIGITIZING COMPANY
~OTHER INFORMATION
~A   DEPT      SPR       SGRD        ILD        ILM        GRD       CALD         RHOB      CORR      DPHI   
# ...
  319.0000   -29.4499    10.0708     7.7858     8.2956   116.0418     9.1135     2.4655     0.0691     0.1060
  319.5000   -29.3039    10.1073     7.8298     8.3354   114.7623     9.1758     2.4711     0.0627     0.1041
  320.0000   -29.1613    10.1447     7.8739     8.3707   115.6897     9.2380     2.4765     0.0665     0.1021
  320.5000   -29.0165    10.1849     7.9184     8.4881   117.4210     9.3006     2.4776     0.0719     0.1001
  321.0000   -28.8688    10.2230     7.9630     8.5945   119.2278     9.2913     2.4784     0.0774     0.0988
  321.5000   -28.7814    10.2634     8.0080     8.7022   119.4967     9.2192     2.4792     0.0829     0.0985
  322.0000   -28.8272    10.6738     8.0532     8.8113   119.3676     9.1461     2.4834     0.0884     0.0978
  322.5000   -28.8686    11.1262     8.0986     8.9217   119.2280     9.0798     2.4905     0.0939     0.0879
  323.0000   -28.9133    11.9036     8.1443     9.0147   119.1096     9.0788     2.4976     0.0996     0.0859
  323.5000   -28.9575    11.8004     8.1902     9.2277   119.7376     9.0791     2.5000     0.0911     0.0838
  324.0000   -29.0015    11.5280     8.2365     9.4143   121.8723     9.0792     2.4966     0.0802     0.0855
  324.5000   -29.0450    11.2619     8.2829     9.5530   123.7811     9.0792     2.4932     0.0693     0.0890
  325.0000   -29.0897    11.0531     8.3297     9.6121   121.9843     9.0792     2.4957     0.0628     0.0888
  325.5000   -29.1350    10.9505     8.3767     9.6716   119.8307     9.0792     2.4993     0.0637     0.0830
  326.0000   -29.1464    10.8502     8.4239     9.7314   118.8683     9.0792     2.4960     0.0646     0.0776
  326.5000   -29.0605    11.0593     8.4714     9.7916   120.1353     9.0792     2.4924     0.0655     0.0915
  327.0000   -28.9767    11.3612     8.5272     9.8522   120.2656     9.0792     2.4944     0.0664     0.0896
  327.5000   -28.8900    11.8120     8.6083     9.9132   119.6421     9.0792     2.4930     0.0673     0.0875
  328.0000   -28.8041    12.3531     8.7067     9.9745   119.0215     9.0792     2.4891     0.0682     0.0875
  328.5000   -28.7185    12.1600     8.8062    10.0362   118.8682     9.0792     2.4888     0.0691     0.0919
  329.0000   -28.6325    12.2113     8.9068    10.0983   119.5106     9.0792     2.4936     0.0700     0.0887
  329.5000   -28.5467    12.5415     9.0085    10.1608   120.1244     9.0792     2.4985     0.0709     0.0857
  330.0000   -28.4608    13.0593     9.1114    10.2236   120.1595     9.0794     2.4951     0.0718     0.0862
  330.5000   -28.3750    12.8397     9.2155    10.2869   118.8400     9.0783     2.4907     0.0724     0.0919
  331.0000   -28.2893    12.3531     9.3208    10.3505   117.5405     9.0437     2.4862     0.0720     0.0969
  331.5000   -28.2034    12.7028     9.4273    10.4146   116.2592     9.0072     2.4818     0.0716     0.0955
  332.0000   -28.1176    13.1045     9.5350    10.4790   115.9334     8.9707     2.4834     0.0712     0.0940
  332.5000   -28.0315    13.3035     9.6439    10.5439   117.9601     8.9345     2.4864     0.0708     0.0927
  333.0000   -27.9459    13.0283     9.7541    10.6091   117.2802     8.9063     2.4869     0.0705     0.0953
  333.5000   -27.8599    12.8195     9.8655    10.6747   116.4424     8.9164     2.4828     0.0701     0.0966
  334.0000   -27.7734    13.6372     9.9782    10.7408   115.5975     8.9242     2.4839     0.0697     0.0951
  334.5000   -27.6897    14.4573    10.0750    10.8474   116.4396     8.9157     2.4856     0.0693     0.0935
  335.0000   -27.6025    14.1898    10.0229    10.8409   116.4519     8.9071     2.4874     0.0689     0.0920
  335.5000   -27.6252    13.6694     9.9779    10.8097   115.7179     8.8987     2.4891     0.0686     0.0905
  336.0000   -27.6956    13.4070     9.9331    10.7786   115.4378     8.8909     2.4890     0.0642     0.0914
  336.5000   -27.7639    13.2205     9.8885    10.7478   116.8242     8.9158     2.4751     0.0583     0.0978
  337.0000   -27.8309    13.0365     9.8442    10.7177   118.1465     8.9764     2.4609     0.0551     0.1041
  337.5000   -27.8992    12.8195     9.8000    10.6877   118.8600     9.0366     2.4572     0.0566     0.1089
  338.0000   -27.9669    12.8796     9.7560    10.6579   116.6274     9.0981     2.4692     0.0581     0.1038
  338.5000   -28.0348    12.9550     9.7122    10.6280   114.4237     9.0947     2.4773     0.0596     0.0997
  339.0000   -28.1026    13.0593     9.6686    10.5982   114.4640     9.0611     2.4832     0.0611     0.0955
  339.5000   -28.1704    12.9324     9.6252    10.5684   115.7237     9.0267     2.4845     0.0625     0.0934
  340.0000   -28.2381    12.7327     9.5820    10.5388   116.3116     8.9924     2.4859     0.0640     0.0927
  340.5000   -28.3059    12.5360     9.5389    10.5092   115.7964     8.9581     2.4872     0.0655     0.0919
  341.0000   -28.3736    12.3531     9.4961    10.4797   115.2978     8.9239     2.4907     0.0670     0.0912
  341.5000   -28.4414    12.7138     9.4535    10.4503   114.7829     8.8896     2.4950     0.0684     0.0904
  342.0000   -28.5091    13.0142     9.4111    10.4209   115.4474     8.8553     2.4994     0.0699     0.0870
  342.5000   -28.5769    12.9189     9.3688    10.3917   116.9467     8.8209     2.5038     0.0714     0.0829
  343.0000   -28.6446    12.4258     9.3267    10.3625   118.4598     8.7900     2.5082     0.0729     0.0797
  343.5000   -28.7124    11.9249     9.2849    10.3334   119.9730     8.7933     2.5086     0.0737     0.0787
  344.0000   -28.7801    12.6076     9.2432    10.3044   121.4844     8.7972     2.5087     0.0756     0.0778
  344.5000   -28.8478    16.3045     9.2017    10.2754   122.9970     8.8009     2.5089     0.1071     0.0769
  345.0000   -28.9156    14.4659     9.1604    10.2466   124.5218     8.8045     2.5090     0.0825     0.0766
  345.5000   -28.9833    12.1981     9.1193    10.2178   126.0974     8.8082     2.5092     0.0865     0.0776
  346.0000   -29.0511    11.4806     9.0783    10.1891   125.5042     8.8119     2.5094     0.0906     0.0786
  346.5000   -29.1188    11.6433     9.0376    10.1605   124.5657     8.8155     2.5073     0.0945     0.0798
  347.0000   -29.1866    12.5935     8.9970    10.1320   123.6301     8.8192     2.5038     0.0980     0.0813
  347.5000   -29.2543    12.5004     8.9566    10.1036   122.6976     8.8228     2.5003     0.0930     0.0823
  348.0000   -29.3221    12.1262     8.9164    10.0753   121.6919     8.8265     2.4961     0.0880     0.0880
  348.5000   -29.3898    12.2679     8.8764    10.0471   123.8666     8.8295     2.4912     0.0830     0.0931
  349.0000   -29.4576    12.5841     8.8368    10.0191   126.6021     8.8335     2.4864     0.0779     0.0956
  349.5000   -29.5254    12.1740     8.7971     9.9913   124.9044     8.8375     2.4816     0.0729     0.0941
  350.0000   -29.5932    11.9036     8.7576     9.9625   122.7915     8.8414     2.4768     0.0676     0.0957
  350.5000   -29.6608    11.7939     8.7182     9.9346   123.0837     8.8453     2.4719     0.0698     0.0985
  351.0000   -29.7289    11.7031     8.6466     9.9067   123.5707     8.8493     2.4710     0.0744     0.1013
  351.5000   -29.7965    11.8596     8.4484     9.7927   124.0018     8.8532     2.4740     0.0791     0.1010
  352.0000   -29.8636    12.0814     8.2548     9.5537   123.3435     8.8571     2.4816     0.0837     0.0960
  352.5000   -29.9338    11.8190     8.0661     9.3205   122.7248     8.8611     2.4892     0.0884     0.0909
  353.0000   -29.9628    11.4460     7.8814     9.0931   123.4634     8.8650     2.4932     0.0930     0.0863
  353.5000   -29.9602    11.0847     7.7009     8.8711   124.2253     8.8689     2.4956     0.0962     0.0873
  354.0000   -29.9604    10.7348     7.6034     8.6546   124.9796     8.8729     2.4981     0.0958     0.0862
  354.5000   -29.9607    10.3959     7.5595     8.5167   125.7363     8.8768     2.4967     0.0955     0.0861
  355.0000   -29.9603    10.2227     7.4898     8.4904   126.4815     8.8807     2.4944     0.0952     0.0888
