~VERSION INFORMATION
 VERS.                2.0:   CWLS LOG ASCII STANDARD - VERSION 2.0
 WRAP.                 NO:   ONE LINE PER DEPTH STEP
~WELL INFORMATION
#MNEM.UNIT      DATA TYPE    INFORMATION
#----------   ------------   ------------------------------
 STRT.F          520.5000:   START DEPTH
 STOP.F         3119.5000:   STOP DEPTH
 STEP.F            0.5000:   STEP LENGTH
 NULL.          -999.2500:   NO VALUE
 COMP.   FLUOR DANIEL INC:   COMPANY
 WELL. NAVAL PETROLEUM RESERVE 3 X-10 #52-10:   WELL
 FLD .            WILDCAT:   FIELD
 LOC .      S10 T38N R78W:   LOCATION
 CNTY.            NATRONA:   COUNTY
 STAT.            WYOMING:   STATE
 CTRY. UNITED STATES OF AMERICA:   COUNTRY
 SRVC.            Unknown:   SERVICE COMPANY
 DATE.        16-AUG-1995:   LOGDATE
 API .       490252275200:   API NUMBER
~CURVE INFORMATION
#MNEM.UNIT       API CODE    CURVE DESCRIPTION
#----------   ------------   ------------------------------
 DEPT.F                  :   
 ROP .MIN/FT 91 810 01 00:   RAT OF DRILLING PENETRATION
 TGAS.UNITS  91 830 01 00:   TOTAL GAS FROM HOTWIRE
~PARAMETER INFORMATION
#MNEM.UNIT          VALUE    DESCRIPTION
#----------   ------------   ------------------------------
 EKB .F              5206:   KELLING BUSHING
 EGL .F              5196:   GROUND LEVEL
 DATE.            8-16-95:   RUN DATE
 DD  .F              3120:   DEPTH DRILLER
 CS  .IN            9.625:   CASING SIZE
 CBD .F               508:   CASING BOTTOM DRILLER
 BS  .IN             8.75:   BIT SIZE
 BSD .F              3120:   BIT SIZE AT DEPTH
 ENGI.               HUSK:   RECORDING ENGINEER
 WITN.              TOWER:   WITNESSED BY
 CLNT.            A2DTECH:   CLIENT CODE
 ORIG.           5" PRINT:   ORIGIN OF DATA
 UWI .       490252275200:   UNIQUE WELL ID
 DICO. A2D Technologies, Inc.:   DIGITIZING COMPANY
~OTHER INFORMATION
~A   DEPT        ROP     TGAS   
# ...
 2829.0000     1.5000    36.5660
 2829.5000     1.5000    35.5561
 2830.0000     1.7583    35.6025
 2830.5000     1.8263    35.6488
 2831.0000     1.8263    35.6952
 2831.5000     1.8263    35.7416
 2832.0000     1.8263    35.7887
 2832.5000     1.5013    35.8363
 2833.0000     1.5005    35.8838
 2833.5000     1.4997    35.9313
 2834.0000     1.4989    35.9789
 2834.5000     1.4982    36.0264
 2835.0000     1.4974    36.0739
 2835.5000     1.4966    36.5265
 2836.0000     1.2536    38.7395
 2836.5000     1.2541    40.4325
 2837.0000     1.2547    40.4400
 2837.5000     1.2553    40.4476
 2838.0000     1.2559    40.4551
 2838.5000     1.2565    40.4627
 2839.0000     1.2571    40.4703
 2839.5000     1.2576    40.4778
 2840.0000     1.1263    40.4854
 2840.5000     0.9960    40.4929
 2841.0000     0.9979    40.5005
 2841.5000     0.9998    40.5080
 2842.0000     1.0020    40.5156
 2842.5000     1.7509    40.5232
 2843.0000     1.7577    40.5307
 2843.5000     1.7645    40.5383
 2844.0000     1.7713    40.5458
 2844.5000     1.4923    40.5534
 2845.0000     1.4816    40.5609
 2845.5000     1.4808    40.5685
 2846.0000     1.4800    40.5761
 2846.5000     1.4793    40.5836
 2847.0000     1.4900    40.5912
 2847.5000     1.4988    40.5987
 2848.0000     1.4479    40.6063
 2848.5000     1.2236    40.6138
 2849.0000     1.2438    40.6214
 2849.5000     1.2453    40.6304
 2850.0000     1.1610    54.4091
 2850.5000     0.9476   125.2302
 2851.0000     0.9491   219.2906
 2851.5000     0.9506   340.8159
 2852.0000     0.9521   356.7073
 2852.5000     0.9536   341.9650
 2853.0000     0.9551   306.0959
 2853.5000     0.9566   262.1811
 2854.0000     0.9581   180.3025
 2854.5000     0.9596   143.1952
 2855.0000     0.9611   119.1342
 2855.5000     0.9626   104.8291
 2856.0000     0.9641    97.4375
 2856.5000     0.9656    91.8236
 2857.0000     0.9671    90.9739
 2857.5000     0.9687    91.0299
 2858.0000     0.9702    91.0775
 2858.5000     0.9717    90.8521
 2859.0000     0.9732    90.1162
 2859.5000     0.9747    89.8381
 2860.0000     0.9762    89.1549
 2860.5000     0.9777    89.2025
 2861.0000     0.9792    89.2500
 2861.5000     0.9807    91.0219
 2862.0000     1.2664    93.1126
 2862.5000     1.2702    92.0773
 2863.0000     1.2740    90.5319
 2863.5000     1.2777    89.4877
 2864.0000     1.2815    88.9719
 2864.5000     1.4933    88.5264
 2865.0000     1.4955    88.5739
 2865.5000     1.4978    87.9791
 2866.0000     1.5000    87.6127
 2866.5000     1.2478    87.6602
 2867.0000     1.2488    86.2641
 2867.5000     1.2497    85.6426
 2868.0000     1.2506    85.6901
 2868.5000     1.2515    84.1357
 2869.0000     1.2524    82.0177
 2869.5000     1.2533    81.6074
 2870.0000     1.2542    80.6063
 2870.5000     1.2551    79.5964
 2871.0000     1.2561    77.5301
 2871.5000     1.2570    75.4637
 2872.0000     1.2579    73.3975
 2872.5000     1.2588    71.3312
 2873.0000     1.2597    68.2085
 2873.5000     1.2606    67.1820
 2874.0000     1.2615    65.1322
 2874.5000     1.2624    65.1786
 2875.0000     1.2633    64.0843
 2875.5000     1.2642    63.0495
 2876.0000     0.9483    62.1488
 2876.5000     0.9486    62.2025
 2877.0000     0.9489    62.2500
 2877.5000     0.9493    62.2975
 2878.0000     0.9497    62.0987
 2878.5000     0.9500    61.0635
 2879.0000     0.9504    60.0282
 2879.5000     0.9508    59.3187
 2880.0000     0.9511    59.3662
 2880.5000     0.9515    59.4137
 2881.0000     0.9519    59.0565
 2881.5000     0.9522    58.4525
 2882.0000     0.9526    57.1264
 2882.5000     0.9530    54.4100
 2883.0000     0.9533    53.3134
 2883.5000     0.9537    53.3609
 2884.0000     0.9541    53.4085
 2884.5000     0.9544    53.4560
 2885.0000     0.9548    53.5035
 2885.5000     0.9552    53.5510
 2886.0000     0.9555    53.5986
 2886.5000     0.9559    53.6461
 2887.0000     0.9563    53.6937
 2887.5000     0.9566    53.7412
 2888.0000     0.9570    53.7887
 2888.5000     0.9574    53.8363
 2889.0000     0.9577    53.8838
 2889.5000     0.9581    53.9402
 2890.0000     1.2720    53.9866
 2890.5000     1.2674    54.0330
 2891.0000     1.2627    54.0794
 2891.5000     1.2581    54.1257
 2892.0000     1.2940    54.1721
 2892.5000     1.7382    54.2185
 2893.0000     1.7384    54.2649
 2893.5000     1.7387    54.3112
 2894.0000     1.7389    53.3013
 2894.5000     1.7392    53.4122
 2895.0000     1.7395    54.4542
 2895.5000     1.7397    54.5018
 2896.0000     1.7400    54.5493
 2896.5000     1.2146    54.5968
 2897.0000     1.2158    54.6444
 2897.5000     1.2170    54.9118
 2898.0000     1.2182    55.7958
 2898.5000     1.2194    55.8433
 2899.0000     1.2206    55.8909
 2899.5000     1.2218    56.2641
 2900.0000     1.2230    57.0423
 2900.5000     1.2242    57.5028
 2901.0000     1.2253    58.7315
 2901.5000     1.2265    60.8718
 2902.0000     1.7221    64.3451
 2902.5000     1.7224    69.1105
 2903.0000     1.7226    75.6441
 2903.5000     1.7229    81.2347
 2904.0000     1.4916    82.9437
 2904.5000     1.4918    82.7340
 2905.0000     1.4921    81.1267
 2905.5000     1.4924    78.2832
 2906.0000     1.4926    75.5125
 2906.5000     1.4929    71.9976
 2907.0000     1.4932    70.6796
 2907.5000     1.4934    70.7482
 2908.0000     1.4937    70.8169
 2908.5000     1.4939    70.8855
 2909.0000     1.4942    70.9542
 2909.5000     1.4945    71.0229
 2910.0000     1.4947    70.5813
 2910.5000     1.4950    69.5723
 2911.0000     1.4953    69.1162
 2911.5000     1.4955    69.1849
 2912.0000     1.9390    69.2535
 2912.5000     1.9420    69.3222
 2913.0000     1.9451    68.7538
 2913.5000     1.9481    67.7447
 2914.0000     1.4758    67.4155
 2914.5000     1.4761    67.4842
 2915.0000     1.4763    66.8311
 2915.5000     1.4766    67.3079
 2916.0000     1.4768    68.4544
 2916.5000     1.4771    68.8151
 2917.0000     1.4774    68.8838
 2917.5000     1.4776    68.1250
 2918.0000     1.4779    67.9648
 2918.5000     1.7542    68.0453
 2919.0000     1.7602    68.1127
 2919.5000     1.7663    68.1800
 2920.0000     1.7723    68.2473
 2920.5000     2.0004    68.3146
 2921.0000     2.0112    68.3819
 2921.5000     2.0219    69.5056
 2922.0000     2.4905    69.5729
 2922.5000     2.4908    68.5839
 2923.0000     2.4911    68.6512
 2923.5000     2.4913    67.6621
 2924.0000     2.0200    67.7324
 2924.5000     1.7494    67.8011
 2925.0000     1.7559    67.8641
 2925.5000     1.7624    66.8751
 2926.0000     2.2393    66.9507
 2926.5000     2.2368    67.0194
 2927.0000     2.2342    67.0880
 2927.5000     2.2317    66.1887
 2928.0000     1.7674    61.7289
 2928.5000     1.7631    61.1922
 2929.0000     1.7578    61.8237
 2929.5000     1.7524    61.0519
 2930.0000     1.5053    60.9600
 2930.5000     1.5083    60.8682
 2931.0000     1.5114    60.7763
 2931.5000     1.5145    60.6845
 2932.0000     1.2747    60.5927
 2932.5000     1.2723    60.5008
 2933.0000     1.2700    60.4090
 2933.5000     1.2676    60.3171
 2934.0000     1.2653    60.2253
 2934.5000     1.4981    60.1334
 2935.0000     1.4997    60.0416
 2935.5000     1.5013    59.9498
 2936.0000     1.5029    59.8579
 2936.5000     1.5046    59.7661
 2937.0000     1.5062    59.6742
 2937.5000     1.5078    59.5824
 2938.0000     1.5094    59.4905
 2938.5000     1.5110    59.3987
 2939.0000     1.5126    59.3069
 2939.5000     1.5142    59.2150
 2940.0000     1.5158    59.1232
 2940.5000     1.5175    59.0313
 2941.0000     1.5191    58.9395
 2941.5000     1.5207    58.8476
 2942.0000     1.7816    58.7558
 2942.5000     2.7448    58.6640
 2943.0000     2.7478    58.5721
 2943.5000     2.7509    58.4803
 2944.0000     2.7539    58.3884
 2944.5000     2.4931    58.2966
 2945.0000     2.4960    58.2048
 2945.5000     2.4989    58.1129
 2946.0000     2.5019    58.0211
 2946.5000     1.9644    57.9292
 2947.0000     1.9595    57.8374
 2947.5000     1.9546    57.7455
 2948.0000     1.9498    57.6537
 2948.5000     1.7676    57.5619
 2949.0000     1.7711    57.4700
 2949.5000     1.7746    57.3782
 2950.0000     1.7780    57.2863
