~VERSION INFORMATION
 VERS.                2.0:   CWLS LOG ASCII STANDARD - VERSION 2.0
 WRAP.                 NO:   ONE LINE PER DEPTH STEP
~WELL INFORMATION
#MNEM.UNIT      DATA TYPE    INFORMATION
#----------   ------------   ------------------------------
 STRT.F           30.5000:   START DEPTH
 STOP.F          692.0000:   STOP DEPTH
 STEP.F            0.5000:   STEP LENGTH
 NULL.          -999.2500:   NO VALUE
 COMP. FENIX & SCISSON INC:   COMPANY
 WELL.   27-S-11-WP #3-11:   WELL
 FLD .  TEAPOT DOME NPR-3:   FIELD
 LOC .      S11 T38N R78W:   LOCATION
 CNTY.            NATRONA:   COUNTY
 STAT.            WYOMING:   STATE
 CTRY. UNITED STATES OF AMERICA:   COUNTRY
 SRVC.       Schlumberger:   SERVICE COMPANY
 DATE.        18-FEB-1978:   LOGDATE
 API .       490251058100:   API NUMBER
~CURVE INFORMATION
#MNEM.UNIT       API CODE    CURVE DESCRIPTION
#----------   ------------   ------------------------------
 DEPT.F                  :   
 CALD.IN     45 280 60 00:   CALIPER FROM DENSITY LOG
 CORR.G/C3   45 356 01 00:   DENSITY CORRECTION
 DPHI.DEC    45 890 12 00:   DENSITY POROSITY SANDSTONE
 GRD .GAPI   45 310 01 00:   GAMMA RAY FROM DENSITY LOG
 RHOB.G/C3   45 350 01 00:   BULK DENSITY
 ILD .OHMM   05 110 46 00:   INDUCTION LOG DEEP
 SN  .OHMM   05 040 16 00:   SHORT NORMAL 16"
 SPR .MV     05 010 01 00:   SPONTANEOUS POTENSIAL FROM RES.
~PARAMETER INFORMATION
#MNEM.UNIT          VALUE    DESCRIPTION
#----------   ------------   ------------------------------
 PD  .                 GL:   PERMANENT DATUM
 EPD .F              5195:   ELEVATION PERMANENT DATUM
 LMF .                 KB:   LOG MEASURED FROM
 DAPD.F                 4:   FEET ABOVE PERMANENT DATUM
 DMF .                 KB:   DRILLING MEASURED FROM
 EKB .F              5199:   KELLING BUSHING
 EGL .F              5195:   GROUND LEVEL
 DATE.        18-FEB-1978:   RUN DATE
 RUN .                  1:   RUN NUMBER
 DD  .F               690:   DEPTH DRILLER
 DL  .F               695:   DEPTH LOGGER
 BLI .F               688:   BOTTOM LOG INTERVAL
 TLI .F                40:   TOP LOG INTERVAL
 CS  .IN            8.625:   CASING SIZE
 CBD .F                40:   CASING BOTTOM DRILLER
 CBL .F                40:   CASING BOTTOM LOGGER
 BS  .IN            7.875:   BIT SIZE
 BSD .F               690:   BIT SIZE AT DEPTH
 DFT .       LIGNO/ SULF.:   DRILLING FLUID TYPE
 DFD .                8.8:   DRILLING FLUID DENSITY
 DFV .                 33:   DRILLING FLUID VISCOSITY
 DFPH.               10.0:   DRILLING FLUID PH
 DFL .                5.0:   DRILLING FLUID LOSS
 MSS .           FLOWLINE:   MUD SAMPLE SOURCE
 RMS .OHMM            1.7:   RESISTIVITY MUD SAMPLE
 MST .F                66:   MUD SAMPLE TEMPERATURE
 RMF .OHMM            2.0:   RESISTIVITY MUD FILTRATE SAMPLE
 MFST.F                58:   MUD FILTRATE SAMPLE TEMPERATURE
 RMC .OHMM            3.0:   RESISTIVITY MUD CAKE
 MCST.F                60:   MUD CAKE SAMPLE TEMPERATURE
 MFSS.               MEAS:   MUD FILTRATE SAMPLE SOURCE
 RMB .OHMM           1.65:   RESISTIVITY MUD AT BHT
 BHT .F                68:   BOTTOM HOLE TEMPERATURE
 TCS .HRS               2:   TIME CURCULATED STOPPED
 MRT .F                68:   MAXIMUM RECORDED TEMPERATURE
 LUN .               2958:   LOGGING UNIT NUMBER
 LUL .             CASPER:   LOGGING UNIT LOCATION
 ENGI.            POINTER:   RECORDING ENGINEER
 WITN.           MCGINLEY:   WITNESSED BY
 CLNT.            A2DTECH:   CLIENT CODE
 ORIG.           5" PRINT:   ORIGIN OF DATA
 UWI .       490251058100:   UNIQUE WELL ID
~OTHER INFORMATION
~A   DEPT     CALD       CORR       DPHI         GRD      RHOB        ILD         SN        SPR   
   30.5000  -999.2500  -999.2500  -999.2500    71.7128  -999.2500  -999.2500  -999.2500  -999.2500
   31.0000  -999.2500  -999.2500  -999.2500    71.6844  -999.2500  -999.2500  -999.2500  -999.2500
   31.5000  -999.2500  -999.2500  -999.2500    71.5031  -999.2500  -999.2500  -999.2500  -999.2500
   32.0000  -999.2500  -999.2500  -999.2500    71.4740  -999.2500  -999.2500  -999.2500  -999.2500
   32.5000  -999.2500  -999.2500  -999.2500    71.4449  -999.2500  -999.2500  -999.2500  -999.2500
   33.0000  -999.2500  -999.2500  -999.2500    71.5707  -999.2500  -999.2500  -999.2500  -999.2500
   33.5000  -999.2500  -999.2500  -999.2500    71.5352  -999.2500  -999.2500  -999.2500  -999.2500
   34.0000  -999.2500  -999.2500  -999.2500    71.5068  -999.2500  -999.2500  -999.2500  -999.2500
   34.5000  -999.2500  -999.2500  -999.2500    71.6384  -999.2500  -999.2500  -999.2500  -999.2500
   35.0000  -999.2500  -999.2500  -999.2500    71.7629  -999.2500  -999.2500  -999.2500  -999.2500
   35.5000  -999.2500  -999.2500  -999.2500    71.7274  -999.2500  -999.2500  -999.2500  -999.2500
   36.0000  -999.2500  -999.2500  -999.2500    71.6990  -999.2500  -999.2500  -999.2500  -999.2500
   36.5000  -999.2500  -999.2500  -999.2500    71.6706  -999.2500  -999.2500  -999.2500  -999.2500
   37.0000  -999.2500  -999.2500  -999.2500    71.6422  -999.2500  -999.2500  -999.2500  -999.2500
   37.5000  -999.2500  -999.2500  -999.2500    71.6131  -999.2500  -999.2500  -999.2500  -999.2500
   38.0000  -999.2500  -999.2500  -999.2500    71.5841  -999.2500  -999.2500  -999.2500  -999.2500
   38.5000  -999.2500  -999.2500  -999.2500    71.5498  -999.2500  -999.2500  -999.2500  -999.2500
   39.0000  -999.2500  -999.2500  -999.2500    71.5214  -999.2500  -999.2500  -999.2500  -999.2500
   39.5000  -999.2500  -999.2500  -999.2500    71.1872  -999.2500  -999.2500  -999.2500  -999.2500
   40.0000     8.0759    -0.4317  -999.2500    70.5471  -999.2500  -999.2500  -999.2500  -999.2500
   40.5000     7.9776    -0.3378  -999.2500    69.6013  -999.2500  -999.2500  -999.2500  -999.2500
   41.0000     7.9139    -0.2560  -999.2500    68.6555  -999.2500  -999.2500  -999.2500  -999.2500
   41.5000     7.8963    -0.1833  -999.2500    67.8625  -999.2500  -999.2500  -999.2500  -999.2500
   42.0000     7.8940    -0.0803  -999.2500    67.3754  -999.2500  -999.2500  -999.2500   -21.2317
   42.5000     7.8913     0.0167  -999.2500    67.3470  -999.2500  -999.2500  -999.2500   -21.4130
   43.0000     7.8890     0.0803  -999.2500    67.6244  -999.2500  -999.2500  -999.2500   -21.8960
   43.5000     7.9328     0.1469  -999.2500    67.9256  -999.2500  -999.2500  -999.2500   -22.0742
   44.0000     8.0688     0.2150  -999.2500    69.0895  -999.2500  -999.2500  -999.2500   -23.0145
   44.5000     8.3123     0.2133  -999.2500    70.7430  -999.2500  -999.2500  -999.2500   -24.5646
   45.0000     8.3869     0.1904  -999.2500    72.7024  -999.2500  -999.2500  -999.2500   -28.4013
   45.5000     8.8455     0.1265  -999.2500    78.4844  -999.2500  -999.2500  -999.2500   -29.7990
   46.0000    10.9323     0.1558  -999.2500    90.8413  -999.2500  -999.2500  -999.2500   -29.9772
   46.5000    11.0266     0.1768  -999.2500    99.2227  -999.2500  -999.2500  -999.2500   -30.1553
   47.0000     9.2074     0.1807  -999.2500    81.7631  -999.2500  -999.2500  -999.2500   -30.3335
   47.5000     8.8953     0.1517  -999.2500    76.2301  -999.2500  -999.2500  -999.2500   -30.5116
   48.0000     8.6954    -0.0062  -999.2500    72.5319  -999.2500  -999.2500  -999.2500   -30.6898
   48.5000     8.1248    -0.0185  -999.2500    70.3430  -999.2500  -999.2500  -999.2500   -30.4106
   49.0000     7.9075     0.0253  -999.2500    69.0632  -999.2500  -999.2500     4.0305   -29.5217
   49.5000     7.8745     0.0221  -999.2500    68.6240  -999.2500  -999.2500     4.0749   -27.4133
   50.0000     7.9030    -0.0478     0.2827    79.4448  -999.2500  -999.2500     3.9989   -25.9146
   50.5000     7.9621     0.0127     0.2815   101.4347     2.0440     2.6994     3.9397   -25.0257
   51.0000     8.0521     0.0217     0.2337   101.1005     2.1184     2.7734     4.0515   -25.0518
   51.5000     8.1420     0.0261     0.1591    95.5675     2.3502     2.8296     4.1302   -25.1052
   52.0000     8.1705     0.0259     0.1531    83.0009     2.3881     2.9687     4.4247   -25.8841
   52.5000     8.1989     0.0258     0.1504    76.5505     2.3903     3.4115     5.1566   -26.3491
   53.0000     8.1659     0.0256     0.1495    75.4332     2.3948     4.1763     6.2673   -26.1951
   53.5000     8.1329     0.0255     0.1483    77.2582     2.3985     5.6807     6.9548   -25.7898
   54.0000     8.1301     0.0238     0.1460    78.9276     2.4020     6.7709     7.2974   -26.1268
   54.5000     8.1125     0.0222     0.1467    80.1493     2.4065     7.0367     7.6036   -26.7623
   55.0000     8.1103     0.0251     0.1482    80.6897     2.4079     7.0793     7.8673   -28.0075
   55.5000     8.0926     0.0249     0.1498    81.5716     2.4047     7.0708     8.1402   -28.3382
   56.0000     8.0904     0.0247     0.1519    82.4607     2.3985     7.0639     8.4817   -28.6687
   56.5000     8.0881     0.0246     0.1544    83.0510     2.3938     7.0571     8.7147   -28.5420
   57.0000     8.1018     0.0244     0.1584    83.1755     2.3930     7.1015     8.9541   -28.2564
   57.5000     8.0683     0.0228     0.1615    81.7638     2.3890     7.1947     9.3953   -28.1297
   58.0000     8.0507     0.0211     0.1633    78.0657     2.3813     7.2890     9.7212   -28.1619
   58.5000     8.0484     0.0194     0.1640    76.5082     2.3744     7.4869     9.8494   -28.4925
   59.0000     8.0461     0.0178     0.1640    76.1740     2.3720     7.6384     9.9888   -29.1280
   59.5000     8.0433     0.0176     0.1638    76.4643     2.3718     7.6865    10.1086   -29.3061
   60.0000     8.0103     0.0205     0.1622    77.6656     2.3733     7.8971    10.1705   -29.4843
   60.5000     7.9927     0.0219     0.1579    78.8339     2.3739     8.2258    10.3046   -29.5100
   61.0000     7.9751     0.0247     0.1487    79.1184     2.3790     8.4512    10.4405   -29.5357
   61.5000     7.9421     0.0276     0.1436    80.7649     2.3957     8.8051    10.5068   -29.5614
   62.0000     7.9399     0.0305     0.1522    83.0300     2.4047     9.0497    10.4218   -29.5872
   62.5000     7.9069     0.0349     0.1589    84.8365     2.3969     9.2942    10.3399   -29.6129
   63.0000     7.8739     0.0347     0.1598    86.3371     2.3862     9.3504    10.1160   -29.4797
   63.5000     7.8410     0.0346     0.1602    86.9274     2.3815     9.2740     9.9664   -29.6643
   64.0000     7.8080     0.0344     0.1605    86.8919     2.3829     9.3324     9.8881   -29.6901
   64.5000     7.7418     0.0343     0.1606    85.0286     2.3820     9.5189     9.8792   -29.7158
   65.0000     7.6190     0.0326     0.1606    81.6004     2.3796     9.6461     9.9397   -30.3513
   65.5000     7.6476     0.0310     0.1591    78.1677     2.3772     9.7045    10.0006   -30.3770
   66.0000     7.8906     0.0277     0.1580    76.6794     2.3824     9.7632     9.9916   -30.4027
   66.5000     8.0118     0.0215     0.1607    76.8110     2.3846     9.8888    10.1234   -30.4284
   67.0000     8.0089     0.0199     0.1653    76.7755     2.3753     9.9511    10.1853   -30.1493
   67.5000     7.9760     0.0227     0.1657    76.5942     2.3722    10.0113    10.2477   -30.3354
   68.0000     7.9737     0.0226     0.1606    77.1774     2.3728    10.0694    10.2362   -30.8110
   68.5000     7.9715     0.0270     0.1509    78.0664     2.3772    10.1328    10.3712   -31.1585
   69.0000     7.9385     0.0329     0.1476    79.1083     2.3862    10.2637    10.3619   -31.4726
   69.5000     7.9362     0.0358     0.1455    80.6090     2.3968    10.3982    10.5009   -31.4985
   70.0000     7.9339     0.0356     0.1426    81.6509     2.4035    10.6827    10.6394   -31.5295
   70.5000     7.8988     0.0446     0.1384    81.4694     2.4117    10.8989    10.9292   -31.8601
