~VERSION INFORMATION
 VERS.                2.0:   CWLS LOG ASCII STANDARD - VERSION 2.0
 WRAP.                 NO:   ONE LINE PER DEPTH STEP
~WELL INFORMATION
#MNEM.UNIT      DATA TYPE    INFORMATION
#----------   ------------   ------------------------------
 STRT.F            0.0000:   START DEPTH
 STOP.F          539.0000:   STOP DEPTH
 STEP.F            0.5000:   STEP LENGTH
 NULL.          -999.2500:   NO VALUE
 COMP. FENIX & SCISSON INC:   COMPANY
 WELL.     NPR 3 SX #23-3:   WELL
 FLD .             TEAPOT:   FIELD
 LOC .       S3 T38N R78W:   LOCATION
 CNTY.            NATRONA:   COUNTY
 STAT.            WYOMING:   STATE
 CTRY. UNITED STATES OF AMERICA:   COUNTRY
 SRVC.           BIRDWELL:   SERVICE COMPANY
 DATE.        27-JUL-1978:   LOGDATE
 API .       490251067500:   API NUMBER
~CURVE INFORMATION
#MNEM.UNIT       API CODE    CURVE DESCRIPTION
#----------   ------------   ------------------------------
 DEPT.F                  :   
 ILD .OHMM   05 120 40 00:   INDUCTION LOG DEEP
 SPR .MV     05 010 01 00:   SPONTANEOUS POTENTIAL
 SN  .OHMM   05 040 16 00:   SHORT NORMAL 16"
 CALD.IN     45 280 60 00:   CALIPER FROM DENSITY LOG
 CORR.G/C3   45 356 01 00:   DENSITY CORRECTION
 DPHI.DEC    45 890 12 00:   DENSITY POROSITY SANDSTONE
 GRD .GAPI   45 310 01 00:   GAMMA RAY FROM DENSITY LOG
 RHOB.G/C3   45 350 01 00:   BULK DENSITY
~PARAMETER INFORMATION
#MNEM.UNIT          VALUE    DESCRIPTION
#----------   ------------   ------------------------------
 PD  .                 GL:   PERMANENT DATUM
 EPD .F              5787:   ELEVATION PERMANENT DATUM
 LMF .                 KB:   LOG MEASURED FROM
 DAPD.F                 4:   FEET ABOVE PERMANENT DATUM
 DMF .                 KB:   DRILLING MEASURED FROM
 EKB .F              5191:   KELLING BUSHING
 EGL .F              5187:   GROUND LEVEL
 DATE.         7-JUL-1978:   RUN DATE
 RUN .                  1:   RUN NUMBER
 DD  .F               540:   DEPTH DRILLER
 DL  .F               540:   DEPTH LOGGER
 BLI .F               539:   BOTTOM LOG INTERVAL
 CS  .IN            8.625:   CASING SIZE
 CBD .F                40:   CASING BOTTOM DRILLER
 BS  .IN            7.875:   BIT SIZE
 BSD .F               540:   BIT SIZE AT DEPTH
 DFT .                KCL:   DRILLING FLUID TYPE
 DFD .                8.6:   DRILLING FLUID DENSITY
 DFV .                 30:   DRILLING FLUID VISCOSITY
 DFPH.                  9:   DRILLING FLUID PH
 MSS .           FLOWLINE:   MUD SAMPLE SOURCE
 MRT .F                74:   MAXIMUM RECORDED TEMPERATURE
 LUN .               2958:   LOGGING UNIT NUMBER
 LUL .               CASP:   LOGGING UNIT LOCATION
 ENGI.            POINTER:   RECORDING ENGINEER
 WITN.              AMEND:   WITNESSED BY
 CLNT.            A2DTECH:   CLIENT CODE
 ORIG.           5" PRINT:   ORIGIN OF DATA
 UWI .       490251067500:   UNIQUE WELL ID
 DICO. A2D Technologies, Inc.:   DIGITIZING COMPANY
~OTHER INFORMATION
~A    DEPT     ILD        SPR         SN         CALD     CORR       DPHI         GRD      RHOB   
# ...
   81.0000     8.4872   -15.9226     9.2898     7.7741     0.0360     0.1225    73.8922     2.4503
   81.5000     8.4319   -17.0897     9.2928     7.7731     0.0374     0.1198    73.4431     2.4531
   82.0000     8.3770   -18.2520     9.2959     8.1951     0.0372     0.1174    72.0958     2.4561
   82.5000     8.2655   -18.9740     9.2996     8.3151     0.0371     0.1162    71.6467     2.4606
   83.0000     8.2688   -19.9978     9.1760     8.0118     0.0370     0.1114    71.9461     2.4666
   83.5000     8.2715   -20.7149     8.9922     7.9503     0.0369     0.1078    72.0958     2.4763
   84.0000     8.1056   -21.7288     8.8121     7.9490     0.0353     0.1031    72.0958     2.4860
   84.5000     8.0528   -22.3025     8.5766     7.9480     0.0336     0.1001    72.0958     2.4920
   85.0000     7.8373   -22.8811     8.3474     7.9621     0.0320     0.0977    72.0958     2.5002
   85.5000     7.6282   -23.8950     8.1250     7.9762     0.0304     0.0959    72.0958     2.5070
   86.0000     7.4234   -24.7654     8.0170     7.9752     0.0303     0.0941    71.4970     2.5191
   86.5000     7.2253   -25.7843     7.9104     7.9742     0.0302     0.0938    70.7141     2.5227
   87.0000     7.1291   -26.3580     7.9136     7.9427     0.0361     0.1016    66.1078     2.5129
   87.5000     7.0827   -26.9267     7.9162     7.9417     0.0494     0.1145    65.5090     2.4845
   88.0000     7.1344   -27.0553     7.9188     7.9256     0.0702     0.1115    64.7605     2.4792
   88.5000     7.2353   -27.7774     7.9758     7.9094     0.0836     0.1091    64.3114     2.4770
   89.0000     7.4391   -29.0880     8.1448     7.9084     0.0939     0.1091    68.5030     2.4800
   89.5000     7.8622   -29.8101     8.1475     7.9376     0.0983     0.1066    70.0289     2.4859
   90.0000     8.1393   -31.4224     8.3766     8.0574     0.0997     0.1031    71.4970     2.4949
   90.5000     8.5427   -32.4412     8.6122     7.8145     0.0951     0.0983    72.6946     2.5039
   91.0000     8.7833   -33.0168     8.8593     7.6926     0.0800     0.0947    72.2455     2.5159
   91.5000     8.8467   -33.8804     9.2298     7.5103     0.0529     0.1031    72.6946     2.5226
   92.0000     8.7891   -35.0475     9.3602     7.4489     0.0273     0.1091    73.2934     2.5054
   92.5000     8.7926   -36.2147     9.4925     7.4479     0.0153     0.1091    74.4910     2.4926
   93.0000     8.7955   -37.3819     9.4307     7.4468     0.0077     0.1079    74.4910     2.4874
   93.5000     8.7984   -38.2592     9.4339     7.4456     0.0045     0.1073    74.4910     2.4829
   94.0000     8.8013   -39.5629     9.4376     7.4144     0.0044     0.1067    74.4910     2.4769
   94.5000     8.7439   -40.4334     9.4407     7.3831     0.0043     0.1124    75.0898     2.4739
   95.0000     8.6714   -41.4522     9.4437     7.3368     0.0042     0.1172    76.2874     2.4714
   95.5000     8.6088   -42.6194     9.4468     7.3207     0.0041     0.1206    76.5868     2.4679
   96.0000     8.5747   -43.3590     9.3853     7.3196     0.0039     0.1211    76.7365     2.4529
   96.5000     8.5783   -44.5037     9.3892     7.3184     0.0038     0.1187    76.7365     2.4499
   97.0000     8.5811   -45.5274     9.3922     7.3174     0.0037     0.1199    76.5868     2.4506
   97.5000     8.5838   -46.2446     9.3953     7.3163     0.0066     0.1193    75.6886     2.4529
   98.0000     8.5866   -47.8568     9.3984     7.3455     0.0079     0.1187    75.3892     2.4566
   98.5000     8.5895   -49.3208     9.3372     7.3597     0.0094     0.1160    76.1287     2.4618
   99.0000     8.5929   -44.8450     9.3409     7.3737     0.0092     0.1151    78.5329     2.4648
   99.5000     8.5957   -54.3208     9.3438     7.3120     0.0091     0.1148    78.6826     2.4708
  100.0000     8.5397   -52.5206     9.2198     7.3110     0.0150     0.1247    78.6826     2.4738
  100.5000     8.4841    12.1876     9.1600     7.2496     0.0208     0.1286    77.4850     2.4558
  101.0000     8.4869    11.5707     9.1635     7.2939     0.0327     0.1307    76.1348     2.4528
  101.5000     8.3739     9.8582     9.1031     7.6708     0.0386     0.1235    74.4910     2.4536
  102.0000     8.3773     8.6910     9.0446     7.3069     0.0389     0.1217    74.3413     2.4558
  102.5000     8.3800     8.1124     8.9858     7.3663     0.0418     0.1208    74.4910     2.4558
  103.0000     8.6161     7.9887     8.9894     7.4406     0.0442     0.1193    74.9401     2.4588
  103.5000     8.7989     7.8208     8.9920     7.5000     0.0276     0.1203    75.2395     2.4598
  104.0000     8.8624     7.2368     8.9953     7.5594     0.0185     0.1181    75.6886     2.4733
  104.5000     8.7091     6.6529     9.0601     7.6040     0.0079     0.1166    76.3083     2.4792
  105.0000     8.5690     6.0714     9.1261     7.6858     0.0018     0.1154    75.9994     2.4822
  105.5000     8.3971     5.4514     9.1918     7.7459    -0.0028     0.1145    75.6906     2.4791
  106.0000     8.2853     4.4602     9.1948     7.7909     0.0001     0.1142    75.2302     2.4715
  106.5000     8.2313     3.7246     9.1978     7.8208     0.0014     0.1140    74.2909     2.4662
  107.0000     8.2347     2.5482     9.2008     7.8508     0.0058     0.1131    73.8534     2.4639
  107.5000     8.2941     1.8105     9.1409     7.8353     0.0102     0.1119    74.6052     2.4639
  108.0000     8.4115     0.7850     9.1443     7.8199     0.0190     0.1101    75.3569     2.4661
  108.5000     8.4149    -0.6890     9.0844     7.8045     0.0249     0.1077    76.1087     2.4757
  109.0000     8.4756    -1.8682     9.0260     7.8042     0.0248     0.1050    76.4061     2.4770
  109.5000     8.4197    -3.3450     8.9673     7.7888     0.0247     0.1047    76.5576     2.4837
  110.0000     8.4231    -5.3274     8.9709     7.7734     0.0245     0.1059    77.0003     2.4944
  110.5000     8.4260    -7.0399     8.9738     7.7731     0.0244     0.1071    76.9930     2.4941
  111.0000     8.4293    -7.1774     8.9767     7.8332     0.0243     0.1069    77.2917     2.4851
  111.5000     8.4321    -7.4637     8.9797     8.0444     0.0242     0.1066    77.1329     2.4821
  112.0000     8.4348    -7.4525     8.9828     8.2858     0.0286     0.1066    76.8240     2.4798
  112.5000     8.4375    -9.2241     8.9505     8.3308     0.0314     0.1066    75.9091     2.4790
  113.0000     8.3833   -10.4033     8.8668     8.3456     0.0418     0.1063    75.1455     2.4797
  113.5000     8.3279   -11.5825     8.8697     8.2979     0.0477     0.1060    74.9869     2.4819
  114.0000     8.2171   -12.1667     8.8733     8.2241     0.0595     0.1048    75.1340     2.4879
  114.5000     8.2204   -12.7504     8.8761     8.1634     0.0654     0.1024    75.5813     2.4969
  115.0000     8.2232   -12.7363     8.8790     8.0423     0.0653     0.1007    75.1209     2.4991
  115.5000     8.2265   -13.3231     8.8819     7.9060     0.0591     0.0977    74.5090     2.5028
  116.0000     8.2291   -14.0530     8.8873     7.8000     0.0471     0.0947    73.8970     2.5110
  116.5000     8.2318   -15.2485     8.9495     7.7214     0.0409     0.0929    73.8899     2.5178
  117.0000     8.3483   -16.8551     8.9524     7.6634     0.0333     0.0920    74.1871     2.5177
  117.5000     8.4086   -18.0371     9.0169     7.6178     0.0257     0.0941    74.6358     2.5177
  118.0000     8.4699   -19.2163     9.0198     7.6175     0.0225     0.0959    75.0860     2.5139
  118.5000     8.4727   -20.3927     8.9612     7.5870     0.0195     0.0981    75.6848     2.5086
  119.0000     8.4175   -21.0218     8.9648     7.5716     0.0164     0.1006    76.3091     2.5026
  119.5000     8.2486   -22.1558     8.9677     7.5562     0.0163     0.1032    77.3383     2.4996
  120.0000     8.2520   -23.1834     8.9705     7.5502     0.0117     0.1062    78.0915     2.4966
  120.5000     8.2547   -24.2138     9.0353     7.5254     0.0101     0.1107    78.6917     2.4935
  121.0000     8.2573   -25.6906     9.0389     7.5099     0.0099     0.1134    78.9889     2.4875
