~VERSION INFORMATION
 VERS.                2.0:   CWLS LOG ASCII STANDARD - VERSION 2.0
 WRAP.                 NO:   ONE LINE PER DEPTH STEP
~WELL INFORMATION
#MNEM.UNIT      DATA TYPE    INFORMATION
#----------   ------------   ------------------------------
 STRT.F            0.0000:   START DEPTH
 STOP.F         3030.0000:   STOP DEPTH
 STEP.F            0.5000:   STEP LENGTH
 NULL.          -999.2500:   NO VALUE
 COMP. LAWRENCE/ALLISON INC:   COMPANY
 WELL. NAVAL PETROLEUM RESERVE 3 AX-3 #36  X 34-34:   WELL
 FLD .         N. P. R #3:   FIELD
 LOC .      S34 T39N R78W:   LOCATION
 CNTY.            NATRONA:   COUNTY
 STAT.            WYOMING:   STATE
 CTRY. UNITED STATES OF AMERICA:   COUNTRY
 SRVC.      Dresser Atlas:   SERVICE COMPANY
 DATE.        29-JUN-1985:   LOGDATE
 API .       490251103200:   API NUMBER
~CURVE INFORMATION
#MNEM.UNIT       API CODE    CURVE DESCRIPTION
#----------   ------------   ------------------------------
 DEPT.F                  :   
 RFOC.OHMM   07 220 01 00:   RESISTIVITY FOCUSED LOG
 RILM.OHMM   07 120 44 00:   RESITIVITY LONG MEDIUM
 SPR .MV     07 010 01 00:   SPONTANEOUS POTENTIAL
 RILD.OHMM   07 120 46 00:   INDUCTION LOG DEEP RESITIVITY
 GRR .GAPI   07 310 01 00:   GAMMA RAY
 DT  .US/F   60 520 00 00:   INTERVAL TRANSIT TIME
 CALD.IN     45 280 60 00:   CALIPER FROM DENSITY LOG
 CORR.G/C3   45 356 01 00:   DENSITY CORRECTION
 CNC .DEC    42 890 03 00:   NEUTRON POROSITY SANDSTONE
 DEN .G/C3   45 350 01 00:   COMPENSATED BULK DENSTIY
 PORD.DEC    45 890 12 00:   POROSITY DENSITY SANDSTONE
~PARAMETER INFORMATION
#MNEM.UNIT          VALUE    DESCRIPTION
#----------   ------------   ------------------------------
 PD  .                 GL:   PERMANENT DATUM
 EPD .F              5108:   ELEVATION PERMANENT DATUM
 LMF .                 KB:   LOG MEASURED FROM
 DAPD.F                12:   FEET ABOVE PERMANENT DATUM
 DMF .                 KB:   DRILLING MEASURED FROM
 EKB .F              5120:   KELLING BUSHING
 EGL .F              5108:   GROUND LEVEL
 DATE.       29-JUNE-1985:   RUN DATE
 RUN .                  1:   RUN NUMBER
 DD  .F              3033:   DEPTH DRILLER
 DL  .F              3033:   DEPTH LOGGER
 BLI .F              3030:   BOTTOM LOG INTERVAL
 CS  .IN            8.625:   CASING SIZE
 CBD .F               601:   CASING BOTTOM DRILLER
 CBL .F               601:   CASING BOTTOM LOGGER
 BS  .IN            7.875:   BIT SIZE
 BSD .F              3033:   BIT SIZE AT DEPTH
 DFT .   FOAM & KCL WATER:   DRILLING FLUID TYPE
 MSS .           FLOWLINE:   MUD SAMPLE SOURCE
 RMS .OHMM           0.44:   RESISTIVITY MUD SAMPLE
 MST .F                82:   MUD SAMPLE TEMPERATURE
 RMF .OHMM           0.44:   RESISTIVITY MUD FILTRATE SAMPLE
 MFST.F                82:   MUD FILTRATE SAMPLE TEMPERATURE
 MFSS.               MEAS:   MUD FILTRATE SAMPLE SOURCE
 RMB .OHMM           0.31:   RESISTIVITY MUD AT BHT
 BHT .F               116:   BOTTOM HOLE TEMPERATURE
 TCS .HRS               3:   TIME CURCULATED STOPPED
 MRT .F               116:   MAXIMUM RECORDED TEMPERATURE
 LUN .               6274:   LOGGING UNIT NUMBER
 LUL .               GLTE:   LOGGING UNIT LOCATION
 ENGI.             RAUTIO:   RECORDING ENGINEER
 WITN.       MR. JENNINGS:   WITNESSED BY
 CLNT.            A2DTECH:   CLIENT CODE
 ORIG.        2" 5" PRINT:   ORIGIN OF DATA
 UWI .       490251103200:   UNIQUE WELL ID
 DICO. A2D Technologies, Inc.:   DIGITIZING COMPANY
~OTHER INFORMATION
~A    DEPT    RFOC       RILM        SPR       RILD         GRR        DT       CALD       CORR        CNC        DEN       PORD   
# ...
 2318.0000    11.6799    10.9347    30.4122    10.8585   117.1293  -999.2500  -999.2500  -999.2500  -999.2500  -999.2500  -999.2500
 2318.5000    12.0173    10.5688    30.2636    10.5685   122.6041  -999.2500  -999.2500  -999.2500  -999.2500  -999.2500  -999.2500
 2319.0000    12.1948    10.1442    30.1157    10.2149   124.7456  -999.2500  -999.2500  -999.2500  -999.2500  -999.2500  -999.2500
 2319.5000    12.7226     9.5326    30.1186     9.7843   126.9331  -999.2500  -999.2500  -999.2500  -999.2500  -999.2500  -999.2500
 2320.0000    13.1792     8.8407    29.9692     9.2823   118.7307    89.3976  -999.2500  -999.2500  -999.2500  -999.2500  -999.2500
 2320.5000    11.8812     8.2523    30.1244     8.9094   115.4176    89.3926  -999.2500  -999.2500  -999.2500  -999.2500  -999.2500
 2321.0000    10.4154     7.9762    30.1273     8.4921   115.4379    89.3876  -999.2500  -999.2500  -999.2500  -999.2500  -999.2500
 2321.5000     9.9259     7.8705    30.2824     8.2653   115.4582    89.3825  -999.2500  -999.2500  -999.2500  -999.2500  -999.2500
 2322.0000    10.0027     7.9335    30.4368     8.2145   115.1754    89.3775  -999.2500  -999.2500  -999.2500  -999.2500  -999.2500
 2322.5000    10.0786     7.9400    30.4397     8.2227   115.2008    89.3725  -999.2500  -999.2500  -999.2500  -999.2500  -999.2500
 2323.0000     9.9452     7.9478    30.4426     8.2293   110.9786    89.3675  -999.2500  -999.2500  -999.2500  -999.2500  -999.2500
 2323.5000     9.8135     7.7896    30.4455     8.0639   103.7262    89.3624  -999.2500  -999.2500  -999.2500  -999.2500  -999.2500
 2324.0000     9.9742     7.5290    30.4485     7.8501   100.4081    89.3574  -999.2500  -999.2500  -999.2500  -999.2500  -999.2500
 2324.5000    10.5353     7.1763    30.7550     7.5874   101.3425    89.3524  -999.2500  -999.2500  -999.2500  -999.2500  -999.2500
 2325.0000    10.9913     6.6987    30.9095     7.2335   104.3982    89.3469  -999.2500  -999.2500  -999.2500  -999.2500  -999.2500
 2325.5000    10.1164     6.3850    31.2154     7.0403   105.9336    89.4924  -999.2500  -999.2500  -999.2500  -999.2500  -999.2500
 2326.0000     8.4473     6.3457    31.2183     7.0459   106.8630    89.8643  -999.2500  -999.2500  -999.2500  -999.2500  -999.2500
 2326.5000     7.7750     6.3965    31.2212     7.1009   107.1863    91.1386  -999.2500  -999.2500  -999.2500  -999.2500  -999.2500
 2327.0000     7.3582     6.5825    31.3763     7.3585   107.8126    92.4141  -999.2500  -999.2500  -999.2500  -999.2500  -999.2500
 2327.5000     6.8664     6.8213    31.6822     7.7416   105.9644    94.3673  -999.2500  -999.2500  -999.2500  -999.2500  -999.2500
 2328.0000     7.4185     7.1761    31.6851     8.4151   102.1007    95.1909  -999.2500  -999.2500  -999.2500  -999.2500  -999.2500
 2328.5000     8.7741     8.3636    31.5365     9.2202    96.9695    95.2616  -999.2500  -999.2500  -999.2500  -999.2500  -999.2500
 2329.0000    10.0209     9.4228    31.2364    10.1023    93.0504    94.3522  -999.2500  -999.2500  -999.2500  -999.2500  -999.2500
 2329.5000    11.0533    10.3965    30.9363    10.9920    91.2524    92.4004  -999.2500  -999.2500  -999.2500  -999.2500  -999.2500
 2330.0000    12.1922    11.3121    30.9399    11.8770    90.6667    88.6941     7.5261     0.0365     0.2852     2.5515     0.0609
 2330.5000    12.9883    11.9701    31.2458    12.5703    90.0809    86.8070     7.4913     0.0365     0.2864     2.5515     0.0607
 2331.0000    13.4672    12.3186    31.8548    12.6683    89.7981    86.1931     7.4465     0.0351     0.2950     2.5478     0.0637
 2331.5000    13.3730    12.3305    32.3122    12.4162    89.2174    86.4200     7.4318     0.0321     0.3084     2.5403     0.0703
 2332.0000    12.9233    12.0012    32.3152    12.1691    89.8438    87.9214     7.4323     0.0292     0.3044     2.5171     0.0766
 2332.5000    13.2039    11.6807    32.1665    11.8441    91.9853    88.5191     7.4326     0.0262     0.2967     2.5028     0.0893
 2333.0000    12.9388    11.2115    31.8671    11.3528    97.0061    88.4380     7.4330     0.0218     0.2908     2.4893     0.0967
 2333.5000    11.9817    10.2323    31.7177    10.6138   102.6370    88.5087     7.4334     0.0158     0.2959     2.4826     0.0995
 2334.0000    11.6697     8.6795    31.2668     9.8387   104.7785    88.8869     7.4338     0.0053     0.3156     2.4826     0.1004
 2334.5000    11.6784     8.1018    30.9667     9.2481   105.7078    90.8326     7.4341     0.0167     0.3288     2.4857     0.0995
 2335.0000    11.2857     7.7764    30.5158     9.0641   106.6372    91.8821     7.4345     0.0355     0.3343     2.4887     0.0974
 2335.5000     9.8247     7.6734    30.3664     8.8837   110.6019    92.4799     7.4349     0.0386     0.3379     2.4873     0.0961
 2336.0000     8.7311     7.6277    30.3700     8.5881   116.3798    92.8518     7.4352     0.0341     0.3394     2.4805     0.1000
 2336.5000     7.9836     7.6949    30.5244     8.4744   119.4304    92.8460     7.4356     0.0146     0.3306     2.4670     0.1076
 2337.0000     8.1004     8.1928    30.5273     8.7226   120.9658    92.6154     7.4360     0.0177     0.3085     2.4461     0.1178
 2337.5000     9.2515     8.8525    30.5303     9.2299   122.8043    91.7060     7.4364     0.0222     0.3000     2.4356     0.1299
 2338.0000    13.3879     9.5652    30.3816     9.8350   124.9114    89.8941     7.4368    -0.0003     0.3045     2.4409     0.1268
 2338.5000    14.9744     9.9815    30.2330    10.5619   126.8555    88.2328     7.4220    -0.0047     0.3069     2.4485     0.1220
 2339.0000    14.7608    10.4190    30.2366    11.0146   128.0217    87.8505     7.4225    -0.0047     0.3060     2.4522     0.1195
 2339.5000    13.7928    10.7960    30.2395    11.2562   131.6784    87.9223     7.4228    -0.0046     0.3114     2.4440     0.1204
 2340.0000    12.3463    10.9562    30.2424    11.3440   139.2744    87.8412     7.4233    -0.0014     0.3226     2.4283     0.1279
 2340.5000    10.3803    10.8132    30.0938    11.1182   149.2947    86.5553     7.4387     0.0120     0.3189     2.4085     0.1431
 2341.0000    10.5322     9.7480    29.9452    10.1546   152.3751    85.2705     7.4390     0.0226     0.3041     2.4073     0.1466
 2341.5000    12.2245     8.6060    29.6458     8.6674   153.5827    85.1153     7.4394     0.0231     0.2999     2.4261     0.1363
 2342.0000    13.1781     7.3017    29.4964     7.4417   156.0273    86.0884     7.4549    -0.0164     0.3092     2.4675     0.1158
 2342.5000     9.3748     5.5974    29.3485     6.4340   153.6233    89.2464     7.4552    -0.0224     0.3150     2.4886     0.0970
 2343.0000     7.3520     4.9762    29.1999     5.5627   147.8860    91.5761     7.4707     0.0138     0.3182     2.4878     0.0958
 2343.5000     5.6464     4.6450    29.0520     4.9453   135.4821    92.9257     7.4861     0.0199     0.3185     2.4841     0.0982
 2344.0000     4.8034     4.3967    28.6004     4.4460   129.0588    93.2223     7.5016    -0.0327     0.3122     2.4864     0.0978
 2344.5000     4.4000     4.1036    28.1480     4.1914   125.8307    93.2941     7.5019    -0.0568     0.3088     2.4962     0.0927
 2345.0000     4.9489     3.9401    27.6964     4.0512   125.2450    93.2046     7.5023    -0.0311     0.3107     2.4993     0.0909
 2345.5000     5.5451     3.8886    27.3970     3.9705   123.7501    92.5295     7.5026    -0.0158     0.3190     2.4970     0.0902
 2346.0000     5.7828     3.8918    27.4006     3.9460   122.2552    91.8471     7.5030     0.0036     0.3084     2.4873     0.0932
 2346.5000     5.1053     3.8949    27.4035     3.9783   122.2758    91.6165     7.5034     0.0548     0.3000     2.4626     0.1198
 2347.0000     4.9339     3.9252    27.5579     4.0649   121.6948    92.0626     7.5038     0.1045     0.2981     2.4153     0.1421
 2347.5000     5.0770     4.0142    27.7123     4.0966   120.5030    93.1121     7.5042     0.1121     0.3053     2.4070     0.1466
 2348.0000     5.2600     4.0717    27.8667     4.0999   119.9121    94.8594     7.5045     0.0369     0.3138     2.4206     0.1302
