~VERSION INFORMATION
 VERS.                2.0:   CWLS LOG ASCII STANDARD - VERSION 2.0
 WRAP.                 NO:   ONE LINE PER DEPTH STEP
~WELL INFORMATION
#MNEM.UNIT      DATA TYPE    INFORMATION
#----------   ------------   ------------------------------
 STRT.F            0.0000:   START DEPTH
 STOP.F         3024.5000:   STOP DEPTH
 STEP.F            0.5000:   STEP LENGTH
 NULL.          -999.2500:   NO VALUE
 COMP. LAWRENCE/ALLISON INC:   COMPANY
 WELL.   NPR 3 77X #77-28:   WELL
 FLD .           N.P.R. 3:   FIELD
 LOC .      S28 T39N R78W:   LOCATION
 CNTY.            NATRONA:   COUNTY
 STAT.            WYOMING:   STATE
 CTRY. UNITED STATES OF AMERICA:   COUNTRY
 SRVC.      Dresser Atlas:   SERVICE COMPANY
 DATE.        19-OCT-1986:   LOGDATE
 API .       490251110400:   API NUMBER
~CURVE INFORMATION
#MNEM.UNIT       API CODE    CURVE DESCRIPTION
#----------   ------------   ------------------------------
 DEPT.F                  :   
 PORD.DEC    45 890 12 00:   DENSITY POROSITY SANDSTONE
 CNC .DEC    42 890 03 00:   NEUTRON POROSITY SANDSTONE
 DEN .G/C3   45 350 01 00:   COMPENSATED BULK DENSTIY
 CORR.G/C3   45 356 01 00:   DENSITY CORRECTION
 CALD.IN     45 280 60 00:   CALIPER FROM DENSITY LOG
 GRR .GAPI   07 310 01 00:   GAMMA RAY FROM RES. LOG.
 RFOC.OHMM   07 220 04 00:   RESISTIVITY FOCUSED LOG
 RILD.OHMM   07 120 46 00:   INDUCTION LOG DEEP RESISTIVITY
 RILM.OHMM   07 120 44 00:   INDUCTION LOG MEDIUM RESISTIVITY
 SPR .MV     07 010 01 00:   SPONTANEOUS POTENTIAL
~PARAMETER INFORMATION
#MNEM.UNIT          VALUE    DESCRIPTION
#----------   ------------   ------------------------------
 PD  .                 GL:   PERMANENT DATUM
 EPD .F              5074:   ELEVATION PERMANENT DATUM
 LMF .                 KB:   LOG MEASURED FROM
 DAPD.F                12:   FEET ABOVE PERMANENT DATUM
 DMF .                 KB:   DRILLING MEASURED FROM
 EKB .F              5086:   KELLING BUSHING
 EGL .F              5074:   GROUND LEVEL
 DATE.           10-19-86:   RUN DATE
 RUN .                  1:   RUN NUMBER
 DD  .F              3021:   DEPTH DRILLER
 DL  .F              3025:   DEPTH LOGGER
 BLI .F              3023:   BOTTOM LOG INTERVAL
 CS  .IN            8.625:   CASING SIZE
 CBD .F               620:   CASING BOTTOM DRILLER
 CBL .F               615:   CASING BOTTOM LOGGER
 BS  .IN            7.875:   BIT SIZE
 BSD .F              3021:   BIT SIZE AT DEPTH
 DFT .        KCL POLYMER:   DRILLING FLUID TYPE
 DFD .                8.9:   DRILLING FLUID DENSITY
 DFV .                 38:   DRILLING FLUID VISCOSITY
 DFPH.                9.5:   DRILLING FLUID PH
 DFL .               11.2:   DRILLING FLUID LOSS
 MSS .           FLOWLINE:   MUD SAMPLE SOURCE
 RMS .OHMM            .25:   RESISTIVITY MUD SAMPLE
 MST .F                65:   MUD SAMPLE TEMPERATURE
 RMF .OHMM           .203:   RESISTIVITY MUD FILTRATE SAMPLE
 MFST.F                65:   MUD FILTRATE SAMPLE TEMPERATURE
 RMC .OHMM            .31:   RESISTIVITY MUD CAKE
 MCST.F                65:   MUD CAKE SAMPLE TEMPERATURE
 MFSS.               MEAS:   MUD FILTRATE SAMPLE SOURCE
 MCSS.               CALC:   MUD CAKE SAMPLE SOURCE
 RMB .OHMM           .136:   RESISTIVITY MUD AT BHT
 BHT .F               119:   BOTTOM HOLE TEMPERATURE
 TCS .HRS               5:   TIME CURCULATED STOPPED
 MRT .F               119:   MAXIMUM RECORDED TEMPERATURE
 LUN .               6274:   LOGGING UNIT NUMBER
 LUL .               GLTE:   LOGGING UNIT LOCATION
 ENGI.             RAUTIO:   RECORDING ENGINEER
 WITN.             STRONG:   WITNESSED BY
 CLNT.            A2DTECH:   CLIENT CODE
 ORIG.       2", 5" PRINT:   ORIGIN OF DATA
 UWI .       490251110400:   UNIQUE WELL ID
 DICO. A2D Technologies, Inc.:   DIGITIZING COMPANY
~OTHER INFORMATION
~A    DEPT    PORD        CNC        DEN       CORR       CALD        GRR       RFOC       RILD       RILM        SPR   
# ...
 1876.0000  -999.2500  -999.2500  -999.2500  -999.2500  -999.2500   135.6757     9.5026     7.4712     7.7732   -81.3586
 1876.5000  -999.2500  -999.2500  -999.2500  -999.2500  -999.2500   133.3541     9.4687     7.3882     7.7012   -81.1944
 1877.0000  -999.2500  -999.2500  -999.2500  -999.2500  -999.2500   133.8163     9.3429     7.3061     7.6298   -81.0347
 1877.5000  -999.2500  -999.2500  -999.2500  -999.2500  -999.2500   134.6049     9.2196     7.2250     7.5591   -80.8743
 1878.0000  -999.2500  -999.2500  -999.2500  -999.2500  -999.2500   134.5825     9.0978     7.1447     7.4891   -80.7149
 1878.5000  -999.2500  -999.2500  -999.2500  -999.2500  -999.2500   134.8966     8.9777     7.0654     7.4197   -80.5473
 1879.0000  -999.2500  -999.2500  -999.2500  -999.2500  -999.2500   137.4568     8.8998     6.9866     7.3509   -80.2661
 1879.5000  -999.2500  -999.2500  -999.2500  -999.2500  -999.2500   140.0372     8.8183     6.9094     7.2828   -80.4226
 1880.0000  -999.2500  -999.2500  -999.2500  -999.2500  -999.2500   142.5912     8.7977     6.8776     7.2689   -80.6481
 1880.5000  -999.2500  -999.2500  -999.2500  -999.2500  -999.2500   144.6053     8.7768     6.8776     7.2689   -80.8691
 1881.0000  -999.2500  -999.2500  -999.2500  -999.2500  -999.2500   142.5367     8.7560     6.9685     7.2839   -81.0886
 1881.5000  -999.2500  -999.2500  -999.2500  -999.2500  -999.2500   139.5934     8.7375     7.0318     7.3387   -81.3081
 1882.0000  -999.2500  -999.2500  -999.2500  -999.2500  -999.2500   136.6110     8.8369     7.0957     7.3940   -81.3678
 1882.5000  -999.2500  -999.2500  -999.2500  -999.2500  -999.2500   133.5981     8.9274     7.1602     7.4496   -81.2400
 1883.0000  -999.2500  -999.2500  -999.2500  -999.2500  -999.2500   132.5901     8.9821     7.2252     7.5057   -81.1120
 1883.5000  -999.2500  -999.2500  -999.2500  -999.2500  -999.2500   134.7257     8.9821     7.2908     7.5621   -81.0189
 1884.0000  -999.2500  -999.2500  -999.2500  -999.2500  -999.2500   138.0991     8.9821     7.3591     7.6194   -81.0575
 1884.5000  -999.2500  -999.2500  -999.2500  -999.2500  -999.2500   141.6063     8.9821     7.4757     7.6822   -81.0930
 1885.0000  -999.2500  -999.2500  -999.2500  -999.2500  -999.2500   140.6217     8.9853     7.4697     7.6812   -81.1285
 1885.5000  -999.2500  -999.2500  -999.2500  -999.2500  -999.2500   139.0272     8.9953     7.4724     7.6740   -81.1637
 1886.0000  -999.2500  -999.2500  -999.2500  -999.2500  -999.2500   138.9743     9.0052     7.4724     7.6673   -81.2000
 1886.5000  -999.2500  -999.2500  -999.2500  -999.2500  -999.2500   138.6112     9.0152     7.4724     7.6607   -81.1545
 1887.0000  -999.2500  -999.2500  -999.2500  -999.2500  -999.2500   136.5788     9.0251     7.4724     7.6541   -81.0622
 1887.5000  -999.2500  -999.2500  -999.2500  -999.2500  -999.2500   134.2370     9.0351     7.4724     7.6475   -80.9686
 1888.0000  -999.2500  -999.2500  -999.2500  -999.2500  -999.2500   132.5273     9.0451     7.4724     7.6409   -80.8764
 1888.5000  -999.2500  -999.2500  -999.2500  -999.2500  -999.2500   135.0723     9.0551     7.4724     7.6343   -80.8151
 1889.0000  -999.2500  -999.2500  -999.2500  -999.2500  -999.2500   138.3701     9.0651     7.4724     7.6277   -80.8117
 1889.5000  -999.2500  -999.2500  -999.2500  -999.2500  -999.2500   141.0032     9.1422     7.4724     7.6213   -80.6885
 1890.0000  -999.2500  -999.2500  -999.2500  -999.2500  -999.2500   140.1317     9.2392     7.4717     7.6146   -80.6160
 1890.5000  -999.2500  -999.2500  -999.2500  -999.2500  -999.2500   138.2565     9.3371     7.4743     7.5792   -80.6163
 1891.0000  -999.2500  -999.2500  -999.2500  -999.2500  -999.2500   136.3894     9.4362     7.3882     7.5125   -80.6161
 1891.5000  -999.2500  -999.2500  -999.2500  -999.2500  -999.2500   134.5208     9.5796     7.2952     7.4464   -80.6155
 1892.0000  -999.2500  -999.2500  -999.2500  -999.2500  -999.2500   132.9612     9.4766     7.2034     7.3809   -80.6158
 1892.5000  -999.2500  -999.2500  -999.2500  -999.2500  -999.2500   132.9467     9.2983     7.1128     7.3160   -80.6702
 1893.0000  -999.2500  -999.2500  -999.2500  -999.2500  -999.2500   134.0742     9.2335     7.0231     7.2517   -80.9617
 1893.5000  -999.2500  -999.2500  -999.2500  -999.2500  -999.2500   139.8061     9.2335     6.9420     7.1879   -81.2468
 1894.0000  -999.2500  -999.2500  -999.2500  -999.2500  -999.2500   145.6228     8.7594     6.9419     7.1247   -81.5433
 1894.5000  -999.2500  -999.2500  -999.2500  -999.2500  -999.2500   149.8854     8.1187     6.9421     7.0710   -81.6108
 1895.0000  -999.2500  -999.2500  -999.2500  -999.2500  -999.2500   146.0734     7.9695     6.9195     7.1486   -81.5914
 1895.5000  -999.2500  -999.2500  -999.2500  -999.2500  -999.2500   141.3477     8.4543     6.8897     7.2188   -81.4647
 1896.0000  -999.2500  -999.2500  -999.2500  -999.2500  -999.2500   137.3625     8.8272     6.8785     7.2897   -81.3400
 1896.5000  -999.2500  -999.2500  -999.2500  -999.2500  -999.2500   138.2609     9.2165     7.0042     7.3613   -81.2156
 1897.0000  -999.2500  -999.2500  -999.2500  -999.2500  -999.2500   140.3797     9.5796     7.0934     7.4336   -81.0912
 1897.5000  -999.2500  -999.2500  -999.2500  -999.2500  -999.2500   142.2736     9.5796     7.1838     7.5066   -80.9668
 1898.0000  -999.2500  -999.2500  -999.2500  -999.2500  -999.2500   138.8903     9.5796     7.2753     7.5803   -80.8394
 1898.5000  -999.2500  -999.2500  -999.2500  -999.2500  -999.2500   134.5327     9.5796     7.3680     7.6111   -80.8149
 1899.0000  -999.2500  -999.2500  -999.2500  -999.2500  -999.2500   130.1414     9.4919     7.4724     7.5509   -80.8148
 1899.5000  -999.2500  -999.2500  -999.2500  -999.2500  -999.2500   126.9181     9.4919     7.3934     7.5009   -80.8151
 1900.0000  -999.2500  -999.2500  -999.2500  -999.2500  -999.2500   125.0080     9.3897     7.3383     7.4514   -80.8151
 1900.5000  -999.2500  -999.2500  -999.2500  -999.2500  -999.2500   126.1284     9.2409     7.2837     7.4021   -80.8153
 1901.0000  -999.2500  -999.2500  -999.2500  -999.2500  -999.2500   128.2005     9.0946     7.2295     7.3531   -80.7908
 1901.5000  -999.2500  -999.2500  -999.2500  -999.2500  -999.2500   130.2081     9.0651     7.1756     7.3045   -80.7478
 1902.0000  -999.2500  -999.2500  -999.2500  -999.2500  -999.2500   131.2893     9.0651     7.1364     7.2689   -80.7045
 1902.5000  -999.2500  -999.2500  -999.2500  -999.2500  -999.2500   132.3645     9.0591     7.1364     7.2758   -80.6601
 1903.0000  -999.2500  -999.2500  -999.2500  -999.2500  -999.2500   132.3139     9.0536     7.1540     7.3363   -80.6210
 1903.5000  -999.2500  -999.2500  -999.2500  -999.2500  -999.2500   130.2337     9.0480     7.1868     7.3973   -80.7946
 1904.0000  -999.2500  -999.2500  -999.2500  -999.2500  -999.2500   128.5587     9.0424     7.2199     7.4588   -80.9840
 1904.5000  -999.2500  -999.2500  -999.2500  -999.2500  -999.2500   128.7954     9.0368     7.2527     7.5209   -81.1726
 1905.0000  -999.2500  -999.2500  -999.2500  -999.2500  -999.2500   132.6586     9.0313     7.2693     7.5834   -81.3611
 1905.5000  -999.2500  -999.2500  -999.2500  -999.2500  -999.2500   136.4778     9.0257     7.2690     7.6111   -81.5493
 1906.0000  -999.2500  -999.2500  -999.2500  -999.2500  -999.2500   140.3122     9.0202     7.2689     7.5895   -81.7383
 1906.5000  -999.2500  -999.2500  -999.2500  -999.2500  -999.2500   140.5795     9.0146     7.2689     7.5623   -81.7708
 1907.0000  -999.2500  -999.2500  -999.2500  -999.2500  -999.2500   138.6778     9.0091     7.2690     7.5352   -81.6835
 1907.5000  -999.2500  -999.2500  -999.2500  -999.2500  -999.2500   138.2156     9.0035     7.2690     7.5082   -81.5953
 1908.0000  -999.2500  -999.2500  -999.2500  -999.2500  -999.2500   141.6468     8.9980     7.2685     7.4812   -81.5070
 1908.5000  -999.2500  -999.2500  -999.2500  -999.2500  -999.2500   145.1771     8.9925     7.2689     7.4544   -81.4188
 1909.0000  -999.2500  -999.2500  -999.2500  -999.2500  -999.2500   144.2573     8.9868     7.1862     7.4277   -81.3307
