~VERSION INFORMATION
 VERS.                2.0:   CWLS LOG ASCII STANDARD - VERSION 2.0
 WRAP.                 NO:   ONE LINE PER DEPTH STEP
~WELL INFORMATION
#MNEM.UNIT      DATA TYPE    INFORMATION
#----------   ------------   ------------------------------
 STRT.F           28.0000:   START DEPTH
 STOP.F          659.0000:   STOP DEPTH
 STEP.F            0.5000:   STEP LENGTH
 NULL.          -999.2500:   NO VALUE
 COMP. FENIX & SCISSON INC:   COMPANY
 WELL.    NPR 3 #46-SX-34:   WELL
 FLD .             TEAPOT:   FIELD
 LOC .      S34 T39N R78W:   LOCATION
 CNTY.            NATRONA:   COUNTY
 STAT.            WYOMING:   STATE
 CTRY. UNITED STATES OF AMERICA:   COUNTRY
 SRVC.              Welex:   SERVICE COMPANY
 DATE.        01-MAY-1977:   LOGDATE
 API .       490251035600:   API NUMBER
~CURVE INFORMATION
#MNEM.UNIT       API CODE    CURVE DESCRIPTION
#----------   ------------   ------------------------------
 DEPT.F                  :   
 CALD.IN     45 280 60 00:   CALIPER FROM DENSITY
 GRD .GAPI   45 310 01 00:   GAMMA RAY FROM DENSITY LOG
 CORR.G/C3   45 356 01 00:   DENSITY CORRECTION
 DPHI.DEC    45 890 12 00:   DENSITY POROSITY SANDSTONE
 RHOB.G/C3   45 350 01 00:   BULK DENSITY
 SPR .MV     07 010 01 00:   SPONTANEOUS POTENTIAL
 ILD .OHMM   07 120 46 00:   INDUCTION LOG DEEP
 ILM .OHMM   07 120 44 00:   INDUCTION LOG MEDIUM
 SGRD.OHMM   07 221 05 00:   SHALLOW SHORT GUARD RESISTIVITY
~PARAMETER INFORMATION
#MNEM.UNIT          VALUE    DESCRIPTION
#----------   ------------   ------------------------------
 PD  .                 GL:   PERMANENT DATUM
 EPD .F              5120:   ELEVATION PERMANENT DATUM
 LMF .                 GL:   LOG MEASURED FROM
 DMF .                 GL:   DRILLING MEASURED FROM
 EGL .F              5120:   GROUND LEVEL
 DATE.        01-MAY-1977:   RUN DATE
 RUN .                  1:   RUN NUMBER
 DD  .F               660:   DEPTH DRILLER
 DL  .F               663:   DEPTH LOGGER
 BLI .F               661:   BOTTOM LOG INTERVAL
 TLI .F                28:   TOP LOG INTERVAL
 CS  .IN            8.625:   CASING SIZE
 BS  .IN               12:   BIT SIZE
 BSD .F               660:   BIT SIZE AT DEPTH
 DFT .            KCL MUD:   DRILLING FLUID TYPE
 DFD .                8.7:   DRILLING FLUID DENSITY
 TCS .HRS            0100:   TIME CURCULATED STOPPED
 MRT .F                71:   MAXIMUM RECORDED TEMPERATURE
 ENGI.          T. JOYNER:   RECORDING ENGINEER
 WITN.            R. LYON:   WITNESSED BY
 CLNT.            A2DTECH:   CLIENT CODE
 ORIG.           5" PRINT:   ORIGIN OF DATA
 UWI .       490251035600:   UNIQUE WELL ID
 DICO. A2D Technologies, Inc.:   DIGITIZING COMPANY
~OTHER INFORMATION
~A   DEPT     CALD        GRD        CORR      DPHI       RHOB        SPR        ILD        ILM       SGRD   
# ...
  612.0000     7.8094   119.2554     0.0054     0.1555     2.4131   -36.4225     4.8670     9.9166    10.9215
  612.5000     7.8081   115.6533     0.0083     0.1335     2.4477   -35.9746     5.4345    10.6251    14.1933
  613.0000     7.8223   111.7509     0.0113     0.1188     2.4695   -35.6755     5.9032    11.2283    13.9999
  613.5000     7.8212   110.2506     0.0127     0.1115     2.4981   -35.3765     6.4567    11.8658    13.7140
  614.0000     7.8202   110.7029     0.0142     0.1064     2.4981   -35.2262     7.2596    12.6262    13.5272
  614.5000     7.8191   111.4552     0.0172     0.1097     2.4981   -35.0759     8.1061    13.2514    13.6219
  615.0000     7.8180   111.7570     0.0201     0.1082     2.4981   -34.7768     8.9275    13.4363    13.8120
  615.5000     7.8169   111.7583     0.0231     0.1028     2.4989   -34.6265     9.4990    13.6237    14.1016
  616.0000     7.8008   111.7598     0.0215     0.0987     2.5079   -34.4663     9.9686    13.6247    14.2983
  616.5000     7.7847   111.6071     0.0154     0.0933     2.5162   -34.3110    10.3182    13.7199    14.4978
  617.0000     7.7837   112.2132     0.0153     0.1040     2.4981   -34.0268    10.6067    13.9113    14.8018
  617.5000     7.7826   114.6172     0.0168     0.1073     2.4981   -33.8765    11.0546    14.1054    14.9052
  618.0000     7.7815   115.8199     0.0182     0.1007     2.5169   -33.5771    11.3637    14.4011    14.9062
  618.5000     7.7804   115.2208     0.0197     0.0980     2.5199   -33.4268    11.6815    14.7031    14.9073
  619.0000     7.7794   114.3215     0.0227     0.0983     2.5192   -33.4253    11.8436    14.9082    15.0114
  619.5000     7.7783   113.5722     0.0226     0.1019     2.5162   -33.2750    12.0081    15.1163    15.1163
  620.0000     7.7774   112.3726     0.0225     0.1031     2.5139   -32.9759    12.0911    15.3272    15.3272
  620.5000     7.7764   111.4732     0.0225     0.1037     2.5139   -32.8257    12.2618    15.6485    15.5411
  621.0000     7.7904   110.7240     0.0224     0.1025     2.5147   -32.8242    12.4349    15.8669    15.7579
  621.5000     7.7893   109.8246     0.0208     0.0983     2.5154   -32.6739    12.6977    16.0883    15.7590
  622.0000     7.7882   111.9279     0.0178     0.0983     2.5162   -32.5236    12.9541    16.0894    15.9789
  622.5000     7.7872   110.3380     0.0147     0.0995     2.5139   -32.3733    13.1339    16.0905    16.0905
  623.0000     7.7861   105.1742     0.0131     0.1016     2.5064   -32.2230    13.4084    16.0916    16.2029
  623.5000     7.7850   103.2097     0.0115     0.1047     2.4944   -32.2216    13.5012    16.0927    16.3161
  624.0000     7.7840   104.2763     0.0100     0.1098     2.4831   -32.0713    13.5946    16.2051    16.5438
  624.5000     7.7679   105.7794     0.0084     0.1170     2.4831   -32.0698    13.5946    16.4313    16.7746
  625.0000     7.7668   108.7839     0.0068     0.1163     2.4831   -31.9195    13.6886    16.5651    17.0087
  625.5000     7.7657   111.4882     0.0052     0.1155     2.4838   -31.7692    13.7833    16.8932    17.1275
  626.0000     7.7646   108.0362     0.0052     0.1161     2.4740   -31.6189    13.7833    16.8944    17.1224
  626.5000     7.7636   104.8846     0.0051     0.1237     2.4665   -31.6175    13.8787    16.6642    16.7792
  627.0000     7.7625   102.3336     0.0066     0.1277     2.4650   -31.4672    13.7833    16.5505    16.5506
  627.5000     7.7617    99.7822     0.0080     0.1219     2.4737   -31.4657    13.6886    16.4380    16.3101
  628.0000     7.7606   100.1121     0.0095     0.1134     2.4861   -31.3154    13.6886    16.2143    16.1026
  628.5000     7.7595   100.8844     0.0094     0.1167     2.4853   -31.3140    13.5946    16.2154    15.9931
  629.0000     7.7585   102.9801     0.0078     0.1195     2.4808   -31.1637    13.5946    16.1048    15.8846
  629.5000     7.7574   107.4460     0.0078     0.1186     2.4853   -31.1622    13.5012    16.1062    15.8857
  630.0000     7.7563   110.0001     0.0077     0.1146     2.4906   -31.1607    13.5012    15.9963    15.7773
  630.5000     7.7553   112.2538     0.0092     0.1101     2.4891   -31.0104    13.5012    15.8875    15.7787
  631.0000     7.7542   114.6578     0.0091     0.1125     2.4838   -31.1578    13.4084    15.6710    15.5634
  631.5000     7.7682   115.5598     0.0121     0.1167     2.4831   -31.1562    13.1339    15.4578    15.3514
  632.0000     7.7671   111.5077     0.0135     0.1189     2.4831   -31.1746    12.9541    15.3524    15.1425
  632.5000     7.7660   110.4578     0.0165     0.1189     2.4831   -31.3021    12.7767    15.2479    14.9361
  633.0000     7.7803   112.1113     0.0164     0.1150     2.4845   -31.4495    12.5152    15.2492    14.9372
  633.5000     7.7789   113.3141     0.0164     0.1068     2.4992   -31.4476    12.3438    15.0415    14.7336
  634.0000     7.7778   114.5168     0.0163     0.1065     2.5049   -31.5953    12.0911    14.9389    14.6331
  634.5000     7.7770   114.8183     0.0162     0.1074     2.4966   -31.7423    11.8436    14.8373    14.5336
  635.0000     7.7759   113.2278     0.0177     0.1102     2.4898   -31.8900    11.6012    14.5348    14.5349
  635.5000     7.7899   109.2658     0.0176     0.1129     2.4868   -32.0373    11.3611    14.4357    14.4357
  636.0000     7.7889   107.0151     0.0145     0.1135     2.4891   -32.0355    11.0496    14.3377    14.2390
  636.5000     7.7878   110.4700     0.0099     0.1108     2.4906   -32.1832    10.8135    14.1424    14.1422
  637.0000     7.7867   115.2764     0.0084     0.1111     2.4906   -32.1814    10.4424    14.0461    13.9497
  637.5000     7.7856   116.7794     0.0083     0.1147     2.4861   -32.0311    10.1653    13.7596    13.7596
  638.0000     7.7846   117.2314     0.0067     0.1184     2.4823   -32.1788     9.9686    13.4789    13.5722
  638.5000     7.7835   115.8816     0.0097     0.1158     2.4831   -32.1769     9.8321    13.2952    13.2953
  639.0000     7.7824   114.5314     0.0127     0.1108     2.4893   -32.1754     9.6975    13.1135    13.0238
  639.5000     7.7814   118.8876     0.0156     0.1063     2.4968   -32.1740     9.6975    12.9354    13.0249
  640.0000     7.7803   120.5408     0.0201     0.1017     2.5034   -32.1725     9.6309    12.8474    12.9361
  640.5000     7.7792   120.0075     0.0201     0.0984     2.5094   -32.4686     9.6309    12.9371    12.8483
  641.0000     7.7781   117.7506     0.0200     0.0951     2.5139   -32.4672     9.4990    12.9380    12.8492
  641.5000     7.7773    93.8119     0.0199     0.0936     2.5169   -32.6149     9.4337    12.9389    12.9390
  642.0000     7.7762    79.7137     0.0214     0.0921     2.5192   -32.6130     9.4337    12.9398    12.9398
  642.5000     7.7752  -999.2500     0.0213     0.0918     2.5207   -32.7604     9.3689    12.9409    12.9407
  643.0000     7.7741  -999.2500     0.0197     0.0918     2.5214   -32.7589     9.3689    12.9418    12.8527
  643.5000     7.7731  -999.2500     0.0197     0.0942     2.5109   -32.9062     9.1771    12.9427    12.8536
  644.0000     7.7720  -999.2500     0.0181     0.1021     2.4944   -32.9047     9.1141    12.9435    12.7650
  644.5000     7.7862  -999.2500     0.0179     0.1059     2.4816   -33.0521     8.9893    12.8553    12.6793
  645.0000     7.7849  -999.2500     0.0165     0.1097     2.4799   -33.1994     8.9275    12.5932    12.5873
  645.5000     7.7838  -999.2500     0.0149     0.1108     2.4762   -33.3467     8.8053    12.4894    12.4135
  646.0000     7.7827  -999.2500     0.0164     0.1123     2.4725   -33.4941     8.6847    12.3076    12.2522
  646.5000     7.7817  -999.2500     0.0163     0.1048     2.4944   -33.6414     8.6847    12.1257    12.0853
  647.0000     7.7806  -999.2500     0.0162     0.1015     2.4969   -33.8085     8.5658    11.9207    12.0031
  647.5000     7.7795  -999.2500     0.0147     0.1066     2.4868   -33.9361     8.5069    11.7583    11.8397
  648.0000     7.7785  -999.2500     0.0131     0.1138     2.4680   -34.3807     8.3904    11.5979    11.7590
