~VERSION INFORMATION
 VERS.                2.0:   CWLS LOG ASCII STANDARD - VERSION 2.0
 WRAP.                 NO:   ONE LINE PER DEPTH STEP
~WELL INFORMATION
#MNEM.UNIT      DATA TYPE    INFORMATION
#----------   ------------   ------------------------------
 STRT.F           66.0000:   START DEPTH
 STOP.F          814.0000:   STOP DEPTH
 STEP.F            0.5000:   STEP LENGTH
 NULL.          -999.2500:   NO VALUE
 COMP.   FLUOR DANIEL INC:   COMPANY
 WELL. NAVAL PETROLEUM RESERVE 3 SX-2 #32-11-2:   WELL
 FLD .        N.P.R NO. 3:   FIELD
 LOC .       S2 T38N R78W:   LOCATION
 CNTY.            NATRONA:   COUNTY
 STAT.            WYOMING:   STATE
 CTRY. UNITED STATES OF AMERICA:   COUNTRY
 SRVC.      Dresser Atlas:   SERVICE COMPANY
 DATE.        15-AUG-1985:   LOGDATE
 API .       490251104000:   API NUMBER
~CURVE INFORMATION
#MNEM.UNIT       API CODE    CURVE DESCRIPTION
#----------   ------------   ------------------------------
 DEPT.F                  :   
 SPR .MV     07 010 01 00:   SPONTANEOUS POTENTIAL
 RILD.OHMM   07 120 46 00:   INDUCTION LOG DEEP RESISTIVITY
 RILM.OHMM   07 120 44 00:   INDUCTION LOG MEDIUM RESISTIVITY
 RFOC.OHMM   07 220 04 00:   RESISTIVITY FOCUSED LOG
 PORD.DEC    45 890 12 00:   POROSITY DENSITY SANDSTONE
 CNC .DEC    42 890 03 00:   NEUTRON POROSITY SANDSTONE
 GRD .GAPI   45 310 01 00:   GAMMA RAY FROM DENSITY LOG
 CALD.IN     45 280 60 00:   CALIPER FROM DENSITY LOG
 CORR.G/C3   45 356 01 00:   DENSITY CORRECTION
 DEN .G/C3   45 350 01 00:   COMPENSATED BULK DENSTIY
~PARAMETER INFORMATION
#MNEM.UNIT          VALUE    DESCRIPTION
#----------   ------------   ------------------------------
 PD  .                 GL:   PERMANENT DATUM
 EPD .F              5113:   ELEVATION PERMANENT DATUM
 LMF .                 GL:   LOG MEASURED FROM
 DMF .                 GL:   DRILLING MEASURED FROM
 EGL .F              5113:   GROUND LEVEL
 DATE.            8-15-85:   RUN DATE
 RUN .                  1:   RUN NUMBER
 DD  .F               817:   DEPTH DRILLER
 DL  .F               817:   DEPTH LOGGER
 BLI .F               814:   BOTTOM LOG INTERVAL
 CS  .IN            8.625:   CASING SIZE
 CBD .F                79:   CASING BOTTOM DRILLER
 CBL .F                79:   CASING BOTTOM LOGGER
 BS  .IN            7.875:   BIT SIZE
 BSD .F               817:   BIT SIZE AT DEPTH
 DFT .          KCL WATER:   DRILLING FLUID TYPE
 MSS .               TANK:   MUD SAMPLE SOURCE
 RMS .OHMM            .25:   RESISTIVITY MUD SAMPLE
 MST .F                70:   MUD SAMPLE TEMPERATURE
 BHT .F               100:   BOTTOM HOLE TEMPERATURE
 TCS .HRS               2:   TIME CURCULATED STOPPED
 MRT .F               100:   MAXIMUM RECORDED TEMPERATURE
 LUN .            HL-6274:   LOGGING UNIT NUMBER
 LUL .           GILLETTE:   LOGGING UNIT LOCATION
 ENGI.             RAUTIO:   RECORDING ENGINEER
 WITN.           JENNINGS:   WITNESSED BY
 CLNT.            A2DTECH:   CLIENT CODE
 ORIG.       2", 5" PRINT:   ORIGIN OF DATA
 UWI .       490251104000:   UNIQUE WELL ID
 DICO. A2D Technologies, Inc.:   DIGITIZING COMPANY
~OTHER INFORMATION
~A   DEPT      SPR       RILD       RILM       RFOC       PORD        CNC        GRD       CALD       CORR        DEN   
# ...
  769.5000   -19.2390     7.6579     7.7492     8.7389     0.1156     0.2663    99.0789     8.1000     0.0501     2.4827
  770.0000   -19.4150     7.9290     7.9622     8.7395     0.1155     0.2656   101.1723     8.0994     0.0426     2.4819
  770.5000   -19.8541     8.0962     8.1294     8.8010     0.1158     0.2638    99.6568     8.0988     0.0276     2.4789
  771.0000   -20.1611     8.2096     8.1288     8.8630     0.1167     0.2599    97.2390     8.0982     0.0110     2.4758
  771.5000   -20.7707     8.2669     8.1283     8.9254     0.1185     0.2517    94.1655     8.0976    -0.0100     2.4713
  772.0000   -21.6829     8.4413     8.2991     8.9351     0.1209     0.2496    93.0049     8.1121    -0.0266     2.4667
  772.5000   -22.4437     8.6795     8.5327     8.9891     0.1254     0.2523    95.3962     8.1113    -0.0296     2.4630
  773.0000   -22.8060     8.8625     8.7122     9.1155     0.1282     0.2603    96.5904     8.1107    -0.0266     2.4614
  773.5000   -23.3963     8.9913     8.8952     9.3732     0.1293     0.2662    92.3652     8.1102    -0.0191     2.4621
  774.0000   -23.7038     9.2402     9.2094     9.5714     0.1287     0.2747    89.9474     8.1096    -0.0086     2.4644
  774.5000   -23.7082     9.5010     9.4030     9.8419     0.1269     0.2771    90.5371     8.1090     0.0019     2.4667
  775.0000   -23.5601     9.6341     9.5341     9.9803     0.1251     0.2735    97.7434     8.1084     0.0079     2.4688
  775.5000   -23.5656     9.8372     9.6728    10.1208     0.1238     0.2668   102.8444     8.1230     0.0139     2.4673
  776.0000   -23.5701    10.0447     9.8017    10.2631     0.1250     0.2574   104.6257     8.1373     0.0109     2.4627
  776.5000   -23.5745    10.1854     9.8695    10.4801     0.1293     0.2537    98.3096     8.1367     0.0018     2.4582
  777.0000   -23.4273    10.3281    10.0768    10.6276     0.1331     0.2580    96.4933     8.1361    -0.0042     2.4574
  777.5000   -23.1288    10.4728    10.3604    10.7024     0.1340     0.2626    97.1127     8.1521     0.0033     2.4634
  778.0000   -22.9818    10.6195    10.5050    10.7780     0.1280     0.2620    97.6727     8.1651     0.0093     2.4701
  778.5000   -22.8347    10.7683    10.6515    10.8539     0.1204     0.2595    96.7558     8.1796     0.0078     2.4739
  779.0000   -22.6887    10.8455    10.7251    10.8547     0.1168     0.2565    93.7365     8.1788     0.0029     2.4731
  779.5000   -22.8447    10.9278    10.7992    11.0074     0.1228     0.2519    89.2134     8.1782    -0.0088     2.4685
  780.0000   -22.8492    11.0722    10.9496    11.1622     0.1298     0.2464    88.2994     8.1626    -0.0133     2.4632
  780.5000   -22.8536    11.2273    11.0253    11.1630     0.1348     0.2435    90.0921     8.1319    -0.0043     2.4569
  781.0000   -22.8580    11.1495    11.1015    11.0862     0.1388     0.2528    93.3886     8.1162     0.0032     2.4459
  781.5000   -22.7110    10.9954    11.1007    11.0872     0.1372     0.2613    95.1814     8.1006     0.0062     2.4466
  782.0000   -22.7154    10.7683    10.9464    11.1653     0.1336     0.2662    95.2059     8.1000     0.0047     2.4541
  782.5000   -22.5682    10.6937    10.7196    11.2439     0.1330     0.2650    94.2555     8.0994     0.0062     2.4556
  783.0000   -22.5728    10.7683    10.7189    11.3231     0.1360     0.2643    92.7077     8.1139     0.0077     2.4526
  783.5000   -22.5818    10.8435    10.7932    11.3239     0.1363     0.2631    91.1819     8.1154    -0.0014     2.4540
  784.0000   -22.8848    10.9192    10.8678    11.4038     0.1320     0.2595    89.4052     8.1277    -0.0179     2.4563
  784.5000   -23.0418    10.8435    10.7915    11.4046     0.1293     0.2516    88.1905     8.1270    -0.0285     2.4600
  785.0000   -23.1977    10.6937    10.7160    11.1700     0.1299     0.2471    87.8779     8.1264    -0.0253     2.4607
  785.5000   -23.0496    10.5459    10.5672    10.8644     0.1332     0.2468    89.6707     8.1258     0.0007     2.4583
  786.0000   -22.7510    10.3281    10.3482    10.7150     0.1362     0.2568    91.4634     8.1252     0.0271     2.4514
  786.5000   -22.6039    10.2565    10.2758    10.7159     0.1347     0.2637    93.2561     8.1246     0.0481     2.4493
  787.0000   -22.4568    10.3297    10.2751    10.7914     0.1283     0.2634    95.0489     8.1241     0.0616     2.4598
  787.5000   -22.4624    10.4002    10.3461    10.9432     0.1224     0.2565    96.2401     8.1235     0.0436     2.4696
  788.0000   -22.3152    10.4002    10.4176    11.0203     0.1247     0.2531    97.4313     8.1229     0.0075     2.4726
  788.5000   -22.1682    10.4007    10.4167    11.0979     0.1253     0.2661    98.9253     8.1223     0.0060     2.4718
  789.0000   -22.1727    10.4728    10.3438    10.9454     0.1216     0.2686   100.4712     8.1217     0.0075     2.4725
  789.5000   -22.0256    10.4002    10.3431    10.7951     0.1210     0.2601   102.2081     8.1211    -0.0046     2.4740
  790.0000   -22.0312    10.3281    10.3424    10.6467     0.1210     0.2552    98.2836     8.1204    -0.0136     2.4738
  790.5000   -22.0356    10.2565    10.1988    10.5737     0.1191     0.2543    96.7680     8.1198    -0.0046     2.4777
  791.0000   -22.1916    10.1148    10.0498    10.2846     0.1182     0.2605    97.9593     8.1192     0.0029     2.4814
  791.5000   -22.0434     9.9751     9.7805    10.0031     0.1240     0.2752   101.8572     8.1489     0.0014     2.4781
  792.0000   -22.0490     9.8372     9.7120     9.8657     0.1245     0.2810   105.8927     8.1481     0.0060     2.4708
  792.5000   -22.0534     9.7013     9.5108     9.9353     0.1212     0.2819  -999.2500     8.1628     0.0139     2.4730
  793.0000   -21.9052     9.5010     9.2491    10.0053     0.1170     0.2764  -999.2500     8.1620     0.0254     2.4767
  793.5000   -21.6078     9.3047     9.0575    10.0060     0.1130     0.2682  -999.2500     8.1614     0.0314     2.4827
  794.0000   -21.3091     9.1762     8.9318    10.0067     0.1094     0.2564  -999.2500     8.1608     0.0299     2.4910
  794.5000   -20.8561     9.0494     8.8692     9.9381     0.1085     0.2490  -999.2500     8.1602     0.0313     2.4939
  795.0000   -20.1059     8.9161     8.8071     9.7246     0.1139     0.2552  -999.2500     8.1446     0.0373     2.4894
  795.5000   -19.8074     8.6193     8.5649     9.3368     0.1154     0.2637  -999.2500     8.1288     0.0433     2.4871
  796.0000   -19.8129     8.3827     8.3293     9.1446     0.1136     0.2670  -999.2500     8.1132     0.0373     2.4901
  796.5000   -19.9689     8.1527     8.2102     8.9566     0.1120     0.2673  -999.2500     8.1126     0.0283     2.4885
  797.0000   -20.1248     8.0962     8.0996     8.9572     0.1138     0.2734  -999.2500     8.1120     0.0132     2.4878
  797.5000   -20.1293     7.9290     7.8767     8.8956     0.1150     0.3024  -999.2500     8.1114    -0.0048     2.4893
  798.0000   -19.9811     7.9290     7.8761     8.7734     0.1141     0.3303  -999.2500     8.1108    -0.0139     2.4900
  798.5000   -19.8340     8.0401     7.9306     8.7742     0.1117     0.3336  -999.2500     8.1102    -0.0169     2.4922
  799.0000   -19.6879     8.0962     7.9855     8.9597     0.1104     0.3333  -999.2500     8.1096    -0.0032     2.4937
  799.5000   -19.6925     8.0962     8.0967     9.0857     0.1095     0.3327  -999.2500     8.1090     0.0372     2.4944
  800.0000   -19.5455     8.0962     8.0725     9.2135     0.1111     0.3324  -999.2500     8.1084     0.0567     2.4919
  800.5000   -19.2298     7.9862     7.9265     9.1478     0.1155     0.3326  -999.2500     8.1305     0.0733     2.4861
  801.0000   -18.9141     7.8762     7.7805     9.0299     0.1152     0.3327  -999.2500     8.1536     0.0492     2.4890
  801.5000   -18.8092     7.7662     7.6345     8.8444     0.1046     0.3326  -999.2500     8.1687     0.0372     2.5010
  802.0000   -18.5051     7.6544     7.4998     8.6066     0.0964     0.3326  -999.2500     8.1687     0.0507     2.5107
  802.5000   -18.2191     7.4478     7.4998     8.5498     0.0943     0.3326  -999.2500     8.1687     0.0612     2.5190
