~VERSION INFORMATION
 VERS.                2.0:   CWLS LOG ASCII STANDARD - VERSION 2.0
 WRAP.                 NO:   ONE LINE PER DEPTH STEP
~WELL INFORMATION
#MNEM.UNIT      DATA TYPE    INFORMATION
#----------   ------------   ------------------------------
 STRT.F           38.0000:   START DEPTH
 STOP.F         1202.0000:   STOP DEPTH
 STEP.F            0.5000:   STEP LENGTH
 NULL.          -999.2500:   NO VALUE
 COMP.       INTEX OIL CO:   COMPANY
 WELL.     72 S 14 #72-14:   WELL
 FLD .            WILDCAT:   FIELD
 LOC .      S14 T38N R78W:   LOCATION
 CNTY.            NATRONA:   COUNTY
 STAT.            WYOMING:   STATE
 CTRY. UNITED STATES OF AMERICA:   COUNTRY
 SRVC.       Schlumberger:   SERVICE COMPANY
 DATE.        26-AUG-1966:   LOGDATE
 API .       490250970800:   API NUMBER
~CURVE INFORMATION
#MNEM.UNIT       API CODE    CURVE DESCRIPTION
#----------   ------------   ------------------------------
 DEPT.F                  :   
 SPR .MV     05 010 01 00:   SPONTANEOUS POTENTIAL FROM RES.
 ASN .OHMM   05 041 16 00:   AMPLIFIED SHORT NORMAL 16"
 ILD .OHMM   05 120 46 00:   INDUCTION LOG DEEP
 CILD.MMHO   05 110 46 00:   CONDUCTIVITY INDUCTION LOG DEEP
 CORR.G/C3   45 356 01 00:   DENSITY CORRECTION
 GRD .GAPI   45 310 01 00:   GAMMA RAY FROM DENSITY LOG
 CALD.IN     45 280 60 00:   CALIPER FROM DENSITY LOG
 DPHI.DEC    45 890 12 00:   DENSITY POROSITY SANDSTONE
 RHOB.G/C3   45 350 01 00:   BULK DENSITY
~PARAMETER INFORMATION
#MNEM.UNIT          VALUE    DESCRIPTION
#----------   ------------   ------------------------------
 PD  .                 GL:   PERMANENT DATUM
 EPD .F              5265:   ELEVATION PERMANENT DATUM
 LMF .                 KB:   LOG MEASURED FROM
 DAPD.F                 5:   FEET ABOVE PERMANENT DATUM
 DMF .                 KB:   DRILLING MEASURED FROM
 EKB .F              5270:   KELLING BUSHING
 DATE.        26-AUG-1966:   RUN DATE
 RUN .                  1:   RUN NUMBER
 DD  .F              1201:   DEPTH DRILLER
 DL  .F              1203:   DEPTH LOGGER
 BLI .F              1202:   BOTTOM LOG INTERVAL
 TLI .F                46:   TOP LOG INTERVAL
 CS  .IN            8.625:   CASING SIZE
 BS  .IN             6.75:   BIT SIZE
 BSD .F              1201:   BIT SIZE AT DEPTH
 DFT .     CHEM- GEL- OIL:   DRILLING FLUID TYPE
 DFD .                9.4:   DRILLING FLUID DENSITY
 MRT .F                94:   MAXIMUM RECORDED TEMPERATURE
 LUN .               3527:   LOGGING UNIT NUMBER
 LUL .             CASPER:   LOGGING UNIT LOCATION
 ENGI.             KNOBEL:   RECORDING ENGINEER
 WITN.                MAY:   WITNESSED BY
 CLNT.            A2DTECH:   CLIENT CODE
 ORIG.       2", 5" PRINT:   ORIGIN OF DATA
 UWI .       490250970800:   UNIQUE WELL ID
 DICO. A2D Technologies, Inc.:   DIGITIZING COMPANY
~OTHER INFORMATION
~A   DEPT      SPR        ASN        ILD       CILD       CORR        GRD       CALD       DPHI       RHOB   
# ...
  549.0000   -24.2499     2.8526     3.0015   418.1682     0.0306   105.4928     7.0262     0.2091     2.3076
  549.5000   -24.2485     2.9428     3.1524   396.3964     0.0401   100.3624     7.0273     0.1854     2.3675
  550.0000   -24.3976     3.1982     3.3961   367.8679     0.0184    94.5585     7.0283     0.1537     2.3967
  550.5000   -24.6988     3.5437     3.7785   326.5766     0.0218    96.5892     7.0401     0.1465     2.4132
  551.0000   -24.8494     3.7691     4.1263   292.0421     0.0319    99.9579     7.0518     0.1411     2.4229
  551.5000   -25.1506     3.8893     4.2746   270.2929     0.0372   101.5384     7.0618     0.1324     2.4424
  552.0000   -25.1506     3.9946     4.2732   261.9521     0.0403   101.1030     7.0332     0.1241     2.4551
  552.5000   -25.3012     3.9197     4.2718   259.0460     0.0401   102.2402     7.0344     0.1235     2.4521
  553.0000   -25.4518     3.8298     4.1846   271.8177     0.0372   102.9264     7.0203     0.1303     2.4312
  553.5000   -25.4518     3.7398     4.0433   287.5906     0.0333   103.8362     7.0218     0.1435     2.4132
  554.0000   -25.3012     3.6499     3.8917   304.1143     0.0294   105.1930     7.0230     0.1569     2.4005
  554.5000   -25.3012     3.5599     3.6651   331.2520     0.0279   111.0208     7.0242     0.1626     2.3893
  555.0000   -25.1506     3.3664     3.5135   375.4517     0.0266   111.7071     7.0254     0.1734     2.3713
  555.5000   -24.8494     3.1865     3.2800   412.2457     0.0239   115.0758     7.0266     0.1853     2.3496
  556.0000   -24.6988     2.9766     3.0598   441.5321     0.0183   115.3150     7.0278     0.1895     2.3407
  556.5000   -24.5482     2.8568     2.9082   469.3170     0.0178   118.2367     7.0290     0.2033     2.3264
  557.0000   -24.3976     2.7670     2.8317   478.3987     0.0222   119.1464     7.0301     0.2158     2.2868
  557.5000   -24.2470     2.7372     2.8303   468.5824     0.0289   120.0562     7.0313     0.2305     2.2741
  558.0000   -24.0964     2.8277     2.9039   449.8208     0.0384   118.9541     7.0325     0.2310     2.2748
  558.5000   -24.0964     3.0382     3.0523   430.3084     0.0559   114.0516     7.0337     0.2095     2.3190
  559.0000   -24.0964     3.0834     3.2014   405.5408     0.0485   106.4666     7.0349     0.1787     2.3564
  559.5000   -24.2470     3.1889     3.4999   384.8533     0.0341   100.4464     7.0361     0.1518     2.4096
  560.0000   -24.8494     3.7548     3.9489   349.2505     0.0317    98.8972     7.0373     0.1317     2.4522
  560.5000   -25.1506     4.2406     4.3979   298.9574     0.0411   100.0380     7.0385     0.1253     2.4485
  561.0000   -25.4518     4.4811     4.7715   253.1688     0.0558   101.1639     7.0248     0.1248     2.4606
  561.5000   -25.4518     4.6466     4.9202   229.1519     0.0572   100.2518     7.0110     0.1159     2.4672
  562.0000   -25.4518     4.7970     4.9942   219.3201     0.0497    95.8311     6.9675     0.1233     2.4499
  562.5000   -25.4518     4.9174     5.1429   216.4035     0.0416    96.0703     7.0283     0.1188     2.4555
  563.0000   -25.3012     5.0829     5.2913   214.9109     0.0377   100.5568     7.0295     0.1198     2.4590
  563.5000   -25.3012     5.2184     5.5248   208.9120     0.0364   108.6201     7.0307     0.1281     2.4471
  564.0000   -25.3012     5.4439     5.8136   201.4117     0.0533   110.2005     7.0319     0.1124     2.4808
  564.5000   -25.4518     5.7294     6.0374   193.1053     0.0495   108.4277     7.0331     0.1054     2.4936
  565.0000   -25.7530     5.9700     6.1864   186.4128     0.0424   105.9843     7.0184     0.1053     2.5016
  565.5000   -25.7530     6.2027     6.4099   181.1647     0.0435   105.9998     7.0056     0.0977     2.5230
  566.0000   -25.9036     6.4811     6.6397   176.6673     0.0476   105.1212     6.9919     0.0843     2.5264
  566.5000   -25.9036     6.5865     6.8571   173.6697     0.0512    97.9833     6.9931     0.0787     2.5272
  567.0000   -25.9036     6.6469     6.9311   171.4264     0.0548    98.8931     6.9943     0.0790     2.5354
  567.5000   -26.0542     6.6772     6.9293   172.1861     0.0678    99.3741     6.9955     0.0677     2.5474
  568.0000   -26.0542     6.6925     6.9279   172.1932     0.0730    98.2536     6.9967     0.0711     2.5295
  568.5000   -26.0542     6.6778     6.9264   172.9511     0.0513    98.0455     6.9979     0.0832     2.5257
  569.0000   -26.0542     6.6480     6.8496   172.9583     0.0534   103.4264     6.9991     0.0938     2.5085
  569.5000   -26.0542     6.6333     6.7731   173.7162     0.0259   104.5597     7.0003     0.1083     2.4756
  570.0000   -25.9036     6.6487     6.7716   173.7251     0.0311   103.6811     7.0017     0.1158     2.4576
  570.5000   -25.7530     6.6790     6.6951   173.7323     0.0347   101.0104     7.0029     0.1098     2.4756
  571.0000   -25.7530     6.7094     6.6186   173.7395     0.0394    99.2340     7.0041     0.1077     2.4794
  571.5000   -25.7530     6.7246     6.5417   173.7466     0.0454    98.1392     7.0053     0.1077     2.4809
  572.0000   -25.6024     6.6799     6.5403   174.5045     0.0566   105.6357     6.9767     0.0990     2.5056
  572.5000   -25.7530     6.6352     6.4638   176.0150     0.0513   111.4345     6.9627     0.0969     2.5146
  573.0000   -25.7530     6.6054     6.4624   177.5236     0.0445   112.7168     6.9940     0.1077     2.4786
  573.5000   -25.9036     6.5757     6.4609   179.0323     0.0379   112.7325     7.0100     0.1106     2.4749
  574.0000   -26.0542     6.5460     6.4595   179.7902     0.0384   112.5241     6.9814     0.1097     2.4787
  574.5000   -26.0542     6.5012     6.3826   182.8004     0.0416   110.0142     6.9525     0.1061     2.4854
  575.0000   -26.0542     6.4715     6.3812   185.0615     0.0394   108.9785     6.8941     0.1031     2.4929
  575.5000   -26.0542     6.4418     6.3047   186.5702     0.0353   110.7824     6.9403     0.1037     2.4869
  576.0000   -26.3554     6.4264     6.3033   188.0789     0.0289   106.1074     7.0011     0.1160     2.4719
  576.5000   -26.5060     6.3523     6.3018   188.8368     0.0216   105.4485     7.0321     0.1241     2.4577
  577.0000   -26.5060     6.3075     6.3000   188.8439     0.0191   106.8092     7.0181     0.1250     2.4525
  577.5000   -26.5060     6.2777     6.2986   187.3496     0.0424   107.2680     7.0044     0.1172     2.4548
  578.0000   -26.3554     6.3231     6.2972   185.1063     0.0544   105.2756     6.9608     0.1112     2.4705
  578.5000   -26.3554     6.4886     6.3712   182.8612     0.0588   105.0637     6.9471     0.1100     2.4795
  579.0000   -26.0542     6.6264     6.4460   179.8653     0.0557   105.5303     6.9933     0.1079     2.4825
  579.5000   -25.9036     6.7295     6.5932   176.8695     0.0506   104.6517     6.9796     0.1016     2.4907
  580.0000   -25.9036     6.7748     6.6668   173.6732     0.0431   100.8670     6.9656     0.1097     2.5004
  580.5000   -25.9036     6.8652     6.7405   167.8766     0.0441    99.3138     6.9519     0.1147     2.4645
  581.0000   -25.9036     7.0306     6.8888   163.3792     0.0461    99.8599     6.9534     0.1052     2.4862
  581.5000   -26.0542     7.1675     6.8874   159.6326     0.0488   100.9137     6.9545     0.1087     2.4780
  582.0000   -26.2048     7.2715     6.9610   156.6368     0.0520   100.2548     6.9405     0.1060     2.4818
  582.5000   -26.3554     7.3169     6.9592   152.8902     0.0786    97.3681     6.9268     0.0965     2.5110
  583.0000   -26.3554     7.3021     6.8827   149.8961     0.0818    93.8070     6.9131     0.0908     2.5274
  583.5000   -26.2048     7.1673     6.8062   149.1507     0.0757    91.5871     6.9146     0.0926     2.4990
  584.0000   -26.0542     6.9261     6.7297   149.9104     0.0693    90.4810     6.9006     0.1027     2.4855
  584.5000   -26.2048     6.6724     6.5781   151.4191     0.0672    91.8418     6.9021     0.1063     2.4826
  585.0000   -26.3554     6.6127     6.2760   154.5795     0.0648    95.4341     6.9032     0.1087     2.4766
