~VERSION INFORMATION
 VERS.                2.0:   CWLS LOG ASCII STANDARD - VERSION 2.0
 WRAP.                 NO:   ONE LINE PER DEPTH STEP
~WELL INFORMATION
#MNEM.UNIT      DATA TYPE    INFORMATION
#----------   ------------   ------------------------------
 STRT.F           34.5000:   START DEPTH
 STOP.F          880.5000:   STOP DEPTH
 STEP.F            0.5000:   STEP LENGTH
 NULL.          -999.2500:   NO VALUE
 COMP. FENIX & SCISSON INC:   COMPANY
 WELL. NAVAL PETROLEUM RESERVE 3 S-14 #35-14:   WELL
 FLD .             TEAPOT:   FIELD
 LOC .      S14 T38N R78W:   LOCATION
 CNTY.            NATRONA:   COUNTY
 STAT.            WYOMING:   STATE
 CTRY. UNITED STATES OF AMERICA:   COUNTRY
 SRVC.            Unknown:   SERVICE COMPANY
 DATE.        24-APR-1978:   LOGDATE
 API .       490251062000:   API NUMBER
~CURVE INFORMATION
#MNEM.UNIT       API CODE    CURVE DESCRIPTION
#----------   ------------   ------------------------------
 DEPT.F                  :   
 RHOB.G/C3   45 350 01 00:   BULK DENSITY
 DPHI.DEC    45 890 12 00:   DENSITY POROSITY SANDSTONE
 CORR.G/C3   45 356 01 00:   DENSITY CORRECTION
 GRD .GAPI   45 310 01 00:   GAMMA RAY FROM DENSITY LOG
 CALD.IN     45 280 60 00:   CALIPER FROM DENSITY LOG
 SPR .MV     05 010 01 00:   SPONTANEOUS POTENTIAL FROM RES.
 SN  .OHMM   05 040 16 00:   SHORT NORMAL 16"
 ILD .OHMM   05 120 46 00:   INDUCTION LOG DEEP
~PARAMETER INFORMATION
#MNEM.UNIT          VALUE    DESCRIPTION
#----------   ------------   ------------------------------
 PD  .                 GL:   PERMANENT DATUM
 EPD .F              5246:   ELEVATION PERMANENT DATUM
 LMF .                 KB:   LOG MEASURED FROM
 DMF .                 KB:   DRILLING MEASURED FROM
 EKB .F              5250:   KELLING BUSHING
 EGL .F              5246:   GROUND LEVEL
 DATE.          4-24-1978:   RUN DATE
 RUN .                  1:   RUN NUMBER
 DD  .F               880:   DEPTH DRILLER
 DL  .F               880:   DEPTH LOGGER
 BLI .F               884:   BOTTOM LOG INTERVAL
 TLI .F                50:   TOP LOG INTERVAL
 CS  .IN            8.625:   CASING SIZE
 CBD .F                40:   CASING BOTTOM DRILLER
 CBL .F                50:   CASING BOTTOM LOGGER
 BS  .IN            7.875:   BIT SIZE
 BSD .F               880:   BIT SIZE AT DEPTH
 DFT .                KCL:   DRILLING FLUID TYPE
 DFD .                8.6:   DRILLING FLUID DENSITY
 DFV .                 32:   DRILLING FLUID VISCOSITY
 DFPH.                 10:   DRILLING FLUID PH
 DFL .               12.8:   DRILLING FLUID LOSS
 MSS .            MUD PIT:   MUD SAMPLE SOURCE
 RMS .OHMM            .34:   RESISTIVITY MUD SAMPLE
 MST .F                62:   MUD SAMPLE TEMPERATURE
 RMF .OHMM             .3:   RESISTIVITY MUD FILTRATE SAMPLE
 MFST.F                70:   MUD FILTRATE SAMPLE TEMPERATURE
 RMC .OHMM            .58:   RESISTIVITY MUD CAKE
 MCST.F                70:   MUD CAKE SAMPLE TEMPERATURE
 MFSS.           MEASURED:   MUD FILTRATE SAMPLE SOURCE
 RMB .OHMM            .28:   RESISTIVITY MUD AT BHT
 BHT .F                74:   BOTTOM HOLE TEMPERATURE
 TCS .HRS               4:   TIME CURCULATED STOPPED
 MRT .F                74:   MAXIMUM RECORDED TEMPERATURE
 LUN .               2958:   LOGGING UNIT NUMBER
 LUL .              CASP.:   LOGGING UNIT LOCATION
 ENGI.             MILLER:   RECORDING ENGINEER
 WITN.           MCGINLEY:   WITNESSED BY
 CLNT.            A2DTECH:   CLIENT CODE
 ORIG.       2", 5" PRINT:   ORIGIN OF DATA
 UWI .       490251062000:   UNIQUE WELL ID
 DICO. A2D Technologies, Inc.:   DIGITIZING COMPANY
~OTHER INFORMATION
~A   DEPT     RHOB       DPHI       CORR         GRD      CALD        SPR         SN        ILD   
# ...
  642.0000     2.4166     0.1310     0.1068    95.4372     8.1247   -31.9121     4.7671     4.2983
  642.5000     2.4017     0.1373     0.0910    95.9408     8.0962   -31.9195     5.0310     4.6054
  643.0000     2.4265     0.1090     0.0853   100.2024     8.0633   -31.9270     5.3095     4.9330
  643.5000     2.4650     0.0846     0.0973   102.5676     8.0224   -31.9344     5.4111     5.1050
  644.0000     2.5014     0.0770     0.1091   101.9592     7.9817   -31.9418     5.5090     5.1655
  644.5000     2.5062     0.0770     0.1209   101.2780     7.9633   -31.9493     5.4549     5.1220
  645.0000     2.5052     0.0778     0.1327   101.9530     7.9825   -31.9568     5.3912     5.0706
  645.5000     2.5031     0.0845     0.1408   103.7409     8.0927   -31.9648     5.3281     4.9873
  646.0000     2.4942     0.0893     0.1365   104.4122     8.2023   -31.9706     5.2624     4.6260
  646.5000     2.4854     0.0901     0.1162   104.2417     8.3029   -31.8606     5.1901     4.3372
  647.0000     2.4850     0.0927     0.0956   102.9580     8.3258   -31.7390     4.9309     4.3001
  647.5000     2.4797     0.0987     0.0753   100.5813     8.3948   -31.6177     4.6352     4.2192
  648.0000     2.4706     0.1036     0.0626   100.2072     8.4782   -31.4965     4.3572     4.2435
  648.5000     2.4614     0.1048     0.0530   101.1046     8.4763   -31.3753     4.1026     4.2743
  649.0000     2.4602     0.1059     0.0541   102.0067     8.4761   -31.2542     4.1021     4.2975
  649.5000     2.4587     0.1071     0.0548   103.5029     8.4761   -31.1330     4.4959     4.4477
  650.0000     2.4331     0.1189     0.0461   107.2774     8.4761   -31.0065     4.7903     4.6841
  650.5000     2.4101     0.1306     0.0282   109.2191     8.4762   -30.9762     5.1027     4.9330
  651.0000     2.4123     0.1139     0.0151   102.4748     8.4762   -30.9757     5.4585     5.2132
  651.5000     2.4549     0.0960     0.0325    95.6579     8.4663   -30.9760     5.6323     5.3803
  652.0000     2.4861     0.0900     0.0393    96.8415     8.4030   -30.9761     5.8247     5.5630
  652.5000     2.4874     0.0913     0.0421    98.2757     8.3393   -30.9761     6.0236     5.7528
  653.0000     2.4891     0.0893     0.0397    99.6225     8.3155   -30.9761     6.2295     5.9495
  653.5000     2.4905     0.0872     0.0391   100.8455     8.3698   -30.9761     6.4425     6.1529
  654.0000     2.5023     0.0698     0.0423   101.0787     8.4318   -30.9761     6.6620     6.3626
  654.5000     2.5151     0.0727     0.0463   101.5983     8.4769   -30.9761     6.7504     6.4596
  655.0000     2.5186     0.0760     0.0434   104.1047     8.4760   -30.9761     6.7573     6.4862
  655.5000     2.5120     0.0786     0.0408   103.9501     8.4761   -30.9761     6.7649     6.5139
  656.0000     2.5087     0.0772     0.0381   101.9894     8.4761   -30.9761     6.7725     6.5416
  656.5000     2.5106     0.0747     0.0353    98.9187     8.4761   -30.9761     6.7803     6.5694
  657.0000     2.5129     0.0723     0.0382    98.2069     8.4761   -30.9761     6.7880     6.5974
  657.5000     2.5172     0.0699     0.0420    98.0859     8.4761   -30.9762     6.7957     6.6216
  658.0000     2.5211     0.0684     0.0458    99.3459     8.4761   -30.9762     6.8035     6.6216
  658.5000     2.5210     0.0702     0.0491   100.5820     8.4763   -30.9722     6.8112     6.6216
  659.0000     2.5209     0.0698     0.0493   100.2141     8.4683   -30.9466     6.8190     6.6216
  659.5000     2.5225     0.0674     0.0496   100.2489     8.4549   -30.9212     6.8268     6.6216
  660.0000     2.5252     0.0651     0.0499   100.5982     8.3717   -30.8959     6.8346     6.6216
  660.5000     2.5279     0.0641     0.0501   100.0505     8.3163   -30.8706     6.8423     6.6215
  661.0000     2.5306     0.0639     0.0504    99.0376     8.3162   -30.8453     6.8502     6.6216
  661.5000     2.5321     0.0615     0.0507    98.0163     8.3606   -30.8200     6.8580     6.6216
  662.0000     2.5327     0.0586     0.0511    96.9826     8.4278   -30.7947     6.8654     6.6689
  662.5000     2.5289     0.0776     0.0457    96.6729     8.4770   -30.7694     6.9033     6.7136
  663.0000     2.5088     0.0750     0.0396    96.6778     8.4733   -30.7441     7.0181     6.7586
  663.5000     2.5105     0.0814     0.0356    97.2516     8.4676   -30.7188     7.1348     6.8038
  664.0000     2.5060     0.0787     0.0375    97.8777     8.4619   -30.6935     7.2595     6.8714
  664.5000     2.5083     0.0746     0.0406    98.3267     8.4562   -30.6682     7.1087     6.8697
  665.0000     2.5149     0.0746     0.0437    98.4774     8.4506   -30.6429     6.9531     6.8055
  665.5000     2.5170     0.0713     0.0468    97.9413     8.4450   -30.6181     6.8004     6.5162
  666.0000     2.5189     0.0670     0.0499    94.4351     8.4387   -30.5962     6.5950     5.7171
  666.5000     2.5246     0.0698     0.0531    89.9597     8.4017   -30.5780     6.1777     5.1655
  667.0000     2.5190     0.0735     0.0571    90.4432     8.2030   -30.3163     5.7890     5.1754
  667.5000     2.5086     0.0778     0.0626    93.1575     7.9599   -29.0339     5.4246     5.1851
  668.0000     2.4980     0.0860     0.0682    93.7271     7.8086   -27.7747     5.0832     5.1948
  668.5000     2.4885     0.0962     0.0738    93.8707     7.8922   -27.2538     4.9738     5.2045
  669.0000     2.4657     0.1084     0.0794    95.7583     7.9724   -27.0397     5.0643     5.2334
  669.5000     2.4398     0.1206     0.0798    99.5095     8.0547   -26.9917     5.2625     5.4271
  670.0000     2.3954     0.1434     0.0586   100.1435     8.1826   -26.9914     6.0944     5.7635
  670.5000     2.3517     0.1722     0.0203    94.2996     8.3601   -26.9919     7.1931     6.4171
  671.0000     2.3799     0.1258    -0.0094    86.9172     8.4420   -26.9920     7.6452     7.1457
  671.5000     2.4483     0.0779     0.0150    80.5137     8.4555   -26.9920     8.2572     7.9601
  672.0000     2.5180     0.0606     0.0511    84.1574     8.4425   -26.9920     8.2476     8.6458
  672.5000     2.5316     0.0641     0.0549    89.0634     8.4274   -26.9921     8.2316     8.5891
  673.0000     2.5294     0.0652     0.0544    92.3479     8.4124   -26.9924     8.2156     8.4970
  673.5000     2.5254     0.0681     0.0538    93.1935     8.3975   -26.9952     8.1996     8.4139
  674.0000     2.5215     0.0718     0.0534    93.4578     8.3825   -26.8992     8.1816     8.5216
  674.5000     2.5204     0.0664     0.0552    93.2310     8.3677   -26.7753     8.2932     8.5657
  675.0000     2.5248     0.0630     0.0614    92.8531     8.3530   -26.3744     8.4234     8.6082
  675.5000     2.5288     0.0650     0.0654    92.4671     8.3369   -25.9824     8.5556     8.6782
  676.0000     2.5238     0.0713     0.0661    92.4291     8.2775   -25.5930     8.7370     8.9667
  676.5000     2.5161     0.0751     0.0676    92.6927     8.1738   -25.2038     9.0223     9.3134
  677.0000     2.5132     0.0740     0.0804    93.2580     7.9968   -24.8143     9.3168     9.9750
  677.5000     2.5136     0.0735     0.0992    93.8386     7.8548   -24.4248     9.5663    10.6853
  678.0000     2.5117     0.0775     0.1193    94.1151     7.8488   -24.0382    10.1301    11.4456
  678.5000     2.5050     0.0815     0.1395    93.2546     7.8397   -23.8023    10.7393    12.2599
  679.0000     2.4984     0.0855     0.1595    91.4132     7.8384   -23.8050    11.3853    13.1322
  679.5000     2.4916     0.0905     0.1755    89.3724     7.8389   -23.8045    12.0395    14.0658
  680.0000     2.4837     0.0987     0.1639    84.5039     7.8784   -23.8048    12.0395    14.7511
  680.5000     2.4687     0.1007     0.1471    75.1201     7.9600   -23.8048    11.9940    15.2922
  681.0000     2.4716     0.0990     0.1325    68.2229     8.0731   -23.8048    11.8974    14.9524
  681.5000     2.4767     0.0948     0.1261    62.9362     8.1225   -23.8048    11.8016    14.6431
  682.0000     2.4816     0.0910     0.1233    61.6046     8.1355   -23.8048    11.7065    14.3402
