~VERSION INFORMATION
 VERS.                2.0:   CWLS LOG ASCII STANDARD - VERSION 2.0
 WRAP.                 NO:   ONE LINE PER DEPTH STEP
~WELL INFORMATION
#MNEM.UNIT      DATA TYPE    INFORMATION
#----------   ------------   ------------------------------
 STRT.F           82.0000:   START DEPTH
 STOP.F         1194.0000:   STOP DEPTH
 STEP.F            0.5000:   STEP LENGTH
 NULL.          -999.2500:   NO VALUE
 COMP.       INTEX OIL CO:   COMPANY
 WELL.   76S-11 NPR #3-11:   WELL
 FLD .             TEAPOT:   FIELD
 LOC .      S11 T38N R78W:   LOCATION
 CNTY.            NATRONA:   COUNTY
 STAT.            WYOMING:   STATE
 CTRY. UNITED STATES OF AMERICA:   COUNTRY
 SRVC.       Schlumberger:   SERVICE COMPANY
 DATE.        30-AUG-1966:   LOGDATE
 API .       490250972800:   API NUMBER
~CURVE INFORMATION
#MNEM.UNIT       API CODE    CURVE DESCRIPTION
#----------   ------------   ------------------------------
 DEPT.F                  :   
 SPR .MV     05 010 01 00:   SPONTANEOUS POTENTIAL FROM RES.
 CILD.MMHO   05 110 46 00:   CONDUCTIVITY INDUCTION LOG DEEP
 ILD .OHMM   05 120 46 00:   INDUCTION LOG DEEP
 ASN .OHMM   05 041 16 00:   AMPLIFIED SHORT NORMAL 16"
 CALD.IN     45 280 60 00:   CALIPER FROM DENSITY LOG
 CORR.G/C3   45 356 01 00:   DENSITY CORRECTION
 RHOB.G/C3   45 350 01 00:   BULK DENSITY
 DPHI.DEC    45 890 12 00:   DENSITY POROSITY SANDSTONE
 GRD .GAPI   45 310 01 00:   GAMMA RAY FROM DENSITY LOG
~PARAMETER INFORMATION
#MNEM.UNIT          VALUE    DESCRIPTION
#----------   ------------   ------------------------------
 PD  .                 GL:   PERMANENT DATUM
 EPD .F              5261:   ELEVATION PERMANENT DATUM
 LMF .                 KB:   LOG MEASURED FROM
 DAPD.F                 5:   FEET ABOVE PERMANENT DATUM
 DMF .                 KB:   DRILLING MEASURED FROM
 EKB .F              5266:   KELLING BUSHING
 EGL .F              5261:   GROUND LEVEL
 DATE.            8-30-66:   RUN DATE
 RUN .                  1:   RUN NUMBER
 DD  .F              1191:   DEPTH DRILLER
 DL  .F              1191:   DEPTH LOGGER
 BLI .F              1190:   BOTTOM LOG INTERVAL
 TLI .F                87:   TOP LOG INTERVAL
 CS  .IN            8.625:   CASING SIZE
 CBD .F                10:   CASING BOTTOM DRILLER
 BS  .IN             6.75:   BIT SIZE
 BSD .F              1191:   BIT SIZE AT DEPTH
 DFT .           CHEM-GEL:   DRILLING FLUID TYPE
 DFD .                9.8:   DRILLING FLUID DENSITY
 DFV .                 60:   DRILLING FLUID VISCOSITY
 MSS .         CIRCULATED:   MUD SAMPLE SOURCE
 RMS .OHMM            .76:   RESISTIVITY MUD SAMPLE
 MST .F                85:   MUD SAMPLE TEMPERATURE
 RMF .OHMM            .46:   RESISTIVITY MUD FILTRATE SAMPLE
 MFST.F                88:   MUD FILTRATE SAMPLE TEMPERATURE
 MFSS.                  M:   MUD FILTRATE SAMPLE SOURCE
 RMB .OHMM           .695:   RESISTIVITY MUD AT BHT
 BHT .F                93:   BOTTOM HOLE TEMPERATURE
 TCS .HRS               1:   TIME CURCULATED STOPPED
 MRT .F                93:   MAXIMUM RECORDED TEMPERATURE
 LUN .               3527:   LOGGING UNIT NUMBER
 LUL .               CSPR:   LOGGING UNIT LOCATION
 ENGI.               HAUG:   RECORDING ENGINEER
 WITN.                MAY:   WITNESSED BY
 CLNT.            A2DTECH:   CLIENT CODE
 ORIG. 2", 2.5", 5" PRINT:   ORIGIN OF DATA
 UWI .       490250972800:   UNIQUE WELL ID
 DICO. A2D Technologies, Inc.:   DIGITIZING COMPANY
~OTHER INFORMATION
~A   DEPT      SPR        CILD       ILD          ASN     CALD       CORR       RHOB       DPHI        GRD   
# ...
  666.0000   -49.4361   173.7072     5.3090     7.8826     7.2998     0.0389     2.4726     0.1075   111.1762
  666.5000   -49.3330   171.6216     5.3864     8.0197     7.2991     0.0405     2.4705     0.1088   108.2613
  667.0000   -49.3692   169.5361     5.4660     8.1739     7.2984     0.0322     2.4677     0.1103   105.4207
  667.5000   -49.5939   167.4505     5.5451     8.2664     7.2977     0.0375     2.4668     0.1095   106.2896
  668.0000   -49.8483   165.6336     5.6235     8.1983     7.2970     0.0302     2.4692     0.1079   108.0503
  668.5000   -49.7365   164.2460     5.7043     8.0857     7.2964     0.0327     2.4750     0.1065   107.8563
  669.0000   -49.4317   162.8584     5.7799     8.0452     7.2957     0.0394     2.4805     0.1054   107.2685
  669.5000   -49.1613   161.4709     5.8653     8.0473     7.2950     0.0458     2.4855     0.1025   107.1557
  670.0000   -49.2744   160.0833     5.9260     8.1400     7.2943     0.0635     2.4898     0.0937   107.8485
  670.5000   -49.6658   158.6957     6.0153     8.3193     7.2936     0.0564     2.4723     0.1002   108.4120
  671.0000   -49.8542   156.5968     6.0631     8.4081     7.2929     0.0295     2.4378     0.1197   108.8200
  671.5000   -49.7369   154.0818     6.0777     8.5087     7.2922     0.0357     2.4427     0.1152   108.1350
  672.0000   -49.5397   151.5669     6.1046     8.5425     7.2915     0.0494     2.4715     0.1095   107.5668
  672.5000   -49.6872   149.2016     6.1258     8.4934     7.2908     0.0629     2.4859     0.1038   106.9150
  673.0000   -50.1257   149.2562     6.1416     8.4654     7.2902     0.0635     2.4841     0.1016   106.3420
  673.5000   -50.4361   150.8446     6.1212     8.5203     7.2895     0.0565     2.4754     0.1071   105.7677
  674.0000   -50.0646   152.4330     6.0647     8.6198     7.2888     0.0414     2.4638     0.1117   106.4236
  674.5000   -49.7184   154.1916     6.0069     8.6291     7.2881     0.0318     2.4531     0.1163   107.0664
  675.0000   -49.8411   155.8818     5.9490     8.4860     7.2874     0.0335     2.4526     0.1182   107.5045
  675.5000   -49.9333   158.3156     5.8913     8.3442     7.2867     0.0458     2.4778     0.1071   106.6974
  676.0000   -50.0783   160.7495     5.8334     8.2034     7.2860     0.0585     2.4938     0.0961   105.8250
  676.5000   -49.9235   163.1833     5.7756     8.0839     7.2853     0.0644     2.5012     0.0929   107.3671
  677.0000   -49.5408   165.6172     5.7175     8.0478     7.2846     0.0697     2.5067     0.0894   109.6761
  677.5000   -49.2984   168.0510     5.6601     7.9124     7.2839     0.0634     2.4956     0.0938   110.4097
  678.0000   -49.4830   169.1617     5.6015     7.7005     7.2832     0.0432     2.4694     0.1060   108.9057
  678.5000   -49.9436   169.4501     5.5452     7.6225     7.2826     0.0408     2.4429     0.1189   107.6616
  679.0000   -49.9888   169.7016     5.4843     7.6102     7.2818     0.0412     2.4538     0.1147   107.1989
  679.5000   -49.7056   169.9531     5.4451     7.6295     7.2818     0.0616     2.4724     0.1077   106.7527
  680.0000   -49.6652   170.1597     5.4812     7.6590     7.2817     0.0794     2.4946     0.1007   106.2888
  680.5000   -49.6138   169.0464     5.5177     7.6883     7.2818     0.0921     2.4959     0.0937   105.8964
  681.0000   -49.5764   167.9106     5.5544     7.7161     7.2817     0.1005     2.5012     0.0917   105.9472
  681.5000   -49.5262   166.7748     5.5908     7.7545     7.2818     0.1029     2.5056     0.0897   108.9749
  682.0000   -49.4992   165.6390     5.6274     7.7926     7.2819     0.0984     2.5026     0.0944   111.4426
  682.5000   -49.6010   164.5033     5.6639     7.8780     7.2816     0.0858     2.4836     0.1009   114.3273
  683.0000   -49.7008   163.1736     5.7005     7.9474     7.2820     0.0556     2.4708     0.1087   114.7229
  683.5000   -49.8446   163.3082     5.7370     8.0062     7.2817     0.0445     2.4662     0.1111   113.5487
  684.0000   -49.7957   163.4705     5.7736     8.0486     7.2809     0.0265     2.4448     0.1126   112.7845
  684.5000   -49.4300   163.6327     5.8099     8.0677     7.2848     0.0333     2.4510     0.1213   113.9037
  685.0000   -49.0756   163.7950     5.8468     8.0518     7.2541     0.0528     2.4773     0.1121   112.2468
  685.5000   -48.7471   163.9572     5.8826     8.0334     7.2019     0.0740     2.4911     0.0968   111.1461
  686.0000   -48.9644   164.1195     5.9208     8.0170     7.1664     0.0680     2.4862     0.1020   110.5455
  686.5000   -49.2794   162.1756     5.9415     8.0266     7.2076     0.0544     2.4720     0.1063   109.9044
  687.0000   -49.2278   160.7417     5.9253     8.0591     7.2416     0.0593     2.4791     0.1013   109.2275
  687.5000   -49.0979   159.4180     5.9030     8.1434     7.2773     0.0677     2.4971     0.0929   108.8551
  688.0000   -48.9896   158.0943     5.8824     8.2767     7.3182     0.0725     2.5062     0.0845   108.8704
  688.5000   -48.8794   157.3433     5.8614     8.4328     7.3184     0.0589     2.4984     0.0795   109.1584
  689.0000   -48.7561   157.8463     5.8368     8.4973     7.3166     0.0382     2.4819     0.0992   109.9107
  689.5000   -48.6932   159.2881     5.7722     8.4959     7.3125     0.0300     2.4821     0.0992   110.6626
  690.0000   -48.7462   162.6414     5.7012     8.3755     7.3098     0.0417     2.4896     0.0992   111.3470
  690.5000   -48.7835   165.9947     5.6255     8.1510     7.3067     0.0374     2.4813     0.1000   112.1339
  691.0000   -48.8281   169.3480     5.5552     7.9550     7.3035     0.0257     2.4697     0.1053   112.9097
  691.5000   -48.8704   172.1557     5.5117     7.7396     7.3004     0.0150     2.4533     0.1128   115.4441
  692.0000   -48.9008   175.2518     5.4230     7.6030     7.2974     0.0152     2.4498     0.1166   117.0197
  692.5000   -48.8873   177.9148     5.4174     7.5049     7.2943     0.0254     2.4554     0.1144   116.2969
  693.0000   -48.9772   181.1377     5.3997     7.4492     7.2909     0.0345     2.4636     0.1117   115.6603
  693.5000   -49.2041   180.1397     5.3885     7.4561     7.2889     0.0445     2.4725     0.1090   115.1826
  694.0000   -49.4012   181.3413     5.3735     7.4588     7.2842     0.0551     2.4684     0.1088   115.1399
  694.5000   -49.6367   182.3473     5.3611     7.5115     7.2785     0.0659     2.4650     0.1103   113.7206
  695.0000   -49.5984   183.3533     5.3460     7.5473     7.2151     0.0767     2.4794     0.1032   112.5506
  695.5000   -49.3704   184.1317     5.3386     7.5032     7.1494     0.0918     2.4941     0.0962   111.2707
  696.0000   -49.1899   183.1337     5.3393     7.4556     7.0834     0.0997     2.5018     0.0905   110.5398
  696.5000   -48.9846   182.8568     5.3389     7.3980     7.0045     0.1004     2.4950     0.0929   110.1687
  697.0000   -48.7971   182.2280     5.3386     7.2860     6.9831     0.1022     2.4895     0.0953   109.7246
  697.5000   -48.5882   181.5993     5.3391     7.1594     6.9327     0.1130     2.5017     0.0901   109.6359
  698.0000   -48.4781   180.5298     5.3379     7.1187     6.9892     0.1257     2.5085     0.0850   110.1089
  698.5000   -48.5981   178.2435     5.3404     7.2358     7.0444     0.1335     2.4995     0.0897   110.4542
  699.0000   -48.8231   176.1199     5.3350     7.3512     7.1182     0.1320     2.4964     0.0945   110.7010
  699.5000   -48.7969   171.7139     5.3614     7.5312     7.1278     0.1526     2.5172     0.0850   109.7029
  700.0000   -48.4025   167.6539     5.5781     7.7354     7.1464     0.1801     2.5464     0.0698   108.6841
  700.5000   -48.1434   163.2054     5.7999     7.9330     7.1666     0.1960     2.5645     0.0603   109.0180
  701.0000   -48.3930   161.8749     6.0185     8.1645     7.1040     0.1922     2.5646     0.0527   111.5303
  701.5000   -48.6526   160.3896     6.0189     8.1876     7.0434     0.1668     2.5487     0.0675   112.8079
  702.0000   -48.3858   158.8931     5.9696     8.1492     7.1773     0.1136     2.5077     0.0897   112.6594
