~VERSION INFORMATION
 VERS.                2.0:   CWLS LOG ASCII STANDARD - VERSION 2.0
 WRAP.                 NO:   ONE LINE PER DEPTH STEP
~WELL INFORMATION
#MNEM.UNIT      DATA TYPE    INFORMATION
#----------   ------------   ------------------------------
 STRT.F           42.0000:   START DEPTH
 STOP.F         3145.0000:   STOP DEPTH
 STEP.F            0.5000:   STEP LENGTH
 NULL.          -999.2500:   NO VALUE
 COMP. LAWRENCE/ALLISON INC:   COMPANY
 WELL.      46 STX #34-34:   WELL
 FLD .             TEAPOT:   FIELD
 LOC .      S34 T39N R78W:   LOCATION
 CNTY.            NATRONA:   COUNTY
 STAT.            WYOMING:   STATE
 CTRY. UNITED STATES OF AMERICA:   COUNTRY
 SRVC.              Welex:   SERVICE COMPANY
 DATE.        01-MAY-1977:   LOGDATE
 API .       490251104800:   API NUMBER
~CURVE INFORMATION
#MNEM.UNIT       API CODE    CURVE DESCRIPTION
#----------   ------------   ------------------------------
 DEPT.F                  :   
 ILD .OHMM   07 120 46 00:   INDUCTION LOG DEEP
 ILM .OHMM   07 120 44 00:   INDUCTION LOG MEDIUM
 SGRD.OHMM   07 221 05 00:   SHALLOW SHORT GUARD RESISTIVITY
 SPR .MV     07 010 01 00:   SPONTANEOUS POTENTIAL
 GR  .GAPI   81 310 01 00:   GAMMA RAY
~PARAMETER INFORMATION
#MNEM.UNIT          VALUE    DESCRIPTION
#----------   ------------   ------------------------------
 PD  .                 GL:   PERMANENT DATUM
 EPD .F              5120:   ELEVATION PERMANENT DATUM
 LMF .                 GL:   LOG MEASURED FROM
 DMF .                 GL:   DRILLING MEASURED FROM
 EGL .F              5120:   GROUND LEVEL
 DATE.        01-MAY-1977:   RUN DATE
 RUN .                  1:   RUN NUMBER
 DD  .F               660:   DEPTH DRILLER
 DL  .F               661:   DEPTH LOGGER
 BLI .F               659:   BOTTOM LOG INTERVAL
 TLI .F                40:   TOP LOG INTERVAL
 CS  .IN            8.625:   CASING SIZE
 CBD .F                40:   CASING BOTTOM DRILLER
 CBL .F                42:   CASING BOTTOM LOGGER
 BS  .IN            7.875:   BIT SIZE
 BSD .F               660:   BIT SIZE AT DEPTH
 DFT .             KCLMUD:   DRILLING FLUID TYPE
 DFD .                8.7:   DRILLING FLUID DENSITY
 DFV .                 31:   DRILLING FLUID VISCOSITY
 DFPH.                  9:   DRILLING FLUID PH
 DFL .                  5:   DRILLING FLUID LOSS
 MSS .           FLOWLINE:   MUD SAMPLE SOURCE
 RMS .OHMM            .23:   RESISTIVITY MUD SAMPLE
 MST .F                62:   MUD SAMPLE TEMPERATURE
 RMF .OHMM            .17:   RESISTIVITY MUD FILTRATE SAMPLE
 MFST.F                62:   MUD FILTRATE SAMPLE TEMPERATURE
 RMC .OHMM            .32:   RESISTIVITY MUD CAKE
 MCST.F                62:   MUD CAKE SAMPLE TEMPERATURE
 MFSS.           MEASURED:   MUD FILTRATE SAMPLE SOURCE
 MCSS.           MEASURED:   MUD CAKE SAMPLE SOURCE
 RMB .OHMM             .2:   RESISTIVITY MUD AT BHT
 BHT .F                71:   BOTTOM HOLE TEMPERATURE
 TCS .HRS             1.5:   TIME CURCULATED STOPPED
 MRT .F                71:   MAXIMUM RECORDED TEMPERATURE
 LUL .             CASPER:   LOGGING UNIT LOCATION
 ENGI.          T. JOYNER:   RECORDING ENGINEER
 WITN.            R. LYON:   WITNESSED BY
 CLNT.            A2DTECH:   CLIENT CODE
 ORIG.        2" 5" PRINT:   ORIGIN OF DATA
 UWI .       490251104800:   UNIQUE WELL ID
 DICO. A2D Technologies, Inc.:   DIGITIZING COMPANY
~OTHER INFORMATION
~A   DEPT      ILD        ILM       SGRD        SPR         GR   
# ...
  103.0000     7.9863     9.6679     9.1190   -41.1690  -999.2500
  103.5000     7.9829     9.7326     9.8577   -41.1797  -999.2500
  104.0000     7.9795     9.7291    10.8394   -41.1903  -999.2500
  104.5000     8.0325     9.7264    10.3947   -41.0488  -999.2500
  105.0000     8.0850     9.7921     9.9682   -41.2116  -999.2500
  105.5000     8.1937     9.7887     9.6928   -41.2222  -999.2500
  106.0000     8.2481     9.7182    10.1018   -41.0807  -999.2500
  106.5000     8.3589     9.5816    10.7494   -41.0940  -999.2500
  107.0000     8.4144     9.4469    11.1264   -41.1046  -999.2500
  107.5000     8.5868     9.3789    10.8182   -41.1152  -999.2500
  108.0000     8.7031     9.3114    10.5192   -41.2753  -999.2500
  108.5000     8.8823     9.3743    10.8129   -41.2860  -999.2500
  109.0000     8.9413     9.4369    11.0364   -41.1445  -999.2500
  109.5000     9.0734     9.5655    10.8813   -41.1749  -999.2500
  110.0000     9.1300     9.6965    10.4348   -41.3154  -999.2500
  110.5000     9.3095     9.7613    10.1465   -41.3259  -999.2500
  111.0000     9.3703     9.8403    10.0735   -41.3365  -999.2500
  111.5000     9.3664     9.9618    10.1408   -41.3471  -999.2500
  112.0000     9.3625     9.9589    10.3511   -41.3577  -999.2500
  112.5000     9.2296     9.9561    10.7134   -41.3684  -999.2500
  113.0000     9.0986     9.9534    11.0116   -41.2295  -999.2500
  113.5000     8.9695     9.9506    11.3182   -41.2402  -999.2500
  114.0000     8.8422     9.8790    11.5529   -41.2508  -999.2500
  114.5000     8.6565     9.8763    11.6309   -41.2614  -999.2500
  115.0000     8.5337     9.8052    11.3776   -41.2721  -999.2500
  115.5000     8.2967     9.7347    11.0663   -41.2827  -999.2500
  116.0000     8.0663     9.6646    10.6852   -41.2933  -999.2500
  116.5000     7.8423     9.6619    10.2534   -41.4534  -999.2500
  117.0000     7.6245     9.6592     9.9021   -41.4619  -999.2500
  117.5000     7.4128     9.6565     9.6285   -41.6218  -999.2500
  118.0000     7.1571     9.6538     9.5593   -41.7818  -999.2500
  118.5000     7.0556     9.6511     9.7575   -41.7923  -999.2500
  119.0000     7.0039     9.5154    10.1693   -41.8029  -999.2500
  119.5000     7.0009     9.4469    10.4531   -41.8135  -999.2500
  120.0000     6.9496     9.3789    10.5229   -41.8242  -999.2500
  120.5000     6.9467     9.3115    10.2314   -41.9843  -999.2500
  121.0000     6.9444     9.2445    10.1579   -41.9949  -999.2500
  121.5000     6.9415     9.3069    10.0151   -42.0055  -999.2500
  122.0000     6.9869     9.3691     9.9438   -42.1656  -999.2500
  122.5000     7.0326     9.3658    10.0102   -42.3257  -999.2500
  123.0000     7.0789     9.4947    10.1465   -42.4858  -999.2500
  123.5000     7.1745     9.6248    10.2142   -42.4965  -999.2500
  124.0000     7.2214     9.8245    10.3540   -42.5071  -999.2500
  124.5000     7.3700     9.9590    10.4239   -42.5177  -999.2500
  125.0000     7.4698    10.1657    10.6401   -42.3762  -999.2500
  125.5000     7.6237    10.2428    10.7849   -42.3871  -999.2500
  126.0000     7.7269    10.3738    11.0086   -42.2480  -999.2500
  126.5000     7.8324    10.3709    11.0821   -42.1101  -999.2500
  127.0000     7.9928    10.3680    11.1702   -42.1198  -999.2500
  127.5000     8.1011    10.4373    11.3095   -42.1304  -999.2500
  128.0000     8.2679    10.4344    11.3063   -41.9898  -999.2500
  128.5000     8.3799    10.4314    11.3031   -41.8501  -999.2500
  129.0000     8.4942    10.4285    11.2219   -41.8634  -999.2500
  129.5000     8.4311    10.4256    11.1412   -41.7219  -999.2500
  130.0000     8.3693    10.4227    11.0611   -41.8846  -999.2500
  130.5000     8.2505    10.4198    10.9816   -41.8953  -999.2500
  131.0000     8.1335    10.2732    10.8273   -41.9059  -999.2500
  131.5000     8.0181    10.1288    10.7494   -41.9165  -999.2500
  132.0000     7.9593     9.9173    10.5984   -41.9272  -999.2500
  132.5000     7.9016     9.7102    10.4495   -41.9378  -999.2500
  133.0000     7.8362     9.5074    10.3743   -41.9462  -999.2500
  133.5000     7.7863     9.4390    10.3714   -41.9566  -999.2500
  134.0000     7.8373     9.3063    10.2969   -41.9671  -999.2500
  134.5000     7.9987     9.4344    10.3663   -41.8282  -999.2500
  135.0000     8.1070     9.6295    10.3627   -41.8388  -999.2500
  135.5000     8.2740     9.7621    10.5045   -41.7000  -999.2500
  136.0000     8.5031     9.8951    10.6490   -41.7106  -999.2500
  136.5000     8.6783    10.1004    10.8691   -41.7213  -999.2500
  137.0000     8.9186    10.1686    11.1717   -41.7310  -999.2500
  137.5000     9.1656    10.3790    11.4827   -41.5913  -999.2500
  138.0000     9.2898    10.4491    11.5602   -41.6037  -999.2500
  138.5000     9.4165    10.5921    11.3182   -41.4622  -999.2500
  139.0000     9.6095    10.6629    11.2369   -41.6249  -999.2500
  139.5000     9.6733    10.5861    11.3399   -41.6356  -999.2500
  140.0000     9.6682    10.4325    11.8721   -41.6462  -999.2500
  140.5000     9.3997    10.2884    12.2105   -41.6547  -999.2500
  141.0000     9.0755    10.1459    12.2841   -41.6652  -999.2500
  141.5000     8.6418    10.1430    11.9436   -41.6763  -999.2500
  142.0000     8.2288    10.2109    11.5343   -41.6861  -999.2500
  142.5000     7.9450    10.2791    11.2156   -41.6976  -999.2500
  143.0000     7.7244    10.3479    10.9816   -41.7073  -999.2500
  143.5000     7.5099    10.3449    10.7524   -41.7180  -999.2500
  144.0000     7.4040    10.4873    10.6751   -41.7280  -999.2500
  144.5000     7.4083    10.5573    10.6722   -41.5889  -999.2500
  145.0000     7.5012    10.6279    10.7434   -41.5994  -999.2500
  145.5000     7.6057    10.6242    10.8159   -41.4615  -999.2500
  146.0000     7.7601    10.6212    10.9631   -41.4709  -999.2500
  146.5000     7.9192    10.6182    11.1139   -41.4828  -999.2500
  147.0000     8.1385    10.5418    11.2652   -41.4934  -999.2500
  147.5000     8.3639    10.5389    11.4194   -41.5041  -999.2500
  148.0000     8.5362    10.4630    11.4964   -41.5147  -999.2500
  148.5000     8.6520    10.3878    11.4924   -41.3737  -999.2500
  149.0000     8.8300    10.3848    11.4892   -41.3842  -999.2500
  149.5000     8.9495    10.3101    11.4860   -41.3946  -999.2500
  150.0000     9.0912    10.2921    11.5730   -41.4051  -999.2500
  150.5000     9.2073    10.1034    11.6864   -41.3829  -999.2500
  151.0000     9.3234     9.9147    11.7936   -41.3607  -999.2500
  151.5000     9.4445     9.8729    11.7869   -41.3385  -999.2500
  152.0000     9.5072     9.7998    12.0280   -41.3163  -999.2500
  152.5000     9.5022     9.7951    12.1049   -41.2942  -999.2500
  153.0000     9.4982     9.9271    12.0144   -41.1409  -999.2500
  153.5000     9.3634     9.9914    11.7604   -40.8495  -999.2500
  154.0000     9.2948    10.1260    11.6725   -41.0050  -999.2500
  154.5000     9.0995    10.1210    11.5053   -41.0111  -999.2500
  155.0000     8.9084    10.2586    11.3404   -41.0171  -999.2500
  155.5000     8.6610    10.1814    11.1779   -41.1726  -999.2500
  156.0000     8.5381    10.1764    11.0939   -41.3281  -999.2500
  156.5000     8.4169    10.1714    11.0881   -41.4837  -999.2500
  157.0000     8.2982    10.1663    11.0053   -41.4897  -999.2500
  157.5000     8.2947    10.1613    10.9231   -41.4958  -999.2500
  158.0000     8.2913    10.1563    10.9169   -41.5018  -999.2500
  158.5000     8.2878    10.1513    10.8354   -41.5078  -999.2500
  159.0000     8.2271    10.2182    10.8293   -41.5139  -999.2500
  159.5000     8.1668    10.2132    10.8244   -41.5187  -999.2500
  160.0000     8.1633    10.2792    10.8184   -41.5247  -999.2500
  160.5000     8.1599    10.2741    10.8124   -41.3810  -999.2500
  161.0000     8.1564    10.2691    10.8064   -41.3871  -999.2500
  161.5000     8.2106    10.3355    10.8003   -41.2436  -999.2500
  162.0000     8.2643    10.3304    10.8695   -41.3992  -999.2500
  162.5000     8.2599    10.3253    11.0150   -41.2556  -999.2500
  163.0000     8.3148    10.3202    11.0849   -41.2618  -999.2500
  163.5000     8.4273    10.3882    11.1578   -41.2678  -999.2500
