~VERSION INFORMATION
 VERS.                2.0:   CWLS LOG ASCII STANDARD - VERSION 2.0
 WRAP.                 NO:   ONE LINE PER DEPTH STEP
~WELL INFORMATION
#MNEM.UNIT      DATA TYPE    INFORMATION
#----------   ------------   ------------------------------
 STRT.F           88.0000:   START DEPTH
 STOP.F          991.0000:   STOP DEPTH
 STEP.F            0.5000:   STEP LENGTH
 NULL.          -999.2500:   NO VALUE
 COMP. US NAVY /INTEX OIL CO.:   COMPANY
 WELL.    NPR #3 #S-11 63:   WELL
 FLD .             TEAPOT:   FIELD
 LOC .      S11 T38N R78W:   LOCATION
 CNTY.            NATRONA:   COUNTY
 STAT.            WYOMING:   STATE
 CTRY. UNITED STATES OF AMERICA:   COUNTRY
 SRVC.       Schlumberger:   SERVICE COMPANY
 DATE.        24-JUL-1964:   LOGDATE
 API .       490250636200:   API NUMBER
~CURVE INFORMATION
#MNEM.UNIT       API CODE    CURVE DESCRIPTION
#----------   ------------   ------------------------------
 DEPT.F                  :   
 SPR .MV     05 010 01 00:   SPONTANEOUS POTENTIAL FROM RES.
 ASN .OHMM   05 041 16 00:   AMPLIFIED SHORT NORMAL 16"
 ILD .OHMM   05 120 46 00:   INDUCTION LOG DEEP
 CILD.MMHO   05 110 46 00:   CONDUCTIVITY INDUCTION LOG DEEP
 CALS.IN     60 280 50 00:   CALIPER FROM SONIC LOG
 DT  .US/F   60 520 33 00:   INTERVAL TRANSIT TIME
 GR  .GAPI   30 310 01 00:   GAMMA RAY
~PARAMETER INFORMATION
#MNEM.UNIT          VALUE    DESCRIPTION
#----------   ------------   ------------------------------
 PD  .                 GL:   PERMANENT DATUM
 LMF .                 KB:   LOG MEASURED FROM
 DAPD.F                 5:   FEET ABOVE PERMANENT DATUM
 DMF .                 KB:   DRILLING MEASURED FROM
 EKB .F              5914:   KELLING BUSHING
 DATE.          7-24-1964:   RUN DATE
 RUN .                  1:   RUN NUMBER
 DD  .F               990:   DEPTH DRILLER
 DL  .F               992:   DEPTH LOGGER
 BLI .F               991:   BOTTOM LOG INTERVAL
 TLI .F               990:   TOP LOG INTERVAL
 CS  .IN            8.625:   CASING SIZE
 CBD .F                15:   CASING BOTTOM DRILLER
 BS  .IN             6.75:   BIT SIZE
 BSD .F               990:   BIT SIZE AT DEPTH
 DFT .            GEL OIL:   DRILLING FLUID TYPE
 DFD .                9.2:   DRILLING FLUID DENSITY
 DFV .                 47:   DRILLING FLUID VISCOSITY
 MSS .            MUD PIT:   MUD SAMPLE SOURCE
 RMS .OHMM           1.24:   RESISTIVITY MUD SAMPLE
 MST .F                75:   MUD SAMPLE TEMPERATURE
 RMF .OHMM           .801:   RESISTIVITY MUD FILTRATE SAMPLE
 MFST.F                80:   MUD FILTRATE SAMPLE TEMPERATURE
 MFSS.                 FP:   MUD FILTRATE SAMPLE SOURCE
 RMB .OHMM           1.09:   RESISTIVITY MUD AT BHT
 BHT .F                85:   BOTTOM HOLE TEMPERATURE
 TCS .HRS              .5:   TIME CURCULATED STOPPED
 MRT .F                85:   MAXIMUM RECORDED TEMPERATURE
 LUN .               2572:   LOGGING UNIT NUMBER
 LUL .                 MC:   LOGGING UNIT LOCATION
 ENGI.             BOWLER:   RECORDING ENGINEER
 WITN.          JORGENSEN:   WITNESSED BY
 CLNT.            A2DTECH:   CLIENT CODE
 ORIG.      2" & 5" PRINT:   ORIGIN OF DATA
 UWI .       490250636200:   UNIQUE WELL ID
 DICO. A2D Technologies, Inc.:   DIGITIZING COMPANY
~OTHER INFORMATION
~A   DEPT      SPR          ASN        ILD      CILD      CALS         DT         GR   
# ...
  361.0000   -39.6971     4.5285     3.3392   250.2520     6.7749  -999.2500    61.5301
  361.5000   -39.6914     4.3640     3.4165   263.6630     6.7749  -999.2500    63.8200
  362.0000   -39.5404     4.1994     3.1225   282.2979     6.7605  -999.2500    61.7105
  362.5000   -39.3894     4.0649     2.9766   297.9478     6.7605  -999.2500    54.5431
  363.0000   -39.3838     3.9147     2.7555   303.8961     6.7605  -999.2500    56.0300
  363.5000   -39.3779     3.7620     2.5352   304.6206     6.7605  -999.2500    63.9098
  364.0000   -39.2256     3.6313     2.3900   310.5634     6.7605  -999.2500    64.0724
  364.5000   -39.0746     3.5267     2.2441   320.2431     6.7605  -999.2500    60.6979
  365.0000   -38.9236     3.4521     2.1726   329.9228     6.7605  -999.2500    59.3970
  365.5000   -38.7726     3.4224     2.0274   337.3637     6.7605  -999.2500    57.2855
  366.0000   -38.7669     3.4077     1.9551   347.7897     6.7605  -999.2500    59.0898
  366.5000   -38.7613     3.3782     1.8839   350.7537     6.7605  -999.2500    57.8819
  367.0000   -38.7556     3.3186     1.8873   352.2237     6.7605  -999.2500    57.2765
  367.5000   -38.7499     3.2140     1.8150   359.9617     6.7605  -999.2500    58.4783
  368.0000   -38.7442     3.0779     1.7435   382.7063     6.7605  -999.2500    65.1026
  368.5000   -38.7384     2.9229     1.6727   423.0483     6.7460  -999.2500    67.8097
  369.0000   -38.7315     2.7504     1.6756   449.1459     6.7027  -999.2500    70.5175
  369.5000   -38.7258     2.6907     1.6786   460.3181     6.6306  -999.2500    78.1952
  370.0000   -38.7202     2.7062     1.7565   450.5948     6.6017  -999.2500    80.9038
  370.5000   -38.7145     2.8115     1.8338   423.7073     6.6162  -999.2500    73.0687
  371.0000   -38.5635     2.9018     1.9111   401.2975     6.6595  -999.2500    73.0657
  371.5000   -38.5578     3.0821     2.0628   377.3951     6.7316  -999.2500    72.0085
  372.0000   -38.5522     3.3523     2.2889   338.2331     6.8182  -999.2500    69.5958
  372.5000   -38.5465     3.6226     2.5895   298.8445     6.9192  -999.2500    64.7736
  373.0000   -38.5407     3.8367     2.8156   258.6675     6.9625  -999.2500    67.3308
  373.5000   -38.5337     4.0132     3.1161   245.2129     6.9336  -999.2500    72.9001
  374.0000   -38.5281     4.1185     3.2758   239.9726     6.8903  -999.2500    76.6621
  374.5000   -38.5224     4.1339     3.4202   246.6618     6.8470  -999.2500    76.5085
  375.0000   -38.5167     4.1042     3.3487   251.8639     6.8470  -999.2500    77.5597
  375.5000   -38.5111     4.0296     3.1284   258.5585     6.8470  -999.2500    79.6652
  376.0000   -38.5054     3.8951     2.9825   278.6859     6.8615  -999.2500    85.9875
  376.5000   -38.4997     3.7905     2.8358   298.8134     6.8759  -999.2500    89.9001
  377.0000   -38.4941     3.7159     2.7643   315.6984     6.8759  -999.2500    89.1441
  377.5000   -38.4884     3.6111     2.5446   347.2718     6.8759  -999.2500    83.5688
  378.0000   -38.4825     3.4881     2.3234   377.1007     6.8470  -999.2500    84.7706
  378.5000   -38.3303     3.2673     2.0948   427.8252     6.8470  -999.2500    82.8098
  379.0000   -38.1793     3.1028     1.8845   444.9675     6.8326  -999.2500    83.8610
  379.5000   -38.1736     2.8782     1.6634   459.8711     6.8182  -999.2500    85.2141
  380.0000   -38.0226     2.6987     1.4431   461.3473     6.8182  -999.2500    80.0899
  380.5000   -38.0169     2.7590     1.4467   456.0961     6.8038  -999.2500    75.7194
  381.0000   -38.1580     2.9243     1.5984   440.4027     6.8038  -999.2500    79.4815
  381.5000   -38.1509     3.0896     1.7501   417.6739     6.8038  -999.2500    77.3700
  382.0000   -38.2907     3.2399     1.9762   403.4620     6.8038  -999.2500    64.1140
  382.5000   -38.4303     3.4382     2.2049   351.5258     6.8182  -999.2500    57.3339
  383.0000   -38.5700     3.9060     2.5139   314.1906     6.8326  -999.2500    56.4280
  383.5000   -38.5629     4.4705     2.8785   283.5718     6.8182  -999.2500    58.6841
  384.0000   -38.5572     4.7557     3.2534   241.7589     6.8038  -999.2500    54.0116
  384.5000   -38.6983     4.9509     3.5539   223.0804     6.7893  -999.2500    54.9122
  385.0000   -38.8380     5.1012     3.8545   214.1034     6.7893  -999.2500    56.2647
  385.5000   -38.9777     5.2215     4.1550   208.1114     6.7749  -999.2500    56.5636
  386.0000   -38.9706     5.3868     4.3811   202.8463     6.7605  -999.2500    56.2586
  386.5000   -39.1105     5.4921     4.6816   198.2762     6.7605  -999.2500    58.3641
  387.0000   -39.1046     5.6724     4.7589   192.3689     6.7605  -999.2500    69.2044
  387.5000   -39.0989     5.9340     4.9231   186.3770     6.7617  -999.2500    65.4364
  388.0000   -39.2386     6.2579     5.0630   181.8775     6.7749  -999.2500    63.6261
  388.5000   -39.2316     6.4982     5.2147   176.6319     6.7749  -999.2500    62.4191
  389.0000   -39.2259     6.7384     5.2920   170.6399     6.7749  -999.2500    67.9876
  389.5000   -39.0749     6.8887     5.3693   166.1405     6.7749  -999.2500    71.2978
  390.0000   -39.0692     6.9491     5.3722   162.3873     6.7749  -999.2500    74.6081
  390.5000   -39.0635     6.9644     5.4495   160.8730     6.7749  -999.2500    76.1119
  391.0000   -39.0579     6.9648     5.5268   159.3582     6.7749  -999.2500    76.2587
  391.5000   -38.9068     6.9652     5.5298   158.5851     6.7749  -999.2500    79.7195
  392.0000   -38.7558     6.9503     5.4582   160.8021     6.7749  -999.2500    81.5238
  392.5000   -38.6046     6.9192     5.3874   161.5320     6.7749  -999.2500    78.6593
  393.0000   -38.5977     6.9063     5.3903   163.0028     6.7749  -999.2500    71.7286
  393.5000   -38.4467     6.8916     5.3181   164.4735     6.7605  -999.2500    69.4665
  394.0000   -38.4410     6.8921     5.1729   166.6905     6.7605  -999.2500    70.5185
  394.5000   -38.4354     6.8925     5.1006   168.9020     6.7605  -999.2500    68.8581
  395.0000   -38.4297     6.8778     5.1043   170.3732     6.7605  -999.2500    66.7467
  395.5000   -38.4240     6.8482     5.0328   172.5898     6.7460  -999.2500    63.4304
  396.0000   -38.4184     6.8486     5.0357   173.3142     6.7460  -999.2500    61.0178
  396.5000   -38.5582     6.8340     4.9641   174.7850     6.7460  -999.2500    69.9003
  397.0000   -38.6977     6.8186     4.8926   175.5094     6.7460  -999.2500    70.9523
  397.5000   -38.7136     6.7897     4.8211   176.2339     6.7316  -999.2500    78.3280
  398.0000   -38.8318     6.7451     4.7496   176.2066     6.7316  -999.2500    79.9824
  398.5000   -38.9714     6.6856     4.7532   175.4386     6.7316  -999.2500    74.5570
  399.0000   -38.9644     6.6405     4.6810   175.4167     6.7316  -999.2500    71.3921
  399.5000   -38.9587     6.6412     4.6102   174.6487     6.7460  -999.2500    73.4967
  400.0000   -38.9017     6.6868     4.6131   173.1343     6.7347   119.7467    78.5040
  400.5000   -38.5775     6.7623     5.0432   170.4679     6.7412   128.0113    77.9851
  401.0000   -38.4971     6.8378     5.4381   167.8016     6.7476   115.8733    75.6024
  401.5000   -38.4851     6.9284     5.6642   164.8134     6.7540   111.4050    75.4382
  402.0000   -38.4751     7.0039     5.8903   159.3928     6.7611   111.1065    69.9397
  402.5000   -38.4652     7.1245     6.0420   152.7914     6.7612   109.8399    66.7547
  403.0000   -38.4552     7.2606     6.2681   149.0237     6.7613   108.8543    65.9368
  403.5000   -38.3024     7.3843     6.4199   144.5098     6.7615   108.3491    63.2530
  404.0000   -38.4378     7.4862     6.5716   140.7421     6.7616   108.0505    63.2530
  404.5000   -38.4253     7.5317     6.6489   138.4670     6.7618   107.7520    63.4036
  405.0000   -38.4154     7.5172     6.7262   136.9382     6.7764   107.5279    60.6928
  405.5000   -38.4054     7.4878     6.6547   135.4093     6.7765   107.4527    57.5301
  406.0000   -38.5408     7.3985     6.5095   135.3730     6.7766   107.6753    62.1988
