~VERSION INFORMATION
 VERS.                2.0:   CWLS LOG ASCII STANDARD - VERSION 2.0
 WRAP.                 NO:   ONE LINE PER DEPTH STEP
~WELL INFORMATION
#MNEM.UNIT      DATA TYPE    INFORMATION
#----------   ------------   ------------------------------
 STRT.F           30.0000:   START DEPTH
 STOP.F          580.0000:   STOP DEPTH
 STEP.F            0.5000:   STEP LENGTH
 NULL.          -999.2500:   NO VALUE
 COMP. FENIX & SCISSON INC:   COMPANY
 WELL.      87 SX 3 #87-3:   WELL
 FLD .             TEAPOT:   FIELD
 LOC .       S3 T38N R78W:   LOCATION
 CNTY.            NATRONA:   COUNTY
 STAT.            WYOMING:   STATE
 CTRY. UNITED STATES OF AMERICA:   COUNTRY
 SRVC.            Unknown:   SERVICE COMPANY
 DATE.        16-NOV-1978:   LOGDATE
 API .       490251074200:   API NUMBER
~CURVE INFORMATION
#MNEM.UNIT       API CODE    CURVE DESCRIPTION
#----------   ------------   ------------------------------
 DEPT.F                  :   
 CALD.IN     45 280 60 00:   CALIPER
 GRD .GAPI   45 310 01 00:   GAMMA RAY FROM DENSITY LOG
 RHOB.G/C3   45 350 01 00:   BULK DENSITY
 DPHI.DEC    45 890 12 00:   DENSITY POROSITY SANDSTONE
 CORR.G/C3   45 356 01 00:   DENSITY CORRECTION
 SFL .OHMM   05 221 01 00:   AMP. SHALLOW FOCUSED LOG RESISTIVITY
 ILD .OHMM   05 120 46 00:   INDUCTION LOG DEEP
 SPR .MV     05 010 01 00:   SPONTANEOUS POTENTIAL FROM RES.
~PARAMETER INFORMATION
#MNEM.UNIT          VALUE    DESCRIPTION
#----------   ------------   ------------------------------
 PD  .                 GL:   PERMANENT DATUM
 EPD .F              5120:   ELEVATION PERMANENT DATUM
 LMF .                 KB:   LOG MEASURED FROM
 DAPD.F                 4:   FEET ABOVE PERMANENT DATUM
 DMF .                 KB:   DRILLING MEASURED FROM
 EKB .F              5124:   KELLING BUSHING
 EGL .F              5120:   GROUND LEVEL
 DATE.           11-16-78:   RUN DATE
 RUN .                  1:   RUN NUMBER
 DD  .F               580:   DEPTH DRILLER
 DL  .F               574:   DEPTH LOGGER
 BLI .F               574:   BOTTOM LOG INTERVAL
 TLI .F                50:   TOP LOG INTERVAL
 CS  .IN            8.625:   CASING SIZE
 CBD .F                50:   CASING BOTTOM DRILLER
 CBL .F                50:   CASING BOTTOM LOGGER
 BS  .IN            7.875:   BIT SIZE
 BSD .F               580:   BIT SIZE AT DEPTH
 DFT .            SEA MUD:   DRILLING FLUID TYPE
 DFD .                8.7:   DRILLING FLUID DENSITY
 DFV .                 54:   DRILLING FLUID VISCOSITY
 DFPH.                9.8:   DRILLING FLUID PH
 MSS .           FLOWLINE:   MUD SAMPLE SOURCE
 RMS .OHMM            1.1:   RESISTIVITY MUD SAMPLE
 MST .F                56:   MUD SAMPLE TEMPERATURE
 RMF .OHMM             .9:   RESISTIVITY MUD FILTRATE SAMPLE
 MFST.F                60:   MUD FILTRATE SAMPLE TEMPERATURE
 RMC .OHMM            .95:   RESISTIVITY MUD CAKE
 MCST.F                60:   MUD CAKE SAMPLE TEMPERATURE
 MFSS.           MEASURED:   MUD FILTRATE SAMPLE SOURCE
 MCSS.           MEASURED:   MUD CAKE SAMPLE SOURCE
 RMB .OHMM            .93:   RESISTIVITY MUD AT BHT
 BHT .F                66:   BOTTOM HOLE TEMPERATURE
 TCS .HRS               1:   TIME CURCULATED STOPPED
 MRT .F                66:   MAXIMUM RECORDED TEMPERATURE
 LUN .               2958:   LOGGING UNIT NUMBER
 LUL .                CPR:   LOGGING UNIT LOCATION
 ENGI.             MILLER:   RECORDING ENGINEER
 WITN.           DINSMORE:   WITNESSED BY
 CLNT.            A2DTECH:   CLIENT CODE
 ORIG.       2", 5" PRINT:   ORIGIN OF DATA
 UWI .       490251074200:   UNIQUE WELL ID
 DICO. A2D Technologies, Inc.:   DIGITIZING COMPANY
~OTHER INFORMATION
~A   DEPT     CALD         GRD      RHOB       DPHI       CORR        SFL        ILD        SPR   
# ...
  273.0000     7.8762   110.5964     2.3897     0.1777     0.0308     7.9744     6.0667    -7.6723
  273.5000     7.8695   110.9760     2.3698     0.1895     0.0438     7.4995     6.0555    -8.4679
  274.0000     7.8629   116.2281     2.3584     0.1905     0.0673     7.0881     6.0444    -9.2795
  274.5000     7.8562   122.1156     2.3813     0.1858     0.1013     7.0070     6.0332    -9.4249
  275.0000     7.8514   124.0470     2.4129     0.1674     0.1351     6.9703     6.0221    -9.4266
  275.5000     7.8515   120.7470     2.4449     0.1489     0.1692     7.0204     6.0133    -9.4250
  276.0000     7.8515   116.0779     2.4769     0.1304     0.2037     7.5341     6.3246    -9.4244
  276.5000     7.8515   111.3461     2.5091     0.1119     0.2055     8.2277     6.6463    -9.4258
  277.0000     7.8514   109.2549     2.5422     0.0934     0.1928     8.7656     7.0450    -9.3284
  277.5000     7.8435   109.7569     2.5492     0.0888     0.1723     9.2561     7.4674    -9.1727
  278.0000     7.8201   110.3459     2.5156     0.1152     0.1143     9.7371     7.9140    -9.0172
  278.5000     7.7970   110.5253     2.4852     0.1182     0.0764    10.0469     8.1649    -8.8765
  279.0000     7.7739   110.4218     2.4921     0.1145     0.0784    10.2604     8.2230    -8.0253
  279.5000     7.7508   110.3218     2.5001     0.1108     0.0819    10.2919     8.2815    -7.4245
  280.0000     7.7258   110.1251     2.5081     0.1071     0.0851    10.3236     8.3197    -7.3988
  280.5000     7.6919   107.9768     2.5116     0.1064     0.0797    10.3521     8.3492    -7.3671
  281.0000     7.6581   105.7741     2.5014     0.1130     0.0648    10.3523     8.3907    -7.3375
  281.5000     7.6611   105.0753     2.4909     0.1210     0.0454    10.3522     8.5407    -7.3074
  282.0000     7.6702   104.9273     2.4805     0.1284     0.0257    10.3521     8.6933    -7.2769
  282.5000     7.6794   105.5720     2.4711     0.1293     0.0120    10.3521     8.7695    -7.2444
  283.0000     7.6885   107.8510     2.4697     0.1301     0.0055    10.3521     8.7533    -7.3288
  283.5000     7.6976   110.0536     2.4685     0.1310     0.0042    10.3521     8.7418    -7.4324
  284.0000     7.7067   112.1904     2.4674     0.1319     0.0030    10.3521     8.7303    -7.5339
  284.5000     7.7158   112.1774     2.4642     0.1328     0.0018    10.3521     8.7188    -7.6630
  285.0000     7.7249   111.2690     2.4602     0.1352     0.0017    10.3521     8.7074    -8.3406
  285.5000     7.7337   110.7542     2.4561     0.1379     0.0020    10.3521     8.6911    -9.0262
  286.0000     7.7391   111.0897     2.4528     0.1405     0.0022    10.3521     8.7315    -9.7044
  286.5000     7.7446   107.5572     2.4514     0.1392     0.0025    10.3518     8.8152   -10.2022
  287.0000     7.7502   104.1354     2.4604     0.1359     0.0028    10.3514     8.8996   -10.0568
  287.5000     7.7558   102.7393     2.4693     0.1301     0.0030    10.3720     8.9849    -9.9248
  288.0000     7.7613   101.7905     2.4781     0.1237     0.0033    10.5730     9.0709    -9.7938
  288.5000     7.7669   101.5983     2.4853     0.1200     0.0033    10.7778     9.1578    -9.6630
  289.0000     7.7725   101.5839     2.4845     0.1241     0.0021    10.8400     9.1840    -9.5321
  289.5000     7.7780   103.4751     2.4698     0.1282     0.0015    10.8400     9.1840    -9.4013
  290.0000     7.7836   104.7513     2.4552     0.1399     0.0015    10.8400     8.4534    -9.2697
  290.5000     7.7895   103.3229     2.4301     0.1556     0.0015    10.4921     7.7096    -9.1942
  291.0000     7.8080   102.9363     2.4007     0.1714     0.0033     9.9617     7.0312    -9.1455
  291.5000     7.8416   107.9899     2.3705     0.1872     0.0110     9.0570     6.9029    -9.0971
  292.0000     7.8750   113.0065     2.3625     0.1919     0.0170     8.2356     6.9832    -9.0487
  292.5000     7.9076   118.1572     2.4012     0.1672     0.0103     7.9301     7.0584    -9.0002
  293.0000     7.9066   119.1460     2.4443     0.1462     0.0039     7.9943     7.1335    -8.9515
  293.5000     7.8269   108.2672     2.4775     0.1271    -0.0003     8.2088     7.2103    -8.9032
  294.0000     7.7927    98.6434     2.4916     0.1180     0.0007     8.9440     7.2873    -8.8559
  294.5000     7.7920    92.8862     2.4924     0.1173     0.0015    11.1309     8.1410    -8.8944
  295.0000     7.7920    94.9980     2.4927     0.1167     0.0024    12.1863     9.1968    -9.0322
  295.5000     7.7921    97.8050     2.4932     0.1160     0.0032    12.6218    10.3909    -9.1689
  296.0000     7.7921    97.9668     2.5007     0.1139     0.0041    13.0731    11.1979    -9.3062
  296.5000     7.7921    99.2294     2.5085     0.1059     0.0050    13.4251    11.3448    -9.4433
  297.0000     7.7921    98.9604     2.5158     0.1028     0.0058    13.5132    11.2134    -9.5821
  297.5000     7.7921    96.2582     2.5145     0.1054     0.0067    13.6021    11.1226    -9.6226
  298.0000     7.7921    95.1486     2.5068     0.1095     0.0072    13.6917    11.0415    -9.6232
  298.5000     7.7922    95.1434     2.4994     0.1136     0.0004    13.7957    11.2045    -9.6231
  299.0000     7.7913    95.1400     2.4920     0.1177     0.0000    14.0245    11.5377    -9.6230
  299.5000     7.7757    95.2002     2.4846     0.1219     0.0006    14.2571    11.9808    -9.6230
  300.0000     7.7603    92.3530     2.4772     0.1256     0.0012    14.6827    12.6866    -9.6231
  300.5000     7.7449    88.4291     2.4697     0.1377     0.0027    15.6686    13.4339    -9.6235
  301.0000     7.7295    84.3586     2.4511     0.1490     0.0053    17.0541    14.2899    -9.6221
  301.5000     7.7138    78.8098     2.4209     0.1600     0.0077    18.7167    15.5679    -9.5252
  302.0000     7.7126    72.4920     2.4068     0.1660     0.0103    20.6743    17.0856    -9.4178
  302.5000     7.6956    66.1265     2.4195     0.1574     0.0103    23.4671    18.7512    -9.3105
  303.0000     7.6364    59.5697     2.4298     0.1478     0.0080    24.7504    20.5908    -9.2033
  303.5000     7.5773    58.8479     2.4432     0.1452     0.0056    25.7362    22.0380    -9.0970
  304.0000     7.5185    58.3667     2.4321     0.1542     0.0033    26.6528    22.6511    -9.0132
  304.5000     7.5691    57.8395     2.4098     0.1710     0.0010    27.5982    23.2650    -8.9756
  305.0000     7.7479    57.6888     2.3729     0.1916    -0.0014    28.5779    23.9000    -8.9368
  305.5000     7.8744    59.4787     2.3335     0.2122    -0.0016    29.5924    24.9521    -8.8977
  306.0000     7.8806    61.9165     2.2932     0.2329     0.0001    30.6429    26.3278    -8.8599
  306.5000     7.8896    62.8639     2.2712     0.2432     0.0019    31.5500    27.7351    -8.8786
  307.0000     7.8982    61.3994     2.2683     0.2443     0.0036    32.2346    28.6350    -9.1603
  307.5000     7.9068    59.8603     2.2829     0.2365     0.0053    32.9219    29.5371    -9.4368
  308.0000     7.9273    59.2366     2.3189     0.2082     0.0071    34.4555    30.4702    -9.7130
  308.5000     7.9584    58.7231     2.3575     0.1915     0.0050    36.1828    31.4110    -9.9888
  309.0000     7.9891    57.4180     2.3585     0.1979     0.0017    38.0041    33.1612   -10.2636
  309.5000     8.0192    56.2959     2.3086     0.2170    -0.0017    39.5106    35.1092   -10.4075
  310.0000     8.0467    56.5567     2.2640     0.2500    -0.0025    40.0478    37.1716   -10.3832
  310.5000     8.0744    56.6182     2.2217     0.2786    -0.0018    40.5922    39.3404   -10.3606
  311.0000     8.1028    56.6785     2.2086     0.2807     0.0005    41.1441    40.6889   -10.3374
  311.5000     8.1089    56.7209     2.2031     0.2811     0.0028    41.7034    41.0758   -10.3144
  312.0000     8.1090    56.1728     2.2065     0.2804     0.0051    42.2704    41.4874   -10.2914
  312.5000     8.1087    55.5747     2.2147     0.2733     0.0074    42.7592    41.5939   -10.2684
  313.0000     8.0929    54.9728     2.2276     0.2663     0.0071    42.7592    41.5939   -10.2454
