~VERSION INFORMATION
 VERS.                2.0:   CWLS LOG ASCII STANDARD - VERSION 2.0
 WRAP.                 NO:   ONE LINE PER DEPTH STEP
~WELL INFORMATION
#MNEM.UNIT      DATA TYPE    INFORMATION
#----------   ------------   ------------------------------
 STRT.F           34.0000:   START DEPTH
 STOP.F          517.0000:   STOP DEPTH
 STEP.F            0.5000:   STEP LENGTH
 NULL.          -999.2500:   NO VALUE
 COMP.    FENIX & SCISSON:   COMPANY
 WELL.       NPR #77-S-10:   WELL
 FLD .             TEAPOT:   FIELD
 LOC .      S10 T38N R78W:   LOCATION
 CNTY.            NATRONA:   COUNTY
 STAT.            WYOMING:   STATE
 CTRY. UNITED STATES OF AMERICA:   COUNTRY
 SRVC.              Welex:   SERVICE COMPANY
 DATE.        16-APR-1977:   LOGDATE
 API .       490251033600:   API NUMBER
~CURVE INFORMATION
#MNEM.UNIT       API CODE    CURVE DESCRIPTION
#----------   ------------   ------------------------------
 DEPT.F                  :   
 SPR .MV     07 010 01 00:   SPONTANEOUS POTENTIAL
 ILD .OHMM   07 120 46 00:   INDUCTION LOG DEEP
 ILM .OHMM   07 120 44 00:   INDUCTION LOG MEDIUM
 SGRD.OHMM   07 221 05 00:   SHALLOW SHORT GUARD RESISTIVITY
 CALD.IN     45 280 60 00:   CALIPER FROM DENSITY LOG
 GRD .GAPI   45 310 01 00:   GAMMA RAY FROM DENSITY LOG
 CORR.G/C3   45 356 01 00:   DENSITY CORRECTION
 RHOB.G/C3   45 350 01 00:   BULK DENSITY
 DPHI.DEC    45 890 12 00:   DENSITY POROSITY SANDSTONE
~PARAMETER INFORMATION
#MNEM.UNIT          VALUE    DESCRIPTION
#----------   ------------   ------------------------------
 PD  .                 GL:   PERMANENT DATUM
 EPD .F              5210:   ELEVATION PERMANENT DATUM
 LMF .                 GL:   LOG MEASURED FROM
 DMF .                 GL:   DRILLING MEASURED FROM
 EGL .F              5210:   GROUND LEVEL
 DATE.        16-APR-1977:   RUN DATE
 RUN .                  1:   RUN NUMBER
 DD  .F               525:   DEPTH DRILLER
 DL  .F               519:   DEPTH LOGGER
 BLI .F               517:   BOTTOM LOG INTERVAL
 TLI .F                30:   TOP LOG INTERVAL
 CS  .IN            8.625:   CASING SIZE
 BS  .IN            7.875:   BIT SIZE
 BSD .F               525:   BIT SIZE AT DEPTH
 DFT .            KCL MUD:   DRILLING FLUID TYPE
 DFD .                8.9:   DRILLING FLUID DENSITY
 BHT .F                61:   BOTTOM HOLE TEMPERATURE
 TCS .HRS            0300:   TIME CURCULATED STOPPED
 MRT .F                61:   MAXIMUM RECORDED TEMPERATURE
 ENGI.               DOAK:   RECORDING ENGINEER
 WITN.      B. HARRINGTON:   WITNESSED BY
 CLNT.            A2DTECH:   CLIENT CODE
 ORIG.           5" PRINT:   ORIGIN OF DATA
 UWI .       490251033600:   UNIQUE WELL ID
 DICO. A2D Technologies, Inc.:   DIGITIZING COMPANY
~OTHER INFORMATION
~A   DEPT      SPR        ILD        ILM       SGRD       CALD        GRD       CORR       RHOB       DPHI   
# ...
  289.5000   -45.7283     5.2966     6.6224    10.4133     7.7432   122.5919     0.0133     2.4039     0.1433
  290.0000   -46.0097     4.9811     5.9750    10.3487     7.7433   124.5590     0.0117     2.3867     0.1544
  290.5000   -45.9936     4.8488     5.6578    10.2139     7.7434   127.6398     0.0101     2.3799     0.1595
  291.0000   -45.9774     4.8521     5.6217    10.1506     7.7436   129.4950     0.0071     2.3754     0.1622
  291.5000   -45.9612     4.9229     6.2837    10.1575     7.7587   130.0944     0.0040     2.3724     0.1631
  292.0000   -45.7962     4.9947     6.4196    10.1644     7.7738   129.6474     0.0025     2.3754     0.1553
  292.5000   -45.4823     5.2094     6.3359    10.1713     7.7739   125.6129     0.0009     2.3941     0.1434
  293.0000   -45.3173     5.3959     6.2955    10.2487     7.7740   121.7280     0.0008     2.4203     0.1353
  293.5000   -45.0035     5.5891     7.3345    10.2557     7.7742   118.2690     0.0008     2.4293     0.1275
  294.0000   -44.8385     5.7892     7.8100    10.2627     7.7445   117.9939     0.0022     2.4353     0.1212
  294.5000   -44.6735     6.0798     8.2023    10.3062     7.7446   119.3407     0.0037     2.4406     0.1174
  295.0000   -44.6573     6.3849     8.0954    10.5652     7.7298   115.9045     0.0051     2.4495     0.1138
  295.5000   -44.4923     6.7986     8.1570    10.8308     7.7449   113.0659     0.0065     2.4562     0.1117
  296.0000   -44.4761     7.1399     8.6859    11.1809     7.7451   113.8147     0.0080     2.4615     0.1093
  296.5000   -44.6087     7.1942     8.7520    11.4225     7.7452   114.8625     0.0064     2.4652     0.1096
  297.0000   -44.5923     7.1992     8.4578    11.4303     7.7603   115.6263     0.0079     2.4615     0.1105
  297.5000   -44.5759     7.2042     8.4785    11.2037     7.7455   116.2110     0.0093     2.4630     0.1106
  298.0000   -44.7090     7.3845     9.1504    10.9817     7.7457   116.8104     0.0108     2.4667     0.1085
  298.5000   -44.8375     7.8379     8.8383    10.9892     7.7458   117.7087     0.0137     2.4644     0.1103
  299.0000   -44.9702     7.9522     8.6615    11.2267     7.7609   117.7101     0.0152     2.4584     0.1124
  299.5000   -45.1028     8.0127     9.1612    11.5487     7.7611   116.3663     0.0181     2.4554     0.1146
  300.0000   -44.6402     8.1854     9.4410    11.6012     7.7613   115.9193     0.0180     2.4562     0.1153
  300.5000   -44.6239     8.0769     9.6949    11.6075     7.7618   117.0613     0.0180     2.4556     0.1134
  301.0000   -44.6077     7.9176     9.7022    11.6139     7.7624   118.2033     0.0179     2.4578     0.1114
  301.5000   -44.7403     7.8127     9.6409    11.6202     7.7929   119.5304     0.0179     2.4614     0.1107
  302.0000   -44.7241     7.7637     9.7168    11.8696     7.8084   116.3984     0.0208     2.4622     0.1092
  302.5000   -44.8608     7.8235     9.8594    12.1242     7.8251   114.1634     0.0225     2.4652     0.1071
  303.0000   -44.8405     7.8825     9.9352    12.2148     7.8395   114.7684     0.0253     2.4697     0.1044
  303.5000   -44.8243     8.0523     9.8063    11.8890     7.8401   115.8236     0.0267     2.4781     0.0996
  304.0000   -44.6593     8.2258     9.7460    10.8011     7.8406   113.8875     0.0267     2.4772     0.0999
  304.5000   -44.4943     8.3452     9.7536    10.5858     7.8412   113.4443     0.0266     2.4675     0.1026
  305.0000   -44.4781     8.3503     9.6270    10.8877     7.8419   113.4532     0.0266     2.4600     0.1089
  305.5000   -44.4619     8.1843     9.5021    11.3537     7.8425   113.4603     0.0265     2.4540     0.1125
  306.0000   -44.2969     8.1294     9.1235    12.3408     7.8430   112.4228     0.0280     2.4556     0.1089
  306.5000   -44.4295     7.9660     8.5795    13.0025     7.8436   110.7857     0.0294     2.4623     0.1054
  307.0000   -44.4133     7.5275     8.5277    13.0097     7.8442   108.1022     0.0324     2.4698     0.1045
  307.5000   -44.3970     7.0332     8.7732    12.4893     7.8449   107.3617     0.0369     2.4683     0.1054
  308.0000   -44.3808     6.5843     8.5944    12.6263     7.8304   108.6447     0.0398     2.4615     0.1075
  308.5000   -44.3646     6.0231     8.3075    13.6290     7.8311   113.0580     0.0428     2.4548     0.1114
  309.0000   -44.3482     5.7032     7.6210    13.0839     7.8317   115.3072     0.0443     2.4496     0.1174
  309.5000   -44.3318     5.5505     7.0471     9.8678     7.8173   117.5564     0.0457     2.4376     0.1291
  310.0000   -44.1667     5.4036     6.8223     4.0017     7.8180   119.3572     0.0441     2.3957     0.1450
  310.5000   -43.9499     5.4070     7.0672     3.5611     7.8186   119.2166     0.0411     2.3642     0.1685
  311.0000   -43.2379     5.4477     8.9439     9.4184     7.8041   116.0847     0.0365     2.3522     0.1738
  311.5000   -43.0729     5.6424     9.3938    14.1534     7.7899   111.7570     0.0318     2.3725     0.1561
  312.0000   -43.0567     6.2184     9.4661    14.6577     7.7906   106.0839     0.0274     2.4549     0.1210
  312.5000   -43.0405     6.7593     9.8739    14.2669     7.7911   104.2973     0.0244     2.4856     0.0932
  313.0000   -43.0242     7.2967    10.6610    14.3734     7.7917   104.4557     0.0244     2.4983     0.0878
  313.5000   -43.0080     8.0416    11.9978    14.8856     7.7923   105.2101     0.0274     2.4953     0.0923
  314.0000   -42.9918     8.7411    12.6887    15.1005     7.7928   103.4235     0.0348     2.4796     0.0995
  314.5000   -42.9756     9.4361    13.0538    15.0050     7.7935   102.9821     0.0377     2.4811     0.0980
  315.0000   -42.9594     9.7061    13.2428    14.5045     7.7941   102.9910     0.0392     2.4849     0.0944
  315.5000   -42.9432     9.8470    13.1617    14.1177     7.7896   102.8486     0.0421     2.4933     0.0899
  316.0000   -42.7782     9.9900    13.4498    13.8363     7.7845   102.1083     0.0436     2.5006     0.0914
  316.5000   -42.7620    10.2052    13.7416    13.5605     7.7793   100.6207     0.0466     2.4946     0.0939
  317.0000   -42.4482    10.4972    14.1371    13.4747     7.7742    97.5986     0.0495     2.4842     0.0987
  317.5000   -42.1343    10.9476    14.5439    14.0514     7.7691    90.6217     0.0495     2.4752     0.1093
  318.0000   -41.6717    12.3175    19.0525    15.6986     7.7827    85.8455     0.0479     2.4541     0.1164
  318.5000   -41.0603    13.4816    20.8574    20.8379     7.7982    82.1157     0.0464     2.4235     0.1307
  319.0000   -40.4488    15.7009    21.4535    28.6296     7.7989    78.5353     0.0433     2.3943     0.1481
  319.5000   -40.2838    17.5442    21.6226    28.4611     7.8144    74.1830     0.0403     2.3816     0.1583
  320.0000   -39.9700    18.4236    24.0001    24.3794     7.8150    68.8353     0.0387     2.3718     0.1646
  320.5000   -39.8050    19.3517    25.2075    23.2436     7.8006    66.4507     0.0357     2.3638     0.1691
  321.0000   -39.7867    19.9101    25.0482    28.3040     7.8012    64.2157     0.0341     2.3479     0.1775
  321.5000   -39.6235    20.3438    26.8640    28.4187     7.8019    62.4290     0.0326     2.3434     0.1808
  322.0000   -39.4583    20.7869    26.5156    24.8556     7.8025    64.0821     0.0326     2.3471     0.1781
  322.5000   -39.2783    21.2152    24.9369    25.5645     7.8030    66.0324     0.0325     2.3546     0.1704
  323.0000   -39.1280    21.6750    25.3027    28.5614     7.8036    67.6838     0.0340     2.3696     0.1665
  323.5000   -38.9596    21.9897    26.3929    31.0416     7.7744    68.4382     0.0339     2.3749     0.1659
  324.0000   -38.7973    22.3090    26.5958    29.3920     7.7601    68.7444     0.0339     2.3682     0.1710
  324.5000   -38.4808    22.4738    26.4326    26.1559     7.7456    68.9026     0.0353     2.3517     0.1806
  325.0000   -38.4646    22.3330    27.5715    24.9372     7.7463    68.9097     0.0338     2.3337     0.1917
  325.5000   -38.2995    22.6608    29.1702    29.4403     7.7319    68.7673     0.0307     2.3225     0.1938
