~VERSION INFORMATION
 VERS.                2.0:   CWLS LOG ASCII STANDARD - VERSION 2.0
 WRAP.                 NO:   ONE LINE PER DEPTH STEP
~WELL INFORMATION
#MNEM.UNIT      DATA TYPE    INFORMATION
#----------   ------------   ------------------------------
 STRT.F           11.0000:   START DEPTH
 STOP.F          915.0000:   STOP DEPTH
 STEP.F            0.5000:   STEP LENGTH
 NULL.          -999.2500:   NO VALUE
 COMP. U S NAVY/INTEX OIL CO:   COMPANY
 WELL.       N.P.R. #3-35:   WELL
 FLD .           TEAPOT E:   FIELD
 LOC .      S35 T39N R78W:   LOCATION
 CNTY.            NATRONA:   COUNTY
 STAT.            WYOMING:   STATE
 CTRY. UNITED STATES OF AMERICA:   COUNTRY
 SRVC.       Schlumberger:   SERVICE COMPANY
 DATE.        25-JUL-1953:   LOGDATE
 API .       490250653700:   API NUMBER
~CURVE INFORMATION
#MNEM.UNIT       API CODE    CURVE DESCRIPTION
#----------   ------------   ------------------------------
 DEPT.F                  :   
 SPR .MV     05 010 01 00:   SPONTANEOUS POTENTIAL FROM RES.
 CILD.MMHO   05 110 46 00:   CONDUCTIVITY INDUCTION LOG DEEP
 ILD .OHMM   05 120 46 00:   INDUCTION LOG DEEP
 ASN .OHMM   05 041 16 00:   AMPLIFIED SHORT NORMAL 16"
 GR  .GAPI   30 310 01 00:   GAMMA RAY
~PARAMETER INFORMATION
#MNEM.UNIT          VALUE    DESCRIPTION
#----------   ------------   ------------------------------
 EPD .F              5097:   ELEVATION PERMANENT DATUM
 LMF .                 KB:   LOG MEASURED FROM
 DMF .                 KB:   DRILLING MEASURED FROM
 EKB .F              5102:   KELLING BUSHING
 EGL .F              5097:   GROUND LEVEL
 DATE.           7-2-1963:   RUN DATE
 RUN .                  1:   RUN NUMBER
 DD  .F               916:   DEPTH DRILLER
 DL  .F               916:   DEPTH LOGGER
 BLI .F               915:   BOTTOM LOG INTERVAL
 TLI .F                90:   TOP LOG INTERVAL
 CS  .IN            8.625:   CASING SIZE
 CBD .F                10:   CASING BOTTOM DRILLER
 BS  .IN             6.75:   BIT SIZE
 BSD .F               916:   BIT SIZE AT DEPTH
 DFT .            GEL/OIL:   DRILLING FLUID TYPE
 DFD .                9.6:   DRILLING FLUID DENSITY
 DFV .                 67:   DRILLING FLUID VISCOSITY
 DFPH.                  9:   DRILLING FLUID PH
 DFL .                4.2:   DRILLING FLUID LOSS
 MSS .          FLOW LINE:   MUD SAMPLE SOURCE
 RMS .OHMM           2.92:   RESISTIVITY MUD SAMPLE
 MST .F                86:   MUD SAMPLE TEMPERATURE
 RMF .OHMM            2.6:   RESISTIVITY MUD FILTRATE SAMPLE
 MFST.F                86:   MUD FILTRATE SAMPLE TEMPERATURE
 RMC .OHMM           2.49:   RESISTIVITY MUD CAKE
 MCST.F                86:   MUD CAKE SAMPLE TEMPERATURE
 MFSS.                  M:   MUD FILTRATE SAMPLE SOURCE
 MCSS.                  M:   MUD CAKE SAMPLE SOURCE
 TCS .HRS              .5:   TIME CURCULATED STOPPED
 LUN .               4507:   LOGGING UNIT NUMBER
 ENGI.             KNOBEL:   RECORDING ENGINEER
 WITN.          JORGENSON:   WITNESSED BY
 CLNT.            A2DTECH:   CLIENT CODE
 ORIG.       2", 5" PRINT:   ORIGIN OF DATA
 UWI .       490250653700:   UNIQUE WELL ID
 DICO. A2D Technologies, Inc.:   DIGITIZING COMPANY
~OTHER INFORMATION
~A   DEPT      SPR       CILD        ILD        ASN          GR  
# ...
  682.0000   -30.1492   135.7015     7.3712     8.5233    59.0095
  682.5000   -30.0112   136.6829     7.3233     8.5161    59.8585
  683.0000   -29.8729   137.6655     7.2754     8.4871    56.9741
  683.5000   -29.7337   138.6476     7.2275     8.3440    53.3314
  684.0000   -29.6090   139.6297     7.1796     8.2011    52.2587
  684.5000   -29.7284   140.6118     7.1317     8.1023    53.3918
  685.0000   -29.8533   141.5939     7.0838     8.0823    55.2108
  685.5000   -29.9769   142.5760     7.0360     8.0612    47.7946
  686.0000   -30.1004   143.5581     6.9890     8.0340    45.3402
  686.5000   -30.2243   144.5402     6.9321     7.9955    50.8797
  687.0000   -30.3458   146.0651     6.8724     7.9573    56.6225
  687.5000   -30.4062   149.8276     6.7216     7.8328    56.4151
  688.0000   -30.2428   153.5902     6.5219     7.6535    57.9232
  688.5000   -30.0849   159.1861     6.3014     7.4572    59.4454
  689.0000   -29.9294   167.5349     5.8428     7.4648    57.2987
  689.5000   -29.8259   175.7557     5.6975     7.2953    60.3094
  690.0000   -29.9057   179.9329     5.5821     6.9973    54.0006
  690.5000   -29.9810   183.7109     5.4632     6.7064    53.6195
  691.0000   -30.0555   186.3329     5.3421     6.5226    54.9646
  691.5000   -30.1301   188.9477     5.2996     6.3453    53.5360
  692.0000   -30.2141   188.3343     5.2996     6.1635    52.1084
  692.5000   -29.9137   184.3232     5.3705     6.1930    53.2895
  693.0000   -29.4546   178.0021     5.5343     6.6706    54.3868
  693.5000   -29.6212   171.9610     5.7006     6.9275    53.6177
  694.0000   -29.8825   166.0737     5.9679     7.0544    52.2962
  694.5000   -30.1461   160.1864     6.1941     7.1778    56.5936
  695.0000   -30.4093   155.3929     6.2906     7.2929    59.8174
  695.5000   -30.6440   153.7295     6.3800     7.3484    60.5396
  696.0000   -30.5989   152.0661     6.4704     7.3801    61.5067
  696.5000   -30.5496   150.4026     6.5619     7.3877    65.2550
  697.0000   -30.5018   150.5771     6.6516     7.3953    65.4849
  697.5000   -30.4566   152.1380     6.5637     7.4029    61.1981
  698.0000   -30.2576   154.4426     6.4498     7.4107    62.8935
  698.5000   -29.9969   156.7471     6.3355     7.4174    66.8103
  699.0000   -29.7347   159.5538     6.2216     7.3782    65.9016
  699.5000   -29.4632   162.8829     6.1078     7.2751    64.4301
  700.0000   -29.4318   166.2121     5.9932     7.1126    60.6618
  700.5000   -29.4821   169.5412     5.8786     6.9503    56.5286
  701.0000   -29.5327   178.4004     5.6433     6.7877    54.4325
  701.5000   -29.5840   190.4512     5.2931     6.6250    55.8943
  702.0000   -29.1689   205.2679     4.9426     6.4084    58.0213
  702.5000   -28.3209   221.5139     4.5772     6.1549    53.1349
  703.0000   -27.7239   237.7378     4.0944     5.7907    45.8624
  703.5000   -27.8043   241.3203     4.0310     5.4700    46.6928
  704.0000   -27.8686   240.3393     4.0396     5.2168    47.6604
  704.5000   -27.9305   237.4475     4.1722     4.9971    48.6838
  705.0000   -28.0706   230.8499     4.3128     5.0171    48.9353
  705.5000   -28.7666   224.0294     4.4649     5.1010    42.1510
  706.0000   -29.1033   207.3704     4.8565     5.6964    43.6212
  706.5000   -29.3696   190.1287     5.3348     6.3451    45.8153
  707.0000   -29.6291   172.6128     5.7185     6.7283    42.1613
  707.5000   -29.8903   162.2245     6.2152     6.9266    44.2817
  708.0000   -30.1548   153.4625     6.5284     7.0874    47.8464
  708.5000   -30.4275   152.1149     6.6253     7.2480    53.4030
  709.0000   -30.4019   150.7673     6.6866     7.4070    53.0050
  709.5000   -30.3554   149.4198     6.7490     7.5511    53.9162
  710.0000   -30.3103   148.0722     6.8128     7.6834    54.8924
  710.5000   -30.2657   146.7246     6.8765     7.8695    55.8628
  711.0000   -30.2212   145.3770     6.9402     8.0589    56.5647
  711.5000   -30.1766   144.0294     7.0039     8.0976    55.1984
  712.0000   -30.1318   142.6818     7.0676     8.1073    52.8497
  712.5000   -30.0884   141.3342     7.1313     8.1717    54.3022
  713.0000   -30.0448   140.0492     7.1949     8.3076    52.0882
  713.5000   -30.1708   138.7752     7.2585     8.4486    50.4514
  714.0000   -30.4462   137.5012     7.3233     8.4824    52.2276
  714.5000   -30.6411   136.2272     7.3896     8.4750    53.6723
  715.0000   -30.8268   134.9531     7.4550     8.4725    51.9957
  715.5000   -31.0195   133.7880     7.4945     8.5808    53.8962
  716.0000   -30.9810   134.8793     7.4559     8.6857    53.1851
  716.5000   -30.8626   135.8847     7.4194     8.7351    48.5603
  717.0000   -30.7413   136.8900     7.3830     8.7248    49.4695
  717.5000   -30.6206   137.9855     7.3469     8.6910    52.4591
  718.0000   -30.5002   137.6959     7.3108     8.6325    54.0689
  718.5000   -30.4401   136.7590     7.3324     8.5526    56.5146
  719.0000   -30.4409   135.8121     7.4076     8.4069    58.1364
  719.5000   -30.4362   134.8106     7.4886     8.2179    57.9342
  720.0000   -30.0901   134.6257     7.3506     7.9865    58.2200
  720.5000   -29.7997   136.2325     7.1472     7.8907    60.3863
  721.0000   -29.6594   139.5074     6.9414     7.8994    54.3610
  721.5000   -29.5173   144.1485     6.7361     7.7466    50.4304
  722.0000   -29.4000   148.8056     6.5312     7.5869    47.6375
  722.5000   -29.5413   154.6170     6.3236     7.3192    45.6783
  723.0000   -29.6800   166.1046     6.1165     7.0265    48.3357
  723.5000   -29.8158   177.5921     5.6548     6.7251    51.7358
  724.0000   -29.9514   189.0797     5.0178     6.2947    52.8173
  724.5000   -29.9326   211.8666     4.3770     5.8545    55.7259
  725.0000   -29.7589   237.6705     3.7322     5.4145    59.5611
  725.5000   -29.5844   290.7444     3.1028     4.9748    59.2946
  726.0000   -29.3993   343.8184     2.7836     4.5353    54.5448
  726.5000   -29.1833   396.8923     2.4761     4.0952    53.8613
  727.0000   -28.9743   442.0567     2.2633     3.6582    56.6039
  727.5000   -28.7403   471.9395     2.1025     3.4186    56.4293
  728.0000   -28.5523   485.1434     2.0452     3.2259    53.7426
  728.5000   -28.5561   480.7450     2.0519     3.0984    51.4371
  729.0000   -28.5577   462.2329     2.2276     3.1326    51.6884
  729.5000   -28.5996   424.8224     2.4028     3.1535    52.3972
  730.0000   -28.7558   379.1468     2.5767     3.1455    54.9766
  730.5000   -28.4159   333.4712     2.8993     3.4200    57.5260
  731.0000   -28.1362   287.7956     3.4445     4.0312    65.1514
  731.5000   -28.2275   242.0220     3.9764     4.6567    70.1570
  732.0000   -28.3104   204.8591     4.5055     5.1278    71.3008
  732.5000   -28.3923   189.4597     5.0285     5.5609    63.5160
  733.0000   -28.4744   174.0739     5.3631     5.9562    65.1239
  733.5000   -28.5565   165.6994     5.1604     6.1877    68.0940
  734.0000   -28.6385   164.2437     4.9720     6.4079    70.3009
  734.5000   -28.7206   164.5984     4.9051     6.6406    69.1581
  735.0000   -28.8028   165.1207     4.9522     6.6755    68.2639
  735.5000   -28.8867   164.9502     4.9995     6.5571    73.1527
  736.0000   -28.9697   164.5103     5.0477     6.4444    71.4550
  736.5000   -28.7482   166.1886     5.0960     6.3843    67.2499
  737.0000   -28.4938   172.0603     5.1452     6.5013    65.6090
  737.5000   -28.2396   180.8915     5.1897     6.5999    69.0306
  738.0000   -27.9856   192.1245     5.0282     6.5355    67.8937
  738.5000   -27.7316   203.3445     4.8514     6.3425    68.8858
  739.0000   -27.4801   214.5928     4.6751     6.1139    63.3852
  739.5000   -27.3192   226.1280     4.4991     5.8122    61.9723
  740.0000   -27.4086   233.8405     4.3232     5.5163    65.3764
  740.5000   -27.4913   241.7576     4.1469     5.4376    64.1489
  741.0000   -27.5737   249.6991     3.9679     5.3369    65.5055
  741.5000   -27.6563   253.4438     3.9614     5.0944    66.4002
  742.0000   -27.7389   248.1758     3.9936     4.9619    62.8511
  742.5000   -27.8213   242.8954     4.0251     5.2036    59.5846
