~VERSION INFORMATION
 VERS.                2.0:   CWLS LOG ASCII STANDARD - VERSION 2.0
 WRAP.                 NO:   ONE LINE PER DEPTH STEP
~WELL INFORMATION
#MNEM.UNIT      DATA TYPE    INFORMATION
#----------   ------------   ------------------------------
 STRT.F           36.0000:   START DEPTH
 STOP.F          503.0000:   STOP DEPTH
 STEP.F            0.5000:   STEP LENGTH
 NULL.          -999.2500:   NO VALUE
 COMP.    FENIX & SCISSON:   COMPANY
 WELL.     NPR ##3 77-S-3:   WELL
 FLD .             TEAPOT:   FIELD
 LOC .       S3 T38N R78W:   LOCATION
 CNTY.            NATRONA:   COUNTY
 STAT.            WYOMING:   STATE
 CTRY. UNITED STATES OF AMERICA:   COUNTRY
 SRVC.       Schlumberger:   SERVICE COMPANY
 DATE.        04-MAR-1977:   LOGDATE
 API .       490251029500:   API NUMBER
~CURVE INFORMATION
#MNEM.UNIT       API CODE    CURVE DESCRIPTION
#----------   ------------   ------------------------------
 DEPT.F                  :   
 SPR .MV     07 010 01 00:   SPONTANEOUS POTENTIAL
 ILD .OHMM   07 120 46 00:   INDUCTION LOG DEEP
 ILM .OHMM   07 120 44 00:   INDUCTION LOG MEDIUM
 LL8 .OHMM   07 220 08 00:   LATEROLOG-8 RES.
 GRD .GAPI   45 310 01 00:   GAMMA RAY FROM DENSITY LOG
 CALD.IN     45 280 60 00:   CALIPER FROM DENSITY LOG
 CORR.G/C3   45 356 01 00:   DENSITY CORRECTION
 RHOB.G/C3   45 350 01 00:   BULK DENSITY
 DPHI.DEC    45 890 12 00:   DENSITY POROSITY SANDSTONE
~PARAMETER INFORMATION
#MNEM.UNIT          VALUE    DESCRIPTION
#----------   ------------   ------------------------------
 PD  .                 GL:   PERMANENT DATUM
 EPD .F              5165:   ELEVATION PERMANENT DATUM
 LMF .                 KB:   LOG MEASURED FROM
 DAPD.F                 4:   FEET ABOVE PERMANENT DATUM
 DMF .                 GL:   DRILLING MEASURED FROM
 EKB .F              5169:   KELLING BUSHING
 EGL .F              5165:   GROUND LEVEL
 DATE.        04-MAR-1977:   RUN DATE
 RUN .                  1:   RUN NUMBER
 DD  .F               500:   DEPTH DRILLER
 DL  .F               504:   DEPTH LOGGER
 BLI .F               503:   BOTTOM LOG INTERVAL
 TLI .F                46:   TOP LOG INTERVAL
 CS  .IN            8.625:   CASING SIZE
 CBD .F                42:   CASING BOTTOM DRILLER
 CBL .F                46:   CASING BOTTOM LOGGER
 BS  .IN            7.875:   BIT SIZE
 BSD .F               500:   BIT SIZE AT DEPTH
 DFT .                KCL:   DRILLING FLUID TYPE
 DFD .                8.6:   DRILLING FLUID DENSITY
 DFV .                 32:   DRILLING FLUID VISCOSITY
 DFPH.                8.0:   DRILLING FLUID PH
 DFL .                7.6:   DRILLING FLUID LOSS
 MSS .            MUD PIT:   MUD SAMPLE SOURCE
 RMS .OHMM            .66:   RESISTIVITY MUD SAMPLE
 MST .F                56:   MUD SAMPLE TEMPERATURE
 RMF .OHMM            .49:   RESISTIVITY MUD FILTRATE SAMPLE
 MFST.F                56:   MUD FILTRATE SAMPLE TEMPERATURE
 RMC .OHMM             .4:   RESISTIVITY MUD CAKE
 MCST.F                56:   MUD CAKE SAMPLE TEMPERATURE
 MFSS.               MEAS:   MUD FILTRATE SAMPLE SOURCE
 MCSS.               CALC:   MUD CAKE SAMPLE SOURCE
 TCS .HRS            0100:   TIME CURCULATED STOPPED
 LUN .               7680:   LOGGING UNIT NUMBER
 LUL .               CSPR:   LOGGING UNIT LOCATION
 ENGI.    LOHBECK/ TAYLOR:   RECORDING ENGINEER
 WITN.              BURKE:   WITNESSED BY
 CLNT.            A2DTECH:   CLIENT CODE
 ORIG.           5" PRINT:   ORIGIN OF DATA
 UWI .       490251029500:   UNIQUE WELL ID
 DICO. A2D Technologies, Inc.:   DIGITIZING COMPANY
~OTHER INFORMATION
~A   DEPT      SPR        ILD        ILM        LL8         GRD      CALD       CORR       RHOB       DPHI   
# ...
  401.0000   -48.3966    30.1788    29.7132    27.6169    45.5756     8.0240     0.0243     2.3490     0.1834
  401.5000   -48.0807    30.2388    30.5512    26.8827    46.2448     8.0295     0.0273     2.3649     0.1737
  402.0000   -47.6173    30.8901    31.8561    26.5182    46.2392     8.0350     0.0295     2.3745     0.1714
  402.5000   -47.1525    32.0102    31.8627    26.3594    46.2347     8.0405     0.0153     2.3564     0.1798
  403.0000   -46.9865    32.2350    31.2107    26.5722    46.9039     8.0402     0.0167     2.3526     0.1837
  403.5000   -46.6712    31.1364    30.5971    27.5434    48.2467     8.0399     0.0039     2.3397     0.1920
  404.0000   -46.5052    30.3221    30.1915    29.2914    49.3650     8.0547     0.0085     2.3338     0.1925
  404.5000   -46.3393    30.3394    30.2064    28.8809    49.8107     8.0544     0.0138     2.3474     0.1858
  405.0000   -46.3229    30.1191    30.0124    28.5228    48.2332     8.0541     0.0114     2.3503     0.1826
  405.5000   -46.3064    29.5432    29.5925    28.3136    46.4323     8.0538     0.0198     2.3510     0.1820
  406.0000   -46.2901    29.1217    28.9729    27.7447    47.3261     8.0535     0.0203     2.3401     0.1856
  406.5000   -46.5790    28.5365    28.2177    26.2627    49.1180     8.0532     0.0118     2.3268     0.1990
  407.0000   -46.8552    27.7703    27.0821    26.1265    50.0117     8.0529     0.0028     2.3224     0.2001
  407.5000   -47.1450    27.0612    26.1458    26.8783    49.7827     8.0526    -0.0030     2.3293     0.1960
  408.0000   -47.4280    26.3406    25.1194    26.1590    47.9818     8.0523     0.0030     2.3398     0.1897
  408.5000   -47.8522    25.6357    24.7847    25.1090    47.3036     8.0670     0.0000     2.3457     0.1839
  409.0000   -47.9853    25.1228    24.3156    24.2685    47.5237     8.0517     0.0067     2.3429     0.1877
  409.5000   -48.1183    24.9599    24.1286    24.1144    47.7449     8.0664     0.0070     2.3388     0.1905
  410.0000   -48.2611    24.4640    23.6780    23.7961    46.3920     8.0661     0.0157     2.3460     0.1824
  410.5000   -48.5339    24.3053    23.5262    23.6418    45.7139     8.0508     0.0134     2.3552     0.1803
  411.0000   -48.5172    24.1510    23.3754    23.0122    46.6076     8.0182     0.0171     2.3522     0.1810
  411.5000   -48.5007    23.8322    23.0627    22.2419    47.9504     7.9601     0.0201     2.3604     0.1795
  412.0000   -48.4843    23.6810    23.0766    21.2019    49.0687     7.9147     0.0148     2.3566     0.1750
  412.5000   -48.3174    23.6973    22.9259    21.0644    49.9624     7.9620     0.0216     2.3675     0.1699
  413.0000   -48.3019    23.5469    22.9397    21.2253    51.3052     8.0068     0.0193     2.3750     0.1675
  413.5000   -48.1350    23.5599    22.9508    21.6825    52.6480     8.0189     0.0275     2.3839     0.1597
  414.0000   -47.9701    23.4071    22.9619    21.8451    53.3174     8.0336     0.0297     2.3873     0.1588
  414.5000   -47.8042    23.2585    22.5013    21.8572    50.8427     8.0333     0.0162     2.3723     0.1678
  415.0000   -47.7877    23.1109    22.0500    20.6915    49.2663     8.0330     0.0267     2.3790     0.1630
  415.5000   -47.6064    22.4954    21.3110    19.8609    49.0373     8.0327     0.0207     2.3782     0.1693
  416.0000   -47.3055    21.7424    20.7371    19.7321    49.0328     8.0324     0.0086     2.3564     0.1808
  416.5000   -47.1405    20.8697    20.1836    19.6096    50.6002     8.0171     0.0184     2.3676     0.1741
  417.0000   -47.1072    20.3111    19.7788    19.0848    51.9430     8.0168     0.0236     2.3841     0.1607
  417.5000   -46.9407    19.6312    19.5166    18.7030    53.5104     8.0165     0.0161     2.3886     0.1583
  418.0000   -46.7922    19.1058    19.1228    18.3288    54.6286     8.0162     0.0243     2.4006     0.1544
  418.5000   -46.7758    18.8537    18.8716    17.9622    54.8488     8.0159     0.0438     2.4171     0.1427
  419.0000   -46.7599    18.4765    18.4930    17.3609    53.4969     8.0156     0.0520     2.4448     0.1259
  419.5000   -46.9118    18.1044    18.1199    16.7797    51.4715     8.0153     0.0302     2.3997     0.1478
  420.0000   -47.0453    17.7446    17.6363    16.5560    49.6706     8.0150     0.0212     2.4027     0.1535
  420.5000   -47.4580    17.5104    17.2825    16.5674    48.9924     8.0147     0.0279     2.4102     0.1451
  421.0000   -47.6114    17.1601    16.9359    16.5765    48.0898     8.0144     0.0302     2.4117     0.1469
  421.5000   -48.0438    16.8168    16.4818    16.2427    47.1871     8.0141     0.0204     2.4026     0.1494
  422.0000   -48.3269    16.5925    16.1513    15.8102    46.7155     8.0138     0.0174     2.4018     0.1497
  422.5000   -48.7375    16.2606    15.8273    15.3870    49.8727     8.0135     0.0204     2.4048     0.1476
  423.0000   -48.7205    15.8276    15.7239    15.1839    51.6646     8.0282     0.0121     2.4085     0.1524
  423.5000   -48.7040    15.5110    15.5173    14.8802    52.3338     8.0279     0.0076     2.3942     0.1596
  424.0000   -48.8377    15.4104    15.5248    14.5825    51.6557     8.0427     0.0030     2.3882     0.1572
  424.5000   -48.6712    15.3126    15.5323    14.4879    49.8548     8.0423     0.0090     2.3987     0.1503
  425.0000   -48.6547    15.5367    15.6458    14.2967    50.5240     8.0420     0.0165     2.4064     0.1476
  425.5000   -48.4888    15.5452    15.4383    14.2059    51.8696     8.0417     0.0112     2.4204     0.1395
  426.0000   -48.3229    15.2343    15.2355    14.1157    52.9878     8.0414     0.0157     2.4226     0.1407
  426.5000   -48.1570    15.0311    15.0317    14.0261    51.6243     8.0411     0.0089     2.4196     0.1384
  427.0000   -47.9910    14.9357    15.0408    13.9371    49.3714     8.0408     0.0142     2.4165     0.1444
  427.5000   -47.8251    15.0498    15.1525    14.0436    48.9297     8.0405     0.0239     2.4285     0.1309
  428.0000   -47.8087    15.1626    15.0553    14.1489    49.8504     8.0402     0.0328     2.4488     0.1192
  428.5000   -47.6427    15.2764    14.9588    14.2550    50.7171     8.0399     0.0381     2.4638     0.1138
  429.0000   -47.6263    15.0726    14.7605    14.3619    50.9492     8.0397     0.0246     2.4675     0.1129
  429.5000   -47.6099    14.6713    14.5648    14.2688    51.6198     8.0393     0.0200     2.4547     0.1186
  430.0000   -47.5901    14.6794    14.3699    14.2786    52.2755     8.0391     0.0268     2.4674     0.1129
  430.5000   -47.7273    14.6875    14.2778    14.0901    51.8219     8.0387     0.0125     2.4644     0.1162
  431.0000   -47.7068    14.9004    14.2864    13.9038    53.1827     8.0535     0.0170     2.4381     0.1258
  431.5000   -47.8439    15.0121    14.5929    13.8156    54.2830     8.0531     0.0222     2.4493     0.1201
  432.0000   -47.8234    15.1247    14.8033    13.5392    54.7276     8.0529     0.0199     2.4470     0.1208
  432.5000   -47.9605    15.1330    15.0149    13.5470    54.2290     8.0525     0.0117     2.4387     0.1247
  433.0000   -48.2431    14.9333    14.4134    13.4607    52.9222     8.0523     0.0049     2.4455     0.1229
  433.5000   -48.3761    14.4334    14.1243    13.5619    52.9177     8.0519     0.0116     2.4495     0.1178
  434.0000   -48.6545    13.9502    13.9353    13.6636    52.8862     8.0517     0.0168     2.4689     0.1121
  434.5000   -48.9412    13.6712    13.7522    13.9579    52.4311     8.0513     0.0146     2.4717     0.1094
  435.0000   -49.0701    13.5843    13.5683    14.2586    51.5569     8.0511     0.0228     2.4678     0.1094
  435.5000   -49.2031    13.4981    13.4829    14.5657    52.2575     8.0507     0.0168     2.4683     0.1067
  436.0000   -49.3403    13.4124    13.3949    15.0868    53.3445     8.0355     0.0190     2.4814     0.1025
  436.5000   -49.3198    13.2354    13.3090    15.8444    54.0136     8.0351     0.0137     2.4796     0.1004
  437.0000   -49.4569    13.2427    13.1341    15.7438    53.7844     8.0349     0.0122     2.4753     0.1086
