~VERSION INFORMATION
 VERS.                2.0:   CWLS LOG ASCII STANDARD - VERSION 2.0
 WRAP.                 NO:   ONE LINE PER DEPTH STEP
~WELL INFORMATION
#MNEM.UNIT      DATA TYPE    INFORMATION
#----------   ------------   ------------------------------
 STRT.F           68.0000:   START DEPTH
 STOP.F          560.0000:   STOP DEPTH
 STEP.F            0.5000:   STEP LENGTH
 NULL.          -999.2500:   NO VALUE
 COMP.               NAVY:   COMPANY
 WELL. RES 3 TEAPOT DOM #24S-11:   WELL
 FLD .             TEAPOT:   FIELD
 LOC .      S11 T38N R78W:   LOCATION
 CNTY.            NATRONA:   COUNTY
 STAT.            WYOMING:   STATE
 CTRY. UNITED STATES OF AMERICA:   COUNTRY
 SRVC.       Schlumberger:   SERVICE COMPANY
 DATE.        16-JUL-1963:   LOGDATE
 API .       490250634300:   API NUMBER
~CURVE INFORMATION
#MNEM.UNIT       API CODE    CURVE DESCRIPTION
#----------   ------------   ------------------------------
 DEPT.F                  :   
 GR  .GAPI   30 310 01 00:   GAMMA RAY
 CALS.IN     60 280 50 00:   CALIPER FROM SONIC LOG
 DT  .US/F   60 520 00 00:   INTERVAL TRANSIT TIME
 SPR .MV     05 010 01 00:   SPONTANEOUS POTENTIAL FROM RES.
 CILD.MMHO   05 110 00 00:   CONDUCTIVITY INDUCTION LOG
 ASN .OHMM   05 041 16 00:   AMPLIFIED SHORT NORMAL 16"
 ILD .OHMM   05 120 46 00:   INDUCTION LOG DEEP
~PARAMETER INFORMATION
#MNEM.UNIT          VALUE    DESCRIPTION
#----------   ------------   ------------------------------
 PD  .                 GL:   PERMANENT DATUM
 EPD .F              5168:   ELEVATION PERMANENT DATUM
 LMF .                 KB:   LOG MEASURED FROM
 DAPD.F                 5:   FEET ABOVE PERMANENT DATUM
 DMF .                 KB:   DRILLING MEASURED FROM
 EKB .F              5173:   KELLING BUSHING
 EGL .F              5168:   GROUND LEVEL
 DATE.            7-16-63:   RUN DATE
 RUN .                  1:   RUN NUMBER
 DD  .F               562:   DEPTH DRILLER
 DL  .F               561:   DEPTH LOGGER
 BLI .F               560:   BOTTOM LOG INTERVAL
 TLI .F                94:   TOP LOG INTERVAL
 CS  .IN            8.625:   CASING SIZE
 CBD .F                10:   CASING BOTTOM DRILLER
 BS  .IN            6.875:   BIT SIZE
 BSD .F               562:   BIT SIZE AT DEPTH
 DFT .            NATURAL:   DRILLING FLUID TYPE
 DFD .                 10:   DRILLING FLUID DENSITY
 DFV .                 65:   DRILLING FLUID VISCOSITY
 MSS .           FLOWLINE:   MUD SAMPLE SOURCE
 RMS .OHMM            3.4:   RESISTIVITY MUD SAMPLE
 MST .F                76:   MUD SAMPLE TEMPERATURE
 RMF .OHMM            1.8:   RESISTIVITY MUD FILTRATE SAMPLE
 MFST.F                75:   MUD FILTRATE SAMPLE TEMPERATURE
 RMC .OHMM            3.4:   RESISTIVITY MUD CAKE
 MCST.F                75:   MUD CAKE SAMPLE TEMPERATURE
 MFSS.                 FP:   MUD FILTRATE SAMPLE SOURCE
 MCSS.                 FP:   MUD CAKE SAMPLE SOURCE
 TCS .HRS               1:   TIME CURCULATED STOPPED
 MRT .F                80:   MAXIMUM RECORDED TEMPERATURE
 LUN .               4507:   LOGGING UNIT NUMBER
 LUL .               CSPR:   LOGGING UNIT LOCATION
 ENGI.            GIFFORD:   RECORDING ENGINEER
 WITN.          JORGENSON:   WITNESSED BY
 CLNT.            A2DTECH:   CLIENT CODE
 ORIG.       2", 5" PRINT:   ORIGIN OF DATA
 UWI .       490250634300:   UNIQUE WELL ID
 DICO. A2D Technologies, Inc.:   DIGITIZING COMPANY
~OTHER INFORMATION
~A   DEPT       GR         CALS       DT        SPR       CILD        ASN        ILD   
# ...
  341.0000  -999.2500     6.7844   101.6113   -35.0583   119.0355     9.5752     8.6060
  341.5000  -999.2500     6.9224   101.1601   -35.0226   118.6031     9.6133     8.6259
  342.0000  -999.2500     6.9293   100.9063   -34.9868   118.1707     9.6426     8.6458
  342.5000  -999.2500     6.9389   101.0608   -34.9526   117.7383     9.5941     8.6658
  343.0000  -999.2500     6.9497   101.2306   -34.9072   117.3060     9.5465     8.6857
  343.5000  -999.2500     6.9727   101.4099   -34.3576   118.3099     9.5017     8.6996
  344.0000  -999.2500     6.9931   101.0585   -34.1618   119.5339     9.4751     8.6795
  344.5000  -999.2500     7.0116   100.5881   -34.4522   120.3806     9.4445     8.6599
  345.0000  -999.2500     7.0314   100.2581   -34.7445   121.2274     9.3362     8.6404
  345.5000  -999.2500     6.9955   100.5765   -34.9802   122.0741     9.2267     8.6214
  346.0000  -999.2500     6.9261   100.6032   -35.1175   122.9209     9.1713     8.5984
  346.5000  -999.2500     6.8561   100.5431   -35.1009   123.7676     9.1183     8.4923
  347.0000  -999.2500     6.8145   100.7302   -35.0488   124.6143     9.0653     8.3840
  347.5000  -999.2500     6.8777   100.9047   -34.9976   125.4611     9.0142     8.2762
  348.0000  -999.2500     6.9505   100.6212   -34.9455   126.3079     8.9097     8.1685
  348.5000  -999.2500     7.0177   100.2047   -34.8662   127.1546     8.7985     8.0619
  349.0000  -999.2500     7.0014   100.0327   -34.7521   129.4769     8.7209     7.9522
  349.5000  -999.2500     6.9734   100.5483   -34.6386   133.2401     8.6621     7.7935
  350.0000  -999.2500     6.9073   100.5095   -34.5245   140.0397     8.5116     7.3498
  350.5000  -999.2500     6.9971   100.1900   -34.4109   146.8394     8.3287     6.8901
  351.0000  -999.2500     6.9836   100.1727   -34.3085   153.6887     8.1010     6.6516
  351.5000  -999.2500     6.9371   100.7269   -34.2826   159.2072     7.8258     6.4603
  352.0000  -999.2500     6.8961   101.2811   -34.2518   162.4679     7.5864     6.2681
  352.5000  -999.2500     6.8974   102.3356   -34.2206   163.4809     7.3908     6.2193
  353.0000  -999.2500     6.8487   103.5415   -34.1893   162.4816     7.2534     6.2714
  353.5000  -999.2500     6.7668   104.7331   -34.1581   160.7780     7.2123     6.3246
  354.0000  -999.2500     6.7507   105.4381   -34.1293   159.0555     7.2134     6.3735
  354.5000  -999.2500     6.7880   105.2223   -34.2227   154.9360     7.5381     6.6214
  355.0000  -999.2500     6.7902   104.7009   -34.4984   149.3042     7.9404     6.9025
  355.5000  -999.2500     6.7811   104.2001   -34.7716   143.7080     8.1543     7.1847
  356.0000  -999.2500     6.7755   103.2190   -34.9563   138.1106     8.3218     7.4609
  356.5000  -999.2500     6.8011   102.1223   -35.0349   134.4988     8.3601     7.6096
  357.0000  -999.2500     6.8290   102.2178   -35.1134   132.8727     8.3608     7.7372
  357.5000  -999.2500     6.8569   102.3767   -35.0067   131.2466     8.4422     7.8658
  358.0000  -999.2500     6.8853   102.5311   -34.7699   129.6205     8.5222     7.9925
  358.5000  -999.2500     6.9163   102.6846   -34.7276   128.2518     8.5208     7.9758
  359.0000  -999.2500     6.9714   102.6244   -34.8054   128.2735     8.5202     7.9506
  359.5000  -999.2500     7.0258   102.1128   -34.8847   129.1283     8.5714     7.9263
  360.0000  -999.2500     7.0774   101.8259   -34.8628   130.5979     8.5610     7.9013
  360.5000  -999.2500     7.0722   101.8579   -34.7100   132.0581     8.5323     7.8704
  361.0000  -999.2500     7.0614   101.8874   -34.5581   133.5182     8.4358     7.7343
  361.5000  -999.2500     7.0506   101.9158   -34.4057   134.9784     8.3374     7.6016
  362.0000  -999.2500     7.0399   102.3121   -34.2530   136.3179     8.1622     7.4693
  362.5000  -999.2500     7.0293   102.6888   -34.1110   140.8136     7.9956     7.3372
  363.0000  -999.2500     7.0186   103.0158   -34.1375   144.9641     7.9159     7.1968
  363.5000  -999.2500     7.0079   102.9693   -34.1724   149.3659     7.8316     6.8691
  364.0000  -999.2500     6.9971   102.9211   -34.2069   157.8763     7.7078     6.5160
  364.5000  -999.2500     6.9862   103.1176   -34.2412   166.9546     7.4978     6.1265
  365.0000  -999.2500     6.9824   103.4759   -34.2762   176.0704     7.2574     5.6690
  365.5000  -999.2500     7.0156   103.8484   -34.3087   184.4621     7.0112     5.4158
  366.0000  -999.2500     7.0469   104.2380   -34.1995   191.5997     6.7649     5.2945
  366.5000  -999.2500     7.0776   104.9574   -34.0766   190.7325     6.5173     5.1835
  367.0000  -999.2500     7.1079   106.9234   -33.9693   189.0527     6.3635     5.2013
  367.5000  -999.2500     7.1036   108.7613   -33.6696   187.1669     6.2621     5.3060
  368.0000  -999.2500     7.0985   109.3656   -33.6219   185.2188     6.2250     5.4037
  368.5000  -999.2500     7.0991   108.9883   -33.5569   177.4283     6.7045     5.7665
  369.0000  -999.2500     7.0936   108.6939   -33.5210   166.8876     7.2688     6.1785
  369.5000  -999.2500     7.0902   108.3618   -33.9873   156.3468     7.6252     6.5913
  370.0000  -999.2500     7.1048   106.5176   -34.4630   147.7867     7.8376     7.0066
  370.5000  -999.2500     7.1204   103.7337   -34.6968   141.2113     8.0223     7.2837
  371.0000  -999.2500     7.1368   102.9015   -34.5991   135.4527     8.1554     7.4571
  371.5000  -999.2500     7.1060   102.7441   -34.4703   132.5111     8.2915     7.6285
  372.0000  -999.2500     7.0637   102.6183   -34.0617   131.1482     8.4281     7.7912
  372.5000  -999.2500     7.0508   102.1723   -33.7159   129.7852     8.5603     7.8668
  373.0000  -999.2500     7.1019   101.6113   -33.9224   128.9569     8.6279     7.9769
  373.5000  -999.2500     7.1387   101.6113   -34.6984   128.4353     8.6907     8.0885
  374.0000  -999.2500     7.1530   101.4099   -35.5614   127.0936     8.7938     8.2005
  374.5000  -999.2500     7.0366   101.4099   -35.7274   125.3048     8.9011     8.3124
  375.0000  -999.2500     6.8879   100.7764   -35.6428   123.5161     9.0093     8.4228
  375.5000  -999.2500     6.7315   100.3441   -35.4107   121.7274     9.1198     8.5023
  376.0000  -999.2500     6.6944   100.6643   -35.1820   121.1292     9.1679     8.4882
  376.5000  -999.2500     6.7556   101.0070   -34.9523   120.9929     9.2137     8.4746
  377.0000  -999.2500     6.8399   100.6651   -34.9186   120.8566     9.3024     8.4607
  377.5000  -999.2500     6.8309   100.2014   -34.9185   120.7203     9.4037     8.4469
  378.0000  -999.2500     6.7986   100.3016   -34.9190   120.5840     9.4627     8.4329
  378.5000  -999.2500     6.9053   100.3583   -34.9190   120.4477     9.4237     8.4196
  379.0000  -999.2500     7.0231   100.1452   -34.9192   120.3115     9.3658     8.4034
  379.5000  -999.2500     6.9404    99.9320   -34.8674   120.1752     9.3504     8.5660
  380.0000    68.3838     6.8220    99.9765   -34.7682   120.0389     9.4608     8.8005
  380.5000    68.3838     6.7189   100.1007   -34.6689   119.9026     9.5686     8.7467
  381.0000    68.3838     6.7269    99.9423   -34.5692   119.7663     9.6277     8.6791
  381.5000    68.3884     6.8685    99.7098   -34.4697   119.6301     9.6912     8.6119
  382.0000    68.3677     7.0034    99.2894   -34.3736   119.4940     9.7062     8.5461
  382.5000    68.2993     6.8671    98.8923   -34.4571   119.3579     9.5418     8.5062
  383.0000    66.2322     6.7330    98.8321   -34.8269   119.2153     9.3615     8.5255
  383.5000    61.0269     6.8716    98.7681   -35.1961   118.8645     9.2135     8.5436
  384.0000    60.4478     6.8434    98.7042   -35.3041   118.5033     9.1295     8.5619
  384.5000    58.6449     6.6351    99.2825   -35.2650   118.4328     9.0444     8.5810
  385.0000    63.6898     6.4275   100.0302   -35.2237   119.6254     8.9573     8.6054
  385.5000    60.1590     6.3516   100.6088   -35.1826   120.8048     8.8091     8.3415
  386.0000    59.5470     6.4378   100.4944   -35.1412   123.5231     8.6327     8.0836
