~VERSION INFORMATION
 VERS.                2.0:   CWLS LOG ASCII STANDARD - VERSION 2.0
 WRAP.                 NO:   ONE LINE PER DEPTH STEP
~WELL INFORMATION
#MNEM.UNIT      DATA TYPE    INFORMATION
#----------   ------------   ------------------------------
 STRT.F           92.0000:   START DEPTH
 STOP.F          810.0000:   STOP DEPTH
 STEP.F            0.5000:   STEP LENGTH
 NULL.          -999.2500:   NO VALUE
 COMP. U S NAVY/INTEX OIL CO:   COMPANY
 WELL. NPR #3 #86 S 34-34:   WELL
 FLD .        EAST TEAPOT:   FIELD
 LOC .      S34 T39N R78W:   LOCATION
 CNTY.            NATRONA:   COUNTY
 STAT.            WYOMING:   STATE
 CTRY. UNITED STATES OF AMERICA:   COUNTRY
 SRVC. Schlumberger Well Surveying Corp:   SERVICE COMPANY
 DATE.        22-JUL-1962:   LOGDATE
 API .       490250652900:   API NUMBER
~CURVE INFORMATION
#MNEM.UNIT       API CODE    CURVE DESCRIPTION
#----------   ------------   ------------------------------
 DEPT.F                  :   
 GR  .GAPI   30 310 01 00:   GAMMA RAY
 SPR .MV     05 010 01 00:   SPONTANEOUS POTENTIAL FROM RES.
 CILD.MMHO   05 110 46 00:   CONDUCTIVITY INDUCTION LOG DEEP
 ASN .OHMM   05 041 16 00:   AMPLIFIED SHORT NORMAL 16"
 ILD .OHMM   05 120 46 00:   INDUCTION LOG DEEP
 CALM.IN     15 280 01 00:   CALIPER FROM MICRO LOG
~PARAMETER INFORMATION
#MNEM.UNIT          VALUE    DESCRIPTION
#----------   ------------   ------------------------------
 PD  .                 GL:   PERMANENT DATUM
 EPD .F              5094:   ELEVATION PERMANENT DATUM
 LMF .                 KB:   LOG MEASURED FROM
 DAPD.F                 5:   FEET ABOVE PERMANENT DATUM
 DMF .                 KB:   DRILLING MEASURED FROM
 EKB .F              5099:   KELLING BUSHING
 EGL .F              5094:   GROUND LEVEL
 DATE.            7-22-62:   RUN DATE
 RUN .                  1:   RUN NUMBER
 DD  .F               810:   DEPTH DRILLER
 DL  .F               811:   DEPTH LOGGER
 BLI .F               810:   BOTTOM LOG INTERVAL
 TLI .F               100:   TOP LOG INTERVAL
 BS  .IN             6.75:   BIT SIZE
 BSD .F               810:   BIT SIZE AT DEPTH
 DFT .                GEL:   DRILLING FLUID TYPE
 DFD .               10.3:   DRILLING FLUID DENSITY
 DFV .                 43:   DRILLING FLUID VISCOSITY
 RMS .OHMM              4:   RESISTIVITY MUD SAMPLE
 MST .F                75:   MUD SAMPLE TEMPERATURE
 RMF .OHMM            2.9:   RESISTIVITY MUD FILTRATE SAMPLE
 MFST.F                75:   MUD FILTRATE SAMPLE TEMPERATURE
 RMC .OHMM            3.8:   RESISTIVITY MUD CAKE
 MCST.F                75:   MUD CAKE SAMPLE TEMPERATURE
 TCS .HRS               1:   TIME CURCULATED STOPPED
 LUN .               2503:   LOGGING UNIT NUMBER
 ENGI.           ELLERMAN:   RECORDING ENGINEER
 WITN.          JORGENSON:   WITNESSED BY
 CLNT.            A2DTECH:   CLIENT CODE
 ORIG.   1", 2", 5" PRINT:   ORIGIN OF DATA
 UWI .       490250652900:   UNIQUE WELL ID
 DICO. A2D Technologies, Inc.:   DIGITIZING COMPANY
~OTHER INFORMATION
~A   DEPT       GR        SPR       CILD        ASN        ILD       CALM   
# ...
  560.0000    91.4567   -30.6500   143.4529     7.2037     7.0916     6.7486
  560.5000   100.7284   -30.9062   141.7680     7.3116     7.1902     6.7536
  561.0000   112.3524   -31.1618   140.0831     7.4195     7.2887     6.7532
  561.5000   112.7067   -31.4173   138.3980     7.5271     7.3873     6.7530
  562.0000   109.2739   -31.6729   136.7118     7.6349     7.4859     6.7598
  562.5000   107.6323   -31.9284   135.0256     7.7121     7.5844     6.7706
  563.0000   117.7444   -32.1843   133.4372     7.7924     7.6830     6.7814
  563.5000   115.6441   -32.4389   133.0925     7.8698     7.7498     6.7923
  564.0000   104.0451   -32.6962   132.7661     7.9347     7.7786     6.8042
  564.5000   113.8719   -32.6837   132.4396     7.9961     7.8072     6.8164
  565.0000   109.4224   -32.4399   132.0380     8.0576     7.8330     6.8283
  565.5000   111.5438   -32.1949   131.6257     8.0944     7.9636     6.8286
  566.0000   110.0938   -31.9907   131.2133     8.1053     8.1042     6.8078
  566.5000   111.7746   -32.0575   130.8009     8.1359     8.2452     6.7944
  567.0000    99.6533   -32.1201   130.3886     8.1884     8.3859     6.7945
  567.5000   104.2674   -32.1845   129.9762     8.2428     8.5326     6.7946
  568.0000   104.4343   -32.1226   129.5639     8.2515     8.5071     6.8041
  568.5000    93.4201   -32.0309   129.4192     8.2167     8.3918     6.8034
  569.0000    96.8650   -31.9386   130.5385     8.1424     8.2744     6.7883
  569.5000   114.6004   -31.8464   131.6578     7.9807     8.1572     6.7726
  570.0000   104.8672   -31.7540   132.3147     7.8218     8.0966     6.7561
  570.5000    93.1457   -31.6608   132.0660     7.6851     7.9971     6.7791
  571.0000    89.3734   -31.5807   131.8172     7.6002     7.8968     6.8132
  571.5000   111.5849   -31.7165   131.5685     7.5142     7.7966     6.7811
  572.0000   105.3765   -31.8581   131.9796     7.4242     7.6970     6.7436
  572.5000    93.0780   -31.9799   135.7783     7.2461     7.6043     6.7063
  573.0000    95.6758   -31.8511   139.6677     7.0603     7.4297     6.6688
  573.5000   101.2813   -31.7198   146.0410     6.8735     7.2545     6.6305
  574.0000    85.1705   -31.5960   153.0737     6.6238     7.0827     6.6472
  574.5000    85.9869   -31.3222   162.0652     6.2655     6.7148     6.6843
  575.0000    82.2575   -31.0375   171.8588     5.9085     6.2204     6.7217
  575.5000    95.8478   -30.7532   192.7518     5.5462     5.7242     6.7302
  576.0000    99.7943   -30.4673   222.2014     5.1832     5.2277     6.7217
  576.5000    89.2911   -30.3909   263.2399     4.8219     4.7315     6.7134
  577.0000    87.3641   -30.4982   315.5209     4.3787     4.2352     6.7051
  577.5000   104.1556   -30.6087   366.8830     3.8937     3.7394     6.6971
  578.0000    93.1339   -30.7299   418.2451     3.4683     3.2364     6.6922
  578.5000    99.2628   -30.3757   460.8100     3.2611     2.9743     6.6417
  579.0000    77.1910   -29.8863   492.1495     3.0645     2.7624     6.5853
  579.5000    76.4867   -29.4010   497.9232     3.0041     2.6775     6.5288
  580.0000    96.7512   -29.2386   497.9232     2.9483     2.8221     6.4722
  580.5000   111.7261   -29.6649   480.0888     2.8952     2.9611     6.4389
  581.0000   118.4397   -30.0812   452.2741     2.9704     3.1026     6.5448
  581.5000   123.1324   -30.4970   394.8183     3.2293     3.2945     6.6650
  582.0000   128.3777   -30.7445   337.3624     3.7448     3.8302     6.7443
  582.5000   116.2327   -30.6344   279.9066     4.2187     4.3559     6.7701
  583.0000   106.9233   -30.5235   235.7009     4.6413     4.8785     6.7954
  583.5000   115.8259   -30.4149   205.3405     5.0524     5.4018     6.7796
  584.0000   112.1558   -30.4027   183.7695     5.4984     5.9274     6.6680
  584.5000   118.8897   -30.7625   167.7051     5.7806     6.4793     6.6648
  585.0000   125.0417   -31.1117   164.2311     5.9072     6.6117     6.6607
  585.5000   122.1895   -31.4605   160.4324     6.0140     6.7038     6.6569
  586.0000   126.9012   -31.7764   160.0311     6.0807     6.7343     6.6529
  586.5000   134.5618   -31.7862   160.9017     6.0789     6.7678     6.6509
  587.0000   134.9908   -31.5623   161.7722     6.0565     6.8038     6.6959
  587.5000   119.9808   -31.2531   162.6428     6.0352     6.6459     6.7427
  588.0000   122.8715   -30.9398   163.5514     6.0863     6.4375     6.7896
  588.5000   129.3296   -30.6266   169.1285     6.1425     6.2281     6.8346
  589.0000   124.9202   -30.3132   177.9679     6.1792     6.0191     6.8337
  589.5000   116.8998   -29.9906   186.8073     6.1572     5.8102     6.8307
  590.0000   117.3187   -29.8382   198.0789     6.0910     5.6012     6.8280
  590.5000   138.4302   -29.7293   211.1371     5.8137     5.3921     6.8253
  591.0000   117.6135   -29.6220   222.9491     5.5242     5.1810     6.8225
  591.5000   111.7307   -29.5139   229.4782     5.2332     5.0514     6.8198
  592.0000   116.6047   -29.4051   236.0073     5.0955     4.9392     6.8171
  592.5000   116.6882   -29.3008   242.5363     5.0531     4.8275     6.8173
  593.0000   123.8566   -29.3395   249.0654     4.8885     4.7150     6.8230
  593.5000   120.3269   -29.3857   252.8557     4.7014     4.6020     6.8285
  594.0000   132.1867   -29.4313   252.8557     4.8004     4.5241     6.8341
  594.5000   131.1261   -29.4766   245.1370     5.0306     4.7748     6.8397
  595.0000   122.3268   -29.5220   232.8893     5.1394     5.0293     6.8453
  595.5000   114.4016   -29.5674   220.6417     5.0858     5.2824     6.8509
  596.0000   137.3766   -29.6127   208.3940     5.1025     5.5352     6.8566
  596.5000   140.4309   -29.6578   196.1464     5.5210     5.7880     6.8569
  597.0000   129.5269   -29.7002   183.9441     5.9267     6.0363     6.8569
  597.5000   126.4366   -29.8371   174.2284     6.2839     6.2650     6.8570
  598.0000   131.5199   -29.9861   165.0414     6.6312     6.4850     6.8567
  598.5000   127.7296   -30.1356   155.8441     6.9669     6.7047     6.8359
  599.0000   125.7926   -30.2852   149.5311     7.0969     6.9103     6.8129
  599.5000   119.8431   -30.4329   146.3168     7.1360     7.0233     6.7902
  600.0000   113.4422   -30.5041   142.7830     7.1397     7.0714     6.7748
  600.5000   127.0989   -30.3525   144.3510     7.1549     7.1020     6.7795
  601.0000   144.0708   -30.2089   146.0921     7.0749     6.9856     6.7838
  601.5000   131.8331   -30.0652   148.8791     6.9869     6.8691     6.7881
  602.0000   135.8710   -29.9225   152.6514     6.8880     6.7529     6.7922
  602.5000   130.3495   -29.7779   156.4238     6.7677     6.6140     6.7854
  603.0000   133.5855   -29.8666   160.4361     6.6474     6.4524     6.7670
  603.5000   125.3724   -30.1626   167.7726     6.5276     6.2859     6.7693
  604.0000   121.4781   -30.4733   176.0125     6.3913     6.0601     6.8348
  604.5000   123.2988   -30.3742   186.9618     6.2239     5.8244     6.8286
  605.0000   121.4030   -30.1528   198.5197     6.0566     5.5884     6.8211
  605.5000   128.9281   -29.9242   210.0279     5.8545     5.3524     6.8141
  606.0000   136.6347   -29.7431   219.7271     5.5881     5.1155     6.7903
  606.5000   138.9314   -29.5608   219.6262     5.3178     4.8744     6.7667
  607.0000   120.3056   -29.3764   216.8276     5.2676     4.8690     6.7697
  607.5000   115.2553   -29.2974   213.2366     5.4055     5.1137     6.8075
  608.0000   113.4107   -29.2959   209.6417     5.5436     5.3569     6.8363
  608.5000   132.0504   -29.2959   203.9406     5.6838     5.5991     6.8338
  609.0000   125.8964   -29.2961   196.7706     5.9436     5.8411     6.8319
  609.5000   128.3183   -29.2961   186.9692     6.3934     6.0832     6.8300
  610.0000   112.3103   -29.2961   177.2350     6.6951     6.3255     6.8281
  610.5000   116.5332   -29.2961   167.5007     6.7818     6.5679     6.8263
  611.0000   112.4710   -29.2961   157.7664     6.8704     6.8004     6.8244
  611.5000   109.2607   -29.2961   151.9972     6.9468     6.9103     6.8225
