~VERSION INFORMATION
 VERS.                2.0:   CWLS LOG ASCII STANDARD - VERSION 2.0
 WRAP.                 NO:   ONE LINE PER DEPTH STEP
~WELL INFORMATION
#MNEM.UNIT      DATA TYPE    INFORMATION
#----------   ------------   ------------------------------
 STRT.F           90.0000:   START DEPTH
 STOP.F          928.0000:   STOP DEPTH
 STEP.F            0.5000:   STEP LENGTH
 NULL.          -999.2500:   NO VALUE
 COMP.  UNITED STATE NAVY:   COMPANY
 WELL.      NPR 3 #58-S-2:   WELL
 FLD .             TEAPOT:   FIELD
 LOC .       S2 T38N R78W:   LOCATION
 CNTY.            NATRONA:   COUNTY
 STAT.            WYOMING:   STATE
 CTRY. UNITED STATES OF AMERICA:   COUNTRY
 SRVC.       Schlumberger:   SERVICE COMPANY
 DATE.        26-JUN-1962:   LOGDATE
 API .       490250639500:   API NUMBER
~CURVE INFORMATION
#MNEM.UNIT       API CODE    CURVE DESCRIPTION
#----------   ------------   ------------------------------
 DEPT.F                  :   
 ASN .OHMM   05 041 16 00:   AMPLIFIED SHORT NORMAL 16"
 ILD .OHMM   05 120 46 00:   INDUCTION LOG DEEP
 CILD.MMHO   05 110 46 00:   CONDUCTIVITY INDUCTION LOG DEEP
 SPR .MV     05 010 01 00:   SPONTANEOUS POTENTIAL FROM RES.
 GR  .GAPI   30 310 01 00:   GAMMA RAY
~PARAMETER INFORMATION
#MNEM.UNIT          VALUE    DESCRIPTION
#----------   ------------   ------------------------------
 PD  .                 KB:   PERMANENT DATUM
 EKB .F              5189:   KELLING BUSHING
 EGL .F              5184:   GROUND LEVEL
 DATE.        26-JUN-1962:   RUN DATE
 RUN .                  1:   RUN NUMBER
 DD  .F               925:   DEPTH DRILLER
 DL  .F               929:   DEPTH LOGGER
 BLI .F               928:   BOTTOM LOG INTERVAL
 TLI .F                90:   TOP LOG INTERVAL
 BS  .IN             6.75:   BIT SIZE
 BSD .F               925:   BIT SIZE AT DEPTH
 DFT .       OIL EMULSION:   DRILLING FLUID TYPE
 DFD .                 10:   DRILLING FLUID DENSITY
 DFV .                 50:   DRILLING FLUID VISCOSITY
 DFL .                3.7:   DRILLING FLUID LOSS
 RMS .OHMM            4.7:   RESISTIVITY MUD SAMPLE
 MST .F                83:   MUD SAMPLE TEMPERATURE
 RMF .OHMM            3.8:   RESISTIVITY MUD FILTRATE SAMPLE
 MFST.F                83:   MUD FILTRATE SAMPLE TEMPERATURE
 RMC .OHMM            4.4:   RESISTIVITY MUD CAKE
 MCST.F                83:   MUD CAKE SAMPLE TEMPERATURE
 TCS .HRS               1:   TIME CURCULATED STOPPED
 LUN .               2503:   LOGGING UNIT NUMBER
 LUL .               CSPR:   LOGGING UNIT LOCATION
 ENGI.             DANNER:   RECORDING ENGINEER
 WITN.          JORGENSEN:   WITNESSED BY
 CLNT.            A2DTECH:   CLIENT CODE
 ORIG.      2" & 5" PRINT:   ORIGIN OF DATA
 UWI .       490250639500:   UNIQUE WELL ID
 DICO. A2D Technologies, Inc.:   DIGITIZING COMPANY
~OTHER INFORMATION
~A   DEPT        ASN        ILD      CILD       SPR         GR   
# ...
  822.0000    15.1241    13.5921    70.4332   -57.3488    37.7237
  822.5000    14.9779    13.4444    71.1625   -57.9413    31.6346
  823.0000    14.8310    13.3717    71.8975   -58.5323    30.6546
  823.5000    14.6833    13.2990    73.3731   -56.7338    38.3270
  824.0000    14.4621    13.1513    74.8543   -55.9816    28.9689
  824.5000    14.3152    12.9916    75.5893   -56.2741    25.8515
  825.0000    14.1675    12.7810    75.5611   -56.5682    31.0551
  825.5000    14.0206    12.7083    75.5386   -55.5159    28.5321
  826.0000    13.8744    12.6356    76.2679   -54.7637    26.6034
  826.5000    13.7268    12.5497    77.0029   -55.2055    37.4095
  827.0000    13.5806    12.4018    79.2303   -55.7965    30.3241
  827.5000    13.4329    12.1176    79.9653   -56.5368    31.5700
  828.0000    13.2118    12.1199    80.6947   -57.1279    23.9407
  828.5000    13.0648    12.1222    80.6665   -57.4219    22.4578
  829.0000    13.0678    12.1244    80.6440   -57.8637    30.1874
  829.5000    13.1458    12.1267    80.6214   -57.7070    33.0135
  830.0000    13.1488    12.2043    80.5989   -56.8055    32.4221
  830.5000    13.1518    12.2816    80.5763   -57.0980    33.9110
  831.0000    13.2297    12.2838    80.5538   -57.5398    39.1138
  831.5000    13.2327    12.3610    79.7794   -57.8338    37.3337
  832.0000    13.2357    12.3633    79.7569   -57.8264    40.3092
  832.5000    13.2387    12.4405    78.9824   -57.3726    35.8545
  833.0000    13.1660    12.4427    78.9599   -57.0682    29.1710
  833.5000    13.0948    12.3694    79.6949   -56.7637    27.5395
  834.0000    13.0228    12.2218    81.9223   -56.4592    26.3531
  834.5000    12.8751    11.9997    82.6573   -56.0055    40.1755
  835.0000    12.7290    11.8514    82.6291   -55.5517    39.8813
  835.5000    12.5813    11.8543    83.3641   -55.3965    32.3063
  836.0000    12.5093    11.7810    84.8397   -55.0920    25.6228
  836.5000    12.3624    11.6339    85.5747   -54.7876    24.4370
  837.0000    12.2155    11.5606    86.3040   -54.6323    18.0507
  837.5000    11.9936    11.4135    87.7796   -54.3279     9.7327
  838.0000    11.7724    11.2658    88.5146   -54.0234    13.1532
  838.5000    11.6247    11.1931    90.7421   -53.7189    20.5856
  839.0000    11.4786    11.1198    91.4770   -53.5652    18.9541
  839.5000    11.4059    10.9727    92.2007   -54.0070    18.6592
  840.0000    11.3339    10.9749    92.1782   -54.2980    19.4058
  840.5000    11.2619    10.9016    92.1557   -54.1428    30.8501
  841.0000    11.2657    10.9045    92.8850   -52.9428    35.3108
  841.5000    11.1929    10.9067    92.8625   -52.3398    33.5307
  842.0000    11.1967    10.9089    93.5918   -51.7368    28.7781
  842.5000    11.2746    10.9862    93.5693   -51.5816    30.4155
  843.0000    11.2776    10.9884    93.5467   -51.4264    26.8531
  843.5000    11.2806    10.9907    94.2761   -51.2711    34.5827
  844.0000    11.2079    10.9929    93.5017   -51.2652    40.3806
  844.5000    11.2117    10.9951    93.4791   -51.2592    40.9772
  845.0000    11.2144    10.9974    93.4566   -51.2532    33.2536
  845.5000    11.2174    10.9247    93.4340   -51.0980    34.1488
  846.0000    11.1454    11.0019    93.4115   -50.9428    40.3925
  846.5000    11.0735    11.0041    94.1465   -50.9368    42.3271
  847.0000    11.0765    10.9314    94.1183   -51.2294    45.5983
  847.5000    11.0795    10.8581    94.8533   -51.5234    31.7833
  848.0000    11.0075    10.7854    96.3289   -51.6667    30.0025
  848.5000    10.9355    10.7127    97.0582   -51.6592    33.5723
  849.0000    10.8636    10.7155    97.0357   -52.2517    29.1176
  849.5000    10.7166    10.5678    98.5169   -51.4980    27.9319
  850.0000    10.5697    10.4869    98.8315   -50.6725    32.9866
  850.5000    10.5252    10.3948   100.8210   -50.2909    39.3759
  851.0000    10.4807    10.3027   102.1826   -50.2833    29.7177
  851.5000    10.4362    10.2789   102.1429   -50.5742    28.9747
  852.0000    10.3438    10.2063   101.3534   -50.8670    33.8782
  852.5000    10.2061    10.1344   101.3158   -51.1561    32.9866
  853.0000    10.2084    10.1382   101.2782   -51.4489    30.0149
  853.5000    10.2107    10.0663   101.2402   -51.5905    30.7578
  854.0000    10.2129     9.9943   101.2021   -49.6407    24.3685
  854.5000    10.2152     9.9974   101.1640   -47.9913    21.6939
  855.0000    10.2175    10.0004   101.1259   -47.8345    27.4889
  855.5000    10.2947    10.0784   101.0878   -47.9780    30.1634
  856.0000    10.2970    10.1564   100.2978   -48.1197    42.4963
  856.5000    10.3742    10.3094   100.2597   -48.1119    47.9941
  857.0000    10.3765    10.4618    98.7179   -48.2538    40.8618
  857.5000    10.4538    10.5397    97.9279   -48.3954    41.1590
  858.0000    10.5310    10.6177    98.6417   -48.5373    41.4562
  858.5000    10.5333    10.6956    98.6036   -48.5295    35.9584
  859.0000    10.6105    10.6987    99.3269   -48.5219    32.5409
  859.5000    10.7627    10.6266   100.0406   -48.3650    32.3923
  860.0000    10.7650    10.5547   100.7544   -48.0589    28.5290
  860.5000    10.5424    10.4827   101.4682   -49.0961    26.4487
  861.0000    10.3198    10.4102   101.4286   -49.9841    29.2719
  861.5000    10.2465    10.2641   102.8958   -50.1276    37.7415
  862.0000    10.2389    10.1914   102.8577   -49.6703    39.0788
  862.5000    10.1761    10.1195   104.3233   -49.6628    43.0906
  863.0000    10.1784    10.0476   105.0376   -49.6568    40.5646
  863.5000    10.1057    10.0514   105.7519   -49.0358    38.1872
  864.0000    10.0330     9.9795   105.7128   -48.2985    30.9064
  864.5000     9.9603     9.9825   106.4361   -48.1417    38.1872
  865.0000     9.9626     9.9855   107.1403   -47.9849    40.1189
  865.5000     9.9649     9.9886   107.1022   -48.1265    35.9584
  866.0000     9.9672     9.9159   107.0641   -48.4194    27.3403
  866.5000     9.9694     9.9190   107.0260   -48.8595    28.5290
  867.0000    10.0467     9.8470   106.9879   -49.2978    35.3640
  867.5000    10.1239     9.8501   106.9498   -49.5887    37.1471
  868.0000    10.2012     9.8531   106.1598   -49.5811    28.0832
  868.5000    10.2784     9.9311   105.3698   -49.5735    27.4889
  869.0000    10.5056    10.0091   104.5799   -50.0137    27.9346
  869.5000    10.6578    10.1621   103.7899   -50.6031    27.6374
  870.0000    10.9599    10.2401   102.1053   -50.2386    25.2600
  870.5000    11.2620    10.3930    99.2105   -48.9284    16.3447
  871.0000    11.7141    10.9208    95.3436   -47.7463    12.1842
  871.5000    12.0295    11.5985    92.3076   -47.5895    16.0475
  872.0000    12.5627    12.1263    85.5638   -48.3282    20.0594
  872.5000    13.6946    12.6541    79.5107   -49.4105    15.4532
  873.0000    14.9510    13.4817    71.9537   -50.8497    13.8187
  873.5000    16.1477    14.4593    67.4044   -51.8869    13.0758
  874.0000    17.5743    15.6617    62.8550   -53.9688    17.0877
  874.5000    17.9513    16.5643    59.0575   -57.6926    15.8990
  875.0000    18.1035    17.0415    56.0119   -59.7263    15.1560
  875.5000    18.3307    17.4025    53.7181   -61.9161    25.5572
  876.0000    20.4319    17.5472    52.9281   -62.1493    27.0431
  876.5000    20.9590    17.4753    52.8900   -61.0969    30.4606
  877.0000    20.2866    17.2534    52.8519   -60.1938    34.3239
  877.5000    20.1383    16.8816    53.5752   -60.1862    35.9584
  878.0000    19.9913    16.5847    56.5351   -61.6712    26.1516
  878.5000    19.3938    16.2131    58.0103   -59.4248    31.5007
  879.0000    18.8714    15.9912    58.7241   -57.7754    34.4725
  879.5000    18.5738    15.6944    58.6842   -59.1111    28.9747
  880.0000    18.7260    15.4726    58.7469   -60.2975    22.8826
  880.5000    18.7283    15.2500    59.4208   -60.1406    17.0877
  881.0000    18.5806    15.1780    60.8473   -60.5808    14.5617
  881.5000    18.4188    15.0319    62.2933   -60.8736    12.4814
  882.0000    18.0401    14.7351    63.7594   -60.6331    18.5736
  882.5000    17.5312    14.3633    66.7281   -57.9531    16.6419
