~VERSION INFORMATION
 VERS.                2.0:   CWLS LOG ASCII STANDARD - VERSION 2.0
 WRAP.                 NO:   ONE LINE PER DEPTH STEP
~WELL INFORMATION
#MNEM.UNIT      DATA TYPE    INFORMATION
#----------   ------------   ------------------------------
 STRT.F           20.0000:   START DEPTH
 STOP.F          672.0000:   STOP DEPTH
 STEP.F            0.5000:   STEP LENGTH
 NULL.          -999.2500:   NO VALUE
 COMP.              FENIX:   COMPANY
 WELL.    NPR ##3 23-S-11:   WELL
 FLD .        TEAPOT DOME:   FIELD
 LOC .      S11 T38N R78W:   LOCATION
 CNTY.            NATRONA:   COUNTY
 STAT.            WYOMING:   STATE
 CTRY. UNITED STATES OF AMERICA:   COUNTRY
 SRVC.           BIRDWELL:   SERVICE COMPANY
 DATE.        05-FEB-1978:   LOGDATE
 API .       490251057300:   API NUMBER
~CURVE INFORMATION
#MNEM.UNIT       API CODE    CURVE DESCRIPTION
#----------   ------------   ------------------------------
 DEPT.F                  :   
 ILD .OHMM   05 120 46 00:   INDUCTION LOG DEEP
 SN  .OHMM   05 040 16 00:   SHORT NORMAL 16"
 SPR .MV     05 010 01 00:   SPONTANEOUS POTENTIAL FROM RES.
 CALD.IN     45 280 60 00:   CALIPER FROM DENSITY LOG
 CORR.G/C3   45 356 01 00:   DENSITY CORRECTION
 DPHI.DEC    45 890 10 00:   DENSITY POROSITY LIMESTONE
 GRD .GAPI   45 310 01 00:   GAMMA RAY FROM DENSITY LOG
 RHOB.G/C3   45 350 01 00:   BULK DENSITY
~PARAMETER INFORMATION
#MNEM.UNIT          VALUE    DESCRIPTION
#----------   ------------   ------------------------------
 PD  .                 GL:   PERMANENT DATUM
 EPD .F              5175:   ELEVATION PERMANENT DATUM
 LMF .                 KB:   LOG MEASURED FROM
 DMF .                 KB:   DRILLING MEASURED FROM
 EKB .F              5178:   KELLING BUSHING
 EGL .F              5175:   GROUND LEVEL
 DATE.        05-FEB-1978:   RUN DATE
 RUN .                  1:   RUN NUMBER
 DD  .F               670:   DEPTH DRILLER
 DL  .F               675:   DEPTH LOGGER
 BLI .F               670:   BOTTOM LOG INTERVAL
 TLI .F                40:   TOP LOG INTERVAL
 CS  .IN            8.625:   CASING SIZE
 CBD .F                39:   CASING BOTTOM DRILLER
 CBL .F                40:   CASING BOTTOM LOGGER
 BS  .IN            7.875:   BIT SIZE
 BSD .F               670:   BIT SIZE AT DEPTH
 DFT .                KCL:   DRILLING FLUID TYPE
 DFD .                8.4:   DRILLING FLUID DENSITY
 DFV .                 32:   DRILLING FLUID VISCOSITY
 DFPH.                  8:   DRILLING FLUID PH
 DFL .                8.8:   DRILLING FLUID LOSS
 MSS .           FLOWLINE:   MUD SAMPLE SOURCE
 RMS .OHMM           0.58:   RESISTIVITY MUD SAMPLE
 MST .F                62:   MUD SAMPLE TEMPERATURE
 RMF .OHMM           0.58:   RESISTIVITY MUD FILTRATE SAMPLE
 MFST.F                62:   MUD FILTRATE SAMPLE TEMPERATURE
 RMC .OHMM            0.9:   RESISTIVITY MUD CAKE
 MCST.F                66:   MUD CAKE SAMPLE TEMPERATURE
 MFSS.               MEAS:   MUD FILTRATE SAMPLE SOURCE
 RMB .OHMM           0.55:   RESISTIVITY MUD AT BHT
 BHT .F                72:   BOTTOM HOLE TEMPERATURE
 TCS .HRS               1:   TIME CURCULATED STOPPED
 MRT .F                72:   MAXIMUM RECORDED TEMPERATURE
 LUN .               2958:   LOGGING UNIT NUMBER
 LUL .               CASP:   LOGGING UNIT LOCATION
 ENGI.            POINTER:   RECORDING ENGINEER
 WITN.         HARRINGTON:   WITNESSED BY
 CLNT.            A2DTECH:   CLIENT CODE
 ORIG.           5" PRINT:   ORIGIN OF DATA
 UWI .       490251057300:   UNIQUE WELL ID
 DICO. A2D Technologies, Inc.:   DIGITIZING COMPANY
~OTHER INFORMATION
~A   DEPT      ILD         SN        SPR       CALD       CORR       DPHI         GRD      RHOB   
# ...
  263.0000     8.2443     7.6480   -53.0549     7.9361     0.0191     0.1098    85.0433     2.4666
  263.5000     8.4155     7.7013   -53.0610     7.9355     0.0214     0.1065    85.3421     2.4688
  264.0000     8.5314     7.8089   -53.0671     7.9348     0.0237     0.1071    85.3543     2.4688
  264.5000     8.6492     7.8089   -53.0732     7.9495     0.0304     0.1096    84.5889     2.4673
  265.0000     8.7077     7.8089   -53.0200     7.9488     0.0454     0.1060    85.4870     2.4696
  265.5000     8.7055     7.8089   -52.9329     7.9331     0.0446     0.1011    86.2353     2.4765
  266.0000     8.7013     7.8089   -53.0271     7.9324     0.0439     0.0987    86.2338     2.4778
  266.5000     8.5224     7.8089   -53.0976     7.9319     0.0439     0.1078    85.2909     2.4703
  267.0000     8.4618     7.7886   -53.1037     7.9313     0.0454     0.1084    84.4316     2.4636
  267.5000     8.4601     7.7549   -53.1098     7.9307     0.0461     0.1072    84.4302     2.4681
  268.0000     8.3999     7.7549   -53.2695     7.9300     0.0469     0.1066    84.7286     2.4703
  268.5000     8.4567     7.7013   -53.2754     7.9295     0.0476     0.1072    84.8961     2.4696
  269.0000     8.4550     7.6480   -53.2813     7.9440     0.0461     0.1051    85.0256     2.4673
  269.5000     8.5121     7.5951   -53.2873     7.9433     0.0349     0.1033    85.3241     2.4748
  270.0000     8.4515     7.5951   -53.2932     7.9579     0.0165     0.1009    85.3223     2.4688
  270.5000     8.2754     7.5951   -53.2991     7.9572     0.0094     0.1096    85.2869     2.4621
  271.0000     8.1598     7.5951   -53.3050     7.9566     0.0109     0.1078    84.4196     2.4576
  271.5000     8.0458     7.6195   -53.3110     7.9559     0.0101     0.1066    84.7180     2.4606
  272.0000     7.9334     7.6480   -53.3171     7.9554     0.0062     0.1087    85.6161     2.4703
  272.5000     7.8769     7.6480   -53.3232     7.9397     0.0056     0.1108    87.1590     2.4756
  273.0000     7.8209     7.6480   -53.3302     7.9390     0.0094     0.1114    89.0612     2.4733
  273.5000     7.8193     7.6480   -53.3361     7.9537     0.0116     0.1114    89.2101     2.4658
  274.0000     7.8177     7.6480   -53.3415     7.9530     0.0124     0.1102    88.9085     2.4636
  274.5000     7.8161     7.6480   -53.3476     7.9675     0.0109     0.1093    87.9815     2.4643
  275.0000     7.8142     7.6480   -53.3539     7.9820     0.0071     0.1087    86.2067     2.4643
  275.5000     7.8127     7.5951   -53.3598     7.9813     0.0079     0.1066    84.8559     2.4643
  276.0000     7.8867     7.5951   -53.3659     7.9958     0.0154     0.1012    83.8050     2.4659
  276.5000     7.9740     7.5951   -53.3720     8.0101     0.0161     0.0994    83.3538     2.4696
  277.0000     8.0276     7.5951   -53.3791     8.0096     0.0139     0.0994    83.9518     2.4741
  277.5000     8.0818     7.6480   -53.5374     8.0090     0.0116     0.0991    84.4005     2.4771
  278.0000     8.1931     7.6480   -53.5427     8.0084     0.0124     0.1048    84.5487     2.4748
  278.5000     8.2484     7.6789   -53.5488     8.0077     0.0131     0.1057    85.0060     2.4703
  279.0000     8.3042     7.7013   -53.5552     8.0072     0.0146     0.1054    84.9953     2.4681
  279.5000     8.2447     7.8089   -53.5610     8.0066     0.0139     0.1048    84.0943     2.4688
  280.0000     8.1861     7.8162   -53.4146     8.0060     0.0109     0.1042    81.5442     2.4696
  280.5000     8.1844     7.9253   -53.4207     8.0053     0.0071     0.1049    81.7066     2.4703
  281.0000     8.2477     8.0287   -53.4280     8.0048     0.0049     0.1075    83.4900     2.4696
  281.5000     8.4108     8.0847   -53.4339     7.9892     0.0056     0.1085    85.1378     2.4673
  282.0000     8.4092     8.1157   -53.4390     7.9734     0.0109     0.1094    86.4857     2.4620
  282.5000     8.4664     8.1410   -53.4457     7.9728     0.0161     0.1093    84.8251     2.4568
  283.0000     8.5233     8.1410   -53.4512     7.9723     0.0184     0.1082    84.2336     2.4598
  283.5000     8.5812     8.1410   -53.3951     7.9717     0.0191     0.1067    84.0823     2.4748
  284.0000     8.5790     8.1079   -53.3110     7.9862     0.0161     0.1007    84.3807     2.4823
  284.5000     8.5773     8.0847   -53.3171     7.9855     0.0146     0.0983    84.3793     2.4771
  285.0000     8.5159     8.0287   -53.3232     7.9849     0.0139     0.1067    84.8277     2.4703
  285.5000     8.5142     8.0287   -53.3293     7.9842     0.0161     0.1049    85.5755     2.4666
  286.0000     8.5125     8.0287   -53.3363     7.9837     0.0191     0.1055    88.5726     2.4643
  286.5000     8.5109     8.0847   -53.3422     7.9982     0.0266     0.1067    89.1709     2.4598
  287.0000     8.5683     8.1026   -53.3476     7.9976     0.0289     0.1052    87.3701     2.4673
  287.5000     8.5665     8.1977   -53.3537     7.9969     0.0289     0.0971    80.6220     2.4748
  288.0000     8.6244     8.2548   -53.3598     7.9963     0.0281     0.0995    79.4216     2.4801
  288.5000     8.6223     8.3323   -53.3659     7.9958     0.0259     0.0998    82.2684     2.4832
  289.0000     8.6809     8.4871   -53.3720     7.9951     0.0244     0.1002    86.4645     2.4838
  289.5000     8.8000     8.6058   -53.3792     7.9945     0.0225     0.1034    89.1621     2.4823
  290.0000     8.8599     8.7261   -53.3851     7.9939     0.0199     0.1073    83.4632     2.4786
  290.5000     8.9424     8.8481   -53.2371     7.9934     0.0191     0.1055    81.3628     2.4732
  291.0000     9.1050     9.0342   -53.0921     8.0228     0.0184     0.1068    80.7613     2.4703
  291.5000     9.1672     9.2965   -52.9441     8.0222     0.0176     0.1085    80.7599     2.4703
  292.0000     9.3574     9.5500   -52.7976     8.0217     0.0154     0.1091    80.4587     2.4703
  292.5000     9.6182     9.7510   -52.5000     8.0060     0.0139     0.1085    79.4078     2.4673
  293.0000     9.6837     9.8873   -52.3536     7.9903     0.0131     0.1079    78.3565     2.4658
  293.5000     9.8853    10.0255   -52.2073     8.0049     0.0120     0.1064    77.3057     2.4673
  294.0000     9.9521    10.0255   -51.9096     8.0042     0.0109     0.1043    76.8545     2.4703
  294.5000    10.0189    10.1656   -51.7631     8.0035     0.0109     0.1040    77.6027     2.4733
  295.0000    10.1567    10.3077   -51.7690     7.9879     0.0124     0.1043    77.7512     2.4726
  295.5000    10.3041    10.4637   -51.7750     8.0025     0.0155     0.1073    77.7494     2.4688
  296.0000    10.4468    10.6196   -51.7809     8.0018     0.0251     0.1070    77.7480     2.4658
  296.5000    10.7291    10.8963   -51.6341     8.0163     0.0274     0.1055    77.5967     2.4651
  297.0000    10.9525    11.1255   -51.6403     8.0156     0.0251     0.1028    78.1946     2.4673
  297.5000    11.1033    11.2565   -51.6463     8.0301     0.0198     0.1025    79.5425     2.4703
  298.0000    11.2870    11.5184   -51.5000     8.0143     0.0071     0.1074    80.1412     2.4718
  298.5000    11.3809    11.5986   -51.5071     8.0138     0.0041     0.1086    76.2414     2.4688
  299.0000    11.5681    11.6420   -51.5130     8.0132     0.0079     0.1095    72.0417     2.4643
  299.5000    11.6456    11.7607   -51.5190     8.0277     0.0125     0.1091    71.7408     2.4658
  300.0000    11.5746    11.7477   -51.5467     8.0270     0.0176     0.1068    72.7885     2.4696
  300.5000    11.3579    11.5861   -51.6903     8.0265     0.0168     0.1019    74.1363     2.4786
  301.0000    11.1412    11.4335   -51.8485     8.0259     0.0146     0.0969    74.4351     2.4778
  301.5000    10.7756    11.3521   -51.8574     8.0252     0.0130     0.0993    72.4518     2.4725
  302.0000    10.4686    11.2713   -51.8662     8.0246     0.0145     0.1029    71.5830     2.4635
  302.5000    10.1897    11.1675   -51.8751     7.9765     0.0175     0.1038    71.5816     2.4650
  303.0000    10.1866    11.1115   -51.8841     7.9755     0.0167     0.1063    71.5802     2.4665
