~VERSION INFORMATION
 VERS.                2.0:   CWLS LOG ASCII STANDARD - VERSION 2.0
 WRAP.                 NO:   ONE LINE PER DEPTH STEP
~WELL INFORMATION
#MNEM.UNIT      DATA TYPE    INFORMATION
#----------   ------------   ------------------------------
 STRT.F           38.0000:   START DEPTH
 STOP.F         1202.0000:   STOP DEPTH
 STEP.F            0.5000:   STEP LENGTH
 NULL.          -999.2500:   NO VALUE
 COMP.       INTEX OIL CO:   COMPANY
 WELL.     72 S 14 #72-14:   WELL
 FLD .            WILDCAT:   FIELD
 LOC .      S14 T38N R78W:   LOCATION
 CNTY.            NATRONA:   COUNTY
 STAT.            WYOMING:   STATE
 CTRY. UNITED STATES OF AMERICA:   COUNTRY
 SRVC.       Schlumberger:   SERVICE COMPANY
 DATE.        26-AUG-1966:   LOGDATE
 API .       490250970800:   API NUMBER
~CURVE INFORMATION
#MNEM.UNIT       API CODE    CURVE DESCRIPTION
#----------   ------------   ------------------------------
 DEPT.F                  :   
 SPR .MV     05 010 01 00:   SPONTANEOUS POTENTIAL FROM RES.
 ASN .OHMM   05 041 16 00:   AMPLIFIED SHORT NORMAL 16"
 ILD .OHMM   05 120 46 00:   INDUCTION LOG DEEP
 CILD.MMHO   05 110 46 00:   CONDUCTIVITY INDUCTION LOG DEEP
 CORR.G/C3   45 356 01 00:   DENSITY CORRECTION
 GRD .GAPI   45 310 01 00:   GAMMA RAY FROM DENSITY LOG
 CALD.IN     45 280 60 00:   CALIPER FROM DENSITY LOG
 DPHI.DEC    45 890 12 00:   DENSITY POROSITY SANDSTONE
 RHOB.G/C3   45 350 01 00:   BULK DENSITY
~PARAMETER INFORMATION
#MNEM.UNIT          VALUE    DESCRIPTION
#----------   ------------   ------------------------------
 PD  .                 GL:   PERMANENT DATUM
 EPD .F              5265:   ELEVATION PERMANENT DATUM
 LMF .                 KB:   LOG MEASURED FROM
 DAPD.F                 5:   FEET ABOVE PERMANENT DATUM
 DMF .                 KB:   DRILLING MEASURED FROM
 EKB .F              5270:   KELLING BUSHING
 DATE.        26-AUG-1966:   RUN DATE
 RUN .                  1:   RUN NUMBER
 DD  .F              1201:   DEPTH DRILLER
 DL  .F              1203:   DEPTH LOGGER
 BLI .F              1202:   BOTTOM LOG INTERVAL
 TLI .F                46:   TOP LOG INTERVAL
 CS  .IN            8.625:   CASING SIZE
 BS  .IN             6.75:   BIT SIZE
 BSD .F              1201:   BIT SIZE AT DEPTH
 DFT .     CHEM- GEL- OIL:   DRILLING FLUID TYPE
 DFD .                9.4:   DRILLING FLUID DENSITY
 MRT .F                94:   MAXIMUM RECORDED TEMPERATURE
 LUN .               3527:   LOGGING UNIT NUMBER
 LUL .             CASPER:   LOGGING UNIT LOCATION
 ENGI.             KNOBEL:   RECORDING ENGINEER
 WITN.                MAY:   WITNESSED BY
 CLNT.            A2DTECH:   CLIENT CODE
 ORIG.       2", 5" PRINT:   ORIGIN OF DATA
 UWI .       490250970800:   UNIQUE WELL ID
 DICO. A2D Technologies, Inc.:   DIGITIZING COMPANY
~OTHER INFORMATION
~A   DEPT      SPR        ASN        ILD       CILD       CORR        GRD       CALD       DPHI       RHOB   
# ...
 1169.5000   -20.2112     5.6372     5.1802   231.5789     0.0507   118.1093     7.0152     0.1190     2.4520
 1170.0000   -20.0603     5.5172     4.9550   225.5639     0.0644   119.1651     7.0014     0.1215     2.4431
 1170.5000   -19.7587     5.4573     4.9550   219.5489     0.0679   113.6650     7.0029     0.1137     2.4521
 1171.0000   -19.3062     5.5172     5.1051   213.5338     0.0447   108.3132     7.0041     0.0913     2.4843
 1171.5000   -19.1554     5.9520     5.5556   204.5113     0.0350   102.9614     7.0053     0.0793     2.5240
 1172.0000   -19.7587     6.9565     6.1562   191.7293     0.0335    97.6096     7.0065     0.0868     2.5106
 1172.5000   -20.2112     7.9310     6.6817   170.6767     0.0369    97.3994     7.0076     0.0721     2.5203
 1173.0000   -20.5128     8.3958     7.2072   149.6241     0.0450    99.2426     7.0088     0.0652     2.5488
 1173.5000   -20.5128     8.6357     7.6577   133.8346     0.0545   102.1550     7.0100     0.0673     2.5466
 1174.0000   -20.3620     8.8606     7.9580   128.5714     0.0613   101.8393     7.0112     0.0709     2.5414
 1174.5000   -20.3620     9.0405     7.9580   126.3158     0.0478   101.2529     7.0124     0.0735     2.5340
 1175.0000   -20.2112     9.2054     8.0330   126.3158     0.0429   105.9245     7.0136     0.0816     2.5258
 1175.5000   -20.2112     9.3417     8.1081   129.3233     0.0462   110.8954     7.0147     0.0837     2.5221
 1176.0000   -20.2112     9.4781     8.1081   127.0677     0.0561   111.1322     7.0159     0.0624     2.5491
 1176.5000   -20.3620     9.6465     8.2583   124.0602     0.0463   110.2514     7.0171     0.0660     2.5402
 1177.0000   -20.5128     9.7985     8.3333   122.5564     0.0283   110.2647     7.0183     0.0744     2.5342
 1177.5000   -20.6637     9.9700     8.4084   121.0526     0.0275   110.0544     7.0195     0.0597     2.5545
 1178.0000   -20.9653    10.0592     8.5586   118.7970     0.0393   105.5968     7.0356     0.0660     2.5425
 1178.5000   -21.1161    10.1612     8.7087   117.2932     0.0472   100.9156     7.0367     0.0696     2.5448
 1179.0000   -21.2670    10.2699     8.8589   115.7895     0.0518   101.1525     7.0379     0.0567     2.5546
 1179.5000   -21.5686    10.4948     9.0090   114.2857     0.0516   101.1658     7.0391     0.0528     2.5681
 1180.0000   -21.5686    10.6447     9.1592   112.7820     0.0477   103.1910     7.0403     0.0626     2.5599
 1180.5000   -21.5686    10.9445     9.3093   111.2782     0.0413   103.8750     7.0415     0.0803     2.5450
 1181.0000   -21.5686    11.2444     9.4595   110.4166     0.0277   103.8883     7.0427     0.0827     2.5226
 1181.5000   -21.5686    11.3943     9.4595   109.0226     0.0254   105.2429     7.0438     0.0758     2.5227
 1182.0000   -21.5686    11.6192     9.6096   107.5188     0.0352   103.9149     7.0450     0.0599     2.5477
 1182.5000   -21.5686    11.7715     9.6096   106.0150     0.0396   100.5750     7.0462     0.0572     2.5601
 1183.0000   -21.5686    11.8501     9.6096   104.5113     0.0333    94.1055     7.0474     0.0620     2.5549
 1183.5000   -21.5686    11.9940     9.6847   103.7594     0.0231    93.2213     7.0486     0.0742     2.5465
 1184.0000   -21.5686    12.0820     9.7598   102.2556     0.0210    94.5792     7.0498     0.0802     2.5274
 1184.5000   -21.4178    12.2189     9.7598   100.7519     0.0225    99.7341     7.0510     0.0778     2.5274
 1185.0000   -21.4178    12.2939     9.7598    99.2481     0.0296   100.1912     7.0537     0.0791     2.5245
 1185.5000   -21.4178    12.3688     9.7598    98.4962     0.0330    97.3017     7.0683     0.0875     2.5103
 1186.0000   -21.4178    12.4438     9.7598    97.7444     0.0259    94.4089     7.0844     0.0916     2.5051
 1186.5000   -21.4178    12.4438     9.7598    97.7444     0.0213    93.5280     7.0855     0.0921     2.5044
 1187.0000   -21.5686    12.5187     9.8348    98.4962     0.0188    92.6472     7.0870     0.0849     2.5104
 1187.5000   -21.5686    12.5187     9.8348    98.4962     0.0188    90.8721     7.0882     0.0768     2.5172
 1188.0000   -21.7195    12.5187     9.8348    98.4962     0.0196    78.1432     7.0893     0.0765     2.5285
 1188.5000   -21.7195    12.5187     9.7598    98.4962     0.0226     0.4471     7.0905     0.0813     2.5195
 1189.0000   -21.7195    12.5187     9.7598    98.4962     0.0316     0.4347     7.0917     0.0834     2.5173
 1189.5000   -21.7195    12.5187     9.7598    98.4962     0.0286  -999.2500     7.0929     0.0813     2.5196
 1190.0000   -21.7195    12.5187     9.6847    98.4962     0.0202  -999.2500     7.0789     0.0738     2.5287
 1190.5000   -21.7195    12.5187     9.6096    99.2481     0.0182  -999.2500     7.0651     0.0770     2.5317
 1191.0000   -21.7195    12.4438     9.6096    99.2481     0.0424  -999.2500     7.0666     0.0728     2.5347
 1191.5000   -21.5686    12.4438     9.5318   100.0000     0.0489  -999.2500     7.0678     0.0881     2.5258
 1192.0000   -21.5686    12.3688     9.4595   101.5038     0.0189  -999.2500     7.0690     0.1006     2.5101
 1192.5000   -21.5686    12.2939     9.3093   103.0075     0.0154  -999.2500     7.0702     0.1027     2.4997
 1193.0000   -21.4178    12.2189     9.1592   104.5113     0.0145  -999.2500     7.0562     0.0854     2.5117
 1193.5000   -21.4178    12.1439     9.0090   106.0150     0.0236  -999.2500     7.0576     0.0779     2.5230
 1194.0000   -21.4178    11.9940     8.9339   107.6589     0.0356  -999.2500     7.0588     0.0719     2.5298
 1194.5000   -21.4178    11.8441     8.8589   109.7744     0.0527  -999.2500     7.0448     0.0644     2.5463
 1195.0000   -21.2670    11.6192     8.7838   112.0301     0.0593  -999.2500     7.0016     0.0751     2.5321
 1195.5000   -21.1161    11.3943     8.7838   114.2857     0.0415  -999.2500     7.0028     0.0741     2.5314
 1196.0000   -20.8145    11.0945     8.7838   115.0376     0.0418  -999.2500     6.9443     0.0616     2.5501
 1196.5000   -20.6637    10.8696     8.7838   115.7895     0.0535  -999.2500     6.8859     0.0511     2.5749
 1197.0000   -20.5107    10.6447     8.8589   115.7895     0.0745  -999.2500     6.6933     0.0409     2.5854
 1197.5000   -20.3620    10.4948     8.8589   115.7895     0.0842  -999.2500     6.4859     0.0440     2.5855
 1198.0000   -20.3620    10.3448     8.8589   115.7895     0.0985  -999.2500     6.3529     0.0404     2.5802
 1198.5000   -20.3881    10.1199     8.8589   115.7895     0.1107  -999.2500     6.1753     0.0463     2.5758
 1199.0000   -20.5128    10.0278     8.8589   115.7895     0.1255  -999.2500     6.0721     0.0544     2.5743
 1199.5000   -20.6637     9.9250     8.8589   115.0376     0.1166  -999.2500     6.0435     0.0849     2.5617
 1200.0000   -20.6637     9.8651     8.9339   115.0376     0.1093  -999.2500     6.1043     0.0909     2.5206
 1200.5000   -20.8145     9.8351     9.0090   114.2857     0.1053  -999.2500     6.1353     0.0726     2.5379
 1201.0000   -20.8145     9.4453     9.0841   113.5338     0.1100  -999.2500     6.0760     0.0798     2.5401
 1201.5000   -20.8145     9.2354     8.9339   113.5338     0.1230  -999.2500     6.0483     0.1037     2.5021
 1202.0000   -20.8145     9.2354     8.8589   113.5338     0.1325  -999.2500     6.5628     0.1031     2.5054
