~VERSION INFORMATION
 VERS.                2.0:   CWLS LOG ASCII STANDARD - VERSION 2.0
 WRAP.                 NO:   ONE LINE PER DEPTH STEP
~WELL INFORMATION
#MNEM.UNIT      DATA TYPE    INFORMATION
#----------   ------------   ------------------------------
 STRT.F           80.0000:   START DEPTH
 STOP.F          679.5000:   STOP DEPTH
 STEP.F            0.5000:   STEP LENGTH
 NULL.          -999.2500:   NO VALUE
 COMP. U S NAVY/INTEX OIL CO:   COMPANY
 WELL.      NPR 3 #23-S-2:   WELL
 FLD .        TEAPOT DOME:   FIELD
 LOC .       S2 T38N R78W:   LOCATION
 CNTY.            NATRONA:   COUNTY
 STAT.            WYOMING:   STATE
 CTRY. UNITED STATES OF AMERICA:   COUNTRY
 SRVC.       Schlumberger:   SERVICE COMPANY
 DATE.        16-JUL-1962:   LOGDATE
 API .       490250645000:   API NUMBER
~CURVE INFORMATION
#MNEM.UNIT       API CODE    CURVE DESCRIPTION
#----------   ------------   ------------------------------
 DEPT.F                  :   
 GR  .GAPI   30 310 01 00:   GAMMA RAY
 SPR .MV     05 010 01 00:   SPONTANEOUS POTENTIAL FROM RES.
 ILD .OHMM   05 120 46 00:   INDUCTION LOG DEEP
 CILD.MMHO   05 110 46 00:   CONDUCTIVITY INDUCTION LOG DEEP
 ASN .OHMM   05 041 16 00:   AMPLIFIED SHORT NORMAL 16"
~PARAMETER INFORMATION
#MNEM.UNIT          VALUE    DESCRIPTION
#----------   ------------   ------------------------------
 PD  .                 GL:   PERMANENT DATUM
 EPD .F              5126:   ELEVATION PERMANENT DATUM
 LMF .                 KB:   LOG MEASURED FROM
 DAPD.F                 5:   FEET ABOVE PERMANENT DATUM
 DMF .                 KB:   DRILLING MEASURED FROM
 EKB .F              5131:   KELLING BUSHING
 EGL .F              5126:   GROUND LEVEL
 DATE.            7-17-62:   RUN DATE
 RUN .                  1:   RUN NUMBER
 DD  .F               680:   DEPTH DRILLER
 DL  .F               680:   DEPTH LOGGER
 BLI .F               679:   BOTTOM LOG INTERVAL
 TLI .F                87:   TOP LOG INTERVAL
 BS  .IN             6.75:   BIT SIZE
 BSD .F               680:   BIT SIZE AT DEPTH
 DFT .       OIL EMULSION:   DRILLING FLUID TYPE
 DFD .                 10:   DRILLING FLUID DENSITY
 DFV .                 41:   DRILLING FLUID VISCOSITY
 DFL .                2.9:   DRILLING FLUID LOSS
 RMS .OHMM           5.86:   RESISTIVITY MUD SAMPLE
 MST .F                73:   MUD SAMPLE TEMPERATURE
 RMF .OHMM           4.19:   RESISTIVITY MUD FILTRATE SAMPLE
 MFST.F                73:   MUD FILTRATE SAMPLE TEMPERATURE
 RMC .OHMM           5.66:   RESISTIVITY MUD CAKE
 MCST.F                73:   MUD CAKE SAMPLE TEMPERATURE
 TCS .HRS               1:   TIME CURCULATED STOPPED
 LUN .               2503:   LOGGING UNIT NUMBER
 LUL .               CSPR:   LOGGING UNIT LOCATION
 ENGI.             DANNER:   RECORDING ENGINEER
 WITN.          JORGENSON:   WITNESSED BY
 CLNT.            A2DTECH:   CLIENT CODE
 ORIG.       2", 5" PRINT:   ORIGIN OF DATA
 UWI .       490250645000:   UNIQUE WELL ID
 DICO. A2D Technologies, Inc.:   DIGITIZING COMPANY
~OTHER INFORMATION
~A   DEPT       GR        SPR          ILD      CILD         ASN 
# ...
  324.0000  -999.2500   -33.6294     8.2346   111.7092     8.9203
  324.5000  -999.2500   -34.1450     8.2759   110.9508     8.9256
  325.0000  -999.2500   -33.7667     8.3165   110.5000     8.9288
  325.5000  -999.2500   -33.3916     8.3412   110.6073     8.9207
  326.0000  -999.2500   -33.2775     8.2836   111.1761     8.9130
  326.5000  -999.2500   -33.3449     8.2274   111.7450     8.8791
  327.0000  -999.2500   -33.4201     8.1714   112.3139     8.8260
  327.5000  -999.2500   -33.2634     8.1153   112.8827     8.7811
  328.0000  -999.2500   -33.0391     8.0593   113.5000     8.7198
  328.5000  -999.2500   -32.8576     8.0033   115.2244     8.6573
  329.0000  -999.2500   -33.0257     7.9474   117.1094     8.5948
  329.5000  -999.2500   -33.2142     7.8911   118.9944     8.5296
  330.0000  -999.2500   -34.8097     7.8278   120.8794     8.4520
  330.5000  -999.2500   -36.6080     7.7387   122.7644     8.3753
  331.0000  -999.2500   -38.2586     7.6507   124.6494     8.2990
  331.5000  -999.2500   -38.5875     7.5626   126.5000     8.1971
  332.0000  -999.2500   -38.5324     7.4747   127.2723     8.0810
  332.5000  -999.2500   -38.2245     7.3862   128.0308     7.9648
  333.0000  -999.2500   -37.9178     7.3504   128.5000     7.8500
  333.5000  -999.2500   -37.5984     7.3499   128.5000     7.8574
  334.0000  -999.2500   -37.0179     7.3482   127.9866     7.8710
  334.5000  -999.2500   -36.4123     7.4031   126.5318     7.9629
  335.0000  -999.2500   -35.8066     7.4801   125.0770     8.0618
  335.5000  -999.2500   -35.1945     7.5845   123.6223     8.1624
  336.0000  -999.2500   -34.4806     7.6860   122.1675     8.2404
  336.5000  -999.2500   -33.7098     7.7875   120.7128     8.3131
  337.0000  -999.2500   -32.9434     7.8891   119.2580     8.3878
  337.5000  -999.2500   -32.5476     7.9902   117.8033     8.4311
  338.0000  -999.2500   -32.7279     8.0908   116.3485     8.4649
  338.5000  -999.2500   -33.1670     8.1496   114.8938     8.5114
  339.0000  -999.2500   -33.5795     8.1497   113.4390     8.6108
  339.5000  -999.2500   -33.9327     8.1501   111.9843     8.7098
  340.0000  -999.2500   -34.7495     8.1501   110.5000     8.8086
  340.5000  -999.2500   -35.6371     8.1500   111.1900     8.8759
  341.0000  -999.2500   -36.4822     8.1501   111.8943     8.8897
  341.5000  -999.2500   -36.0544     8.1501   112.5986     8.8672
  342.0000  -999.2500   -35.0156     8.1466   113.3029     8.8258
  342.5000  -999.2500   -33.9758     8.1201   114.0259     8.7844
  343.0000  -999.2500   -33.0404     8.0934   114.7563     8.7428
  343.5000  -999.2500   -33.0378     8.0667   115.4872     8.7013
  344.0000  -999.2500   -33.9967     8.0400   116.2189     8.6597
  344.5000  -999.2500   -34.7792     8.0134   116.9514     8.6182
  345.0000  -999.2500   -34.4845     7.9868   117.5048     8.5761
  345.5000  -999.2500   -34.2311     7.9597   117.5000     8.5951
  346.0000  -999.2500   -34.2255     7.9641   117.5000     8.6348
  346.5000  -999.2500   -34.2286     7.9862   117.5000     8.6296
  347.0000  -999.2500   -34.2165     8.0084   117.0200     8.5967
  347.5000  -999.2500   -33.7913     8.0310   115.7875     8.6047
  348.0000  -999.2500   -33.3333     8.0754   113.7808     8.6522
  348.5000  -999.2500   -33.3029     8.2355   111.5385     8.8542
  349.0000  -999.2500   -33.3880     8.3964   109.2962     9.0688
  349.5000  -999.2500   -33.4770     8.5570   107.0539     9.2849
  350.0000  -999.2500   -33.5705     8.7176   104.8116     9.4701
  350.5000  -999.2500   -33.7738     8.8781   102.5694     9.6597
  351.0000  -999.2500   -34.3256     9.0385   100.3271     9.7584
  351.5000  -999.2500   -34.8100     9.1979    98.0848     9.8632
  352.0000  -999.2500   -34.6936     9.3563    95.8425     9.9988
  352.5000  -999.2500   -34.3507     9.5948    93.6002    10.2923
  353.0000  -999.2500   -33.7327     9.8280    91.3579    10.4510
  353.5000  -999.2500   -33.6314    10.0602    89.1157    10.5456
  354.0000  -999.2500   -33.6291    10.2920    86.8734    11.0065
  354.5000  -999.2500   -33.6275    10.5250    84.6311    11.4425
  355.0000  -999.2500   -33.6406    10.7591    82.3888    11.5437
  355.5000  -999.2500   -34.0760    11.0140    80.1465    11.6219
  356.0000  -999.2500   -34.5360    11.2805    77.9043    12.0034
  356.5000  -999.2500   -35.0154    11.4460    76.5974    12.6368
  357.0000  -999.2500   -35.7340    11.4264    76.8579    12.5060
  357.5000  -999.2500   -36.4802    11.4096    77.1184    12.2622
  358.0000  -999.2500   -36.9241    11.3927    77.3790    12.1887
  358.5000  -999.2500   -36.5740    11.3750    77.5000    12.4204
  359.0000  -999.2500   -36.1207    11.3576    77.9147    12.3330
  359.5000  -999.2500   -35.5359    11.2573    79.2391    12.1771
  360.0000  -999.2500   -35.0777    11.0796    80.5642    12.0185
  360.5000  -999.2500   -34.7684    10.9018    81.8866    11.8598
  361.0000  -999.2500   -34.4628    10.7242    83.2067    11.6971
  361.5000  -999.2500   -34.2612    10.5477    84.5267    11.5789
  362.0000  -999.2500   -34.5690    10.4464    85.7167    11.4718
  362.5000  -999.2500   -35.2505    10.3306    86.5417    11.3660
  363.0000  -999.2500   -36.4636    10.2158    87.3667    11.2598
  363.5000  -999.2500   -37.7536    10.1504    88.1917    11.1533
  364.0000  -999.2500   -38.2922    10.1503    89.0167    11.0523
  364.5000  -999.2500   -37.4096    10.1499    89.1273    11.0493
  365.0000  -999.2500   -37.1480    10.1500    88.2273    11.0499
  365.5000  -999.2500   -38.2121    10.1500    87.5000    11.0500
  366.0000  -999.2500   -39.3121    10.1500    87.5000    11.0500
  366.5000  -999.2500   -39.4985    10.1500    87.5000    11.0501
  367.0000  -999.2500   -39.3472    10.1500    87.5000    11.0499
  367.5000  -999.2500   -38.3214    10.1500    87.5000    11.0498
  368.0000  -999.2500   -37.3338    10.1501    87.5000    11.0196
  368.5000  -999.2500   -37.1994    10.1498    87.5000    10.9649
  369.0000  -999.2500   -37.2010    10.1496    87.5000    10.9103
  369.5000  -999.2500   -37.2095    10.0957    88.0167    10.8509
  370.0000  -999.2500   -37.7451     9.9919    89.6667    10.6580
  370.5000  -999.2500   -38.9496     9.8880    91.3167    10.5175
  371.0000  -999.2500   -38.1546     9.7837    92.9667    10.4494
  371.5000  -999.2500   -37.0920     9.6795    94.5000    10.3815
  372.0000  -999.2500   -36.1055     9.5753    95.7720    10.3147
  372.5000  -999.2500   -35.5087     9.4711    96.9600    10.2468
  373.0000  -999.2500   -35.2754     9.3668    98.1480    10.1276
  373.5000  -999.2500   -35.3520     9.2626    99.3360    10.0136
  374.0000  -999.2500   -35.2120     9.1583   100.5000     9.8698
  374.5000  -999.2500   -34.4873     9.0533   101.2214     9.7691
  375.0000  -999.2500   -33.7905     8.9524   101.9286     9.6696
  375.5000  -999.2500   -33.5687     8.9230   102.6357     9.5709
  376.0000  -999.2500   -33.8337     8.8811   103.3429     9.4903
  376.5000  -999.2500   -34.0987     8.8383   104.0500     9.5014
  377.0000  -999.2500   -34.3674     8.7948   104.7571     9.4928
  377.5000  -999.2500   -34.6225     8.7515   105.5000     9.4301
  378.0000  -999.2500   -34.3500     8.7496   105.6621     9.3077
  378.5000  -999.2500   -33.9211     8.7499   105.8328     9.2284
  379.0000  -999.2500   -33.4915     8.7500   106.0034     9.1874
  379.5000  -999.2500   -33.2352     8.7500   106.1741     9.1465
  380.0000  -999.2500   -33.4154     8.7500   106.3448     9.1079
  380.5000  -999.2500   -34.6974     8.7500   106.5000     9.0864
  381.0000  -999.2500   -36.1681     8.7500   106.2000     9.0656
  381.5000  -999.2500   -36.4873     8.7500   105.9250     9.0553
  382.0000  -999.2500   -36.6092     8.7509   105.6500     9.0796
  382.5000  -999.2500   -36.6083     8.7065   105.7812     9.1031
  383.0000  -999.2500   -36.5301     8.6406   106.4000     9.1280
  383.5000  -999.2500   -35.8562     8.5766   108.8056     9.0946
  384.0000  -999.2500   -35.1795     8.3802   111.5000     9.0448
  384.5000  -999.2500   -34.0559     8.1108   115.8808     8.8091
