~VERSION INFORMATION
 VERS.                2.0:   CWLS LOG ASCII STANDARD - VERSION 2.0
 WRAP.                 NO:   ONE LINE PER DEPTH STEP
~WELL INFORMATION
#MNEM.UNIT      DATA TYPE    INFORMATION
#----------   ------------   ------------------------------
 STRT.F           30.0000:   START DEPTH
 STOP.F          570.0000:   STOP DEPTH
 STEP.F            0.5000:   STEP LENGTH
 NULL.          -999.2500:   NO VALUE
 COMP.    FENIX & SCISSON:   COMPANY
 WELL.  NPR #3 #13SX11-11:   WELL
 FLD .             TEAPOT:   FIELD
 LOC .      S11 T38N R78W:   LOCATION
 CNTY.            NATRONA:   COUNTY
 STAT.            WYOMING:   STATE
 CTRY. UNITED STATES OF AMERICA:   COUNTRY
 SRVC.       Schlumberger:   SERVICE COMPANY
 DATE.        27-FEB-1977:   LOGDATE
 API .       490251029400:   API NUMBER
~CURVE INFORMATION
#MNEM.UNIT       API CODE    CURVE DESCRIPTION
#----------   ------------   ------------------------------
 DEPT.F                  :   
 GRD .GAPI   45 310 01 00:   GAMMA RAY FROM DENSITY LOG
 CALD.IN     45 280 60 00:   CALIPER FROM DENSITY LOG
 CORR.G/C3   45 356 01 00:   DENSITY CORRECTION
 DPHI.DEC    45 890 12 00:   DENSITY POROSITY STANDSTONE
 RHOB.G/C3   45 350 01 00:   BULK DENSITY
 SPR .MV     07 010 01 00:   SPONTANEOUS POTENTIAL
 ILD .OHMM   07 120 46 00:   INDUCTION LOG DEEP
 ILM .OHMM   07 120 44 00:   INDUCTION LOG MEDIUM
 LL8 .OHMM   07 220 08 00:   LATEROLOG-8 RES.
~PARAMETER INFORMATION
#MNEM.UNIT          VALUE    DESCRIPTION
#----------   ------------   ------------------------------
 PD  .                 GL:   PERMANENT DATUM
 EPD .F              5180:   ELEVATION PERMANENT DATUM
 LMF .                 GL:   LOG MEASURED FROM
 DAPD.F                 0:   FEET ABOVE PERMANENT DATUM
 DMF .                 GL:   DRILLING MEASURED FROM
 EKB .F              5183:   KELLING BUSHING
 EGL .F              5180:   GROUND LEVEL
 DATE.        27-FEB-1977:   RUN DATE
 RUN .                  1:   RUN NUMBER
 DD  .F               585:   DEPTH DRILLER
 DL  .F               571:   DEPTH LOGGER
 BLI .F               570:   BOTTOM LOG INTERVAL
 TLI .F                44:   TOP LOG INTERVAL
 CS  .IN            8.625:   CASING SIZE
 CBD .F                40:   CASING BOTTOM DRILLER
 CBL .F                44:   CASING BOTTOM LOGGER
 BS  .IN            7.875:   BIT SIZE
 BSD .F               585:   BIT SIZE AT DEPTH
 DFT .                KCL:   DRILLING FLUID TYPE
 DFD .                8.7:   DRILLING FLUID DENSITY
 DFV .                 42:   DRILLING FLUID VISCOSITY
 DFPH.                  8:   DRILLING FLUID PH
 DFL .                9.2:   DRILLING FLUID LOSS
 MSS .                PIT:   MUD SAMPLE SOURCE
 RMS .OHMM           .806:   RESISTIVITY MUD SAMPLE
 MST .F                70:   MUD SAMPLE TEMPERATURE
 RMF .OHMM           .720:   RESISTIVITY MUD FILTRATE SAMPLE
 MFST.F                70:   MUD FILTRATE SAMPLE TEMPERATURE
 MFSS.               MEAS:   MUD FILTRATE SAMPLE SOURCE
 RMB .OHMM           .973:   RESISTIVITY MUD AT BHT
 BHT .F                58:   BOTTOM HOLE TEMPERATURE
 TCS .HRS            0230:   TIME CURCULATED STOPPED
 MRT .F                58:   MAXIMUM RECORDED TEMPERATURE
 LUN .               5642:   LOGGING UNIT NUMBER
 LUL .             CASPER:   LOGGING UNIT LOCATION
 ENGI.         JIM MARTIN:   RECORDING ENGINEER
 WITN.         STUEBINGER:   WITNESSED BY
 CLNT.            A2DTECH:   CLIENT CODE
 ORIG.           5" PRINT:   ORIGIN OF DATA
 UWI .       490251029400:   UNIQUE WELL ID
 DICO. A2D Technologies, Inc.:   DIGITIZING COMPANY
~OTHER INFORMATION
~A   DEPT      GRD       CALD       CORR       DPHI       RHOB        SPR        ILD        ILM        LL8   
# ...
  504.5000    84.9199     8.0505    -0.0024     0.1604     2.3849   -27.8360    12.2774    12.1765    12.6746
  505.0000    84.9773     8.0487    -0.0009     0.1573     2.3916   -27.5384    12.2725    12.1715    12.5843
  505.5000    87.0984     8.0469     0.0200     0.1476     2.4156   -27.3908    12.2833    12.2511    12.6703
  506.0000    87.7853     8.0451     0.0192     0.1379     2.4231   -27.2442    12.3482    12.3325    12.6672
  506.5000    86.9995     8.0433     0.0207     0.1330     2.4268   -27.5520    12.3420    12.4132    12.7530
  507.0000    86.8714     8.0415     0.0071     0.1399     2.4110   -27.5565    12.4241    12.5801    12.7505
  507.5000    86.2626     8.0397     0.0003     0.1469     2.3974   -27.4100    12.5910    12.6637    12.8375
  508.0000    84.5955     8.0380     0.0085     0.1494     2.4109   -26.9614    12.6746    12.7465    12.9246
  508.5000    85.9540     8.0362     0.0145     0.1412     2.4131   -26.2106    12.7563    12.9179    13.0122
  509.0000    88.3716     8.0344     0.0114     0.1459     2.4184   -26.0629    12.9290    13.0037    13.1003
  509.5000    90.4866     8.0326     0.0212     0.1361     2.4243   -26.3707    13.0149    13.1785    13.0971
  510.0000    90.3323     8.0308     0.0241     0.1376     2.4228   -26.9795    13.0987    13.3571    13.0946
  510.5000    89.7241     8.0298     0.0119     0.1406     2.4220   -27.2861    13.1858    13.3515    13.0013
  511.0000    89.2672     8.0144     0.0097     0.1415     2.4243   -27.2906    13.1793    13.2537    12.9087
  511.5000    88.9617     8.0141     0.0022     0.1409     2.4257   -27.2951    13.1740    13.0657    12.8168
  512.0000    88.6561     8.0138    -0.0016     0.1394     2.4295   -27.2997    13.0780    12.8804    12.5498
  512.5000    88.3505     8.0135     0.0141     0.1346     2.4324   -27.1520    12.9827    12.6977    12.4583
  513.0000    88.0449     8.0132     0.0073     0.1295     2.4346   -27.1577    12.7992    12.5176    12.2859
  513.5000    88.3445     8.0129     0.0102     0.1262     2.4391   -27.0104    12.7059    12.4259    12.1891
  514.0000    89.4004     8.0278     0.0019     0.1287     2.4338   -27.0156    12.6139    12.3349    12.0987
  514.5000    90.9103     8.0274     0.0116     0.1371     2.4256   -26.8691    12.6082    12.3298    12.0247
  515.0000    91.9663     7.9969    -0.0042     0.1372     2.4225   -26.8736    12.5163    12.2395    11.9391
  515.5000    92.2666     7.9514     0.0017     0.1299     2.4405   -26.7260    12.3394    12.1499    11.9367
  516.0000    91.3551     7.9662     0.0182     0.1209     2.4487   -26.7316    12.1650    11.9776    11.9344
  516.5000    90.8990     8.0111     0.0211     0.1209     2.4367   -26.7362    12.0763    11.9726    12.0153
  517.0000    93.0132     8.0260     0.0068     0.1245     2.4329   -26.7407    11.9883    11.9676    12.0129
  517.5000    96.7923     8.0105     0.0023     0.1181     2.4546   -26.5930    11.9835    11.8800    12.0105
  518.0000    99.9663     7.9197     0.0000     0.1151     2.4614   -26.2966    12.0632    11.8751    12.0082
  518.5000    99.6607     8.0099     0.0074     0.1168     2.4478   -26.1489    12.0572    11.7881    12.0058
  519.0000    98.1449     8.0700     0.0141     0.1234     2.4388   -26.1545    12.0524    11.7832    12.0035
  519.5000    96.9316     8.0998     0.0178     0.1218     2.4583   -26.1591    12.0476    11.6969    12.0011
  520.0000    95.7183     8.0844     0.0170     0.1143     2.4703   -26.1636    11.8774    11.6921    12.3590
  520.5000    94.5050     8.0691     0.0207     0.1095     2.4770   -26.1681    11.7095    11.6872    12.4411
  521.0000    93.2924     8.0688     0.0364     0.1059     2.4792   -26.1726    11.5440    11.6824    12.4346
  521.5000    96.4656     8.0685     0.0204     0.1174     2.4627   -26.1772    11.5394    11.5968    12.5173
  522.0000    97.6729     8.0531     0.0082     0.1322     2.4198   -26.1817    11.3763    11.5920    12.5108
  522.5000    95.7032     8.0528     0.0010     0.1361     2.4048   -26.3373    11.2155    11.5872    12.3333
  523.0000    92.6744     8.0525     0.0183     0.1259     2.4416   -26.3418    11.1337    11.5024    12.1584
  523.5000    91.3099     8.0371     0.0197     0.1250     2.4310   -26.3463    10.9763    11.3392    11.9859
  524.0000    92.9710     8.0217     0.0091     0.1373     2.3889   -26.3508    10.8963    11.2562    11.8159
  524.5000    94.7834     8.0214    -0.0052     0.1440     2.4009   -26.3554    10.8169    11.1737    11.5678
  525.0000    93.5701     7.8854     0.0030     0.1452     2.4287   -26.3599    10.6640    11.0152    11.6437
  525.5000    92.0542     7.7878     0.0022     0.1337     2.4249   -26.3644    10.6598    10.9336    11.7198
  526.0000    91.4468     7.9903     0.0066     0.1247     2.4204   -26.3689    10.6555    10.8524    11.7965
  526.5000    93.2585     8.1107     0.0133     0.1178     2.4429   -26.2213    10.7254    10.7750    11.5486
  527.0000    92.4990     8.1104     0.0200     0.1232     2.4473   -26.2269    10.7956    10.7705    11.1504
  527.5000    91.4378     8.0648     0.0230     0.1205     2.4548   -26.0804    10.8662    10.8410    10.7659
  528.0000    92.6443     8.0495     0.0214     0.1163     2.4570   -25.9327    10.8618    10.8364    10.8364
  528.5000    93.2464     8.0492     0.0079     0.1179     2.4457   -26.0894    10.8575    10.8319    10.9073
  529.0000    93.8485     8.0507     0.0041     0.1260     2.4284   -26.2450    10.8532    10.8194    10.9027
  529.5000    95.5097     8.0523     0.0115     0.1296     2.4404   -26.2496    10.6260    10.7481    10.8981
  530.0000    97.1708     8.0538     0.0100     0.1197     2.4479   -26.4051    10.4758    10.5956    10.8183
  530.5000    98.8319     8.0554     0.0062     0.1188     2.4374   -26.4097    10.2565    10.3626    10.7391
  531.0000   100.1905     8.0570     0.0114     0.1158     2.4576   -26.4142     9.9703    10.0043    10.5868
  531.5000   100.7927     8.0585     0.0083     0.1185     2.4591   -26.4187     9.6898     9.5803    10.2928
  532.0000   100.1845     8.0601     0.0008     0.1182     2.4553   -26.4232     9.2300     8.9951     9.7332
  532.5000    99.5763     8.0617    -0.0023     0.1306     2.4290   -26.2767     8.8451     8.4684     9.0146
  533.0000    99.7246     8.0632    -0.0023     0.1282     2.4282   -26.2812     8.1805     7.8977     8.1205
  533.5000   100.7806     8.0648     0.0007     0.1213     2.4477   -26.4368     7.1171     6.7304     7.2134
  534.0000   101.9878     8.0664     0.0128     0.1201     2.4364   -26.4413     6.4544     5.9381     6.1452
  534.5000   103.1951     8.0679     0.0285     0.1150     2.4664   -26.4459     5.8654     5.5765     5.7338
  535.0000   103.9486     8.0695     0.0289     0.1132     2.4664   -26.6014     5.6689     5.4594     5.7314
  535.5000   102.8865     8.0711     0.0063     0.1212     2.4498   -26.4549     5.5566     5.4571     4.6420
  536.0000   102.1271     8.0726     0.0131     0.1194     2.4483   -26.3084     5.5539     5.4928     3.8567
  536.5000   102.2753     8.0742     0.0235     0.1060     2.4963   -26.1616     5.5903     5.7238     5.3999
  537.0000   105.6006     8.0758     0.0287     0.1099     2.4843   -25.7132     5.8250     6.3929     6.6894
  537.5000   108.6233     8.0773     0.0114     0.1196     2.4565   -25.8688     6.1968     7.6530     7.7832
  538.0000   112.4144     8.0789     0.0001     0.1250     2.4347   -26.1754     7.9467     8.9108     8.3144
  538.5000   118.6461     8.0805     0.0213     0.1199     2.4496   -26.3310     9.7088     9.4162     7.4380
  539.0000   124.0634     8.0820     0.0383     0.1293     2.4496   -26.7887    10.0467     9.8113     8.1623
  539.5000   119.6622     8.0836     0.0154     0.1540     2.3993   -27.2464    10.1836     9.9452     8.9855
  540.0000   111.3304     8.0852    -0.0031     0.1455     2.3760   -27.7041    10.3215    10.0799     9.4216
  540.5000   104.6945     8.0867    -0.0001     0.1130     2.4765   -27.8597    10.1746    10.1459     9.7321
