~VERSION INFORMATION
 VERS.                2.0:   CWLS LOG ASCII STANDARD - VERSION 2.0
 WRAP.                 NO:   ONE LINE PER DEPTH STEP
~WELL INFORMATION
#MNEM.UNIT      DATA TYPE    INFORMATION
#----------   ------------   ------------------------------
 STRT.F           16.0000:   START DEPTH
 STOP.F          306.0000:   STOP DEPTH
 STEP.F            0.5000:   STEP LENGTH
 NULL.          -999.2500:   NO VALUE
 COMP. LAWRENCE-ALLISON &AS:   COMPANY
 WELL. NPR ##3 51-66SX10UI2:   WELL
 FLD .             TEAPOT:   FIELD
 LOC .      S10 T38N R78W:   LOCATION
 CNTY.            NATRONA:   COUNTY
 STAT.            WYOMING:   STATE
 CTRY. UNITED STATES OF AMERICA:   COUNTRY
 SRVC.      Dresser Atlas:   SERVICE COMPANY
 DATE.        16-JAN-1985:   LOGDATE
 API .       490251100300:   API NUMBER
~CURVE INFORMATION
#MNEM.UNIT       API CODE    CURVE DESCRIPTION
#----------   ------------   ------------------------------
 DEPT.F                  :   
 AC  .US/F   60 520 00 00:   ACOUSTIC SONIC
 CALD.IN     45 280 60 00:   CALIPER FROM DENSITY LOG
 CNC .DEC    42 890 03 00:   COMPENSATED NEUTRON POROSITY SANDSTONE
 CORR.G/C3   45 356 01 00:   DENSITY CORRECTION
 GRD .GAPI   45 310 01 00:   GAMMA RAY FROM DENSITY LOG
 PORD.DEC    45 890 12 00:   POROSITY DENSITY SANDSTONE
 RHOB.G/C3   45 350 01 00:   BULK DENSITY
~PARAMETER INFORMATION
#MNEM.UNIT          VALUE    DESCRIPTION
#----------   ------------   ------------------------------
 PD  .                 GL:   PERMANENT DATUM
 EPD .F              5156:   ELEVATION PERMANENT DATUM
 LMF .                 GL:   LOG MEASURED FROM
 DMF .                 GL:   DRILLING MEASURED FROM
 EGL .F              5156:   GROUND LEVEL
 DATE.        16-JAN-1985:   RUN DATE
 RUN .                  1:   RUN NUMBER
 DD  .F               308:   DEPTH DRILLER
 DL  .F               308:   DEPTH LOGGER
 BLI .F               306:   BOTTOM LOG INTERVAL
 TLI .F                20:   TOP LOG INTERVAL
 CS  .IN            8.625:   CASING SIZE
 CBD .F                20:   CASING BOTTOM DRILLER
 CBL .F                20:   CASING BOTTOM LOGGER
 BS  .IN            7.875:   BIT SIZE
 BSD .F               308:   BIT SIZE AT DEPTH
 DFT .          KCL-WATER:   DRILLING FLUID TYPE
 MSS .               TANK:   MUD SAMPLE SOURCE
 RMS .OHMM           0.11:   RESISTIVITY MUD SAMPLE
 MST .F                88:   MUD SAMPLE TEMPERATURE
 RMF .OHMM           0.08:   RESISTIVITY MUD FILTRATE SAMPLE
 MFST.F                88:   MUD FILTRATE SAMPLE TEMPERATURE
 RMC .OHMM           0.13:   RESISTIVITY MUD CAKE
 MCST.F                88:   MUD CAKE SAMPLE TEMPERATURE
 MFSS.               CALC:   MUD FILTRATE SAMPLE SOURCE
 MCSS.               CALC:   MUD CAKE SAMPLE SOURCE
 BHT .F               100:   BOTTOM HOLE TEMPERATURE
 TCS .HRS               2:   TIME CURCULATED STOPPED
 MRT .F               100:   MAXIMUM RECORDED TEMPERATURE
 LUN .               6270:   LOGGING UNIT NUMBER
 LUL .                 FM:   LOGGING UNIT LOCATION
 ENGI.          E. GOVETT:   RECORDING ENGINEER
 WITN.             GROOMS:   WITNESSED BY
 CLNT.            A2DTECH:   CLIENT CODE
 ORIG.           5" PRINT:   ORIGIN OF DATA
 UWI .       490251100300:   UNIQUE WELL ID
 DICO. A2D Technologies, Inc.:   DIGITIZING COMPANY
~OTHER INFORMATION
~A   DEPT        AC      CALD          CNC     CORR         GRD      PORD       RHOB   
# ...
  107.0000   104.8730     7.9699     0.3003    -0.0350   102.5988     0.1507     2.4257
  107.5000   104.7145     7.9549     0.2945    -0.0395   100.0453     0.1528     2.4214
  108.0000   104.7046     7.9248     0.2868    -0.0289    97.7926     0.1543     2.4206
  108.5000   104.6966     7.8947     0.2856    -0.0199    97.9460     0.1540     2.4252
  109.0000   104.7637     7.8647     0.2898    -0.0092   100.8061     0.1501     2.4350
  109.5000   105.0562     7.9398     0.2880     0.0002   100.6586     0.1425     2.4478
  110.0000   105.3487     7.9850     0.2835     0.0118   100.3609     0.1353     2.4584
  110.5000   105.5661     7.9699     0.2862     0.0208   101.6286     0.1287     2.4682
  111.0000   105.7083     7.9549     0.3097     0.0284   102.7735     0.1259     2.4705
  111.5000   105.9269     7.9549     0.3067     0.0359   102.0246     0.1284     2.4660
  112.0000   106.0776     7.9549     0.3013     0.0450   101.1253     0.1312     2.4615
  112.5000   107.1848     7.9549     0.3103     0.0374   102.6320     0.1365     2.4570
  113.0000   108.6043     7.9699     0.3221     0.0253   105.1914     0.1396     2.4532
  113.5000   109.7984     7.9699     0.3282     0.0147   106.9988     0.1408     2.4501
  114.0000   110.4665     7.9850     0.3251     0.0040   105.1973     0.1414     2.4472
  114.5000   110.1580     7.9398     0.3110    -0.0019   101.8920     0.1366     2.4495
  115.0000   109.2484     7.8947     0.3025     0.0086    99.4889     0.1320     2.4571
  115.5000   108.5641     7.9248     0.2992     0.0131    99.3935     0.1302     2.4616
  116.0000   107.6394     7.9549     0.2919     0.0146   102.6527     0.1299     2.4616
  116.5000   107.0434     7.9699     0.2975     0.0161   103.8587     0.1293     2.4616
  117.0000   106.8851     7.9699     0.3164     0.0206   104.0120     0.1278     2.4647
  117.5000   106.7269     7.9699     0.3119     0.0312   104.1830     0.1327     2.4662
  118.0000   106.4183     7.9850     0.2992     0.0236   105.0713     0.1378     2.4579
  118.5000   106.1849     8.0000     0.2988     0.0161   106.4276     0.1408     2.4481
  119.0000   106.1768     8.0000     0.3055     0.0115   108.2351     0.1429     2.4420
  119.5000   106.1688     8.0000     0.3001     0.0100   109.4410     0.1405     2.4391
  120.0000   106.1608     8.0000     0.2965     0.0205   108.6921     0.1363     2.4504
  120.5000   105.9184     7.9850     0.2941     0.0356   104.4846     0.1333     2.4572
  121.0000   105.7671     7.9850     0.2986     0.0190   104.1860     0.1366     2.4535
  121.5000   105.8362     7.9699     0.2977    -0.0097   103.8890     0.1381     2.4505
  122.0000   106.1267     7.9549     0.2887    -0.0112   102.3882     0.1385     2.4482
  122.5000   106.4943     7.9549     0.2850     0.0069    99.3836     0.1339     2.4543
  123.0000   106.9370     7.9701     0.2976     0.0189    99.3353     0.1321     2.4573
  123.5000   107.3047     8.0014     0.3110     0.0250   101.6451     0.1364     2.4475
  124.0000   107.5972     8.0451     0.3158    -0.0083   104.0662     0.1503     2.4317
  124.5000   107.9684     8.0301     0.3128    -0.0326   106.7007     0.1545     2.4234
  125.0000   108.4197     8.0000     0.3240    -0.0355   109.5238     0.1561     2.4189
  125.5000   109.0737     7.9699     0.3346    -0.0249   107.9735     0.1614     2.4150
  126.0000   110.0736     7.9699     0.3578    -0.0159   105.7208     0.1793     2.4045
  126.5000   114.5422     7.9699     0.3342    -0.0053   102.4155     0.1901     2.3668
  127.0000   116.1120     7.9699     0.3132    -0.0038    99.8621     0.1938     2.3525
  127.5000   116.7050     7.9699     0.3005    -0.0114    96.2560     0.1886     2.3555
  128.0000   116.8575     7.9699     0.3038    -0.0129    95.5063     0.1702     2.3850
  128.5000   114.2847     7.9699     0.2941    -0.0132    98.6679     0.1506     2.4197
  129.0000   112.1878     7.9699     0.2854    -0.0099   102.7310     0.1395     2.4401
  129.5000   109.5334     7.9699     0.2914    -0.0069   108.4483     0.1337     2.4515
  130.0000   108.0227     7.9699     0.2975     0.0025   109.6241     0.1298     2.4590
  130.5000   107.2634     7.9699     0.2944     0.0157   106.3489     0.1229     2.4688
  131.0000   106.5040     7.9699     0.2960     0.0323   105.4486     0.1174     2.4779
  131.5000   106.0452     7.9699     0.2971     0.0413   105.7880     0.1162     2.4840
  132.0000   105.9620     7.9699     0.3093     0.0187   107.6491     0.1174     2.4832
  132.5000   105.8789     7.9699     0.3168     0.0126   108.7668     0.1168     2.4817
  133.0000   105.7931     7.9699     0.3201     0.0277   103.5073     0.1135     2.4840
  133.5000   105.6258     7.9699     0.3041     0.0352    99.6005     0.1110     2.4893
  134.0000   105.2517     7.9699     0.2965     0.0398    98.4004     0.1084     2.4939
  134.5000   104.9432     7.9699     0.2929     0.0518   101.5613     0.1063     2.4976
  135.0000   104.7849     7.9549     0.2912     0.0594   104.8725     0.1072     2.5014
  135.5000   104.6266     7.9396     0.2890     0.0276   106.5296     0.1093     2.4992
  136.0000   104.3932     7.9098     0.2863     0.0170   107.4348     0.1115     2.4954
  136.5000   104.2349     7.9098     0.2809     0.0216   106.2347     0.1112     2.4939
  137.0000   103.9263     7.9098     0.2794     0.0306   105.1851     0.1057     2.5030
  137.5000   103.3797     7.9098     0.2900     0.0442   103.6843     0.1011     2.5136
  138.0000   102.6310     7.9248     0.3069     0.0517   101.8827     0.0952     2.5205
  138.5000   102.0219     7.9248     0.3102     0.0200   101.7353     0.0928     2.5244
  139.0000   101.7154     7.9248     0.2990     0.0168   103.0917     0.0943     2.5234
  139.5000   102.3064     7.9398     0.2907     0.0305   103.3961     0.0958     2.5204
  140.0000   102.5989     7.9398     0.2827     0.0427   104.4517     0.0967     2.5189
  140.5000   102.3655     7.9398     0.2842     0.0489   105.5073     0.0970     2.5174
  141.0000   101.9818     7.9549     0.2864     0.0562   103.7057     0.0958     2.5182
  141.5000   101.5217     7.9549     0.2815     0.0592   102.9568     0.0952     2.5190
  142.0000   101.2141     7.9552     0.2731     0.0486   102.9597     0.0975     2.5175
  142.5000   101.7303     7.9699     0.2724     0.0335   103.1131     0.1010     2.5137
  143.0000   102.3984     7.9549     0.2774     0.0289   103.2664     0.1031     2.5085
  143.5000   103.2920     7.9398     0.2867     0.0244   103.7197     0.1046     2.5055
  144.0000   103.5114     7.9398     0.2921     0.0259   102.3701     0.1067     2.5032
  144.5000   103.6536     7.9398     0.2906     0.0305   101.6211     0.1100     2.5000
  145.0000   103.6435     7.9398     0.2876     0.0212   102.3760     0.1131     2.4942
  145.5000   103.6355     7.9398     0.2967     0.0150   102.9804     0.1161     2.4882
  146.0000   103.7026     7.9398     0.3136     0.0077   102.3659     0.1183     2.4829
  146.5000   103.8448     7.9398     0.3078     0.0031   102.0841     0.1191     2.4814
  147.0000   104.2856     7.9398     0.2979     0.0016   101.9367     0.1170     2.4837
  147.5000   105.3294     7.9398     0.2958     0.0046   102.8426     0.1182     2.4807
  148.0000   106.5235     7.9398     0.3087     0.0091   104.4997     0.1270     2.4656
  148.5000   107.4922     7.9398     0.3136     0.0167   106.4575     0.1361     2.4490
  149.0000   108.9868     7.9398     0.3097     0.0212   108.5658     0.1406     2.4415
  149.5000   110.7068     7.9549     0.3160     0.0106   109.9221     0.1466     2.4332
  150.0000   111.6003     7.9584     0.3423    -0.0045   109.1705     0.1545     2.4257
  150.5000   112.3437     7.9999     0.3692    -0.0091   107.2165     0.1635     2.4115
  151.0000   114.1395     7.9846     0.3836    -0.0106   106.3128     0.1705     2.3955
  151.5000   116.0856     7.9996     0.3764    -0.0139   105.8426     0.1823     2.3834
  152.0000   118.5095     7.9994     0.3676    -0.0227    99.9937     0.2109     2.3253
