~VERSION INFORMATION
 VERS.                2.0:   CWLS LOG ASCII STANDARD - VERSION 2.0
 WRAP.                 NO:   ONE LINE PER DEPTH STEP
~WELL INFORMATION
#MNEM.UNIT      DATA TYPE    INFORMATION
#----------   ------------   ------------------------------
 STRT.F           97.0000:   START DEPTH
 STOP.F          756.0000:   STOP DEPTH
 STEP.F            0.5000:   STEP LENGTH
 NULL.          -999.2500:   NO VALUE
 COMP.   FLUOR DANIEL INC:   COMPANY
 WELL. NAVAL PETROLEUM RESERVE 3 61-1 #1-34:   WELL
 FLD .             TEAPOT:   FIELD
 LOC .      S34 T39N R78W:   LOCATION
 CNTY.            NATRONA:   COUNTY
 STAT.            WYOMING:   STATE
 CTRY. UNITED STATES OF AMERICA:   COUNTRY
 SRVC.            Unknown:   SERVICE COMPANY
 DATE.        25-OCT-1994:   LOGDATE
 API .       490252266500:   API NUMBER
~CURVE INFORMATION
#MNEM.UNIT       API CODE    CURVE DESCRIPTION
#----------   ------------   ------------------------------
 DEPT.F                  :   
 GR  .GAPI   35 310 01 00:   GAMMA RAY
 NEUT.NAPI   35 330 01 00:   NEUTRON
~PARAMETER INFORMATION
#MNEM.UNIT          VALUE    DESCRIPTION
#----------   ------------   ------------------------------
 PD  .                 GL:   PERMANENT DATUM
 EPD .F              5031:   ELEVATION PERMANENT DATUM
 LMF .                 KB:   LOG MEASURED FROM
 DAPD.F                10:   FEET ABOVE PERMANENT DATUM
 DMF .                 KB:   DRILLING MEASURED FROM
 EKB .F              5041:   KELLING BUSHING
 EGL .F              5031:   GROUND LEVEL
 DATE.           10-25-94:   RUN DATE
 RUN .                  1:   RUN NUMBER
 DD  .F              2440:   DEPTH DRILLER
 DL  .F               764:   DEPTH LOGGER
 BLI .F               756:   BOTTOM LOG INTERVAL
 DFT .              WATER:   DRILLING FLUID TYPE
 TCS .HRS            1000:   TIME CURCULATED STOPPED
 TLAB.HRS            1030:   TIME LOGGER AT BOTTOM
 LUN .                509:   LOGGING UNIT NUMBER
 LUL .           GILLETTE:   LOGGING UNIT LOCATION
 ENGI.            T. FINK:   RECORDING ENGINEER
 WITN.           S. HARDY:   WITNESSED BY
 CLNT.            A2DTECH:   CLIENT CODE
 ORIG.           5" PRINT:   ORIGIN OF DATA
 UWI .       490252266500:   UNIQUE WELL ID
 DICO. A2D Technologies, Inc.:   DIGITIZING COMPANY
~OTHER INFORMATION
~A   DEPT        GR       NEUT  
# ...
  461.5000   135.0625   230.5353
  462.0000   134.0919   234.1041
  462.5000   131.1032   239.1446
  463.0000   129.1437   241.0491
  463.5000   133.4462   230.8671
  464.0000   132.0926   229.0781
  464.5000   128.7009   241.4438
  465.0000   127.8807   249.3948
  465.5000   129.4115   253.2386
  466.0000   133.1911   257.0760
  466.5000   135.1692   258.5346
  467.0000   129.0964   256.2605
  467.5000   131.5775   261.5935
  468.0000   133.4672   261.6761
  468.5000   134.3854   261.7772
  469.0000   138.5958   261.8627
  469.5000   140.0476   260.0025
  470.0000   137.4895   263.7552
  470.5000   134.9966   258.0218
  471.0000   132.5209   265.0224
  471.5000   132.4367   270.6173
  472.0000   134.7863   267.1582
  472.5000   137.2532   273.2159
  473.0000   136.6752   278.4471
  473.5000   132.6603   278.9092
  474.0000   131.7289   278.3442
  474.5000   133.9524   275.7506
  475.0000   132.4020   270.9015
  475.5000   131.4106   280.3051
  476.0000   132.4955   280.1321
  476.5000   134.6842   281.6261
  477.0000   134.7259   277.2191
  477.5000   133.5760   279.6703
  478.0000   138.9616   284.0606
  478.5000   139.8596   288.5616
  479.0000   137.3112   288.7531
  479.5000   134.7364   282.6809
  480.0000   132.8028   279.2513
  480.5000   132.3266   281.8467
  481.0000   131.3134   282.8423
  481.5000   132.3772   278.9938
  482.0000   135.0089   271.5359
  482.5000   131.9256   269.7406
  483.0000   128.7367   272.9037
  483.5000   128.9191   262.0931
  484.0000   129.2885   253.5211
  484.5000   129.6625   243.1684
  485.0000   128.6146   232.7350
  485.5000   126.5132   224.9654
  486.0000   129.4302   217.7407
  486.5000   130.9770   210.5256
  487.0000   131.1176   203.1593
  487.5000   134.5223   203.0851
  488.0000   138.0444   204.3841
  488.5000   139.0851   207.4606
  489.0000   136.2565   224.4583
  489.5000   135.6109   241.1318
  490.0000   141.1131   257.5961
  490.5000   146.5002   265.6657
  491.0000   148.6809   255.4053
  491.5000   147.0867   268.4783
  492.0000   145.2840   276.1180
  492.5000   146.1919   274.3805
  493.0000   150.7581   276.6524
  493.5000   153.3271   274.2679
  494.0000   148.7682   266.0978
  494.5000   150.0634   270.3383
  495.0000   152.2507   270.9157
  495.5000   153.3454   269.5341
  496.0000   151.9926   272.6505
  496.5000   150.7344   273.7418
  497.0000   154.4574   268.1873
  497.5000   158.5726   265.3394
  498.0000   151.3257   266.0035
  498.5000   146.4019   257.9824
  499.0000   149.2053   263.8033
  499.5000   151.8043   256.6168
  500.0000   152.4854   247.9298
  500.5000   161.4669   239.1125
  501.0000   154.8022   230.3207
  501.5000   152.9381   240.7941
  502.0000   149.9715   247.8231
  502.5000   146.8261   246.9828
  503.0000   143.6879   244.4979
  503.5000   141.2655   242.1729
  504.0000   140.2989   244.2402
  504.5000   140.1943   250.5387
  505.0000   144.3164   256.8461
  505.5000   147.3672   260.1898
  506.0000   145.5360   263.9979
  506.5000   143.7764   270.8490
  507.0000   142.0696   273.3026
  507.5000   139.4208   266.6173
  508.0000   137.4112   263.0030
  508.5000   144.8056   264.3032
  509.0000   143.7008   265.7104
  509.5000   144.0596   267.1143
  510.0000   151.7410   268.3741
  510.5000   147.0054   268.7561
  511.0000   142.1406   264.4877
  511.5000   146.8864   260.2497
  512.0000   154.4777   256.4326
  512.5000   149.2731   257.6290
  513.0000   147.7615   256.4562
  513.5000   151.6056   255.4700
  514.0000   144.6734   259.5073
  514.5000   144.0241   261.4703
  515.0000   143.5448   248.5048
  515.5000   140.8779   237.7921
  516.0000   137.8748   229.5091
  516.5000   136.7210   235.8101
  517.0000   135.6716   246.1842
  517.5000   134.6200   255.2049
  518.0000   133.6040   259.8141
  518.5000   136.7466   268.0204
  519.0000   142.5867   266.4266
  519.5000   141.3580   262.7121
  520.0000   144.5578   265.2569
  520.5000   141.0491   267.3055
  521.0000   145.2515   257.9416
  521.5000   146.3122   258.6280
  522.0000   143.8091   259.8365
  522.5000   143.2761   263.7904
  523.0000   142.0371   258.1267
  523.5000   139.0672   248.3870
  524.0000   141.7097   244.2879
  524.5000   146.6836   244.1947
  525.0000   149.0470   242.1530
  525.5000   148.3713   238.7663
  526.0000   154.2953   238.1577
  526.5000   156.5840   238.1468
  527.0000   154.6475   238.1514
  527.5000   151.4019   238.1548
  528.0000   148.1236   238.3534
  528.5000   144.8363   239.5211
  529.0000   141.8922   240.5962
  529.5000   144.0398   239.7733
  530.0000   146.3360   241.3058
  530.5000   147.1584   241.8677
  531.0000   145.3137   236.5253
  531.5000   144.2453   231.0860
  532.0000   146.9756   223.1357
  532.5000   147.0538   215.0843
  533.0000   146.2115   210.8727
  533.5000   147.2470   233.3192
  534.0000   144.4519   247.2540
  534.5000   148.6538   242.6661
  535.0000   152.9382   238.6101
  535.5000   154.4914   239.8342
  536.0000   156.1080   241.8351
  536.5000   157.8368   242.0021
  537.0000   157.6772   238.1122
  537.5000   156.7493   228.7841
  538.0000   155.8063   218.1457
  538.5000   154.5820   227.6314
  539.0000   151.7588   245.0713
  539.5000   148.7337   259.2686
  540.0000   153.1802   265.8582
  540.5000   157.2483   270.8604
  541.0000   152.0167   259.1857
  541.5000   154.9108   269.4716
  542.0000   152.9202   263.8764
  542.5000   146.8945   253.6140
  543.0000   147.2410   251.7255
  543.5000   147.5188   256.1342
  544.0000   146.6447   260.3216
  544.5000   147.2427   258.1443
  545.0000   146.3435   248.1466
  545.5000   147.2707   237.2575
  546.0000   150.9523   229.7787
  546.5000   151.7177   241.9042
  547.0000   149.4981   252.5024
  547.5000   146.4686   262.9707
  548.0000   143.3798   271.2049
  548.5000   142.0761   273.3050
  549.0000   142.1150   274.2125
  549.5000   142.5374   275.0404
  550.0000   142.9776   277.8397
  550.5000   143.4113   282.7074
  551.0000   143.8099   284.5344
  551.5000   142.6904   271.0272
  552.0000   140.5493   272.8790
  552.5000   139.9305   278.2287
  553.0000   143.1786   279.6404
  553.5000   145.3914   280.0494
  554.0000   141.9345   286.2498
  554.5000   138.8407   293.2655
  555.0000   141.9733   295.9508
  555.5000   145.2469   299.3158
  556.0000   148.5807   304.6289
  556.5000   147.9700   309.7444
  557.0000   140.9841   308.6224
  557.5000   143.2995   305.8595
  558.0000   138.0236   299.8467
  558.5000   142.4774   294.1983
  559.0000   134.9223   293.8911
  559.5000   138.1006   308.3709
  560.0000   136.3401   305.8397
  560.5000   132.4967   303.3384
  561.0000   134.9906   300.7538
  561.5000   130.9581   297.0460
  562.0000   133.4163   284.2339
  562.5000   126.5564   270.4500
  563.0000   118.4574   264.6562
  563.5000   113.6016   283.0994
  564.0000   108.6760   302.1084
  564.5000   103.6813   312.1972
  565.0000   100.5181   322.5735
  565.5000    97.7599   333.2399
  566.0000    95.0179   335.0027
  566.5000    92.2704   333.6659
  567.0000    89.5220   336.4995
  567.5000    86.7637   326.4515
  568.0000    83.9288   310.1823
  568.5000    83.4944   293.5298
  569.0000    87.1033   279.4727
  569.5000    90.8585   273.6220
  570.0000    91.3334   268.7063
  570.5000    93.2571   263.7866
  571.0000    94.6052   258.7692
  571.5000    83.7602   257.9164
  572.0000    89.8694   251.9783
  572.5000    94.4973   256.9055
  573.0000    96.5613   267.3484
  573.5000    98.0450   260.7425
  574.0000    99.5331   266.3499
  574.5000    99.6334   272.2353
  575.0000    98.7030   265.0652
  575.5000    97.7396   274.4626
  576.0000    99.5596   286.4980
  576.5000   102.9280   298.5139
  577.0000   103.7581   307.3542
  577.5000   103.7505   311.1914
  578.0000   101.3070   317.7013
  578.5000   102.6685   325.6292
  579.0000   106.6696   329.1655
  579.5000   106.1020   325.9658
  580.0000   111.9371   322.8343
  580.5000   108.5977   322.8434
  581.0000   106.3433   326.8499
  581.5000   112.5081   330.8242
  582.0000   112.8872   334.7029
  582.5000   107.3704   330.3182
