~VERSION INFORMATION
 VERS.                2.0:   CWLS LOG ASCII STANDARD - VERSION 2.0
 WRAP.                 NO:   ONE LINE PER DEPTH STEP
~WELL INFORMATION
#MNEM.UNIT      DATA TYPE    INFORMATION
#----------   ------------   ------------------------------
 STRT.F            0.0000:   START DEPTH
 STOP.F          533.0000:   STOP DEPTH
 STEP.F            0.5000:   STEP LENGTH
 NULL.          -999.2500:   NO VALUE
 COMP. LAWRENCE/ALLISON INC:   COMPANY
 WELL. NAVAL PETROLEUM RESERVE 3 SX-1 #56-66-SX-10:   WELL
 FLD .             TEAPOT:   FIELD
 LOC .      S10 T38N R78W:   LOCATION
 CNTY.            NATRONA:   COUNTY
 STAT.            WYOMING:   STATE
 CTRY. UNITED STATES OF AMERICA:   COUNTRY
 SRVC.           Gearhart:   SERVICE COMPANY
 DATE.        28-JUN-1987:   LOGDATE
 API .       490251114300:   API NUMBER
~CURVE INFORMATION
#MNEM.UNIT       API CODE    CURVE DESCRIPTION
#----------   ------------   ------------------------------
 DEPT.F                  :   
 RLL .OHMM   07 220 00 00:   LATEROLOG RESISTIVITY
 RILM.OHMM   07 120 44 00:   INDUCTION LOG MEDIUM RESISTIVITY
 RILD.OHMM   07 120 46 00:   INDUCTION LOG DEEP RESISTIVITY
 GRR .GAPI   07 310 01 00:   GAMMA RAY FROM RES. LOG.
 SPR .MV     07 010 01 00:   SPONTANEOUS POTENTIAL
~PARAMETER INFORMATION
#MNEM.UNIT          VALUE    DESCRIPTION
#----------   ------------   ------------------------------
 PD  .                 GL:   PERMANENT DATUM
 EPD .F              5198:   ELEVATION PERMANENT DATUM
 LMF .                 KB:   LOG MEASURED FROM
 DAPD.F                 8:   FEET ABOVE PERMANENT DATUM
 DMF .                 KB:   DRILLING MEASURED FROM
 EKB .F              5206:   KELLING BUSHING
 EDF .F              5204:   DRILLING FLOOR
 EGL .F              5198:   GROUND LEVEL
 DATE.            6-28-87:   RUN DATE
 RUN .                  1:   RUN NUMBER
 DD  .F               535:   DEPTH DRILLER
 DL  .F               536:   DEPTH LOGGER
 BLI .F               533:   BOTTOM LOG INTERVAL
 BS  .IN             7.87:   BIT SIZE
 BSD .F               535:   BIT SIZE AT DEPTH
 DFT .                MUD:   DRILLING FLUID TYPE
 RMS .OHMM            .84:   RESISTIVITY MUD SAMPLE
 MST .F                57:   MUD SAMPLE TEMPERATURE
 RMF .OHMM            .63:   RESISTIVITY MUD FILTRATE SAMPLE
 MFST.F                57:   MUD FILTRATE SAMPLE TEMPERATURE
 RMC .OHMM           1.05:   RESISTIVITY MUD CAKE
 MCST.F                57:   MUD CAKE SAMPLE TEMPERATURE
 MFSS.               CALC:   MUD FILTRATE SAMPLE SOURCE
 MCSS.               CALC:   MUD CAKE SAMPLE SOURCE
 RMB .OHMM            .59:   RESISTIVITY MUD AT BHT
 BHT .F                80:   BOTTOM HOLE TEMPERATURE
 TCS .HRS            1200:   TIME CURCULATED STOPPED
 TLAB.HRS            1322:   TIME LOGGER AT BOTTOM
 MRT .F                80:   MAXIMUM RECORDED TEMPERATURE
 LUN .               7650:   LOGGING UNIT NUMBER
 LUL .           GILLETTE:   LOGGING UNIT LOCATION
 ENGI. JOHNSTON/HUCKFELDT:   RECORDING ENGINEER
 WITN.             STRONG:   WITNESSED BY
 CLNT.            A2DTECH:   CLIENT CODE
 ORIG.       2", 5" PRINT:   ORIGIN OF DATA
 UWI .       490251114300:   UNIQUE WELL ID
 DICO. A2D Technologies, Inc.:   DIGITIZING COMPANY
~OTHER INFORMATION
~A    DEPT     RLL         RILM       RILD       GRR       SPR   
# ...
  305.0000    26.7547    28.1816    31.9503    64.1350   -35.6767
  305.5000    26.3001    27.4676    31.3537    66.2027   -36.0728
  306.0000    26.2155    27.9255    30.7682    65.6019   -36.0492
  306.5000    27.6118    28.6081    30.4369    62.9996   -36.2778
  307.0000    27.9851    29.0332    30.4355    60.4236   -36.1827
  307.5000    27.5961    29.4646    30.4364    58.8975   -36.0876
  308.0000    27.2306    29.8761    30.4387    59.2983   -35.9906
  308.5000    26.3293    29.8741    30.4332    60.8187   -35.8936
  309.0000    25.4578    29.8741    30.9669    62.5391   -35.7966
  309.5000    25.0204    29.8741    31.3339    64.1744   -35.6995
  310.0000    25.2943    32.7961    31.7053    62.1001   -35.6026
  310.5000    25.6827    32.1857    32.0810    58.9905   -35.5072
  311.0000    30.1249    31.0103    32.4915    55.7925   -35.5341
  311.5000    38.5289    29.8832    32.4915    55.0827   -35.7048
  312.0000    38.3849    28.7759    30.8173    59.5134   -35.8754
  312.5000    36.6044    27.9616    29.6126    63.9196   -36.0505
  313.0000    35.0099    26.9597    28.4544    68.4325   -36.1152
  313.5000    27.9199    25.9720    27.3445    70.2196   -36.1892
  314.0000    22.0589    25.4535    26.3366    69.6293   -36.2644
  314.5000    20.4978    24.7309    25.6779    69.1464   -36.3397
  315.0000    20.1296    24.0288    25.0298    69.3418   -36.4131
  315.5000    19.7681    23.3467    24.3989    70.0210   -36.4697
  316.0000    19.4130    22.7806    23.7836    70.6389   -36.7124
  316.5000    19.0643    22.2501    23.3066    71.2544   -36.9762
  317.0000    18.7353    21.7320    23.0010    71.8743   -37.2393
  317.5000    18.4366    21.2259    22.6996    72.6459   -37.5023
  318.0000    18.2446    20.7606    22.4024    74.9802   -37.7654
  318.5000    18.0545    20.5031    22.1087    75.8271   -38.0343
  319.0000    17.8664    20.2630    21.9562    75.4425   -37.9890
  319.5000    17.6803    20.0000    21.9562    75.0461   -37.8386
  320.0000    17.5506    20.0450    21.9946    74.6493   -37.6860
  320.5000    17.6909    20.0957    22.1246    74.2540   -37.5339
  321.0000    17.8479    20.1465    22.2553    73.8617   -37.3819
  321.5000    18.0506    20.1974    22.3868    73.5199   -37.2299
  322.0000    18.0497    20.2485    22.5190    72.3707   -37.0779
  322.5000    17.9342    20.2997    22.6530    71.0653   -36.9260
  323.0000    17.7814    20.3510    22.7912    69.8832   -36.7740
  323.5000    17.7152    20.4024    22.7916    69.4308   -36.6220
  324.0000    17.7776    20.4540    22.6422    69.9431   -36.4698
  324.5000    17.8421    20.5056    22.3850    70.6679   -36.3174
  325.0000    17.8813    20.5690    22.1307    71.4063   -36.1687
  325.5000    17.5574    20.4714    21.8793    72.1437   -36.1242
  326.0000    17.3291    20.3105    21.6308    72.8811   -36.3565
  326.5000    17.1038    20.1515    21.3851    73.6178   -36.4626
  327.0000    17.0237    19.9938    21.1517    74.3664   -36.4647
  327.5000    16.9570    19.8374    20.9093    74.6632   -36.4648
  328.0000    16.8591    19.6822    20.6787    72.8920   -36.4646
  328.5000    16.6720    19.5282    20.4507    70.9571   -36.4642
  329.0000    16.4869    19.3754    20.2252    69.0462   -36.4835
  329.5000    16.3039    19.1892    20.0022    67.7868   -36.5083
  330.0000    16.1230    18.9198    19.7816    68.8519   -36.5331
  330.5000    15.9439    18.6542    19.6302    70.6253   -36.5580
  331.0000    15.7654    18.3899    19.4479    72.4037   -36.5828
  331.5000    15.5970    18.2158    19.4680    73.7238   -36.6078
  332.0000    15.3950    18.3072    19.4958    74.2976   -36.6322
  332.5000    15.4012    18.4315    19.5236    74.8837   -36.6595
  333.0000    15.5843    18.5567    19.5515    75.4680   -36.5216
  333.5000    15.8311    18.6817    19.5792    75.9495   -36.2938
  334.0000    16.0837    18.8079    19.6062    74.8814   -36.0638
  334.5000    16.1373    18.9110    19.6324    73.6769   -35.8335
  335.0000    15.8895    18.5111    19.3614    72.7398   -35.6037
  335.5000    15.5827    18.2873    19.0937    72.0833   -35.3740
  336.0000    15.2817    18.0663    18.8297    71.3939   -35.2430
  336.5000    14.9866    17.8479    18.5694    71.1325   -35.2243
  337.0000    14.6972    17.6322    18.3126    72.8123   -35.2049
  337.5000    14.4273    17.4190    18.0594    74.4589   -35.1858
  338.0000    14.4273    17.3131    17.8097    75.9531   -35.1666
  338.5000    14.4271    17.1507    17.5635    75.7132   -35.1474
  339.0000    14.4276    16.9939    17.3876    75.0179   -35.1282
  339.5000    14.4279    16.7362    17.2211    74.3354   -35.1090
  340.0000    14.4273    16.4823    17.0683    73.6186   -35.0896
  340.5000    14.1789    16.2323    16.9168    74.1468   -35.0705
  341.0000    13.9082    15.9861    16.7666    75.0334   -35.0505
  341.5000    13.6426    15.7437    16.6178    75.9345   -35.1492
  342.0000    13.3821    15.5049    16.4703    76.1973   -35.3241
  342.5000    13.1419    15.2582    16.3241    75.5159   -35.4997
  343.0000    13.1419    15.2582    16.2725    74.6483   -35.6755
  343.5000    13.1874    15.3471    16.2518    76.1935   -35.8513
  344.0000    13.2211    15.4130    16.2311    78.7079   -36.0307
  344.5000    13.2548    15.4791    16.2105    81.0928   -35.9950
  345.0000    13.2886    15.5456    16.1898    80.2797   -35.8889
  345.5000    13.3225    15.5456    16.1691    78.0384   -35.7813
  346.0000    13.3565    15.3414    16.1486    75.8622   -35.6740
  346.5000    13.3895    15.1984    16.0917    75.8612   -35.5668
  347.0000    13.1409    15.0031    15.8951    76.6781   -35.4596
  347.5000    12.8613    14.7495    15.7013    77.4968   -35.3525
  348.0000    12.5854    14.4984    15.5104    78.3147   -35.2453
  348.5000    12.3159    14.2503    15.3127    79.1348   -35.1379
  349.0000    12.0524    14.0290    15.0573    79.9667   -35.0299
  349.5000    11.9711    13.8157    14.8459    80.2390   -34.9246
  350.0000    12.0551    13.6951    14.6375    77.7057   -34.9172
  350.5000    12.3426    13.5756    14.4320    75.2378   -35.2086
  351.0000    12.5428    13.4571    14.2882    73.0086   -35.4865
  351.5000    12.0469    13.3396    14.2448    74.0068   -35.7642
  352.0000    11.7175    13.2232    14.2015    75.8195   -36.0419
  352.5000    11.3162    13.1077    14.1584    77.6255   -36.3202
  353.0000    11.3177    12.9933    14.1155    79.4325   -36.6069
  353.5000    11.4356    12.8989    14.0726    81.2131   -36.6647
  354.0000    11.5910    12.9328    14.0290    82.4564   -36.5356
  354.5000    11.7481    13.1247    14.2619    81.3843   -36.1559
  355.0000    11.9074    13.3194    14.3926    81.0343   -35.7815
  355.5000    12.0689    13.5170    14.5245    80.2779   -35.4036
  356.0000    12.2325    13.7175    14.6576    77.3798   -35.2634
  356.5000    12.3986    13.9211    14.7919    74.7686   -35.2830
  357.0000    12.4806    14.1276    14.9274    74.4483   -35.3052
  357.5000    12.5461    14.1606    14.9760    75.1582   -35.3276
  358.0000    12.6119    14.0290    14.7593    73.4251   -35.3498
  358.5000    12.6630    14.0290    14.5903    71.3437   -35.3719
  359.0000    12.4739    14.0290    14.4231    72.6548   -35.3940
  359.5000    12.2652    13.8987    14.2579    75.1144   -35.4163
  360.0000    12.0585    13.5466    14.0947    77.6022   -35.4380
  360.5000    11.8557    13.2311    13.9332    77.9410   -35.4568
  361.0000    11.6406    12.8989    13.7736    77.9345   -35.3430
  361.5000    11.4227    12.6039    13.6151    77.8965   -35.1865
  362.0000    11.4020    12.2910    13.4605    79.2801   -34.8788
  362.5000    11.3813    11.9711    13.3903    80.8127   -32.6934
  363.0000    11.3607    11.9711    13.7223    81.5924   -35.1110
  363.5000    11.3401    11.9711    14.1774    81.0956   -36.0402
  364.0000    11.3192    12.3119    14.7348    80.6556   -35.9440
  364.5000    11.5324    12.3054    15.7397    80.2140   -35.8022
  365.0000    12.3109    13.3439    16.8132    77.7709   -35.6724
  365.5000    14.2810    15.2222    18.0657    73.6994   -35.2141
