~VERSION INFORMATION
 VERS.                2.0:   CWLS LOG ASCII STANDARD - VERSION 2.0
 WRAP.                 NO:   ONE LINE PER DEPTH STEP
~WELL INFORMATION
#MNEM.UNIT      DATA TYPE    INFORMATION
#----------   ------------   ------------------------------
 STRT.F          250.0000:   START DEPTH
 STOP.F         1798.0000:   STOP DEPTH
 STEP.F            0.5000:   STEP LENGTH
 NULL.          -999.2500:   NO VALUE
 COMP. BROWN JOHN E&C INC:   COMPANY
 WELL. NPR 3 STX-10 #57-10:   WELL
 FLD .  TEAPOT DOME NPR 3:   FIELD
 LOC .      S10 T38N R78W:   LOCATION
 CNTY.            NATRONA:   COUNTY
 STAT.            WYOMING:   STATE
 CTRY. UNITED STATES OF AMERICA:   COUNTRY
 SRVC.           BIRDWELL:   SERVICE COMPANY
 DATE.        24-FEB-1979:   LOGDATE
 API .       490251096900:   API NUMBER
~CURVE INFORMATION
#MNEM.UNIT       API CODE    CURVE DESCRIPTION
#----------   ------------   ------------------------------
 DEPT.F                  :   
 GRD .GAPI   45 310 01 00:   GAMMA RAY FROM DENSITY LOG
 CALD.IN     45 280 60 00:   CALIPER
 RHOB.G/C3   45 350 01 00:   BULK DENSITY
 DPHI.DEC    45 890 12 00:   DENSITY POROSITY SANDSTONE
 CORR.G/C3   45 356 01 00:   DENSITY CORRECTION
~PARAMETER INFORMATION
#MNEM.UNIT          VALUE    DESCRIPTION
#----------   ------------   ------------------------------
 PD  .                 GL:   PERMANENT DATUM
 EPD .F              5201:   ELEVATION PERMANENT DATUM
 LMF .                 KB:   LOG MEASURED FROM
 DAPD.F                10:   FEET ABOVE PERMANENT DATUM
 DMF .                 KB:   DRILLING MEASURED FROM
 EKB .F              5211:   KELLING BUSHING
 EGL .F              5201:   GROUND LEVEL
 RUN .                  1:   RUN NUMBER
 DD  .F              1802:   DEPTH DRILLER
 DL  .F              1793:   DEPTH LOGGER
 BLI .F              1793:   BOTTOM LOG INTERVAL
 TLI .F               250:   TOP LOG INTERVAL
 CS  .IN            9.625:   CASING SIZE
 CBD .F               500:   CASING BOTTOM DRILLER
 CBL .F               490:   CASING BOTTOM LOGGER
 BS  .IN             8.75:   BIT SIZE
 BSD .F              1802:   BIT SIZE AT DEPTH
 DFT .                OIL:   DRILLING FLUID TYPE
 BHT .F                90:   BOTTOM HOLE TEMPERATURE
 TCS .HRS               4:   TIME CURCULATED STOPPED
 MRT .F                90:   MAXIMUM RECORDED TEMPERATURE
 LUN .               3029:   LOGGING UNIT NUMBER
 LUL .             CASPER:   LOGGING UNIT LOCATION
 ENGI.            ROLLINS:   RECORDING ENGINEER
 WITN.              AMEND:   WITNESSED BY
 CLNT.            A2DTECH:   CLIENT CODE
 ORIG.       2", 5" PRINT:   ORIGIN OF DATA
 UWI .       490251096900:   UNIQUE WELL ID
 DICO. A2D Technologies, Inc.:   DIGITIZING COMPANY
~OTHER INFORMATION
~A   DEPT       GRD        CALD       RHOB       DPHI      CORR  
  250.0000    73.5413     9.4567     2.2480     0.1635    -0.1844
  250.5000    70.9256     9.4567     2.2524     0.1587    -0.1844
  251.0000    70.9256     9.4567     2.2824     0.1603    -0.1823
  251.5000    71.7025     9.4567     2.3021     0.1587    -0.1795
  252.0000    72.2592     9.4567     2.3005     0.1610    -0.1774
  252.5000    69.9660     9.4567     2.2861     0.1644    -0.1747
  253.0000    69.5850     9.4567     2.2782     0.1643    -0.1743
  253.5000    71.4640     9.4567     2.2764     0.1607    -0.1743
  254.0000    72.7892     9.4567     2.2851     0.1574    -0.1743
  254.5000    70.2127     9.4567     2.2998     0.1541    -0.1743
  255.0000    67.6058     9.4567     2.2966     0.1535    -0.1766
  255.5000    65.7089     9.4567     2.2932     0.1543    -0.1799
  256.0000    65.8093     9.4567     2.2935     0.1520    -0.1824
  256.5000    67.4191     9.4567     2.3031     0.1494    -0.1811
  257.0000    69.4271     9.4567     2.3081     0.1459    -0.1813
  257.5000    71.4586     9.4567     2.3052     0.1513    -0.1849
  258.0000    73.4607     9.4567     2.2976     0.1541    -0.1884
  258.5000    74.8900     9.4567     2.2902     0.1543    -0.1882
  259.0000    72.7694     9.4567     2.2883     0.1546    -0.1834
  259.5000    72.7607     9.4567     2.3034     0.1476    -0.1787
  260.0000    74.8244     9.4567     2.3116     0.1467    -0.1747
  260.5000    72.8000     9.4567     2.3082     0.1493    -0.1814
  261.0000    70.0646     9.4567     2.3050     0.1518    -0.1881
  261.5000    69.4891     9.4567     2.3024     0.1527    -0.1859
  262.0000    70.6689     9.4567     2.3089     0.1464    -0.1829
  262.5000    72.1098     9.4568     2.3154     0.1404    -0.1799
  263.0000    73.5560     9.4560     2.3220     0.1344    -0.1769
  263.5000    73.9874     9.4551     2.3285     0.1307    -0.1740
  264.0000    73.1147     9.4542     2.3350     0.1292    -0.1724
  264.5000    72.2510     9.4532     2.3412     0.1276    -0.1749
  265.0000    71.6809     9.4523     2.3413     0.1261    -0.1775
  265.5000    73.2381     9.4514     2.3401     0.1257    -0.1800
  266.0000    74.9851     9.4505     2.3390     0.1268    -0.1795
  266.5000    74.2270     9.4496     2.3380     0.1275    -0.1781
  267.0000    72.8969     9.4487     2.3368     0.1265    -0.1767
  267.5000    71.5481     9.4477     2.3462     0.1258    -0.1754
  268.0000    70.4515     9.4468     2.3569     0.1250    -0.1740
  268.5000    71.6288     9.4459     2.3678     0.1143    -0.1726
  269.0000    72.9244     9.4450     2.3781     0.1054    -0.1713
  269.5000    74.2379     9.4441     2.3808     0.1019    -0.1699
  270.0000    75.5671     9.4431     2.3836     0.0985    -0.1685
  270.5000    76.6840     9.4422     2.3965     0.0918    -0.1672
  271.0000    75.4350     9.4413     2.4092     0.0863    -0.1670
  271.5000    73.8088     9.4404     2.4111     0.0852    -0.1684
  272.0000    70.9979     9.4395     2.4130     0.0840    -0.1699
  272.5000    68.6788     9.4386     2.4191     0.0775    -0.1714
  273.0000    66.3516     9.4376     2.4283     0.0777    -0.1729
  273.5000    65.4023     9.4367     2.4376     0.0709    -0.1743
  274.0000    67.7350     9.4360     2.4469     0.0620    -0.1741
  274.5000    70.7343     9.4353     2.4563     0.0566    -0.1737
  275.0000    69.8525     9.4347     2.4657     0.0513    -0.1733
  275.5000    68.1488     9.4340     2.4698     0.0510    -0.1728
  276.0000    66.3136     9.4333     2.4697     0.0505    -0.1724
  276.5000    68.7558     9.4326     2.4620     0.0544    -0.1727
  277.0000    72.2660     9.4319     2.4539     0.0615    -0.1732
  277.5000    75.7713     9.4312     2.4458     0.0686    -0.1737
  278.0000    71.2709     9.4305     2.4377     0.0731    -0.1742
  278.5000    72.6290     9.4299     2.4328     0.0739    -0.1734
  279.0000    73.8989     9.4292     2.4301     0.0745    -0.1719
  279.5000    68.1048     9.4285     2.4274     0.0743    -0.1704
  280.0000    68.9735     9.4278     2.4199     0.0750    -0.1730
  280.5000    70.3212     9.4271     2.4056     0.0849    -0.1775
  281.0000    71.1977     9.4265     2.3912     0.0950    -0.1821
  281.5000    68.9670     9.4258     2.3822     0.1018    -0.1866
  282.0000    67.5018     9.4251     2.3818     0.1018    -0.1901
  282.5000    68.6349     9.4244     2.4190     0.0769    -0.1875
  283.0000    69.8247     9.4237     2.4621     0.0556    -0.1849
  283.5000    71.0114     9.4230     2.4710     0.0455    -0.1824
  284.0000    72.1913     9.4224     2.4784     0.0399    -0.1799
  284.5000    72.5450     9.4217     2.4860     0.0350    -0.1774
  285.0000    70.6907     9.4210     2.4936     0.0301    -0.1750
  285.5000    68.7921     9.4203     2.5185     0.0212    -0.1721
  286.0000    66.8621     9.4196     2.5751    -0.0162    -0.1997
  286.5000    66.1797     9.4190     2.6314    -0.0649    -0.2443
  287.0000    64.7509     9.4183     2.6672    -0.0638    -0.2888
  287.5000    62.5932     9.4176     2.6338    -0.0647    -0.2955
  288.0000    60.8698     9.4169     2.5875    -0.0058    -0.2762
  288.5000    63.1300     9.4192     2.5417     0.0167    -0.2504
  289.0000    65.4240     9.4260     2.4955     0.0390    -0.2245
  289.5000    67.7163     9.4327     2.4576     0.0581    -0.1985
  290.0000    69.5627     9.4394     2.4673     0.0485    -0.1747
  290.5000    68.2870     9.4461     2.4771     0.0417    -0.1729
  291.0000    66.7308     9.4528     2.4737     0.0487    -0.1763
  291.5000    67.9788     9.4570     2.4688     0.0501    -0.1775
  292.0000    69.5294     9.4575     2.4954     0.0324    -0.1710
  292.5000    71.1076     9.4581     2.5321     0.0172    -0.1646
  293.0000    70.7584     9.4586     2.5388     0.0082    -0.1579
  293.5000    70.0887     9.4592     2.5440     0.0049    -0.1569
  294.0000    69.4209     9.4598     2.5487     0.0040    -0.1575
  294.5000    69.6610     9.4603     2.5444     0.0078    -0.1583
  295.0000    71.1769     9.4609     2.5386     0.0092    -0.1568
  295.5000    72.6544     9.4614     2.5337     0.0092    -0.1551
  296.0000    73.7711     9.4620     2.5416     0.0055    -0.1535
  296.5000    73.0264     9.4625     2.5505     0.0017    -0.1523
  297.0000    72.1994     9.4631     2.5576    -0.0016    -0.1538
  297.5000    71.3727     9.4636     2.5561    -0.0024    -0.1565
  298.0000    70.5454     9.4642     2.5539    -0.0013    -0.1593
  298.5000    69.7170     9.4647     2.5517     0.0017    -0.1622
  299.0000    68.8801     9.4653     2.5496     0.0036    -0.1598
  299.5000    68.1659     9.4658     2.5474     0.0021    -0.1547
  300.0000    68.9335     9.4664     2.5467    -0.0001    -0.1505
  300.5000    69.7109     9.4670     2.5484    -0.0015    -0.1550
  301.0000    70.4798     9.4675     2.5553    -0.0013    -0.1593
  301.5000    71.2490     9.4681     2.5620    -0.0010    -0.1622
  302.0000    71.9203     9.4686     2.5688    -0.0046    -0.1578
  302.5000    71.0869     9.4692     2.5758    -0.0124    -0.1535
  303.0000    70.1382     9.4697     2.5744    -0.0124    -0.1523
  303.5000    69.1914     9.4703     2.5698    -0.0068    -0.1523
  304.0000    68.2437     9.4708     2.5652    -0.0040    -0.1520
  304.5000    67.2955     9.4714     2.5648    -0.0075    -0.1514
  305.0000    66.3659     9.4719     2.5696    -0.0122    -0.1508
  305.5000    65.9862     9.4725     2.5741    -0.0140    -0.1504
  306.0000    67.1832     9.4730     2.5754    -0.0148    -0.1524
  306.5000    68.3289     9.4736     2.5654    -0.0088    -0.1544
  307.0000    69.4729     9.4741     2.5463    -0.0016    -0.1564
  307.5000    70.6162     9.4747     2.5198     0.0201    -0.1587
  308.0000    71.7555     9.4753     2.4932     0.0490    -0.1599
  308.5000    72.2037     9.4758     2.4670     0.0657    -0.1592
  309.0000    71.7305     9.4764     2.4395     0.0657    -0.1584
  309.5000    71.3300     9.4768     2.4365    -0.0016    -0.1575
  310.0000    67.6098     9.4756     2.5537    -0.0429    -0.1567
  310.5000    62.4938     9.4745     2.6254    -0.0376    -0.1559
