~VERSION INFORMATION
 VERS.                2.0:   CWLS LOG ASCII STANDARD - VERSION 2.0
 WRAP.                 NO:   ONE LINE PER DEPTH STEP
~WELL INFORMATION
#MNEM.UNIT      DATA TYPE    INFORMATION
#----------   ------------   ------------------------------
 STRT.F          350.0000:   START DEPTH
 STOP.F         2259.0000:   STOP DEPTH
 STEP.F            0.5000:   STEP LENGTH
 NULL.          -999.2500:   NO VALUE
 COMP. LAWRENCE/ALLISON INC:   COMPANY
 WELL.        45 X #33-33:   WELL
 FLD .             TEAPOT:   FIELD
 LOC .      S33 T39N R78W:   LOCATION
 CNTY.            NATRONA:   COUNTY
 STAT.            WYOMING:   STATE
 CTRY. UNITED STATES OF AMERICA:   COUNTRY
 SRVC.      NL McCullough:   SERVICE COMPANY
 DATE.        19-MAY-1988:   LOGDATE
 API .       490251119400:   API NUMBER
~CURVE INFORMATION
#MNEM.UNIT       API CODE    CURVE DESCRIPTION
#----------   ------------   ------------------------------
 DEPT.F                  :   
 ROP .MIN/FT 91 810 01 00:   RATE OF DRILLING PENETRATION
 GR  .GAPI   81 310 01 00:   GAMMA RAY
 TGAS.UNITS  91 830 01 00:   TOTAL GAS FROM HOTWIRE
~PARAMETER INFORMATION
#MNEM.UNIT          VALUE    DESCRIPTION
#----------   ------------   ------------------------------
 PD  .                 GL:   PERMANENT DATUM
 EPD .F              5198:   ELEVATION PERMANENT DATUM
 LMF .                 KB:   LOG MEASURED FROM
 DAPD.F                11:   FEET ABOVE PERMANENT DATUM
 DMF .                 KB:   DRILLING MEASURED FROM
 EKB .F              5209:   KELLING BUSHING
 EGL .F              5198:   GROUND LEVEL
 DATE.            5-19-88:   RUN DATE
 RUN .                  1:   RUN NUMBER
 DD  .F              2232:   DEPTH DRILLER
 DL  .F               750:   DEPTH LOGGER
 BLI .F               746:   BOTTOM LOG INTERVAL
 TLI .F               350:   TOP LOG INTERVAL
 CS  .IN                7:   CASING SIZE
 CBD .F               808:   CASING BOTTOM DRILLER
 DFT .              WATER:   DRILLING FLUID TYPE
 TCS .HRS            0830:   TIME CURCULATED STOPPED
 TLAB.HRS            0930:   TIME LOGGER AT BOTTOM
 ENGI.          SANGERTER:   RECORDING ENGINEER
 WITN.             NORMAN:   WITNESSED BY
 CLNT.            A2DTECH:   CLIENT CODE
 ORIG.           5" PRINT:   ORIGIN OF DATA
 UWI .       490251119400:   UNIQUE WELL ID
 DICO. A2D Technologies, Inc.:   DIGITIZING COMPANY
~OTHER INFORMATION
~A   DEPT      ROP          GR      TGAS   
# ...
 1715.0000     0.4692  -999.2500     2.0382
 1715.5000     0.4276  -999.2500     2.0361
 1716.0000     0.3860  -999.2500     2.0340
 1716.5000     0.3862  -999.2500     2.0319
 1717.0000     0.4281  -999.2500     2.0298
 1717.5000     0.4700  -999.2500     2.0277
 1718.0000     0.5119  -999.2500     2.0255
 1718.5000     0.5225  -999.2500     2.0234
 1719.0000     0.5435  -999.2500     2.0213
 1719.5000     0.5332  -999.2500     2.0192
 1720.0000     0.5229  -999.2500     2.0171
 1720.5000     0.5545  -999.2500     2.0150
 1721.0000     0.5859  -999.2500     2.0129
 1721.5000     0.6383  -999.2500     2.0108
 1722.0000     0.6489  -999.2500     2.0087
 1722.5000     0.6281  -999.2500     2.0066
 1723.0000     0.5866  -999.2500     2.0045
 1723.5000     0.5554  -999.2500     2.0023
 1724.0000     0.5451  -999.2500     2.0002
 1724.5000     0.5661  -999.2500     1.9981
 1725.0000     0.6394  -999.2500     1.9960
 1725.5000     0.6813  -999.2500     1.9939
 1726.0000     0.6919  -999.2500     1.9918
 1726.5000     0.6398  -999.2500     1.9897
 1727.0000     0.5982  -999.2500     1.9876
 1727.5000     0.5670  -999.2500     1.9855
 1728.0000     0.5464  -999.2500     1.9834
 1728.5000     0.5256  -999.2500     1.9813
 1729.0000     0.5153  -999.2500     1.9791
 1729.5000     0.5155  -999.2500     1.9770
 1730.0000     0.4844  -999.2500     1.9749
 1730.5000     0.4845  -999.2500     1.9728
 1731.0000     0.4742  -999.2500     1.9707
 1731.5000     0.4744  -999.2500     1.9686
 1732.0000     0.4746  -999.2500     1.9665
 1732.5000     0.4747  -999.2500     1.9644
 1733.0000     0.4749  -999.2500     1.9623
 1733.5000     0.4750  -999.2500     1.9602
 1734.0000     0.4856  -999.2500     1.9581
 1734.5000     0.5171  -999.2500     1.9560
 1735.0000     0.5277  -999.2500     1.9538
 1735.5000     0.5592  -999.2500     1.9517
 1736.0000     0.5593  -999.2500     1.9496
 1736.5000     0.5177  -999.2500     1.9475
 1737.0000     0.4865  -999.2500     1.9454
 1737.5000     0.4762  -999.2500     1.9433
 1738.0000     0.4660  -999.2500     1.9412
 1738.5000     0.4766  -999.2500     1.9391
 1739.0000     0.5185  -999.2500     1.9370
 1739.5000     0.5500  -999.2500     1.9349
 1740.0000     0.5710  -999.2500     1.9328
 1740.5000     0.6025  -999.2500     1.9306
 1741.0000     0.6026  -999.2500     1.9285
 1741.5000     0.6132  -999.2500     1.9264
 1742.0000     0.6134  -999.2500     1.9243
 1742.5000     0.6135  -999.2500     1.9222
 1743.0000     0.6137  -999.2500     1.9201
 1743.5000     0.6034  -999.2500     1.9180
 1744.0000     0.6036  -999.2500     1.9159
 1744.5000     0.5620  -999.2500     1.9138
 1745.0000     0.5308  -999.2500     1.9117
 1745.5000     0.5101  -999.2500     1.9096
 1746.0000     0.4789  -999.2500     1.9075
 1746.5000     0.4687  -999.2500     1.9053
 1747.0000     0.4583  -999.2500     1.9032
 1747.5000     0.4690  -999.2500     1.9011
 1748.0000     0.4796  -999.2500     1.8990
 1748.5000     0.4901  -999.2500     1.8969
 1749.0000     0.4903  -999.2500     1.8948
 1749.5000     0.4905  -999.2500     1.8927
 1750.0000     0.4906  -999.2500     1.8906
 1750.5000     0.5117  -999.2500     1.8885
 1751.0000     0.5223  -999.2500     1.8864
 1751.5000     0.5224  -999.2500     1.8843
 1752.0000     0.5330  -999.2500     1.8821
 1752.5000     0.5645  -999.2500     1.8800
 1753.0000     0.5960  -999.2500     1.8779
 1753.5000     0.6065  -999.2500     1.8758
 1754.0000     0.6067  -999.2500     1.8737
 1754.5000     0.5755  -999.2500     1.8716
 1755.0000     0.5340  -999.2500     1.8695
 1755.5000     0.4923  -999.2500     1.8674
 1756.0000     0.4403  -999.2500     1.8653
 1756.5000     0.4091  -999.2500     1.8632
 1757.0000     0.3988  -999.2500     1.8611
 1757.5000     0.3885  -999.2500     1.8589
 1758.0000     0.3887  -999.2500     1.8568
 1758.5000     0.3994  -999.2500     1.8547
 1759.0000     0.4413  -999.2500     1.8526
 1759.5000     0.4727  -999.2500     1.8505
 1760.0000     0.4938  -999.2500     1.8484
 1760.5000     0.5252  -999.2500     1.8463
 1761.0000     0.5254  -999.2500     1.8442
 1761.5000     0.5151  -999.2500     1.8421
 1762.0000     0.4944  -999.2500     1.8400
 1762.5000     0.5363  -999.2500     1.8379
 1763.0000     0.5678  -999.2500     1.8358
 1763.5000     0.5992  -999.2500     1.8336
 1764.0000     0.6098  -999.2500     1.8315
 1764.5000     0.6100  -999.2500     1.8294
 1765.0000     0.6102  -999.2500     1.8273
 1765.5000     0.5999  -999.2500     1.8252
 1766.0000     0.5791  -999.2500     1.8231
 1766.5000     0.5375  -999.2500     1.8210
 1767.0000     0.4855  -999.2500     1.8189
 1767.5000     0.4439  -999.2500     1.8168
 1768.0000     0.4127  -999.2500     1.8147
 1768.5000     0.4129  -999.2500     1.8126
 1769.0000     0.4548  -999.2500     1.8104
 1769.5000     0.4759  -999.2500     1.8083
 1770.0000     0.4865  -999.2500     1.8062
 1770.5000     0.5179  -999.2500     1.8041
 1771.0000     0.5285  -999.2500     1.8020
 1771.5000     0.5287  -999.2500     1.7999
 1772.0000     0.5288  -999.2500     1.7978
 1772.5000     0.5290  -999.2500     1.7957
 1773.0000     0.5187  -999.2500     1.7936
 1773.5000     0.5293  -999.2500     1.7915
 1774.0000     0.5608  -999.2500     1.7894
 1774.5000     0.5922  -999.2500     1.7873
 1775.0000     0.6133  -999.2500     1.7851
 1775.5000     0.6239  -999.2500     1.7830
 1776.0000     0.6135  -999.2500     1.7809
 1776.5000     0.5824  -999.2500     1.7788
 1777.0000     0.5304  -999.2500     1.7767
 1777.5000     0.4679  -999.2500     1.7746
 1778.0000     0.4159  -999.2500     1.7725
 1778.5000     0.3743  -999.2500     1.7704
 1779.0000     0.3640  -999.2500     1.7683
 1779.5000     0.3642  -999.2500     1.7662
 1780.0000     0.3657  -999.2500     1.7641
 1780.5000     0.3958  -999.2500     1.7619
 1781.0000     0.4064  -999.2500     1.7598
 1781.5000     0.4483  -999.2500     1.7577
 1782.0000     0.4902  -999.2500     1.7556
 1782.5000     0.4904  -999.2500     1.7535
 1783.0000     0.4592  -999.2500     1.7514
 1783.5000     0.4489  -999.2500     1.7493
 1784.0000     0.4491  -999.2500     1.7472
 1784.5000     0.4179  -999.2500     1.7451
 1785.0000     0.4076  -999.2500     1.7430
 1785.5000     0.4078  -999.2500     1.7409
 1786.0000     0.4184  -999.2500     1.7387
 1786.5000     0.4603  -999.2500     1.7366
 1787.0000     0.4918  -999.2500     1.7345
 1787.5000     0.5337  -999.2500     1.7324
 1788.0000     0.5652  -999.2500     1.7303
 1788.5000     0.5236  -999.2500     1.7282
 1789.0000     0.4506  -999.2500     1.7261
 1789.5000     0.4508  -999.2500     1.7240
 1790.0000     0.4823  -999.2500     1.7219
 1790.5000     0.5659  -999.2500     1.7198
 1791.0000     0.6287  -999.2500     1.7177
 1791.5000     0.6915  -999.2500     1.7156
 1792.0000     0.6708  -999.2500     1.7134
 1792.5000     0.6083  -999.2500     1.7113
 1793.0000     0.5458  -999.2500     1.7092
 1793.5000     0.5355  -999.2500     1.7071
 1794.0000     0.5253  -999.2500     1.7050
 1794.5000     0.5254  -999.2500     1.7029
 1795.0000     0.5152  -999.2500     1.7008
 1795.5000     0.5153  -999.2500     1.6987
 1796.0000     0.5050  -999.2500     1.6966
 1796.5000     0.5052  -999.2500     1.6945
 1797.0000     0.5053  -999.2500     1.6924
 1797.5000     0.5055  -999.2500     1.6902
 1798.0000     0.5057  -999.2500     1.6881
 1798.5000     0.4953  -999.2500     1.6860
 1799.0000     0.4642  -999.2500     1.6839
 1799.5000     0.4539  -999.2500     1.6818
 1800.0000     0.4436  -999.2500     1.6828
 1800.5000     0.4438  -999.2500     1.6934
 1801.0000     0.4440  -999.2500     1.7040
 1801.5000     0.4441  -999.2500     1.7146
 1802.0000     0.4552  -999.2500     1.7253
 1802.5000     0.4449  -999.2500     1.7359
 1803.0000     0.4557  -999.2500     1.7465
 1803.5000     0.4559  -999.2500     1.7571
 1804.0000     0.4249  -999.2500     1.7677
 1804.5000     0.3729  -999.2500     1.7784
 1805.0000     0.3001  -999.2500     1.7890
 1805.5000     0.2587  -999.2500     1.7996
