~VERSION INFORMATION
 VERS.                2.0:   CWLS LOG ASCII STANDARD - VERSION 2.0
 WRAP.                 NO:   ONE LINE PER DEPTH STEP
~WELL INFORMATION
#MNEM.UNIT      DATA TYPE    INFORMATION
#----------   ------------   ------------------------------
 STRT.F           28.0000:   START DEPTH
 STOP.F          659.0000:   STOP DEPTH
 STEP.F            0.5000:   STEP LENGTH
 NULL.          -999.2500:   NO VALUE
 COMP. FENIX & SCISSON INC:   COMPANY
 WELL.    NPR 3 #46-SX-34:   WELL
 FLD .             TEAPOT:   FIELD
 LOC .      S34 T39N R78W:   LOCATION
 CNTY.            NATRONA:   COUNTY
 STAT.            WYOMING:   STATE
 CTRY. UNITED STATES OF AMERICA:   COUNTRY
 SRVC.              Welex:   SERVICE COMPANY
 DATE.        01-MAY-1977:   LOGDATE
 API .       490251035600:   API NUMBER
~CURVE INFORMATION
#MNEM.UNIT       API CODE    CURVE DESCRIPTION
#----------   ------------   ------------------------------
 DEPT.F                  :   
 CALD.IN     45 280 60 00:   CALIPER FROM DENSITY
 GRD .GAPI   45 310 01 00:   GAMMA RAY FROM DENSITY LOG
 CORR.G/C3   45 356 01 00:   DENSITY CORRECTION
 DPHI.DEC    45 890 12 00:   DENSITY POROSITY SANDSTONE
 RHOB.G/C3   45 350 01 00:   BULK DENSITY
 SPR .MV     07 010 01 00:   SPONTANEOUS POTENTIAL
 ILD .OHMM   07 120 46 00:   INDUCTION LOG DEEP
 ILM .OHMM   07 120 44 00:   INDUCTION LOG MEDIUM
 SGRD.OHMM   07 221 05 00:   SHALLOW SHORT GUARD RESISTIVITY
~PARAMETER INFORMATION
#MNEM.UNIT          VALUE    DESCRIPTION
#----------   ------------   ------------------------------
 PD  .                 GL:   PERMANENT DATUM
 EPD .F              5120:   ELEVATION PERMANENT DATUM
 LMF .                 GL:   LOG MEASURED FROM
 DMF .                 GL:   DRILLING MEASURED FROM
 EGL .F              5120:   GROUND LEVEL
 DATE.        01-MAY-1977:   RUN DATE
 RUN .                  1:   RUN NUMBER
 DD  .F               660:   DEPTH DRILLER
 DL  .F               663:   DEPTH LOGGER
 BLI .F               661:   BOTTOM LOG INTERVAL
 TLI .F                28:   TOP LOG INTERVAL
 CS  .IN            8.625:   CASING SIZE
 BS  .IN               12:   BIT SIZE
 BSD .F               660:   BIT SIZE AT DEPTH
 DFT .            KCL MUD:   DRILLING FLUID TYPE
 DFD .                8.7:   DRILLING FLUID DENSITY
 TCS .HRS            0100:   TIME CURCULATED STOPPED
 MRT .F                71:   MAXIMUM RECORDED TEMPERATURE
 ENGI.          T. JOYNER:   RECORDING ENGINEER
 WITN.            R. LYON:   WITNESSED BY
 CLNT.            A2DTECH:   CLIENT CODE
 ORIG.           5" PRINT:   ORIGIN OF DATA
 UWI .       490251035600:   UNIQUE WELL ID
 DICO. A2D Technologies, Inc.:   DIGITIZING COMPANY
~OTHER INFORMATION
~A   DEPT     CALD        GRD        CORR      DPHI       RHOB        SPR        ILD        ILM       SGRD   
# ...
  174.0000     7.7979   117.6576    -0.0022     0.1239     2.4710   -40.2725    10.1751    12.7735    12.8192
  174.5000     7.7974   116.1962    -0.0053     0.1248     2.4725   -40.2621    10.3886    12.8636    12.9088
  175.0000     7.7970   114.7147    -0.0053     0.1203     2.4786   -40.1029    10.5338    13.0440    12.9097
  175.5000     7.8116   113.8138    -0.0053     0.1167     2.4801   -40.0925    10.7555    13.1361    12.9999
  176.0000     7.8111   115.4655    -0.0038     0.1206     2.4733   -40.0821    10.9444    13.2288    13.0907
  176.5000     7.8106   119.3694    -0.0024     0.1243     2.4703   -40.0717    11.0970    13.3221    13.2734
  177.0000     7.8102   119.9700    -0.0009     0.1249     2.4703   -40.2127    11.2495    13.4161    13.3661
  177.5000     7.8249   119.8198     0.0006     0.1249     2.4703   -40.3511    11.4021    13.5108    13.5526
  178.0000     7.8243   119.6697     0.0006     0.1225     2.4748   -40.6358    11.6110    13.6062    13.7417
  178.5000     7.8088   118.9189     0.0036     0.1179     2.4796   -40.9256    11.8552    13.7022    14.0298
  179.0000     7.8083   116.8168     0.0066     0.1150     2.4869   -41.2128    12.0215    13.7989    14.3240
  179.5000     7.8080   115.7658     0.0111     0.1106     2.4907   -41.3512    12.3593    13.8008    14.5239
  180.0000     7.7925   114.5646     0.0110     0.1086     2.4974   -41.3382    12.7066    13.8023    14.8284
  180.5000     7.7920   112.9129     0.0095     0.1080     2.4976   -41.1790    12.9739    13.8997    14.9320
  181.0000     7.7916   110.3904     0.0080     0.1095     2.4959   -41.0198    13.2469    13.9016    15.0363
  181.5000     7.7911   107.9679     0.0034     0.1110     2.4929   -40.8606    13.4327    13.9997    15.2461
  182.0000     7.7907   108.6186     0.0018     0.1156     2.4868   -40.8503    13.5275    14.0985    15.2472
  182.5000     7.7902   111.1111     0.0018     0.1186     2.4808   -40.6911    13.6229    14.1135    15.2482
  183.0000     7.7897   111.8619     0.0033     0.1201     2.4748   -40.6807    13.6248    14.2000    15.2493
  183.5000     7.7893   111.8619     0.0033     0.1234     2.4695   -40.5215    13.5326    14.1043    15.1453
  184.0000     7.7888   112.3123     0.0032     0.1264     2.4650   -40.3623    13.4415    14.1063    15.1466
  184.5000     7.7884   112.9129     0.0032     0.1285     2.4643   -40.3519    13.2597    14.1082    15.1477
  185.0000     7.7879   114.1141     0.0032     0.1273     2.4688   -40.3415    13.0799    14.0068    15.0444
  185.5000     7.8026   116.8168     0.0031     0.1249     2.4755   -40.3311    12.9026    13.8182    14.8394
  186.0000     7.8020   119.5195     0.0046     0.1195     2.4820   -40.3207    12.7273    13.5422    14.6372
  186.5000     7.8016   119.8198     0.0106     0.1153     2.4885   -40.3103    12.6416    13.3561    14.5376
  187.0000     7.8012   118.7688     0.0152     0.1108     2.4945   -40.2999    12.5564    13.1763    14.5389
  187.5000     7.7857   115.7658     0.0182     0.1054     2.5071   -40.2895    12.4719    13.0888    14.6405
  188.0000     7.7853   119.6697     0.0196     0.1010     2.5102   -40.2791    12.4741    12.9113    14.8447
  188.5000     7.7848   120.8408     0.0196     0.0993     2.5071   -40.2687    12.4758    12.9131    15.0519
  189.0000     7.7843   122.3724     0.0211     0.1002     2.5026   -40.2584    12.5638    12.9149    15.3675
  189.5000     7.7989   120.7021     0.0195     0.1017     2.4974   -40.3994    12.4792    12.9167    15.2629
  190.0000     7.7985   111.5616     0.0165     0.1039     2.4929   -40.3864    12.5673    13.0078    14.6455
  190.5000     7.7980   109.6096     0.0134     0.1063     2.4891   -40.3760    12.4822    13.0096    14.5456
  191.0000     7.7975   112.7928     0.0134     0.1096     2.4868   -40.5149    12.4844    13.0114    14.4467
  191.5000     7.7971   114.3043     0.0134     0.1153     2.4846   -40.5040    12.4003    13.0132    14.4479
  192.0000     7.8117   117.0170     0.0133     0.1171     2.4823   -40.4936    12.4021    13.0150    14.6495
  192.5000     7.8112   118.0180     0.0133     0.1156     2.4846   -40.4832    12.3181    13.0168    14.8539
  193.0000     7.8107   116.5165     0.0118     0.1120     2.4906   -40.4729    12.2356    12.9292    15.0612
  193.5000     7.8103   114.8649     0.0102     0.1108     2.4913   -40.4625    12.2373    12.9310    14.7539
  194.0000     7.8073   112.6126     0.0087     0.1117     2.4897   -40.4521    12.1549    12.9328    13.8673
  194.5000     7.7944   115.7658     0.0071     0.1147     2.4860   -40.4417    12.1566    13.0240    13.6781
  195.0000     7.7940   116.2162     0.0056     0.1189     2.4793   -40.4313    12.0743    13.0258    13.4917
  195.5000     7.7935   116.6667     0.0056     0.1248     2.4733   -40.5697    11.9930    13.0276    13.2167
  196.0000     7.7931   119.5195     0.0055     0.1290     2.4658   -40.5593    11.9123    13.0294    13.1266
  196.5000     7.7926   121.7718     0.0070     0.1252     2.4695   -40.5489    11.8321    13.0312    13.0373
  197.0000     7.7922   122.8228     0.0085     0.1211     2.4763   -40.5385    11.8341    13.0330    12.8596
  197.5000     7.7917   124.4745     0.0100     0.1193     2.4808   -40.5281    11.7540    13.0348    12.5975
  198.0000     7.7912   126.8769     0.0100     0.1190     2.4801   -40.5178    11.6749    12.7698    12.4256
  198.5000     7.7908   128.5285     0.0114     0.1187     2.4801   -40.5074    11.4375    12.5967    12.1723
  199.0000     7.7903   123.3633     0.0144     0.1175     2.4816   -40.4970    11.3605    12.3405    12.0063
  199.5000     7.7899   122.3724     0.0174     0.1154     2.4846   -40.4866    11.1295    12.0892    12.0073
  200.0000     7.7895   125.8258     0.0189     0.1114     2.4883   -40.6250    11.0385    12.1285    12.1251
  200.5000     7.7963   128.9812     0.0158     0.1157     2.4838   -40.6900    10.8463    12.3536    12.3302
  201.0000     7.8025   126.4305     0.0143     0.1166     2.4831   -40.7551    10.6540    12.5787    12.5354
  201.5000     7.8088   125.6538     0.0129     0.1166     2.4870   -40.7694    10.3882    12.7767    12.7767
  202.0000     7.8150   125.0425     0.0129     0.1133     2.4921   -40.9167    10.0357    12.7767    12.8651
  202.5000     7.8167   124.0209     0.0129     0.1169     2.4868   -41.0640     9.6953    12.6745    12.6889
  203.0000     7.8159   122.9742     0.0114     0.1208     2.4808   -41.0625     9.3663    12.3353    12.3438
  203.5000     7.8002   121.6348     0.0115     0.1208     2.4823   -41.2099     9.1112    11.9984    11.8436
  204.0000     7.7996   121.3363     0.0100     0.1145     2.4868   -41.3572     8.9242    11.5800    11.5215
  204.5000     7.7990   122.9899     0.0100     0.1184     2.4777   -41.5042     8.6811    11.1083    11.2081
  205.0000     7.8136   125.2441     0.0100     0.1220     2.4729   -41.6515     8.5030    10.9033    10.9787
  205.5000     7.8128   127.9487     0.0115     0.1259     2.4717   -41.6500     8.3328    11.0687    10.9787
  206.0000     7.8122   131.5542     0.0146     0.1250     2.4748   -41.7977     8.2755    11.3637    11.1311
  206.5000     7.8116   132.6067     0.0176     0.1197     2.4793   -41.9451     8.3378    11.6012    11.2857
  207.0000     7.8110   128.2547     0.0194     0.1121     2.4875   -41.9432     8.5069    11.9256    11.6012
  207.5000     7.7955   123.9022     0.0222     0.1060     2.5040   -42.0909     8.7448    12.2590    12.0081
  208.0000     7.7949   121.6519     0.0222     0.1075     2.4905   -42.0891     8.9959    12.6018    12.2590
  208.5000     7.7943   119.5517     0.0222     0.1075     2.4799   -42.0876     9.2479    12.7767    12.5152
  209.0000     7.7937   116.8509     0.0207     0.1051     2.4837   -42.2353     9.5726    12.7767    12.7767
  209.5000     7.7931   113.3993     0.0192     0.1024     2.5017   -42.2334     9.7731    12.7767    12.8651
  210.0000     7.7925   108.5959     0.0177     0.0985     2.5093   -42.2319     9.9778    12.7767    12.8651
