~VERSION INFORMATION
 VERS.                2.0:   CWLS LOG ASCII STANDARD - VERSION 2.0
 WRAP.                 NO:   ONE LINE PER DEPTH STEP
~WELL INFORMATION
#MNEM.UNIT      DATA TYPE    INFORMATION
#----------   ------------   ------------------------------
 STRT.F         1782.0000:   START DEPTH
 STOP.F         2281.0000:   STOP DEPTH
 STEP.F            0.5000:   STEP LENGTH
 NULL.          -999.2500:   NO VALUE
 COMP. BROWN JOHN E&C INC:   COMPANY
 WELL. NAVAL PETROLEUM RESERVE 3 STX- #64-3:   WELL
 FLD .            NATRONA:   FIELD
 LOC .       S3 T38N R78W:   LOCATION
 CNTY.            NATRONA:   COUNTY
 STAT.            WYOMING:   STATE
 CTRY. UNITED STATES OF AMERICA:   COUNTRY
 SRVC.            Unknown:   SERVICE COMPANY
 DATE.        12-JUN-1983:   LOGDATE
 API .       490251092800:   API NUMBER
~CURVE INFORMATION
#MNEM.UNIT       API CODE    CURVE DESCRIPTION
#----------   ------------   ------------------------------
 DEPT.F                  :   
 ROP .MIN/FT 91 810 01 00:   RATE OF DRILLING PENETRATION
 TGAS.UNITS  91 830 01 00:   TOTAL GAS FROM HOTWIRE
~PARAMETER INFORMATION
#MNEM.UNIT          VALUE    DESCRIPTION
#----------   ------------   ------------------------------
 EKB .F              5165:   KELLING BUSHING
 EGL .F              5155:   GROUND LEVEL
 DATE.            6-12-84:   RUN DATE
 DD  .F              2281:   DEPTH DRILLER
 BLI .F              2281:   BOTTOM LOG INTERVAL
 TLI .F              1780:   TOP LOG INTERVAL
 CS  .IN            9.625:   CASING SIZE
 TLAB.HRS            0202:   TIME LOGGER AT BOTTOM
 ENGI.              TOWER:   RECORDING ENGINEER
 WITN.               HUSK:   WITNESSED BY
 CLNT.            A2DTECH:   CLIENT CODE
 ORIG.     2.5", 5" PRINT:   ORIGIN OF DATA
 UWI .       490251092800:   UNIQUE WELL ID
 DICO. A2D Technologies, Inc.:   DIGITIZING COMPANY
~OTHER INFORMATION
~A  DEPT         ROP      TGAS  
 1782.0000     0.4591   137.7090
 1782.5000     0.4411   136.9986
 1783.0000     0.4230   136.2455
 1783.5000     0.4050   135.4924
 1784.0000     0.3869   134.7393
 1784.5000     0.3689   133.9862
 1785.0000     0.3706   133.6240
 1785.5000     0.3751   133.5308
 1786.0000     0.3832   133.2762
 1786.5000     0.3917   133.0466
 1787.0000     0.4003   132.8183
 1787.5000     0.4088   132.5874
 1788.0000     0.4171   132.3577
 1788.5000     0.4257   132.1279
 1789.0000     0.4347   131.8978
 1789.5000     0.4393   131.6676
 1790.0000     0.4359   131.4375
 1790.5000     0.4331   131.2073
 1791.0000     0.4304   130.9771
 1791.5000     0.4275   130.7470
 1792.0000     0.4246   130.5168
 1792.5000     0.4218   130.2867
 1793.0000     0.4190   130.0565
 1793.5000     0.4162   129.8263
 1794.0000     0.4133   129.5962
 1794.5000     0.4105   129.3660
 1795.0000     0.4077   129.1358
 1795.5000     0.4049   128.9055
 1796.0000     0.4020   128.6751
 1796.5000     0.3991   128.4453
 1797.0000     0.3965   128.2144
 1797.5000     0.3936   127.9837
 1798.0000     0.3900   127.7566
 1798.5000     0.3969   127.5262
 1799.0000     0.4133   127.4715
 1799.5000     0.4290   127.4711
 1800.0000     0.4444   127.4718
 1800.5000     0.4601   127.4698
 1801.0000     0.4652   127.4687
 1801.5000     0.4656   127.4679
 1802.0000     0.4570   127.4667
 1802.5000     0.4382   127.4656
 1803.0000     0.4198   127.4644
 1803.5000     0.4009   127.4632
 1804.0000     0.3791   127.4620
 1804.5000     0.3515   127.4608
 1805.0000     0.3232   127.4596
 1805.5000     0.2960   127.4584
 1806.0000     0.2657   127.4572
 1806.5000     0.2643   127.4560
 1807.0000     0.2628   127.4548
 1807.5000     0.2644   127.4536
 1808.0000     0.2659   127.4524
 1808.5000     0.2995   127.4512
 1809.0000     0.3293   127.4500
 1809.5000     0.3595   127.4488
 1810.0000     0.3880   127.4476
 1810.5000     0.3799   127.4464
 1811.0000     0.3728   127.4452
 1811.5000     0.3639   127.4440
 1812.0000     0.3545   127.4428
 1812.5000     0.3480   127.4416
 1813.0000     0.3424   127.4404
 1813.5000     0.3986   127.4392
 1814.0000     0.4510   127.4380
 1814.5000     0.5064   127.4368
 1815.0000     0.5611   127.4356
 1815.5000     0.6152   127.4344
 1816.0000     0.6704   127.4332
 1816.5000     0.7250   127.4320
 1817.0000     0.7662   127.4308
 1817.5000     0.7667   127.4296
 1818.0000     0.7565   127.4284
 1818.5000     0.7270   127.4272
 1819.0000     0.6981   127.4260
 1819.5000     0.6690   127.4248
 1820.0000     0.6405   127.4236
 1820.5000     0.6167   127.4224
 1821.0000     0.6256   127.4212
 1821.5000     0.6333   127.4200
 1822.0000     0.6420   127.4188
 1822.5000     0.6499   127.4176
 1823.0000     0.6595   127.4164
 1823.5000     0.6683   127.4152
 1824.0000     0.7090   127.4140
 1824.5000     0.7435   127.4128
 1825.0000     0.7795   127.4116
 1825.5000     0.8154   127.4104
 1826.0000     0.8530   127.4092
 1826.5000     0.8641   127.4080
 1827.0000     0.8556   127.4069
 1827.5000     0.8515   127.4056
 1828.0000     0.8439   127.4044
 1828.5000     0.9744   127.4033
 1829.0000     1.0188   127.4020
 1829.5000     1.0175   127.4008
 1830.0000     1.0294   127.3997
 1830.5000     1.0580   127.3985
 1831.0000     1.0845   127.3973
 1831.5000     1.1112   127.3961
 1832.0000     1.0994   127.3949
 1832.5000     1.0730   127.3937
 1833.0000     1.0464   127.3925
 1833.5000     1.0215   127.3913
 1834.0000     0.9939   127.3901
 1834.5000     0.9834   127.3889
 1835.0000     0.9724   127.3877
 1835.5000     0.9628   127.3865
 1836.0000     0.9514   127.3853
 1836.5000     0.9402   127.3841
 1837.0000     0.9073   127.3829
 1837.5000     0.8692   127.3817
 1838.0000     0.8684   127.3805
 1838.5000     0.8674   127.3793
 1839.0000     0.9132   127.3781
 1839.5000     0.9635   127.3769
 1840.0000     0.9927   127.3757
 1840.5000     0.9827   127.3745
 1841.0000     0.9741   127.3733
 1841.5000     0.9661   127.3721
 1842.0000     0.9209   127.3709
 1842.5000     0.8743   127.3697
 1843.0000     0.8265   127.3685
 1843.5000     0.7905   127.3673
 1844.0000     0.7866   127.3661
 1844.5000     0.7819   127.3649
 1845.0000     0.7776   127.3637
 1845.5000     0.7736   127.3625
 1846.0000     0.7696   127.3613
 1846.5000     0.7601   127.3601
 1847.0000     0.7373   127.3589
 1847.5000     0.7157   127.3577
 1848.0000     0.6921   127.3565
 1848.5000     0.6856   127.3553
 1849.0000     0.6790   127.3541
 1849.5000     0.6731   127.3529
 1850.0000     0.6670   127.3517
 1850.5000     0.6608   127.3505
 1851.0000     0.6547   127.3493
 1851.5000     0.6486   127.3481
 1852.0000     0.6425   127.3469
 1852.5000     0.6348   127.3457
 1853.0000     0.6263   127.3445
 1853.5000     0.6179   127.3433
 1854.0000     0.6095   127.3421
 1854.5000     0.6011   127.3409
 1855.0000     0.5927   127.3397
 1855.5000     0.5843   127.3385
 1856.0000     0.5756   127.3373
 1856.5000     0.5671   127.3361
 1857.0000     0.5433   127.3349
 1857.5000     0.5129   127.3337
 1858.0000     0.4811   127.3325
 1858.5000     0.4644   127.3313
 1859.0000     0.4690   127.3301
 1859.5000     0.4718   127.3289
 1860.0000     0.4743   127.3277
 1860.5000     0.4774   127.3265
 1861.0000     0.4803   127.3253
 1861.5000     0.4831   127.3241
 1862.0000     0.4860   127.3229
 1862.5000     0.4889   127.3217
 1863.0000     0.4918   127.3205
 1863.5000     0.4946   127.3193
 1864.0000     0.4975   127.3181
 1864.5000     0.5003   127.3169
 1865.0000     0.5032   127.3157
 1865.5000     0.5061   127.3145
 1866.0000     0.5089   127.3133
 1866.5000     0.5118   127.3121
 1867.0000     0.5150   127.3109
 1867.5000     0.5223   127.3097
 1868.0000     0.5305   127.3085
 1868.5000     0.5396   127.3074
 1869.0000     0.5399   127.3062
 1869.5000     0.5405   127.3049
 1870.0000     0.5408   127.3037
 1870.5000     0.5603   127.3026
 1871.0000     0.5823   127.3014
 1871.5000     0.6051   127.3001
 1872.0000     0.6284   127.2990
 1872.5000     0.6450   127.2978
 1873.0000     0.6525   127.2966
 1873.5000     0.6609   127.2954
 1874.0000     0.6695   127.2942
 1874.5000     0.6778   127.2930
 1875.0000     0.6863   127.2918
 1875.5000     0.6946   127.2906
 1876.0000     0.7031   127.2894
 1876.5000     0.7118   127.2882
 1877.0000     0.7172   127.2870
 1877.5000     0.7186   127.2858
 1878.0000     0.7203   127.2846
 1878.5000     0.7221   127.2834
 1879.0000     0.7238   127.2822
 1879.5000     0.7255   127.2810
 1880.0000     0.7272   127.2798
 1880.5000     0.7290   127.2786
 1881.0000     0.7307   127.2774
 1881.5000     0.7325   127.2762
 1882.0000     0.7341   127.2750
 1882.5000     0.7359   127.2738
 1883.0000     0.7378   127.2726
 1883.5000     0.7391   127.2714
 1884.0000     0.7405   127.2702
 1884.5000     0.7236   127.2690
 1885.0000     0.7054   127.2678
 1885.5000     0.6793   127.2666
 1886.0000     0.6366   127.2654
 1886.5000     0.6126   127.2642
 1887.0000     0.6118   127.2630
 1887.5000     0.6089   127.2618
 1888.0000     0.6057   127.2606
 1888.5000     0.6031   127.2594
 1889.0000     0.6003   127.2582
 1889.5000     0.5975   127.2570
 1890.0000     0.5947   127.2558
 1890.5000     0.5917   127.2546
 1891.0000     0.5919   127.2534
 1891.5000     0.5959   127.2522
 1892.0000     0.5997   127.2510
 1892.5000     0.6033   127.2498
 1893.0000     0.6071   127.2486
 1893.5000     0.6111   127.2474
 1894.0000     0.6147   127.2462
 1894.5000     0.6384   127.2450
 1895.0000     0.6691   127.2438
 1895.5000     0.6998   127.2426
 1896.0000     0.7309   127.2414
 1896.5000     0.7419   127.2402
 1897.0000     0.7413   127.2390
 1897.5000     0.7411   127.2378
 1898.0000     0.7413   127.2366
 1898.5000     0.7412   127.2354
 1899.0000     0.7412   127.2342
 1899.5000     0.7412   127.2330
 1900.0000     0.7412   127.2318
 1900.5000     0.7412   127.2306
 1901.0000     0.7412   127.2294
 1901.5000     0.7412   127.2282
 1902.0000     0.7411   127.2270
 1902.5000     0.7412   127.2258
 1903.0000     0.7412   127.2246
