~VERSION INFORMATION
 VERS.                2.0:   CWLS LOG ASCII STANDARD - VERSION 2.0
 WRAP.                 NO:   ONE LINE PER DEPTH STEP
~WELL INFORMATION
#MNEM.UNIT      DATA TYPE    INFORMATION
#----------   ------------   ------------------------------
 STRT.F           90.0000:   START DEPTH
 STOP.F         1312.0000:   STOP DEPTH
 STEP.F            0.5000:   STEP LENGTH
 NULL.          -999.2500:   NO VALUE
 COMP. US NAVY/ INTEX OIL CO:   COMPANY
 WELL. RES 3 TEAPOT DOME NPR "S' #42-2:   WELL
 FLD .             TEAPOT:   FIELD
 LOC .       S2 T38N R78W:   LOCATION
 CNTY.            NATRONA:   COUNTY
 STAT.            WYOMING:   STATE
 CTRY. UNITED STATES OF AMERICA:   COUNTRY
 SRVC. Schlumberger Well Surveying Corp:   SERVICE COMPANY
 DATE.        17-JUL-1964:   LOGDATE
 API .       490250646400:   API NUMBER
~CURVE INFORMATION
#MNEM.UNIT       API CODE    CURVE DESCRIPTION
#----------   ------------   ------------------------------
 DEPT.F                  :   
 GR  .GAPI   30 310 01 00:   GAMMA RAY
 CALS.IN     60 280 50 00:   CALIPER FROM SONIC LOG
 DT  .US/F   60 520 32 00:   INTERVAL TRANSIT TIME
 SPR .MV     05 010 01 00:   SPONTANEOUS POTENTIAL FROM RES.
 CILD.MMHO   05 110 46 00:   CONDUCTIVITY INDUCTION LOG DEEP
 ILD .OHMM   05 120 46 00:   INDUCTION LOG DEEP
 ASN .OHMM   05 040 16 00:   AMPLIFIED SHORT NORMAL 16"
~PARAMETER INFORMATION
#MNEM.UNIT          VALUE    DESCRIPTION
#----------   ------------   ------------------------------
 PD  .                 GL:   PERMANENT DATUM
 EPD .F              5142:   ELEVATION PERMANENT DATUM
 LMF .                 KB:   LOG MEASURED FROM
 DAPD.F                 8:   FEET ABOVE PERMANENT DATUM
 DMF .                 KB:   DRILLING MEASURED FROM
 EKB .F              5150:   KELLING BUSHING
 EGL .F              5142:   GROUND LEVEL
 DATE.          7-17-1964:   RUN DATE
 RUN .                  1:   RUN NUMBER
 DD  .F              1300:   DEPTH DRILLER
 DL  .F              1310:   DEPTH LOGGER
 BLI .F              1309:   BOTTOM LOG INTERVAL
 TLI .F               107:   TOP LOG INTERVAL
 CS  .IN            12.25:   CASING SIZE
 CBD .F                10:   CASING BOTTOM DRILLER
 BS  .IN               11:   BIT SIZE
 BSD .F              1300:   BIT SIZE AT DEPTH
 DFT .            GEL-OIL:   DRILLING FLUID TYPE
 DFD .                9.6:   DRILLING FLUID DENSITY
 DFV .                 63:   DRILLING FLUID VISCOSITY
 DFPH.                  8:   DRILLING FLUID PH
 DFL .                9.6:   DRILLING FLUID LOSS
 MSS .           FLOWLINE:   MUD SAMPLE SOURCE
 RMS .OHMM           2.07:   RESISTIVITY MUD SAMPLE
 MST .F                92:   MUD SAMPLE TEMPERATURE
 RMF .OHMM           1.42:   RESISTIVITY MUD FILTRATE SAMPLE
 MFST.F                92:   MUD FILTRATE SAMPLE TEMPERATURE
 RMC .OHMM           2.33:   RESISTIVITY MUD CAKE
 MCST.F                92:   MUD CAKE SAMPLE TEMPERATURE
 MFSS.                 FP:   MUD FILTRATE SAMPLE SOURCE
 MCSS.                 FP:   MUD CAKE SAMPLE SOURCE
 TCS .HRS               1:   TIME CURCULATED STOPPED
 LUN .               4507:   LOGGING UNIT NUMBER
 LUL .              CSPR.:   LOGGING UNIT LOCATION
 ENGI.             DANNER:   RECORDING ENGINEER
 WITN.          JORGENSEN:   WITNESSED BY
 CLNT.            A2DTECH:   CLIENT CODE
 ORIG.        2" 5" PRINT:   ORIGIN OF DATA
 UWI .       490250646400:   UNIQUE WELL ID
 DICO. A2D Technologies, Inc.:   DIGITIZING COMPANY
~OTHER INFORMATION
~A   DEPT       GR       CALS         DT        SPR        CILD         ILD        ASN 
# ...
 1136.5000  -999.2500  -999.2500  -999.2500   -30.3121   137.8270     7.5636     8.7748
 1137.0000  -999.2500  -999.2500  -999.2500   -30.2169   138.1598     7.5871     8.7053
 1137.5000  -999.2500  -999.2500  -999.2500   -30.1208   138.4927     7.6028     8.6752
 1138.0000  -999.2500  -999.2500  -999.2500   -30.0249   138.3984     7.6230     8.6811
 1138.5000  -999.2500  -999.2500  -999.2500   -29.9291   137.9705     7.6396     8.6952
 1139.0000  -999.2500  -999.2500  -999.2500   -29.8331   137.5425     7.6617     8.7132
 1139.5000  -999.2500  -999.2500  -999.2500   -29.7377   137.1146     7.7034     8.7295
 1140.0000  -999.2500  -999.2500  -999.2500   -29.6443   136.6867     7.7523     8.7465
 1140.5000  -999.2500  -999.2500  -999.2500   -29.6086   136.2588     7.7898     8.7637
 1141.0000  -999.2500  -999.2500  -999.2500   -29.5878   135.8308     7.8486     8.7769
 1141.5000  -999.2500  -999.2500  -999.2500   -29.5611   136.1787     7.7775     8.7586
 1142.0000  -999.2500  -999.2500  -999.2500   -29.5370   137.1772     7.5899     8.7401
 1142.5000  -999.2500  -999.2500  -999.2500   -29.5114   138.1757     7.4263     8.7127
 1143.0000  -999.2500  -999.2500  -999.2500   -29.4867   140.7094     7.2523     8.6286
 1143.5000  -999.2500  -999.2500  -999.2500   -29.4615   144.5702     7.0668     8.5292
 1144.0000  -999.2500  -999.2500  -999.2500   -29.4365   148.3970     6.8796     8.3460
 1144.5000  -999.2500  -999.2500  -999.2500   -29.4114   152.2740     6.6947     8.1558
 1145.0000  -999.2500  -999.2500  -999.2500   -29.3864   156.1449     6.5083     7.9681
 1145.5000  -999.2500  -999.2500  -999.2500   -29.3613   160.0091     6.3237     7.7787
 1146.0000  -999.2500  -999.2500  -999.2500   -29.3366   163.8667     6.1363     7.5913
 1146.5000  -999.2500  -999.2500  -999.2500   -29.3110   167.6575     5.9628     7.4006
 1147.0000  -999.2500  -999.2500  -999.2500   -29.2871   170.4495     5.8731     7.2245
 1147.5000  -999.2500  -999.2500  -999.2500   -29.2600   173.2072     5.7951     7.1338
 1148.0000  -999.2500  -999.2500  -999.2500   -29.2392   175.9534     5.7142     7.0603
 1148.5000  -999.2500  -999.2500  -999.2500   -29.1820   178.6787     5.6358     7.0155
 1149.0000  -999.2500  -999.2500  -999.2500   -29.0490   181.6967     5.5495     6.9783
 1149.5000  -999.2500  -999.2500  -999.2500   -28.9166   184.6847     5.4054     6.9294
 1150.0000  -999.2500  -999.2500  -999.2500   -28.7803   192.6927     5.2549     6.8126
 1150.5000  -999.2500  -999.2500  -999.2500   -28.6495   200.6807     5.1041     6.6838
 1151.0000  -999.2500  -999.2500  -999.2500   -28.5091   205.7057     4.9589     6.5625
 1151.5000  -999.2500  -999.2500  -999.2500   -28.4194   206.4217     4.8521     6.3896
 1152.0000  -999.2500  -999.2500  -999.2500   -28.4328   207.7579     4.7647     6.1428
 1152.5000  -999.2500  -999.2500  -999.2500   -28.4472   207.7635     4.7787     6.0185
 1153.0000  -999.2500  -999.2500  -999.2500   -28.4636   207.2886     4.8132     6.0630
 1153.5000  -999.2500  -999.2500  -999.2500   -28.4787   206.2974     4.8337     6.1673
 1154.0000  -999.2500  -999.2500  -999.2500   -28.4945   203.6757     4.9176     6.2692
 1154.5000  -999.2500  -999.2500  -999.2500   -28.5101   199.3033     5.0626     6.3724
 1155.0000  -999.2500  -999.2500  -999.2500   -28.5257   194.9374     5.2018     6.4741
 1155.5000  -999.2500  -999.2500  -999.2500   -28.5415   190.5378     5.3396     6.5782
 1156.0000  -999.2500  -999.2500  -999.2500   -28.5565   186.1807     5.4874     6.6784
 1156.5000  -999.2500  -999.2500  -999.2500   -28.5729   181.6817     5.5750     6.7865
 1157.0000  -999.2500  -999.2500  -999.2500   -28.5868   180.9089     5.5954     6.8591
 1157.5000  -999.2500  -999.2500  -999.2500   -28.6058   180.1101     5.6278     6.8948
 1158.0000  -999.2500  -999.2500  -999.2500   -28.5958   179.3113     5.6542     6.9358
 1158.5000  -999.2500  -999.2500  -999.2500   -28.5259   178.5125     5.6837     6.9770
 1159.0000  -999.2500  -999.2500  -999.2500   -28.4555   177.6777     5.7116     7.0033
 1159.5000  -999.2500  -999.2500  -999.2500   -28.3841   177.6777     5.7404     7.0097
 1160.0000  -999.2500  -999.2500  -999.2500   -28.3132   177.6777     5.7718     7.0201
 1160.5000  -999.2500  -999.2500  -999.2500   -28.2423   177.6777     5.8069     7.0284
 1161.0000  -999.2500  -999.2500  -999.2500   -28.1708   177.1107     5.8422     7.0382
 1161.5000  -999.2500  -999.2500  -999.2500   -28.1005   175.8399     5.8776     7.0466
 1162.0000  -999.2500  -999.2500  -999.2500   -28.0309   174.5691     5.9128     7.0610
 1162.5000  -999.2500  -999.2500  -999.2500   -28.0317   173.2983     5.9483     7.1265
 1163.0000  -999.2500  -999.2500  -999.2500   -28.0669   172.0275     5.9833     7.2029
 1163.5000  -999.2500  -999.2500  -999.2500   -28.0959   170.6808     6.0194     7.2778
 1164.0000  -999.2500  -999.2500  -999.2500   -28.1279   170.6776     6.0498     7.3521
 1164.5000  -999.2500  -999.2500  -999.2500   -28.1583   171.2909     6.0070     7.3753
 1165.0000  -999.2500  -999.2500  -999.2500   -28.1896   172.3503     5.9510     7.3479
 1165.5000  -999.2500  -999.2500  -999.2500   -28.2204   173.9503     5.8962     7.3177
 1166.0000  -999.2500  -999.2500  -999.2500   -28.2515   175.5566     5.8433     7.2636
 1166.5000  -999.2500  -999.2500  -999.2500   -28.2824   177.1656     5.7840     7.1850
 1167.0000  -999.2500  -999.2500  -999.2500   -28.3132   178.7427     5.7528     7.0998
 1167.5000  -999.2500  -999.2500  -999.2500   -28.3442   179.7714     5.7568     7.0433
 1168.0000  -999.2500  -999.2500  -999.2500   -28.3750   179.9933     5.7548     7.0242
 1168.5000  -999.2500  -999.2500  -999.2500   -28.4060   180.2152     5.7560     7.0000
 1169.0000  -999.2500  -999.2500  -999.2500   -28.4369   180.4371     5.7555     7.0235
 1169.5000  -999.2500  -999.2500  -999.2500   -28.4681   180.6807     5.7559     7.0541
 1170.0000  -999.2500  -999.2500  -999.2500   -28.4989   180.2302     5.7559     7.0842
 1170.5000  -999.2500  -999.2500  -999.2500   -28.5306   179.7310     5.7560     7.1128
 1171.0000  -999.2500  -999.2500  -999.2500   -28.5605   179.2317     5.7563     7.0953
 1171.5000  -999.2500  -999.2500  -999.2500   -28.5936   178.6787     5.7532     7.0683
 1172.0000  -999.2500  -999.2500  -999.2500   -28.6142   179.2726     5.7076     7.0432
 1172.5000  -999.2500  -999.2500  -999.2500   -28.6117   180.3144     5.6506     7.0172
 1173.0000  -999.2500  -999.2500  -999.2500   -28.4870   181.9483     5.5957     6.9916
 1173.5000  -999.2500  -999.2500  -999.2500   -28.2990   183.5822     5.5397     6.9660
 1174.0000  -999.2500  -999.2500  -999.2500   -28.1269   185.2161     5.4844     6.9367
 1174.5000  -999.2500  -999.2500  -999.2500   -27.9393   186.8500     5.4286     6.8850
 1175.0000  -999.2500  -999.2500  -999.2500   -27.8120   188.6887     5.3731     6.8211
 1175.5000  -999.2500  -999.2500  -999.2500   -27.8012   189.2709     5.3173     6.7891
 1176.0000  -999.2500  -999.2500  -999.2500   -27.7920   189.9366     5.2620     6.7547
 1176.5000  -999.2500  -999.2500  -999.2500   -27.7848   190.6023     5.2715     6.7322
 1177.0000  -999.2500  -999.2500  -999.2500   -27.7764   191.2679     5.2948     6.7284
 1177.5000  -999.2500  -999.2500  -999.2500   -27.7688   191.4498     5.3149     6.7195
 1178.0000  -999.2500  -999.2500  -999.2500   -27.7608   190.7841     5.3365     6.7183
 1178.5000  -999.2500  -999.2500  -999.2500   -27.7529   190.1185     5.3575     6.7243
 1179.0000  -999.2500  -999.2500  -999.2500   -27.7450   189.4528     5.3784     6.7299
 1179.5000  -999.2500  -999.2500  -999.2500   -27.7369   188.7871     5.4000     6.7370
 1180.0000  -999.2500  -999.2500  -999.2500   -27.7289   188.1214     5.4201     6.7580
 1180.5000  -999.2500  -999.2500  -999.2500   -27.7209   187.4558     5.4436     6.7837
 1181.0000  -999.2500  -999.2500  -999.2500   -27.7129   186.7901     5.4567     6.8096
 1181.5000  -999.2500  -999.2500  -999.2500   -27.7048   186.1245     5.4550     6.8339
