~VERSION INFORMATION
 VERS.                2.0:   CWLS LOG ASCII STANDARD - VERSION 2.0
 WRAP.                 NO:   ONE LINE PER DEPTH STEP
~WELL INFORMATION
#MNEM.UNIT      DATA TYPE    INFORMATION
#----------   ------------   ------------------------------
 STRT.F           30.0000:   START DEPTH
 STOP.F          697.0000:   STOP DEPTH
 STEP.F            0.5000:   STEP LENGTH
 NULL.          -999.2500:   NO VALUE
 COMP. LAWRENCE/ALLISON INC:   COMPANY
 WELL.    81-66 SX #15-15:   WELL
 FLD .             TEAPOT:   FIELD
 LOC .      S15 T38N R78W:   LOCATION
 CNTY.            NATRONA:   COUNTY
 STAT.            WYOMING:   STATE
 CTRY. UNITED STATES OF AMERICA:   COUNTRY
 SRVC.           Gearhart:   SERVICE COMPANY
 DATE.        15-JUL-1987:   LOGDATE
 API .       490251117000:   API NUMBER
~CURVE INFORMATION
#MNEM.UNIT       API CODE    CURVE DESCRIPTION
#----------   ------------   ------------------------------
 DEPT.F                  :   
 GRR .GAPI   07 310 01 00:   GAMMA RAY
 ILD .OHMM   07 120 46 00:   INDUCTION LOG DEEP
 ILM .OHMM   07 120 44 00:   INDUCTION LOG MEDIUM
~PARAMETER INFORMATION
#MNEM.UNIT          VALUE    DESCRIPTION
#----------   ------------   ------------------------------
 PD  .                 GL:   PERMANENT DATUM
 EPD .F              5232:   ELEVATION PERMANENT DATUM
 LMF .                 KB:   LOG MEASURED FROM
 DAPD.F                 8:   FEET ABOVE PERMANENT DATUM
 DMF .                 KB:   DRILLING MEASURED FROM
 EKB .F              5240:   KELLING BUSHING
 EDF .F              5238:   DRILLING FLOOR
 EGL .F              5232:   GROUND LEVEL
 DATE.        28-AUG-1987:   RUN DATE
 RUN .                  1:   RUN NUMBER
 DD  .F               700:   DEPTH DRILLER
 DL  .F               706:   DEPTH LOGGER
 BLI .F               700:   BOTTOM LOG INTERVAL
 TLI .F                30:   TOP LOG INTERVAL
 CS  .IN            8.625:   CASING SIZE
 CBD .F                48:   CASING BOTTOM DRILLER
 CBL .F                48:   CASING BOTTOM LOGGER
 BS  .IN            7.875:   BIT SIZE
 BSD .F               700:   BIT SIZE AT DEPTH
 DFT .                AIR:   DRILLING FLUID TYPE
 TCS .HRS            0200:   TIME CURCULATED STOPPED
 TLAB.HRS            0449:   TIME LOGGER AT BOTTOM
 MRT .F                80:   MAXIMUM RECORDED TEMPERATURE
 LUN .               7597:   LOGGING UNIT NUMBER
 LUL .           GILLETTE:   LOGGING UNIT LOCATION
 ENGI.         WEATHERMON:   RECORDING ENGINEER
 WITN.             STRONG:   WITNESSED BY
 CLNT.            A2DTECH:   CLIENT CODE
 ORIG.       2", 5" PRINT:   ORIGIN OF DATA
 UWI .       490251117000:   UNIQUE WELL ID
 DICO. A2D Technologies, Inc.:   DIGITIZING COMPANY
~OTHER INFORMATION
~A   DEPT       GRR       ILD        ILM   
   30.0000    81.8418  -999.2500  -999.2500
   30.5000    80.9375  -999.2500  -999.2500
   31.0000    77.9384  -999.2500  -999.2500
   31.5000    76.1496  -999.2500  -999.2500
   32.0000    76.1763  -999.2500  -999.2500
   32.5000    76.8081  -999.2500  -999.2500
   33.0000    77.7428  -999.2500  -999.2500
   33.5000    78.3752  -999.2500  -999.2500
   34.0000    78.4076  -999.2500  -999.2500
   34.5000    79.0394  -999.2500  -999.2500
   35.0000    80.2763  -999.2500  -999.2500
   35.5000    81.2107  -999.2500  -999.2500
   36.0000    82.4476  -999.2500  -999.2500
   36.5000    83.3820  -999.2500  -999.2500
   37.0000    84.3164  -999.2500  -999.2500
   37.5000    85.2507  -999.2500  -999.2500
   38.0000    85.2774  -999.2500  -999.2500
   38.5000    85.3041  -999.2500  -999.2500
   39.0000    84.7255  -999.2500  -999.2500
   39.5000    83.7912  -999.2500  -999.2500
   40.0000    81.4572  -999.2500  -999.2500
   40.5000    78.4582  -999.2500  -999.2500
   41.0000    77.5704  -999.2500  -999.2500
   41.5000    78.5115  -999.2500  -999.2500
   42.0000    79.1433  -999.2500  -999.2500
   42.5000    79.4725  -999.2500  -999.2500
   43.0000    77.9863  -999.2500  -999.2500
   43.5000    74.9872  -999.2500  -999.2500
   44.0000    74.0938  -999.2500  -999.2500
   44.5000    75.9768  -999.2500  -999.2500
   45.0000    78.1745  -999.2500  -999.2500
   45.5000    79.6391  -999.2500  -999.2500
   46.0000    79.6657  -999.2500  -999.2500
   46.5000    78.4821  -999.2500  -999.2500
   47.0000    77.9036  -999.2500  -999.2500
   47.5000    77.6210  -999.2500  -999.2500
   48.0000    78.8646    15.0582  1974.5952
   48.5000    79.4964    13.9547  1977.7051
   49.0000    77.7077    13.3902  1942.5895
   49.5000    75.0112    14.9751   849.4432
   50.0000    73.8275    27.6463   429.8889
   50.5000    77.3142    33.1476   556.7593
   51.0000    83.7741     6.9728   120.5449
   51.5000    90.5556     3.5018    11.9790
   52.0000    93.9106     2.9644     3.4992
   52.5000    93.6346     3.6844     3.9412
   53.0000    90.9381    21.1355     5.5073
   53.5000    87.9391    54.5013     8.9062
   54.0000    85.5452    62.2310    14.2037
   54.5000    86.1770    31.6951    19.0364
   55.0000    88.3216    20.8830    26.7944
   55.5000    90.1637    17.8016    27.5616
   56.0000    89.8759    17.0815    24.0016
   56.5000    88.0990    17.4503    20.4667
   57.0000    88.4349    18.6138    16.6229
   57.5000    89.9744    19.9840    14.9860
   58.0000    93.0268    21.5366    14.6864
   58.5000    94.2637    22.1553    14.9023
   59.0000    92.7775    20.8196    15.7658
   59.5000    90.3836    18.8952    16.9130
   60.0000    91.3180    17.7561    17.7796
   60.5000    93.7652    17.6392    18.1592
   61.0000    95.0021    17.7729    18.2983
   61.5000    92.3056    18.1567    18.5673
   62.0000    88.9561    18.1654    18.7096
   62.5000    87.5178    18.3013    18.7223
   63.0000    88.4588    18.3118    18.7350
   63.5000    88.1829    18.3205    18.6145
   64.0000    86.6967    18.3292    18.3727
   64.5000    86.4141    18.0844    18.1288
   65.0000    87.3552    17.8407    17.8778
   65.5000    88.5921    17.6045    17.6577
   66.0000    89.8290    17.3693    17.4256
   66.5000    91.3686    17.1373    17.3165
   67.0000    92.3029    16.9084    16.9732
   67.5000    93.2577    16.7799    16.7472
   68.0000    95.7216    16.4616    16.5299
   68.5000    95.4153    16.2417    16.3121
   69.0000    95.7445    15.9136    16.0979
   69.5000    96.3763    15.5921    15.7763
   70.0000    97.9158    15.2771    15.2126
   70.5000    98.8502    14.7615    13.9407
   71.0000    97.9691    14.0661    13.1036
   71.5000    97.9958    13.1264    12.3167
   72.0000    97.4106    11.9690    11.1813
   72.5000    98.0491    10.7001    10.0802
   73.0000   101.4040     9.7456     9.1510
   73.5000   107.5714     8.9066     8.9059
   74.0000   110.6324     8.2539     8.4295
   74.5000   111.4755     7.7025     8.0789
   75.0000   111.5022     7.2381     7.7124
   75.5000   112.1340     6.9938     7.4022
   76.0000   114.2786     6.9003     7.2039
   76.5000   116.4233     6.8082     7.1092
   77.0000   117.9628     6.8115     7.0635
   77.5000   118.8972     6.8148     6.9718
   78.0000   119.5290     6.7707     6.9280
   78.5000   119.8582     6.8220     7.1783
   79.0000   119.8850     6.8729     7.4396
   79.5000   119.9115     6.9726     7.7677
   80.0000   118.1294     6.9759     7.9853
   80.5000   115.1303     7.0280     8.0465
   81.0000   111.8287     7.0313     8.0520
   81.5000   108.5270     6.9859     8.0002
   82.0000   105.5280     6.9892     7.4172
   82.5000   103.7392     6.9440     7.2677
   83.0000   103.4566     6.8513     7.2233
   83.5000   106.5157     6.8070     7.1782
   84.0000   109.2655     6.7630     7.1333
   84.5000   112.0153     6.7192     7.1892
   85.0000   114.5033     6.6758     7.1940
   85.5000   117.3061     6.6798     7.1989
   86.0000   118.4559     6.6829     7.2541
   86.5000   117.5748     6.6861     7.3097
   87.0000   116.3912     6.6893     7.3657
   87.5000   114.9050     6.7394     7.4222
   88.0000   113.1162     6.8378     7.4790
   88.5000   111.9326     6.8888     7.5375
   89.0000   111.3541     6.9402     7.6540
   89.5000   111.6833     7.0901     7.8150
   90.0000   112.6177     7.2432     7.7439
   90.5000   113.5521     7.3995     7.8558
   91.0000   112.9736     7.5593     7.9139
   91.5000   112.3951     7.7394     8.0285
   92.0000   113.3361     7.8930     8.0879
   92.5000   114.8756     8.0597     8.2047
   93.0000   115.8100     8.1774     8.3814
   93.5000   116.4351     8.2484     8.5025
   94.0000   113.7453     8.3000     8.5654
   94.5000   110.1411     8.3039     8.5689
   95.0000   108.0497     8.3079     8.5724
   95.5000   107.7731     8.1969     8.4573
   96.0000   108.4056     8.0874     8.3337
   96.5000   109.9637     7.9793     8.1185
   97.0000   110.9249     7.7604     7.8986
   97.5000   111.5180     7.6488     7.6846
   98.0000   110.0318     7.6118     7.4765
   98.5000   108.8481     7.5747     7.2739
   99.0000   109.7825     7.5123     7.1257
   99.5000   112.2297     7.4128     6.9818
  100.0000   113.4600     7.4164     6.9362
  100.5000   110.7702     7.4200     6.8908
  101.0000   107.7711     7.4243     6.9425
  101.5000   105.0746     7.4278     6.9939
  102.0000   106.3197     7.4827     7.0457
  102.5000   109.1528     7.4868     7.1475
  103.0000   112.4230     7.4904     7.2507
  103.5000   111.2393     7.4940     7.4069
  104.0000   108.8454     7.4975     7.5664
  104.5000   107.6618     7.5535     7.7294
  105.0000   109.5039     7.6099     7.7325
  105.5000   111.9511     7.6668     7.7358
  106.0000   112.2803     7.7788     7.7396
  106.5000   110.4915     7.8369     7.7428
  107.0000   109.2869     7.9505     7.7459
  107.5000   107.4490     8.0658     7.8032
  108.0000   107.7929     8.2400     7.9160
  108.5000   110.2548     8.3015     8.0864
  109.0000   112.7168     8.4219     8.2606
  109.5000   113.9684     8.4259     8.2640
  110.0000   114.6149     8.4299     8.3252
  110.5000   111.3011     8.4340     8.3287
  111.0000   108.9488     8.3222     8.2741
  111.5000   109.6056     8.2674     8.0508
  112.0000   112.6727     8.0452     7.9257
  112.5000   115.7398     7.8817     7.7147
  113.0000   118.8068     7.9169     7.5093
  113.5000   121.2688     7.7063     7.4104
  114.0000   121.9153     7.5469     7.3143
  114.5000   121.9566     7.3544     7.2211
  115.0000   121.3929     7.2591     7.1771
  115.5000   120.2239     7.1635     7.1337
  116.0000   118.6969     7.1200     7.0906
  116.5000   116.6758     7.1279     7.0476
  117.0000   114.3069     7.1342     7.0049
  117.5000   112.2303     7.1904     7.0156
  118.0000   111.0614     7.2976     6.9207
  118.5000   110.7898     7.4583     6.8310
  119.0000   111.1441     7.5768     6.8852
  119.5000   111.4880     7.7918     7.0381
  120.0000   110.9242     7.9081     7.2434
  120.5000   108.2424     8.0821     7.4547
