~VERSION INFORMATION
 VERS.                2.0:   CWLS LOG ASCII STANDARD - VERSION 2.0
 WRAP.                 NO:   ONE LINE PER DEPTH STEP
~WELL INFORMATION
#MNEM.UNIT      DATA TYPE    INFORMATION
#----------   ------------   ------------------------------
 STRT.F           30.0000:   START DEPTH
 STOP.F          620.0000:   STOP DEPTH
 STEP.F            0.5000:   STEP LENGTH
 NULL.          -999.2500:   NO VALUE
 COMP. FENIX & SCISSON INC:   COMPANY
 WELL.       NPR-3 #62-15:   WELL
 FLD .             TEAPOT:   FIELD
 LOC .      S15 T38N R78W:   LOCATION
 CNTY.            NATRONA:   COUNTY
 STAT.            WYOMING:   STATE
 CTRY. UNITED STATES OF AMERICA:   COUNTRY
 SRVC.           BIRDWELL:   SERVICE COMPANY
 DATE.        08-JUN-1978:   LOGDATE
 API .       490251063700:   API NUMBER
~CURVE INFORMATION
#MNEM.UNIT       API CODE    CURVE DESCRIPTION
#----------   ------------   ------------------------------
 DEPT.F                  :   
 SPR .MV     05 010 01 00:   SPONTANEOUS POTENTIAL FROM RES.
 SN  .OHMM   05 040 16 00:   SHORT NORMAL 16"
 ILD .OHMM   05 120 46 00:   INDUCTION LOG DEEP
 CALD.IN     45 280 60 00:   CALIPER FROM DENSITY LOG
 GRD .GAPI   45 310 01 00:   GAMMA RAY FROM DENSITY LOG
 CORR.G/C3   45 356 01 00:   DENSITY CORRECTION
 DPHI.DEC    45 890 12 00:   DENSITY POROSITY SANDSTONE
 DEN .G/C3   45 350 01 00:   DENSITY
~PARAMETER INFORMATION
#MNEM.UNIT          VALUE    DESCRIPTION
#----------   ------------   ------------------------------
 PD  .                 GL:   PERMANENT DATUM
 EPD .F              5246:   ELEVATION PERMANENT DATUM
 LMF .                 KB:   LOG MEASURED FROM
 DAPD.F                 4:   FEET ABOVE PERMANENT DATUM
 DMF .                 KB:   DRILLING MEASURED FROM
 EKB .F              5250:   KELLING BUSHING
 EGL .F              5246:   GROUND LEVEL
 DATE.        08-JUN-1978:   RUN DATE
 RUN .                  1:   RUN NUMBER
 DD  .F               620:   DEPTH DRILLER
 DL  .F               627:   DEPTH LOGGER
 BLI .F               620:   BOTTOM LOG INTERVAL
 TLI .F                42:   TOP LOG INTERVAL
 CS  .IN            8.625:   CASING SIZE
 CBD .F                40:   CASING BOTTOM DRILLER
 CBL .F                42:   CASING BOTTOM LOGGER
 BS  .IN            7.875:   BIT SIZE
 BSD .F               620:   BIT SIZE AT DEPTH
 DFT .                KCL:   DRILLING FLUID TYPE
 DFD .                8.7:   DRILLING FLUID DENSITY
 DFV .                 31:   DRILLING FLUID VISCOSITY
 DFPH.               10.5:   DRILLING FLUID PH
 DFL .                 10:   DRILLING FLUID LOSS
 MSS .           FLOWLINE:   MUD SAMPLE SOURCE
 RMS .OHMM            .26:   RESISTIVITY MUD SAMPLE
 MST .F                76:   MUD SAMPLE TEMPERATURE
 RMF .OHMM            .28:   RESISTIVITY MUD FILTRATE SAMPLE
 MFST.F                76:   MUD FILTRATE SAMPLE TEMPERATURE
 RMC .OHMM            .40:   RESISTIVITY MUD CAKE
 MCST.F                77:   MUD CAKE SAMPLE TEMPERATURE
 MFSS.               MEAS:   MUD FILTRATE SAMPLE SOURCE
 MCSS.               MEAS:   MUD CAKE SAMPLE SOURCE
 RMB .OHMM            .28:   RESISTIVITY MUD AT BHT
 BHT .F                70:   BOTTOM HOLE TEMPERATURE
 TCS .HRS            0400:   TIME CURCULATED STOPPED
 MRT .F                70:   MAXIMUM RECORDED TEMPERATURE
 LUN .               2958:   LOGGING UNIT NUMBER
 LUL .               CASP:   LOGGING UNIT LOCATION
 ENGI.             MILLER:   RECORDING ENGINEER
 WITN.           MCGINLEY:   WITNESSED BY
 CLNT.            A2DTECH:   CLIENT CODE
 ORIG.           5" PRINT:   ORIGIN OF DATA
 UWI .       490251063700:   UNIQUE WELL ID
 DICO. A2D Technologies, Inc.:   DIGITIZING COMPANY
~OTHER INFORMATION
~A   DEPT      SPR         SN        ILD       CALD        GRD       CORR       DPHI        DEN   
# ...
  475.5000   -27.1560    14.5160     9.6861     7.8717    67.8087     0.0096     0.1600     2.4002
  476.0000   -27.1360    14.5258     9.6918     7.8857    66.2891     0.0094     0.1594     2.4001
  476.5000   -27.2737    14.4331     9.6963     7.8391    66.5979     0.0093     0.1597     2.3978
  477.0000   -27.2536    14.4452     9.7681     7.7928    68.2460     0.0107     0.1631     2.3948
  477.5000   -27.2376    14.3530     9.8405     7.7465    69.2896     0.0188     0.1682     2.3925
  478.0000   -27.2216    14.2661     9.8451     7.7001    69.4278     0.0299     0.1653     2.3932
  478.5000   -27.2051    14.2757     9.8498     7.6840    65.3187     0.0372     0.1555     2.4081
  479.0000   -27.3393    14.1870     9.8545     7.6828    64.5935     0.0401     0.1519     2.4231
  479.5000   -27.4730    14.0987     9.8592     7.6971    65.9503     0.0415     0.1488     2.4290
  480.0000   -27.7564    13.9170     9.8649     7.6956    65.4719     0.0428     0.1410     2.4417
  480.5000   -28.0357    13.9263     9.8695     7.6795    66.8740     0.0442     0.1301     2.4567
  481.0000   -28.3191    14.4255     9.8050     7.6331    68.6536     0.0470     0.1200     2.4596
  481.5000   -28.4568    14.9427     9.8108     7.6019    69.5258     0.0514     0.1137     2.4963
  482.0000   -28.5868    15.2659     9.8154     7.6008    67.0721     0.0573     0.1027     2.5435
  482.5000   -28.5704    15.3821     9.8200     7.5997    58.3509     0.0586     0.0675     2.5615
  483.0000   -28.5539    15.3924     9.8928     7.5985    59.7620     0.0480     0.0693     2.5667
  483.5000   -28.5345    15.4029     9.8975     7.6127    61.2465     0.0359     0.0768     2.5516
  484.0000   -28.5184    15.3070     9.9022     7.5963    61.9759     0.0253     0.0844     2.5426
  484.5000   -28.5024    15.3199     9.9079     7.5048    62.1011     0.0147     0.0903     2.5185
  485.0000   -28.4864    15.2221     9.7765     7.3531    61.9428     0.0055     0.0965     2.4794
  485.5000   -28.4704    15.1274     9.5805     7.3221    65.5679    -0.0036     0.1191     2.4389
  486.0000   -28.4544    14.7274     9.3237     7.7876    68.5984    -0.0097     0.1454     2.4313
  486.5000   -28.4384    14.4326     9.0727     7.8319    68.8488    -0.0098     0.1463     2.4335
  487.0000   -28.5721    14.0510     8.8908     7.8458    67.4840     0.0110     0.1454     2.4335
  487.5000   -28.5554    13.7720     8.8347     7.8598    65.8198     0.0198     0.1451     2.4342
  488.0000   -28.5360    13.4961     8.7176     7.8737    63.8545     0.0257     0.1442     2.4341
  488.5000   -28.6697    13.3100     8.6617     7.8723    64.6000     0.0300     0.1430     2.4341
  489.0000   -28.6537    13.0599     8.6668     7.8561    68.0563     0.0359     0.1412     2.4348
  489.5000   -28.6377    13.0687     8.6709     7.8550    70.4584     0.0403     0.1388     2.4407
  490.0000   -28.6217    13.0774     8.6749     7.8538    72.1076     0.0431     0.1358     2.4497
  490.5000   -28.4560    12.9961     8.6790     7.8377    70.1422     0.0430     0.1316     2.4556
  491.0000   -28.4400    13.0049     8.6831     7.8365    64.4118     0.0428     0.1268     2.4638
  491.5000   -28.4237    12.6589     8.6872     7.8203    60.4886     0.0412     0.1223     2.4675
  492.0000   -28.4039    12.4935     8.6913     7.8042    57.1678     0.0366     0.1216     2.4675
  492.5000   -28.3879    12.5887     8.6954     7.8332    59.1182     0.0335     0.1244     2.4659
  493.0000   -28.3719    12.6084     8.7598     7.8320    63.6287     0.0273     0.1262     2.4606
  493.5000   -28.3559    12.6951     8.7036     7.8309    66.9345     0.0242     0.1265     2.4568
  494.0000   -28.3399    12.6141     8.7087     7.8147    68.7342     0.0226     0.1301     2.4522
  494.5000   -28.3239    12.3636     8.6518     7.8287    69.1803     0.0224     0.1394     2.4469
  495.0000   -28.3078    12.2867     8.6572     7.8275    66.1589     0.0238     0.1379     2.4446
  495.5000   -28.2905    12.2970     8.6610     7.8415    64.0448     0.0282     0.1316     2.4461
  496.0000   -28.2754    12.3053     8.6650     7.8554    68.7041     0.0325     0.1274     2.4573
  496.5000   -28.2590    12.3136     8.6093     7.8694    72.3110     0.0369     0.1256     2.4670
  497.0000   -28.0901    12.3219     8.6135     7.8833    74.5626     0.0382     0.1208     2.4714
  497.5000   -28.0741    12.4159     8.6176     7.8972    74.8581     0.0396     0.1169     2.4744
  498.0000   -28.0581    12.6864     8.5632     7.9111    71.2343     0.0395     0.1151     2.4781
  498.5000   -28.1958    12.7829     8.5673     7.8949    67.7629     0.0408     0.1190     2.4780
  499.0000   -28.1757    13.0594     8.6297     7.9089    67.6048     0.0407     0.1226     2.4712
  499.5000   -28.1597    13.1588     8.5163     7.9078    67.5973     0.0390     0.1233     2.4667
  500.0000   -28.1437    13.1370     8.5361     7.8916    67.7511     0.0386     0.1200     2.4658
  500.5000   -28.2763    12.9936     8.6400     7.8901    67.8047     0.0374     0.1215     2.4651
  501.0000   -28.2616    13.1855     8.7086     7.8883    67.8583     0.0361     0.1245     2.4643
  501.5000   -28.2469    13.1945     8.7134     7.8869    67.9119     0.0349     0.1233     2.4635
  502.0000   -28.2322    13.1125     8.7181     7.8552    66.7481     0.0341     0.1239     2.4620
  502.5000   -28.2175    13.0267     8.7229     7.6881    64.0120     0.0340     0.1259     2.4612
  503.0000   -28.2028    12.7724     8.7276     7.5360    62.9163     0.0339     0.1272     2.4604
  503.5000   -28.1881    12.5210     8.7323     7.5198    65.3175     0.0338     0.1285     2.4588
  504.0000   -28.3234    12.3575     8.7371     7.6385    66.8108     0.0337     0.1294     2.4573
  504.5000   -28.3084    12.1941     8.7418     7.7725    69.2120     0.0336     0.1297     2.4565
  505.0000   -28.4434    12.1204     8.7466     7.8640    71.7641     0.0365     0.1297     2.4587
  505.5000   -28.4281    12.2127     8.7515     7.6189    74.3162     0.0469     0.1288     2.4632
  506.0000   -28.4103    12.5635     8.7563     7.0301    79.1307     0.0558     0.1186     2.4707
  506.5000   -28.2459    12.7469     8.7005     6.6973    75.8004     0.0587     0.1244     2.4646
  507.0000   -28.2312    12.6656     8.7064     6.5151    73.8276     0.0646     0.1319     2.4511
  507.5000   -27.9171    12.5887     8.8936     6.8223    73.0614     0.0690     0.1361     2.4458
  508.0000   -27.7527    13.2219     9.2751     7.1847    73.9544     0.0614     0.1382     2.4405
  508.5000   -27.2889    13.6044     9.6730     7.4074    74.5457     0.0554     0.1478     2.4337
  509.0000   -26.2263    13.7098    10.1578     7.5178    73.0254     0.0508     0.1856     2.4172
  509.5000   -24.5649    14.2213    10.5935     7.5317    70.2984     0.0492     0.2088     2.3789
  510.0000   -23.5023    14.8100    10.9719     7.5148    63.8007     0.0491     0.2280     2.3031
  510.5000   -23.0385    14.9228    11.2855     7.4681    61.5262     0.0655     0.2433     2.2655
  511.0000   -22.8741    15.3514    11.6080     7.4667    58.0451     0.1253     0.2097     2.2685
  511.5000   -22.8593    15.9018    11.9398     7.4501    54.4132     0.1798     0.1938     2.3405
  512.0000   -22.8443    15.8004    11.9463     7.3583    53.3454     0.2209     0.1848     2.4485
  512.5000   -22.8293    15.7022    11.3820     7.4020    53.4842     0.1519     0.1800     2.4582
  513.0000   -22.8116    15.7155    11.0726     7.4908    53.9286     0.0665     0.1855     2.4051
  513.5000   -22.7969    15.6152    10.8625     7.5797    54.9803     0.0425     0.2044     2.3488
  514.0000   -22.9356    15.6285    10.7936     7.6238    57.2308     0.0544     0.2051     2.3268
  514.5000   -22.9172    15.4245    10.7251     7.5014    58.5722     0.0632     0.1981     2.3322
  515.0000   -22.9025    15.4349    10.7324     7.5150    57.9186     0.0692     0.1939     2.3404
  515.5000   -22.8866    15.3390    10.6628     7.6942    56.5551     0.0721     0.1909     2.3463
