~VERSION INFORMATION
 VERS.                2.0:   CWLS LOG ASCII STANDARD - VERSION 2.0
 WRAP.                 NO:   ONE LINE PER DEPTH STEP
~WELL INFORMATION
#MNEM.UNIT      DATA TYPE    INFORMATION
#----------   ------------   ------------------------------
 STRT.F           14.0000:   START DEPTH
 STOP.F          692.5000:   STOP DEPTH
 STEP.F            0.5000:   STEP LENGTH
 NULL.          -999.2500:   NO VALUE
 COMP. FENIX & SCISSON INC:   COMPANY
 WELL. NPR #3 #27-51 SX 11 WP:   WELL
 FLD .        TEAPOT DOME:   FIELD
 LOC .      S11 T38N R78W:   LOCATION
 CNTY.            NATRONA:   COUNTY
 STAT.            WYOMING:   STATE
 CTRY. UNITED STATES OF AMERICA:   COUNTRY
 SRVC.      Dresser Atlas:   SERVICE COMPANY
 DATE.        16-AUG-1980:   LOGDATE
 API .       490251083900:   API NUMBER
~CURVE INFORMATION
#MNEM.UNIT       API CODE    CURVE DESCRIPTION
#----------   ------------   ------------------------------
 DEPT.F                  :   
 RHOB.G/C3   45 350 01 00:   BULK DENSITY
 CORR.G/C3   45 356 01 00:   DENSITY CORRECTION
 GRD .GAPI   45 310 01 00:   GAMMA RAY FROM DENSITY LOG
 CALD.IN     45 280 60 00:   CALIPER
 NPOR.DEC    42 890 03 00:   NEUTRON POROSITY SANDSTONE
 DPOR.DEC    45 890 12 00:   DENSITY POROSITY SANDSTONE
 SPR .MV     07 010 01 00:   SPONTANEOUS POTENTIAL
 SFL .OHMM   07 220 01 00:   SHALLOW FOCUSED LOG RESISTIVITY
 ILM .OHMM   07 120 44 00:   INDUCTION LOG MEDIUM
 ILD .OHMM   07 120 46 00:   INDUCTION LOG DEEP
~PARAMETER INFORMATION
#MNEM.UNIT          VALUE    DESCRIPTION
#----------   ------------   ------------------------------
 PD  .                 GL:   PERMANENT DATUM
 EPD .F              5194:   ELEVATION PERMANENT DATUM
 LMF .                 KB:   LOG MEASURED FROM
 DAPD.F                 5:   FEET ABOVE PERMANENT DATUM
 DMF .                 KB:   DRILLING MEASURED FROM
 EKB .F              5199:   KELLING BUSHING
 EGL .F              5194:   GROUND LEVEL
 DATE.            8-16-80:   RUN DATE
 RUN .                  1:   RUN NUMBER
 DD  .F               685:   DEPTH DRILLER
 DL  .F               693:   DEPTH LOGGER
 BLI .F               692:   BOTTOM LOG INTERVAL
 TLI .F                25:   TOP LOG INTERVAL
 BS  .IN            7.875:   BIT SIZE
 BSD .F               685:   BIT SIZE AT DEPTH
 DFT .                KCL:   DRILLING FLUID TYPE
 DFD .                9.4:   DRILLING FLUID DENSITY
 DFV .                 45:   DRILLING FLUID VISCOSITY
 DFPH.                 11:   DRILLING FLUID PH
 DFL .                7.2:   DRILLING FLUID LOSS
 MSS .           FLOWLINE:   MUD SAMPLE SOURCE
 RMS .OHMM            .74:   RESISTIVITY MUD SAMPLE
 MST .F                60:   MUD SAMPLE TEMPERATURE
 RMF .OHMM            .44:   RESISTIVITY MUD FILTRATE SAMPLE
 MFST.F                60:   MUD FILTRATE SAMPLE TEMPERATURE
 RMC .OHMM           1.35:   RESISTIVITY MUD CAKE
 MCST.F                60:   MUD CAKE SAMPLE TEMPERATURE
 MFSS.               MEAS:   MUD FILTRATE SAMPLE SOURCE
 MCSS.               MEAS:   MUD CAKE SAMPLE SOURCE
 TCS .HRS               1:   TIME CURCULATED STOPPED
 LUN .               6180:   LOGGING UNIT NUMBER
 LUL .               CODY:   LOGGING UNIT LOCATION
 ENGI.              HOYER:   RECORDING ENGINEER
 WITN.           MCINTYRE:   WITNESSED BY
 CLNT.            A2DTECH:   CLIENT CODE
 ORIG.      2" 2.5" PRINT:   ORIGIN OF DATA
 UWI .       490251083900:   UNIQUE WELL ID
 DICO. A2D Technologies, Inc.:   DIGITIZING COMPANY
~OTHER INFORMATION
~A   DEPT     RHOB       CORR        GRD       CALD       NPOR       DPOR        SPR        SFL         ILM       ILD   
# ...
  315.5000     2.4424     0.0159   111.6286     8.1654     0.2643     0.1384   -81.4111     9.1032     7.6330     7.9841
  316.0000     2.4486     0.0187   113.0206     8.1670     0.2622     0.1393   -81.1962     9.1379     7.4844     7.7309
  316.5000     2.4574     0.0212   114.4559     8.1686     0.2595     0.1333   -80.9724     9.1632     7.3508     7.5047
  317.0000     2.4656     0.0237   112.9943     8.1702     0.2645     0.1265   -80.7713     8.8926     7.1266     7.2851
  317.5000     2.4576     0.0192   112.2740     8.1718     0.2675     0.1302   -81.4587     8.6008     6.9282     7.0720
  318.0000     2.4423     0.0143   114.2915     8.1734     0.2655     0.1370   -82.1461     8.3164     6.7354     6.8651
  318.5000     2.4362     0.0091   116.0199     8.1750     0.2643     0.1425   -82.3382     8.0837     6.6445     6.7677
  319.0000     2.4364     0.0080   114.3412     8.1766     0.2687     0.1425   -81.9759     7.6810     6.6445     6.7677
  319.5000     2.4431     0.0078   112.7891     8.1782     0.2731     0.1425   -81.4376     7.3508     6.6445     6.7775
  320.0000     2.4640     0.0110   112.4406     8.1798     0.2739     0.1417   -81.2196     8.1687     6.6445     6.8516
  320.5000     2.4802     0.0187   111.0619     8.1813     0.2739     0.1200   -81.4038     8.9964     6.6831     6.9264
  321.0000     2.4848     0.0262   110.0395     8.1829     0.2739     0.1183   -81.5398     8.7063     6.7547     7.0021
  321.5000     2.4907     0.0334   111.4311     8.1845     0.2709     0.1163   -81.5368     8.4099     6.8271     7.0786
  322.0000     2.4977     0.0397   113.5356     8.1861     0.2683     0.1133   -81.5032     8.1235     6.9003     7.1560
  322.5000     2.4986     0.0355   112.1993     8.1877     0.2712     0.1079   -81.3546     8.0578     6.9742     7.2342
  323.0000     2.4882     0.0317   110.6328     8.1893     0.2753     0.1110   -81.2103     8.5048     7.0209     7.2836
  323.5000     2.4836     0.0275   112.0375     8.1909     0.2794     0.1168   -81.0695     8.8327     7.0512     7.2836
  324.0000     2.4868     0.0235   113.3185     8.1925     0.2812     0.1157   -80.9236     8.6216     7.0904     7.2836
  324.5000     2.4818     0.0193   114.3281     8.1941     0.2804     0.1173   -80.6272     8.3612     7.1298     7.3683
  325.0000     2.4769     0.0160   115.6459     8.1957     0.2780     0.1200   -80.7321     8.0543     7.1695     7.4770
  325.5000     2.4754     0.0175   112.5395     8.1975     0.2816     0.1216   -81.1212     8.1484     7.2093     7.5873
  326.0000     2.4820     0.0207   112.4518     8.1987     0.2870     0.1205   -81.5150     8.3774     7.3108     7.6992
  326.5000     2.4878     0.0236   108.5845     8.2001     0.2847     0.1146   -81.3672     8.6128     7.4286     7.8128
  327.0000     2.4773     0.0162   108.5201     8.2015     0.2803     0.1177   -81.1738     8.7520     7.5483     7.9281
  327.5000     2.4683     0.0093   108.5555     8.2028     0.2763     0.1230   -80.9816     8.7520     7.6700     8.0450
  328.0000     2.4779     0.0041   109.4000     8.2042     0.2740     0.1246   -80.7827     8.7520     7.7936     8.1637
  328.5000     2.4985     0.0102   110.1614     8.2056     0.2722     0.1160   -80.7380     8.7520     7.8388     8.2071
  329.0000     2.5049     0.0121   110.8653     8.2070     0.2641     0.1086   -80.7942     8.9891     7.7743     8.0673
  329.5000     2.5020     0.0107   111.6615     8.2084     0.2568     0.1063   -81.2332     9.1632     7.6752     7.9353
  330.0000     2.4872     0.0092   112.7340     8.2097     0.2515     0.1102   -81.6764     8.6224     7.5773     7.8388
  330.5000     2.4841     0.0081   114.1220     8.2111     0.2548     0.1153   -82.1172     8.1386     7.4807     7.7290
  331.0000     2.4801     0.0099   115.2450     8.2125     0.2606     0.1185   -82.1361     7.9841     7.3854     7.5659
  331.5000     2.4768     0.0123   114.5312     8.2139     0.2675     0.1185   -81.9652     7.9841     7.2912     7.4186
  332.0000     2.4746     0.0147   113.5559     8.2153     0.2722     0.1225   -81.4644     7.8093     7.1983     7.4186
  332.5000     2.4763     0.0171   113.8254     8.2166     0.2788     0.1222   -81.1971     7.6150     7.0857     7.5561
  333.0000     2.4791     0.0196   114.3740     8.2180     0.2804     0.1210   -81.3868     7.5561     7.0857     7.5561
  333.5000     2.4812     0.0219   113.2177     8.2194     0.2836     0.1193   -81.5410     7.7075     7.2309     7.5823
  334.0000     2.4776     0.0239   113.0657     8.2208     0.2834     0.1192   -81.4909     7.9297     7.3298     7.6704
  334.5000     2.4703     0.0216   113.9377     8.2221     0.2749     0.1240   -81.1926     8.1321     7.4186     7.7672
  335.0000     2.4629     0.0194   111.4740     8.2235     0.2671     0.1297   -80.8964     7.9768     7.4186     7.7160
  335.5000     2.4686     0.0170   110.4980     8.2249     0.2618     0.1279   -80.5952     7.9111     7.4186     7.6450
  336.0000     2.4800     0.0160   110.5388     8.2263     0.2711     0.1226   -80.5390     7.9111     7.4186     7.6258
  336.5000     2.4836     0.0176   113.9110     8.2276     0.2810     0.1188   -80.5376     7.9112     7.4186     7.6258
  337.0000     2.4839     0.0197   112.7933     8.2290     0.2852     0.1176   -80.5343     7.9114     7.4186     7.6258
  337.5000     2.4844     0.0215   111.4439     8.2304     0.2801     0.1168   -80.7239     7.9118     7.3718     7.6258
  338.0000     2.4756     0.0237   110.2579     8.2318     0.2737     0.1203   -80.9534     7.8358     7.3095     7.5475
  338.5000     2.4658     0.0157   111.1908     8.2332     0.2675     0.1260   -81.1449     7.7012     7.2478     7.4659
  339.0000     2.4668     0.0080   112.7862     8.2346     0.2714     0.1289   -80.9202     7.5690     7.1866     7.3852
  339.5000     2.4746     0.0111   114.0444     8.2359     0.2775     0.1240   -80.5679     7.4390     7.1259     7.3053
  340.0000     2.4828     0.0196   112.2099     8.2374     0.2820     0.1189   -80.2157     7.3112     7.0657     7.2264
  340.5000     2.4801     0.0190   113.0221     8.2372     0.2806     0.1206   -79.9310     7.2170     7.0060     7.1483
  341.0000     2.4764     0.0168   115.1292     8.2356     0.2778     0.1216   -80.1208     7.2889     6.9468     7.0857
  341.5000     2.4808     0.0144   113.6320     8.2341     0.2750     0.1185   -80.4061     7.4186     6.8881     7.0857
  342.0000     2.4834     0.0121   112.8663     8.2326     0.2731     0.1188   -80.6947     7.3503     6.8301     7.0857
  342.5000     2.4765     0.0128   112.4581     8.2311     0.2745     0.1205   -80.7392     7.2156     6.8301     7.0857
  343.0000     2.4774     0.0143   111.6926     8.2297     0.2769     0.1205   -80.7374     7.2155     6.6461     6.9919
  343.5000     2.4785     0.0158   113.0767     8.2282     0.2788     0.1195   -80.8698     7.3687     6.4272     6.7683
  344.0000     2.4709     0.0172   115.6766     8.2267     0.2771     0.1225   -81.0682     7.4877     6.2146     6.4743
  344.5000     2.4684     0.0186   118.5959     8.2252     0.2763     0.1240   -81.0230     7.3987     6.0094     6.1930
  345.0000     2.4697     0.0204   117.5469     8.2238     0.2797     0.1240   -80.7701     7.2403     5.8494     5.9240
  345.5000     2.4569     0.0162   116.4729     8.2223     0.2805     0.1300   -80.5558     6.9047     5.7423     5.6667
  346.0000     2.4438     0.0088   117.4407     8.2208     0.2780     0.1358   -80.8092     6.5380     5.6372     5.4792
  346.5000     2.4308     0.0020   113.1915     8.2193     0.2813     0.1435   -81.1599     6.1891     5.5340     5.4792
  347.0000     2.4189    -0.0037   111.6308     8.2178     0.2874     0.1513   -80.8333     5.8563     5.4792     5.6530
  347.5000     2.4327    -0.0037   109.2524     8.2164     0.2916     0.1479   -80.4765     5.5808     5.4780     5.7953
  348.0000     2.4547     0.0027   110.1319     8.2149     0.2916     0.1370   -80.1221     6.6005     5.4777     5.9411
  348.5000     2.4685     0.0099   112.0387     8.2134     0.2828     0.1257   -79.9396     8.5927     5.6424     6.0906
