~VERSION INFORMATION
 VERS.                2.0:   CWLS LOG ASCII STANDARD - VERSION 2.0
 WRAP.                 NO:   ONE LINE PER DEPTH STEP
~WELL INFORMATION
#MNEM.UNIT      DATA TYPE    INFORMATION
#----------   ------------   ------------------------------
 STRT.F           30.0000:   START DEPTH
 STOP.F          715.0000:   STOP DEPTH
 STEP.F            0.5000:   STEP LENGTH
 NULL.          -999.2500:   NO VALUE
 COMP. FENIX & SCISSON INC:   COMPANY
 WELL.   NPR-3 #84SX15-15:   WELL
 FLD .             TEAPOT:   FIELD
 LOC .      S15 T38N R78W:   LOCATION
 CNTY.            NATRONA:   COUNTY
 STAT.            WYOMING:   STATE
 CTRY. UNITED STATES OF AMERICA:   COUNTRY
 SRVC.            Unknown:   SERVICE COMPANY
 DATE.        15-MAY-1978:   LOGDATE
 API .       490251064000:   API NUMBER
~CURVE INFORMATION
#MNEM.UNIT       API CODE    CURVE DESCRIPTION
#----------   ------------   ------------------------------
 DEPT.F                  :   
 SPR .MV     05 010 01 00:   SPONTANEOUS POTENTIAL FROM RES.
 SN  .OHMM   05 040 16 00:   SHORT NORMAL 16"
 ILD .OHMM   05 120 46 00:   INDUCTION LOG DEEP
 CALD.IN     45 280 60 00:   CALIPER FROM DENSITY LOG
 GRD .GAPI   45 310 01 00:   GAMMA RAY FROM DENSITY LOG
 CORR.G/C3   45 356 01 00:   DENSITY CORRECTION
 DPHI.DEC    45 890 12 00:   DENSITY POROSITY SANDSTONE
 DEN .G/C3   45 350 01 00:   COMPENSATED BULK DENSITY
~PARAMETER INFORMATION
#MNEM.UNIT          VALUE    DESCRIPTION
#----------   ------------   ------------------------------
 PD  .                 GL:   PERMANENT DATUM
 EPD .F              5247:   ELEVATION PERMANENT DATUM
 LMF .                 KB:   LOG MEASURED FROM
 DMF .                 KB:   DRILLING MEASURED FROM
 EKB .F              5251:   KELLING BUSHING
 EGL .F              5247:   GROUND LEVEL
 DATE.        15-MAY-1978:   RUN DATE
 RUN .                  1:   RUN NUMBER
 DD  .F               725:   DEPTH DRILLER
 DL  .F               720:   DEPTH LOGGER
 BLI .F               713:   BOTTOM LOG INTERVAL
 TLI .F                40:   TOP LOG INTERVAL
 CS  .IN            8.625:   CASING SIZE
 CBD .F                40:   CASING BOTTOM DRILLER
 CBL .F                40:   CASING BOTTOM LOGGER
 BS  .IN            7.875:   BIT SIZE
 BSD .F               725:   BIT SIZE AT DEPTH
 DFT .                KCL:   DRILLING FLUID TYPE
 DFD .                8.6:   DRILLING FLUID DENSITY
 DFV .                 33:   DRILLING FLUID VISCOSITY
 DFPH.                9.5:   DRILLING FLUID PH
 DFL .                 12:   DRILLING FLUID LOSS
 MSS .           FLOWLINE:   MUD SAMPLE SOURCE
 RMS .OHMM             .2:   RESISTIVITY MUD SAMPLE
 MST .F                80:   MUD SAMPLE TEMPERATURE
 RMF .OHMM            .18:   RESISTIVITY MUD FILTRATE SAMPLE
 MFST.F                83:   MUD FILTRATE SAMPLE TEMPERATURE
 RMC .OHMM            .26:   RESISTIVITY MUD CAKE
 MCST.F                83:   MUD CAKE SAMPLE TEMPERATURE
 MFSS.               MEAS:   MUD FILTRATE SAMPLE SOURCE
 RMB .OHMM             .2:   RESISTIVITY MUD AT BHT
 BHT .F                80:   BOTTOM HOLE TEMPERATURE
 TCS .HRS            0200:   TIME CURCULATED STOPPED
 MRT .F                80:   MAXIMUM RECORDED TEMPERATURE
 LUN .               3006:   LOGGING UNIT NUMBER
 LUL .               CASP:   LOGGING UNIT LOCATION
 ENGI.             MILLER:   RECORDING ENGINEER
 WITN.           MCGINLEY:   WITNESSED BY
 CLNT.            A2DTECH:   CLIENT CODE
 ORIG.           5" PRINT:   ORIGIN OF DATA
 UWI .       490251064000:   UNIQUE WELL ID
 DICO. A2D Technologies, Inc.:   DIGITIZING COMPANY
~OTHER INFORMATION
~A   DEPT      SPR         SN        ILD       CALD         GRD      CORR       DPHI        DEN   
# ...
  678.0000    -7.8378     8.4450     8.2399     7.3735    73.2171     0.0377     0.0889     2.5186
  678.5000    -7.8408     8.5612     8.4686     7.3133    74.8753     0.0437     0.0865     2.5396
  679.0000    -7.8438     8.5590     8.5251     7.2834    74.4249     0.0467     0.0865     2.5395
  679.5000    -7.8468     8.5573     8.5818     7.3139    72.4686     0.0377     0.0914     2.5334
  680.0000    -7.8498     8.5555     8.6390     7.4502    71.4155     0.0317     0.1019     2.5243
  680.5000    -7.7023     8.6733     8.6965     7.4656    71.5680     0.0257     0.1070     2.5060
  681.0000    -7.7054     8.7918     8.9380     7.4507    74.5815     0.0257     0.1064     2.5003
  681.5000    -7.7084     9.0992     9.3140     7.3756    76.3902     0.0303     0.1034     2.5017
  682.0000    -7.7114     9.3524     9.5726     7.1946    76.9941     0.0378     0.0932     2.5303
  682.5000    -7.7144     9.4159     9.7705     7.1495    77.5980     0.0516     0.0818     2.5550
  683.0000    -7.5669     9.4134     9.8356     7.3311    78.0513     0.0619     0.0824     2.5400
  683.5000    -7.5700     9.4115     9.9698     7.4523    76.8480     0.0600     0.0863     2.5332
  684.0000    -7.5730     9.3447    10.0371     7.4979    70.0724     0.0544     0.0917     2.5324
  684.5000    -7.7264     9.4081    10.1748     7.4831    71.2787     0.0499     0.0906     2.5316
  685.0000    -7.7294     9.5366    10.3120     7.4531    71.4308     0.0484     0.0887     2.5300
  685.5000    -7.5820     9.6674    10.4558     7.4535    72.0347     0.0484     0.0993     2.5142
  686.0000    -7.5850     9.7330    10.5993     7.4387    73.2410     0.0379     0.1023     2.5059
  686.5000    -7.5880     9.7985    10.6659     7.4541    73.6943     0.0304     0.0996     2.5044
  687.0000    -7.7414     9.6614    10.6629     7.4997    73.7017     0.0259     0.0990     2.5051
  687.5000    -7.7444     9.5929    10.6599     7.5151    71.8901     0.0259     0.1023     2.5036
  688.0000    -7.7493     9.5248    10.6570     7.5154    70.0843     0.0260     0.0995     2.5013
  688.5000    -7.9007     9.3920    10.6541     7.5006    70.8990     0.0260     0.1016     2.4990
  689.0000    -7.9037     9.3901    10.6511     7.4840    74.9606     0.0260     0.1075     2.4967
  689.5000    -7.9067     9.3881    10.6482     7.4535    74.0830     0.0260     0.1108     2.4967
  690.0000    -7.9098     9.3862    10.6453     7.2901    72.0485     0.0260     0.1120     2.4966
  690.5000    -7.9128     9.3196    10.7163     7.2601    71.5982     0.0245     0.1120     2.4966
  691.0000    -7.9158     9.2535    10.7132     7.2907    71.7503     0.0245     0.1111     2.4965
  691.5000    -7.9188     9.3162    10.7103     7.4420    71.9024     0.0261     0.1096     2.4995
  692.0000    -7.9218     9.3138    10.7073     7.4272    72.6569     0.0261     0.1072     2.5017
  692.5000    -8.0752     9.3119    10.7043     7.3671    74.3150     0.0261     0.1036     2.5047
  693.0000    -8.0782     9.3099    10.7014     7.2768    76.7261     0.0306     0.1039     2.5056
  693.5000    -8.0812     9.2439    10.6978     7.2167    79.1372     0.0338     0.0988     2.5107
  694.0000    -8.2607     9.2420    10.6948     7.2774    72.6628     0.0382     0.0955     2.5148
  694.5000    -8.8391     9.2401    10.6182     7.3079    70.7065     0.0384     0.0940     2.5173
  695.0000    -9.2938     9.2381    10.4695     7.3233    70.8586     0.0427     0.0937     2.5173
  695.5000    -9.4472     9.2362    10.4666     7.3387    71.9143     0.0427     0.0965     2.5165
  696.0000    -9.4502     9.2343    10.4637     7.4447    73.2712     0.0397     0.0989     2.5112
  696.5000    -9.4532     9.2324    10.5341     7.3242    78.0920     0.0382     0.1004     2.5081
  697.0000    -9.4562     9.2305    10.4580     7.3245    78.5453     0.0368     0.1004     2.5074
  697.5000    -9.4592     9.1650    10.2404     7.3550    77.3419     0.0338     0.0992     2.5103
  698.0000    -9.4622     9.1000     9.8897     7.4006    74.9338     0.0353     0.0950     2.5283
  698.5000    -9.4652     9.0354     9.6173     7.4160    72.6762     0.0443     0.0917     2.5320
  699.0000    -9.4682     8.9094     9.4172     7.4163    73.5814     0.0443     0.0974     2.5290
  699.5000    -9.4712     8.7247     9.2213     7.4166    75.8419     0.0474     0.0965     2.5252
  700.0000    -9.4782     8.5905     9.0845     7.4471    77.5000     0.0489     0.0941     2.5228
  700.5000    -9.5355     8.5120     8.9844     7.4310    77.5983     0.0465     0.0946     2.5218
  701.0000    -9.5928     8.4235     8.8843     7.4149    78.4115     0.0445     0.0951     2.5209
  701.5000    -9.6354     8.3640     8.7843     7.4040    79.4695     0.0429     0.0863     2.5207
  702.0000    -9.6391     8.3625     8.7168     7.4048    79.1721     0.0489     0.0788     2.5259
  702.5000    -9.6429     8.2462     8.6431     7.4056    77.2180     0.0534     0.0819     2.5357
  703.0000    -9.7972     8.1789     8.5283     7.4063    77.8243     0.0429     0.0912     2.5319
  703.5000   -10.7032     8.1258     8.4749     7.4071    80.3883     0.0323     0.0990     2.5274
  704.0000   -12.5116     8.0730     8.4150     7.4078    80.2415     0.0398     0.0990     2.5244
  704.5000   -12.3641     8.0716     8.4135     7.4086    77.8356     0.0489     0.0980     2.5207
  705.0000   -12.2176     8.0702     8.4120     7.4094    78.2912     0.0429     0.0952     2.5169
  705.5000   -13.5757     8.0687     8.3526     7.4101    82.8131     0.0323     0.0942     2.5109
  706.0000   -13.4283     8.0673     8.2935     7.4109    82.0639     0.0308     0.0992     2.5049
  706.5000   -13.4331     8.0103     8.1782     7.4268    80.1098     0.0308     0.1043     2.4974
  707.0000   -13.4361     8.0089     8.1204     7.4728    79.6609     0.0308     0.1048     2.4989
  707.5000   -13.4399     7.8975     8.1189     7.4736    84.9367     0.0308     0.1011     2.5079
  708.0000   -13.4337     7.7877     8.0507     7.4744    81.0248     0.0308     0.0991     2.5147
  708.5000   -13.4246     7.7326     8.0050     7.4147    76.3593     0.0323     0.0958     2.5177
  709.0000   -13.4155     7.7316     8.0035     7.4002    73.6521     0.0353     0.0937     2.5229
  709.5000   -13.4065     7.7303     8.0021     7.3556    79.6801     0.0368     0.0934     2.5259
  710.0000   -13.3974     7.7825     8.0007     7.3566    79.7088     0.0414     0.0922     2.5259
  710.5000   -13.3883     7.7811     7.9993     7.3420    77.8805     0.0429     0.0916     2.5237
  711.0000   -13.3792     7.7798     7.9428     7.3126    75.0228     0.0353     0.0967     2.5177
  711.5000   -13.3701     7.6716     7.9414     7.3437    75.7796     0.0248     0.0994     2.5116
  712.0000   -13.3610     7.5649     7.9400     7.3445    84.5183     0.0323     0.1000     2.5151
  712.5000   -13.3519     7.4083     7.9940     7.3453    80.9077     0.0398     0.0958     2.5177
  713.0000   -13.3428     7.4583     7.9922     7.3611    79.8563     0.0338     0.1003     2.5098
  713.5000  -999.2500  -999.2500  -999.2500     7.3619    81.3670     0.0263     0.1064     2.5026
  714.0000  -999.2500  -999.2500  -999.2500     7.3627    74.1419     0.0263     0.1052     2.4996
  714.5000  -999.2500  -999.2500  -999.2500     7.3030  -999.2500     0.0293     0.1049     2.4989
  715.0000  -999.2500  -999.2500  -999.2500     7.2885  -999.2500     0.0308     0.1085     2.4996
