~VERSION INFORMATION
 VERS.                2.0:   CWLS LOG ASCII STANDARD - VERSION 2.0
 WRAP.                 NO:   ONE LINE PER DEPTH STEP
~WELL INFORMATION
#MNEM.UNIT      DATA TYPE    INFORMATION
#----------   ------------   ------------------------------
 STRT.F            8.0000:   START DEPTH
 STOP.F         3200.0000:   STOP DEPTH
 STEP.F            0.5000:   STEP LENGTH
 NULL.          -999.2500:   NO VALUE
 COMP. BROWN JOHN E&C INC:   COMPANY
 WELL.  62 x 15-17 #62-15:   WELL
 FLD .        N.P.R NO. 3:   FIELD
 LOC .      S15 T38N R78W:   LOCATION
 CNTY.            NATRONA:   COUNTY
 STAT.            WYOMING:   STATE
 CTRY. UNITED STATES OF AMERICA:   COUNTRY
 SRVC.      Western Atlas:   SERVICE COMPANY
 DATE.        17-JUN-1986:   LOGDATE
 API .       490251104300:   API NUMBER
~CURVE INFORMATION
#MNEM.UNIT       API CODE    CURVE DESCRIPTION
#----------   ------------   ------------------------------
 DEPT.F                  :   
 GRR .GAPI   07 310 01 00:   GAMMA RAY
 CALR.IN     07 280 01 00:   CALIPER FROM RESISTIVITY
 SPR .MV     07 010 01 00:   SPONTANEOUS POTENTIAL
 RILD.OHMM   07 120 46 00:   INDUCTION LOG DEEP RESISTIVITY
 RILM.OHMM   07 120 44 00:   INDUCTION LOG MEDIUM RESISTIVITY
 RFOC.OHMM   07 220 04 00:   RESISTIVITY FOCUSED LOG
 PORD.DEC    45 890 12 00:   POROSITY DENSITY SANDSTONE
 CNC .DEC    42 890 03 00:   NEUTRON POROSITY SANDSTONE
 CORR.G/C3   45 356 01 00:   DENSITY CORRECTION
 DEN .G/C3   45 350 01 00:   COMPENSATED BULK DENSTIY
~PARAMETER INFORMATION
#MNEM.UNIT          VALUE    DESCRIPTION
#----------   ------------   ------------------------------
 PD  .                 GL:   PERMANENT DATUM
 EPD .F              5242:   ELEVATION PERMANENT DATUM
 LMF .                 KB:   LOG MEASURED FROM
 DAPD.F                11:   FEET ABOVE PERMANENT DATUM
 DMF .                 KB:   DRILLING MEASURED FROM
 EKB .F              5253:   KELLING BUSHING
 EGL .F              5242:   GROUND LEVEL
 DATE.            6-17-86:   RUN DATE
 RUN .                  1:   RUN NUMBER
 DD  .F              3200:   DEPTH DRILLER
 DL  .F              3202:   DEPTH LOGGER
 BLI .F              3200:   BOTTOM LOG INTERVAL
 CS  .IN            8.625:   CASING SIZE
 CBD .F               573:   CASING BOTTOM DRILLER
 CBL .F               573:   CASING BOTTOM LOGGER
 BS  .IN            7.875:   BIT SIZE
 BSD .F              3200:   BIT SIZE AT DEPTH
 DFT .            KCL/GEL:   DRILLING FLUID TYPE
 DFD .                8.9:   DRILLING FLUID DENSITY
 DFV .                 37:   DRILLING FLUID VISCOSITY
 DFPH.                8.5:   DRILLING FLUID PH
 DFL .               10.2:   DRILLING FLUID LOSS
 MSS .           MUD TANK:   MUD SAMPLE SOURCE
 RMS .OHMM            .39:   RESISTIVITY MUD SAMPLE
 MST .F                80:   MUD SAMPLE TEMPERATURE
 RMF .OHMM            .29:   RESISTIVITY MUD FILTRATE SAMPLE
 MFST.F                80:   MUD FILTRATE SAMPLE TEMPERATURE
 RMC .OHMM            .49:   RESISTIVITY MUD CAKE
 MCST.F                80:   MUD CAKE SAMPLE TEMPERATURE
 MFSS.               CALC:   MUD FILTRATE SAMPLE SOURCE
 MCSS.               CALC:   MUD CAKE SAMPLE SOURCE
 RMB .OHMM            .24:   RESISTIVITY MUD AT BHT
 BHT .F               130:   BOTTOM HOLE TEMPERATURE
 TCS .HRS               5:   TIME CURCULATED STOPPED
 MRT .F               130:   MAXIMUM RECORDED TEMPERATURE
 LUN .            HL 6264:   LOGGING UNIT NUMBER
 LUL .           GILLETTE:   LOGGING UNIT LOCATION
 ENGI.      P.H. FAHLSING:   RECORDING ENGINEER
 WITN.             STRONG:   WITNESSED BY
 CLNT.            A2DTECH:   CLIENT CODE
 UWI .       490251104300:   UNIQUE WELL ID
 DICO. A2D Technologies, Inc.:   DIGITIZING COMPANY
~OTHER INFORMATION
~A    DEPT     GRR       CALR        SPR       RILD       RILM       RFOC       PORD        CNC       CORR        DEN   
# ...
 1616.0000    97.2698    10.1248   -48.2091     7.5252     6.9805     7.5125  -999.2500  -999.2500  -999.2500  -999.2500
 1616.5000    96.3906    10.1245   -48.5007     7.3211     6.9323     7.1079  -999.2500  -999.2500  -999.2500  -999.2500
 1617.0000    94.8768    10.1241   -48.6443     7.2215     6.8370     7.3468  -999.2500  -999.2500  -999.2500  -999.2500
 1617.5000    94.3232    10.1388   -48.7838     7.0726     6.7898     7.6264  -999.2500  -999.2500  -999.2500  -999.2500
 1618.0000    94.9412    10.1236   -48.9250     6.9299     6.7429     7.9401  -999.2500  -999.2500  -999.2500  -999.2500
 1618.5000    94.0620    10.1233   -48.9141     6.8359     6.7429     7.8310  -999.2500  -999.2500  -999.2500  -999.2500
 1619.0000    94.9803    10.1081   -48.9054     6.8368     6.7429     7.5647  -999.2500  -999.2500  -999.2500  -999.2500
 1619.5000    97.7003    10.1055   -48.7466     6.8377     6.7429     7.4607  -999.2500  -999.2500  -999.2500  -999.2500
 1620.0000   100.7207    10.0626   -48.5877     6.8386     6.7429     7.5682  -999.2500  -999.2500  -999.2500  -999.2500
 1620.5000   101.0390    10.0474   -48.5790     6.8870     6.7969     7.7234  -999.2500  -999.2500  -999.2500  -999.2500
 1621.0000   101.0601    10.0173   -48.5703     6.9357     6.9323     7.7234  -999.2500  -999.2500  -999.2500  -999.2500
 1621.5000   101.0775    10.0170   -48.5616     7.0334     6.9805     7.6172  -999.2500  -999.2500  -999.2500  -999.2500
 1622.0000   101.0948    10.0018   -48.5526     7.0832     7.1270     7.6701  -999.2500  -999.2500  -999.2500  -999.2500
 1622.5000    99.3104    10.0014   -48.5420     7.1333     7.2264     8.1067  -999.2500  -999.2500  -999.2500  -999.2500
 1623.0000    92.4209    10.0012   -48.5333     7.2838     7.3272     8.6276  -999.2500  -999.2500  -999.2500  -999.2500
 1623.5000    88.5196    10.0159   -48.3745     7.4374     7.3781     8.9978  -999.2500  -999.2500  -999.2500  -999.2500
 1624.0000    90.3578    10.0155   -48.3658     7.5420     7.3781     9.1187  -999.2500  -999.2500  -999.2500  -999.2500
 1624.5000    96.6815    10.0003   -48.3571     7.5956     7.3272     8.7479  -999.2500  -999.2500  -999.2500  -999.2500
 1625.0000    98.5007     9.9999   -48.1982     7.4920     7.2264     8.2767  -999.2500  -999.2500  -999.2500  -999.2500
 1625.5000    97.9174     9.9997   -48.0390     7.2889     7.1270     7.8310  -999.2500  -999.2500  -999.2500  -999.2500
 1626.0000    97.0339     9.9994   -48.0285     7.1895     7.0290     7.4607  -999.2500  -999.2500  -999.2500  -999.2500
 1626.5000    95.5498     9.9991   -48.3222     7.0919     6.9323     7.4093  -999.2500  -999.2500  -999.2500  -999.2500
 1627.0000    94.3659     9.9988   -48.7618     7.0928     6.9323     7.5686  -999.2500  -999.2500  -999.2500  -999.2500
 1627.5000    94.9882    10.0134   -49.0556     7.0449     6.9323     7.7770  -999.2500  -999.2500  -999.2500  -999.2500
 1628.0000    95.6062    10.0131   -49.4951     6.9973     6.9805     7.8854  -999.2500  -999.2500  -999.2500  -999.2500
 1628.5000    95.9239    10.0128   -49.6366     6.9985     6.9805     8.1067  -999.2500  -999.2500  -999.2500  -999.2500
 1629.0000    97.1424    10.0125   -49.6276     7.0480     6.9323     8.2197  -999.2500  -999.2500  -999.2500  -999.2500
 1629.5000    98.6613    10.0272   -49.6170     7.0489     7.0055     7.9953  -999.2500  -999.2500  -999.2500  -999.2500
 1630.0000    97.1772    10.0269   -49.4582     7.0498     7.0779     7.8854  -999.2500  -999.2500  -999.2500  -999.2500
 1630.5000    94.3574    10.0265   -49.2993     7.0508     7.1270     7.7729  -999.2500  -999.2500  -999.2500  -999.2500
 1631.0000    91.5105    10.0262   -49.1405     7.0519     7.1270     7.8854  -999.2500  -999.2500  -999.2500  -999.2500
 1631.5000    91.2233    10.0110   -48.9816     7.0041     7.1270     8.0508  -999.2500  -999.2500  -999.2500  -999.2500
 1632.0000    94.8486    10.0107   -48.6726     7.0052     7.0290     8.2767  -999.2500  -999.2500  -999.2500  -999.2500
 1632.5000    99.9711    10.0104   -48.3634     6.9576     6.8845     8.3342  -999.2500  -999.2500  -999.2500  -999.2500
 1633.0000   102.9914    10.0251   -48.0524     6.9106     6.7429     8.1630  -999.2500  -999.2500  -999.2500  -999.2500
 1633.5000   100.2151    10.0247   -48.0437     6.8168     6.6964     7.7234  -999.2500  -999.2500  -999.2500  -999.2500
 1634.0000    93.7212    10.0394   -48.0350     6.7708     6.6043     7.2070  -999.2500  -999.2500  -999.2500  -999.2500
 1634.5000    93.1336    10.0391   -48.0263     6.7250     6.5587     7.0050  -999.2500  -999.2500  -999.2500  -999.2500
 1635.0000    92.8507    10.0239   -48.0176     6.7261     6.6502     7.2587  -999.2500  -999.2500  -999.2500  -999.2500
 1635.5000    92.8724    10.0087   -48.0089     6.7737     6.7898     7.5647  -999.2500  -999.2500  -999.2500  -999.2500
 1636.0000    93.1901    10.0233   -48.0000     6.8216     6.8845     7.6701  -999.2500  -999.2500  -999.2500  -999.2500
 1636.5000    93.8080    10.0080   -47.9893     6.8699     6.8370     7.6701  -999.2500  -999.2500  -999.2500  -999.2500
 1637.0000    95.3575    10.0077   -47.9806     6.8708     6.7429     7.7770  -999.2500  -999.2500  -999.2500  -999.2500
 1637.5000    96.8501    10.0074   -48.2744     6.7229     6.6043     7.9953  -999.2500  -999.2500  -999.2500  -999.2500
 1638.0000    98.0687     9.9922   -48.8641     6.5030     6.3795     8.1630  -999.2500  -999.2500  -999.2500  -999.2500
 1638.5000    96.2842     9.9919   -49.4560     6.3264     6.1199     7.9933  -999.2500  -999.2500  -999.2500  -999.2500
 1639.0000    95.3964     9.9916   -49.5976     6.1547     5.8276     7.5647  -999.2500  -999.2500  -999.2500  -999.2500
 1639.5000    95.7184     9.9913   -49.5886     6.0291     5.4402     7.1573  -999.2500  -999.2500  -999.2500  -999.2500
 1640.0000    96.0360     9.9910   -49.4277     5.9883     5.4027     6.7251  -999.2500  -999.2500  -999.2500  -999.2500
 1640.5000    94.5075     9.9907   -49.1187     5.9892     5.5544     6.2322  -999.2500  -999.2500  -999.2500  -999.2500
 1641.0000    93.6684     9.9904   -48.9598     6.0317     5.7104     6.0203  -999.2500  -999.2500  -999.2500  -999.2500
 1641.5000    95.7922     9.9901   -48.9511     6.1165     5.8303     6.1893  -999.2500  -999.2500  -999.2500  -999.2500
 1642.0000    99.1128     9.9898   -48.7923     6.2025     5.9527     6.6883  -999.2500  -999.2500  -999.2500  -999.2500
 1642.5000   101.5326     9.9895   -48.6749     6.2897     6.0812     7.3074  -999.2500  -999.2500  -999.2500  -999.2500
 1643.0000   102.7512    10.0042   -48.6186     6.3342     6.2484     7.6172  -999.2500  -999.2500  -999.2500  -999.2500
 1643.5000   101.8231    10.0039   -48.3135     6.4233     6.4239     7.7234  -999.2500  -999.2500  -999.2500  -999.2500
 1644.0000    99.4870    10.0036   -48.3048     6.5588     6.5587     7.6701  -999.2500  -999.2500  -999.2500  -999.2500
 1644.5000    99.8046    10.0032   -48.1460     6.6974     6.6502     7.5647  -999.2500  -999.2500  -999.2500  -999.2500
 1645.0000   100.1223    10.0029   -47.9871     6.7915     6.7429     7.6172  -999.2500  -999.2500  -999.2500  -999.2500
 1645.5000    99.4835    10.0177   -47.6781     6.8870     6.7898     7.6724  -999.2500  -999.2500  -999.2500  -999.2500
 1646.0000    96.2531    10.0173   -47.5193     6.9357     6.7898     7.7770  -999.2500  -999.2500  -999.2500  -999.2500
 1646.5000    91.7660    10.0170   -47.5075     6.9367     6.7898     7.7770  -999.2500  -999.2500  -999.2500  -999.2500
 1647.0000    91.4830    10.0017   -47.3514     6.9376     6.7898     7.7770  -999.2500  -999.2500  -999.2500  -999.2500
 1647.5000    93.6069    10.0164   -47.4931     7.0354     6.8845     7.6701  -999.2500  -999.2500  -999.2500  -999.2500
 1648.0000    97.8284    10.0012   -48.3832     7.1343     6.9323     7.5125  -999.2500  -999.2500  -999.2500  -999.2500
 1648.5000   100.2482    10.0009   -49.2754     7.1848     6.9805     7.6172  -999.2500  -999.2500  -999.2500  -999.2500
 1649.0000   100.8618    10.0006   -49.7193     7.3363     7.0306     7.8879  -999.2500  -999.2500  -999.2500  -999.2500
