~VERSION INFORMATION
 VERS.                2.0:   CWLS LOG ASCII STANDARD - VERSION 2.0
 WRAP.                 NO:   ONE LINE PER DEPTH STEP
~WELL INFORMATION
#MNEM.UNIT      DATA TYPE    INFORMATION
#----------   ------------   ------------------------------
 STRT.F         1099.5000:   START DEPTH
 STOP.F         2700.0000:   STOP DEPTH
 STEP.F            0.5000:   STEP LENGTH
 NULL.          -999.2500:   NO VALUE
 COMP. LAWRENCE/ALLISON INC NPR #3:   COMPANY
 WELL.   47 STX 14 #47-14:   WELL
 FLD .             TEAPOT:   FIELD
 LOC .      S14 T38N R78W:   LOCATION
 CNTY.            NATRONA:   COUNTY
 STAT.            WYOMING:   STATE
 CTRY. UNITED STATES OF AMERICA:   COUNTRY
 SRVC.            Unknown:   SERVICE COMPANY
 DATE.        01-SEP-1988:   LOGDATE
 API .       490251124400:   API NUMBER
~CURVE INFORMATION
#MNEM.UNIT       API CODE    CURVE DESCRIPTION
#----------   ------------   ------------------------------
 DEPT.F                  :   
 ROP .MIN/FT 91 810 01 00:   RATE OF DRILLING PENETRATION
 TGAS.UNITS  91 830 01 00:   TOTAL GAS FROM HOTWIRE
~PARAMETER INFORMATION
#MNEM.UNIT          VALUE    DESCRIPTION
#----------   ------------   ------------------------------
 EKB .F              5286:   KELLING BUSHING
 EGL .F              5276:   GROUND LEVEL
 DATE.             9-1-88:   RUN DATE
 DD  .F              2700:   DEPTH DRILLER
 CBD .F              1088:   CASING BOTTOM DRILLER
 TCS .HRS            1200:   TIME CURCULATED STOPPED
 TLAB.HRS            1223:   TIME LOGGER AT BOTTOM
 ENGI.               HUSK:   RECORDING ENGINEER
 WITN.           PETERSON:   WITNESSED BY
 CLNT.            A2DTECH:   CLIENT CODE
 ORIG.           5" PRINT:   ORIGIN OF DATA
 UWI .       490251124400:   UNIQUE WELL ID
 DICO. A2D Technologies, Inc.:   DIGITIZING COMPANY
~OTHER INFORMATION
~A  DEPT       ROP       TGAS   
# ...
 1828.5000     0.4723   403.6996
 1829.0000     0.4565   403.7202
 1829.5000     0.4347   403.7409
 1830.0000     0.4193   403.7615
 1830.5000     0.4189   403.7821
 1831.0000     0.4186   403.8028
 1831.5000     0.4182   403.8234
 1832.0000     0.4074   403.8441
 1832.5000     0.3864   403.8647
 1833.0000     0.3856   403.8853
 1833.5000     0.3745   403.9060
 1834.0000     0.3623   403.9266
 1834.5000     0.3434   403.9473
 1835.0000     0.3430   403.9679
 1835.5000     0.3425   403.9886
 1836.0000     0.3421   404.0092
 1836.5000     0.3432   404.0298
 1837.0000     0.3446   404.0505
 1837.5000     0.3459   404.0711
 1838.0000     0.3472   404.0918
 1838.5000     0.3486   404.1124
 1839.0000     0.3500   404.1331
 1839.5000     0.3496   404.1537
 1840.0000     0.3492   404.1743
 1840.5000     0.3488   404.1950
 1841.0000     0.3587   404.2156
 1841.5000     0.3583   404.2363
 1842.0000     0.3579   404.2569
 1842.5000     0.3574   404.2775
 1843.0000     0.3596   404.2982
 1843.5000     0.3669   404.3188
 1844.0000     0.3665   404.3394
 1844.5000     0.3771   404.3601
 1845.0000     0.4088   404.3807
 1845.5000     0.4405   404.4014
 1846.0000     0.4626   404.4220
 1846.5000     0.4626   404.4427
 1847.0000     0.4294   404.4633
 1847.5000     0.3696   404.4839
 1848.0000     0.2924   404.5046
 1848.5000     0.1975   404.5252
 1849.0000     0.2694   404.5459
 1849.5000     0.2897   404.5665
 1850.0000     0.2996   404.5888
 1850.5000     0.2888   404.6459
 1851.0000     0.2884   404.7079
 1851.5000     0.2880   404.7699
 1852.0000     0.2920   404.8320
 1852.5000     0.3256   404.8940
 1853.0000     0.3680   404.9560
 1853.5000     0.4155   405.0181
 1854.0000     0.4822   405.0801
 1854.5000     0.4395   405.1421
 1855.0000     0.3874   405.2042
 1855.5000     0.3451   405.2662
 1856.0000     0.3140   405.3282
 1856.5000     0.3168   405.3902
 1857.0000     0.3600   405.4523
 1857.5000     0.4128   405.5143
 1858.0000     0.4567   405.5763
 1858.5000     0.4519   405.6384
 1859.0000     0.4251   405.7004
 1859.5000     0.3875   405.7624
 1860.0000     0.3657   405.8245
 1860.5000     0.3507   405.8865
 1861.0000     0.3502   405.9485
 1861.5000     0.3619   406.0106
 1862.0000     0.3890   406.0726
 1862.5000     0.4145   406.1346
 1863.0000     0.4510   406.1967
 1863.5000     0.4824   406.2587
 1864.0000     0.5032   406.3207
 1864.5000     0.5119   406.3828
 1865.0000     0.4986   406.4448
 1865.5000     0.4634   406.5068
 1866.0000     0.4202   406.5688
 1866.5000     0.3880  -999.2500
 1867.0000     0.3957  -999.2500
 1867.5000     0.3980  -999.2500
 1868.0000     0.4050  -999.2500
 1868.5000     0.4079  -999.2500
 1869.0000     0.4372  -999.2500
 1869.5000     0.5421  -999.2500
 1870.0000     0.7121  -999.2500
 1870.5000     0.8581  -999.2500
 1871.0000     0.9389  -999.2500
 1871.5000     0.9810  -999.2500
 1872.0000     1.0289  -999.2500
 1872.5000     1.1061  -999.2500
 1873.0000     1.2595  -999.2500
 1873.5000     1.4170  -999.2500
 1874.0000     1.5559  -999.2500
 1874.5000     1.4873  -999.2500
 1875.0000     1.2474   302.3690
 1875.5000     1.0057   302.3491
 1876.0000     0.7759   302.3293
 1876.5000     0.5146   302.3094
 1877.0000     0.4765   302.2895
 1877.5000     0.4215   302.2697
 1878.0000     0.3570   302.2498
 1878.5000     0.3321   302.2299
 1879.0000     0.3385   302.2101
 1879.5000     0.3632   302.1902
 1880.0000     0.3719   302.1704
 1880.5000     0.3714   302.1505
 1881.0000     0.3501   302.1307
 1881.5000     0.3186   302.1108
 1882.0000     0.2975   302.0910
 1882.5000     0.3045   302.0711
 1883.0000     0.3068   302.0512
 1883.5000     0.3063   302.0314
 1884.0000     0.3057   302.0115
 1884.5000     0.2949   301.9917
 1885.0000     0.2944   301.9718
 1885.5000     0.2939   301.9520
 1886.0000     0.3037   301.9321
 1886.5000     0.3755   301.9122
 1887.0000     0.4576   301.8924
 1887.5000     0.4984   301.8725
 1888.0000     0.4979   301.8527
 1888.5000     0.4862   301.8328
 1889.0000     0.4430   301.8130
 1889.5000     0.4025   301.7931
 1890.0000     0.3914   301.7733
 1890.5000     0.3817   301.7534
 1891.0000     0.3812   301.7335
 1891.5000     0.3785   301.7137
 1892.0000     0.3698   301.6938
 1892.5000     0.3662   301.6740
 1893.0000     0.3826   301.6541
 1893.5000     0.4461   301.6342
 1894.0000     0.5165   301.6144
 1894.5000     0.4808   301.5945
 1895.0000     0.4390   301.5747
 1895.5000     0.3868   301.5548
 1896.0000     0.3243   301.5349
 1896.5000     0.3279   301.5151
 1897.0000     0.3487   301.4952
 1897.5000     0.3617   301.4754
 1898.0000     0.3718   301.4555
 1898.5000     0.3837   301.4357
 1899.0000     0.3832   301.4158
 1899.5000     0.3827   301.3960
 1900.0000     0.3822   301.3761
 1900.5000     0.3714   301.5075
 1901.0000     0.3605   301.6390
 1901.5000     0.3391   301.7704
 1902.0000     0.3182   301.9019
 1902.5000     0.3510   302.0333
 1903.0000     0.3835   302.1647
 1903.5000     0.4242   302.2962
 1904.0000     0.4523   302.4276
 1904.5000     0.4512   302.5591
 1905.0000     0.4186   302.6905
 1905.5000     0.3824   302.8220
 1906.0000     0.3473   302.9534
 1906.5000     0.3255   303.0848
 1907.0000     0.3083   303.2163
 1907.5000     0.3072   303.3477
 1908.0000     0.3120   301.5413
 1908.5000     0.3631   294.3864
 1909.0000     0.4247   285.7996
 1909.5000     0.4982   276.3308
 1910.0000     0.5476   262.3207
 1910.5000     0.5050   255.9633
 1911.0000     0.4619   255.9633
 1911.5000     0.4170   255.9633
 1912.0000     0.3785   255.9633
 1912.5000     0.4100   255.9633
 1913.0000     0.4450   255.9633
 1913.5000     0.4833   255.9633
 1914.0000     0.4766   255.9633
 1914.5000     0.4259   255.9633
 1915.0000     0.3982   255.9633
 1915.5000     0.3816   255.9633
 1916.0000     0.3760   255.9633
 1916.5000     0.3755   255.9633
 1917.0000     0.3750   255.9633
 1917.5000     0.3745   255.9633
 1918.0000     0.3740   255.9633
 1918.5000     0.3735   255.9633
 1919.0000     0.3729   255.9633
 1919.5000     0.3803   255.9633
 1920.0000     0.3925   255.9633
 1920.5000     0.4023   255.9633
 1921.0000     0.4121   255.9633
 1921.5000     0.4220   255.9633
 1922.0000     0.4318   255.9633
 1922.5000     0.4210   255.9633
 1923.0000     0.4101   255.9633
 1923.5000     0.3889   255.9633
 1924.0000     0.3884   255.9633
 1924.5000     0.3879   255.9633
 1925.0000     0.3874   255.9633
 1925.5000     0.3869   255.9633
 1926.0000     0.3844   255.9633
 1926.5000     0.3732   255.9633
 1927.0000     0.3568   255.9633
 1927.5000     0.3272   256.4445
 1928.0000     0.3120   261.7084
 1928.5000     0.3187   272.4414
 1929.0000     0.3435   282.6880
 1929.5000     0.3750   291.8469
 1930.0000     0.3972   303.4404
 1930.5000     0.3974   303.3976
 1931.0000     0.3862   303.3457
 1931.5000     0.3750   303.2937
 1932.0000     0.3638   303.2418
 1932.5000     0.3590   303.1898
 1933.0000     0.3585   303.1379
 1933.5000     0.3580   303.0860
 1934.0000     0.3868   303.0341
 1934.5000     0.4289   302.9821
 1935.0000     0.4631   302.9302
 1935.5000     0.4901   302.8782
 1936.0000     0.4896   302.8263
 1936.5000     0.4891   302.7744
 1937.0000     0.4783   302.7224
 1937.5000     0.4674   302.6705
 1938.0000     0.4359   302.6185
 1938.5000     0.4044   302.5666
 1939.0000     0.3822   302.5147
 1939.5000     0.3511   302.4627
 1940.0000     0.3399   302.4108
 1940.5000     0.3301   302.3589
 1941.0000     0.3313   302.3069
 1941.5000     0.3395   302.2550
 1942.0000     0.3388   302.2030
 1942.5000     0.3410   302.1511
 1943.0000     0.3481   302.0992
 1943.5000     0.3510   302.0472
 1944.0000     0.3574   301.9953
 1944.5000     0.3650   301.9434
 1945.0000     0.3815   301.8914
 1945.5000     0.3963   301.8395
 1946.0000     0.4171   301.7875
 1946.5000     0.4244   301.7356
 1947.0000     0.4069   301.6837
 1947.5000     0.3813   301.6317
 1948.0000     0.3663   301.5798
 1948.5000     0.3486   301.5278
 1949.0000     0.3419   301.4759
 1949.5000     0.3463   301.4240
