~VERSION INFORMATION
 VERS.                2.0:   CWLS LOG ASCII STANDARD - VERSION 2.0
 WRAP.                 NO:   ONE LINE PER DEPTH STEP
~WELL INFORMATION
#MNEM.UNIT      DATA TYPE    INFORMATION
#----------   ------------   ------------------------------
 STRT.F           38.0000:   START DEPTH
 STOP.F          663.5000:   STOP DEPTH
 STEP.F            0.5000:   STEP LENGTH
 NULL.          -999.2500:   NO VALUE
 COMP. FENIX & SCISSON INC:   COMPANY
 WELL.   NPR SX #3 #35-34:   WELL
 FLD .             TEAPOT:   FIELD
 LOC .      S34 T39N R78W:   LOCATION
 CNTY.            NATRONA:   COUNTY
 STAT.            WYOMING:   STATE
 CTRY. UNITED STATES OF AMERICA:   COUNTRY
 SRVC.       Schlumberger:   SERVICE COMPANY
 DATE.        21-MAR-1977:   LOGDATE
 API .       490251031500:   API NUMBER
~CURVE INFORMATION
#MNEM.UNIT       API CODE    CURVE DESCRIPTION
#----------   ------------   ------------------------------
 DEPT.F                  :   
 SPR .MV     07 010 01 00:   SPONTANEOUS POTENTIAL
 LL8 .OHMM   07 220 08 00:   LATEROLOG-8 RES.
 ILD .OHMM   07 120 46 00:   INDUCTION LOG DEEP
 ILM .OHMM   07 120 44 00:   INDUCTION LOG MEDIUM
 CALD.IN     45 280 60 00:   CALIPER
 RHOB.G/C3   45 350 01 00:   BULK DENSITY
 DPHI.DEC    45 890 12 00:   DENSITY POROSITY SANDSTONE
 CORR.G/C3   45 356 01 00:   DENSITY CORRECTION
 GRD .GAPI   45 310 01 00:   GAMMA RAY FROM DENSITY LOG
~PARAMETER INFORMATION
#MNEM.UNIT          VALUE    DESCRIPTION
#----------   ------------   ------------------------------
 PD  .                 GL:   PERMANENT DATUM
 EPD .F              5081:   ELEVATION PERMANENT DATUM
 LMF .                 GL:   LOG MEASURED FROM
 DMF .                 KB:   DRILLING MEASURED FROM
 EKB .F              5086:   KELLING BUSHING
 EGL .F              5081:   GROUND LEVEL
 DATE.          3-21-1977:   RUN DATE
 RUN .                  1:   RUN NUMBER
 DD  .F               670:   DEPTH DRILLER
 DL  .F               665:   DEPTH LOGGER
 BLI .F               659:   BOTTOM LOG INTERVAL
 TLI .F                40:   TOP LOG INTERVAL
 CS  .IN            8.625:   CASING SIZE
 CBD .F                40:   CASING BOTTOM DRILLER
 CBL .F                40:   CASING BOTTOM LOGGER
 BS  .IN            7.875:   BIT SIZE
 BSD .F               670:   BIT SIZE AT DEPTH
 DFT .           CHEM GEL:   DRILLING FLUID TYPE
 DFV .                 33:   DRILLING FLUID VISCOSITY
 MSS .           MUD TANK:   MUD SAMPLE SOURCE
 RMS .OHMM           4.98:   RESISTIVITY MUD SAMPLE
 MST .F                53:   MUD SAMPLE TEMPERATURE
 RMF .OHMM           4.94:   RESISTIVITY MUD FILTRATE SAMPLE
 MFST.F                53:   MUD FILTRATE SAMPLE TEMPERATURE
 RMC .OHMM            2.5:   RESISTIVITY MUD CAKE
 MCST.F                53:   MUD CAKE SAMPLE TEMPERATURE
 MFSS.                  M:   MUD FILTRATE SAMPLE SOURCE
 MCSS.                  C:   MUD CAKE SAMPLE SOURCE
 RMB .OHMM              4:   RESISTIVITY MUD AT BHT
 BHT .F                65:   BOTTOM HOLE TEMPERATURE
 TCS .HRS            1000:   TIME CURCULATED STOPPED
 TLAB.HRS            1400:   TIME LOGGER AT BOTTOM
 MRT .F                65:   MAXIMUM RECORDED TEMPERATURE
 LUN .               7742:   LOGGING UNIT NUMBER
 LUL .                GLT:   LOGGING UNIT LOCATION
 ENGI.               LANE:   RECORDING ENGINEER
 WITN.              BURKE:   WITNESSED BY
 CLNT.            A2DTECH:   CLIENT CODE
 ORIG.       2", 5" PRINT:   ORIGIN OF DATA
 UWI .       490251031500:   UNIQUE WELL ID
 DICO. A2D Technologies, Inc.:   DIGITIZING COMPANY
~OTHER INFORMATION
~A   DEPT      SPR        LL8        ILD        ILM       CALD       RHOB       DPHI       CORR         GRD  
# ...
   74.5000   -62.1340     9.0848     9.2523     7.4998     8.1628     2.4331     0.1287     0.0347   134.1180
   75.0000   -63.6280     7.8711     8.4552     6.7639     8.1619     2.4177     0.1437     0.0194   135.9378
   75.5000   -65.1267     7.3700     7.7264     6.4163     8.1609     2.4041     0.1519     0.0152   137.8340
   76.0000   -66.1933     7.1226     7.4089     5.9963     8.1600     2.4076     0.1423     0.0289   136.2353
   76.5000   -67.0480     6.8854     7.2224     6.0738     8.1591     2.4325     0.1317     0.0340   129.4324
   77.0000   -67.5577     7.0664     7.0406     6.2174     8.1581     2.4415     0.1268     0.0341   128.7700
   77.5000   -67.8003     7.2952     6.9730     6.3619     8.1572     2.4453     0.1265     0.0332   128.6698
   78.0000   -68.0355     7.5315     6.9256     6.5096     8.1563     2.4446     0.1261     0.0313   128.2674
   78.5000   -68.2707     7.8349     6.8854     6.6974     8.1554     2.4449     0.1257     0.0361   127.8556
   79.0000   -68.5064     7.7064     6.9804     6.6167     8.1544     2.4453     0.1254     0.0380   129.5573
   79.5000   -68.7421     7.5408     7.0643     6.5121     8.1535     2.4422     0.1275     0.0346   131.5418
   80.0000   -68.9855     7.3787     7.0786     6.4092     8.1526     2.4298     0.1349     0.0234   133.5454
   80.5000   -69.2344     7.2206     7.0786     6.3072     8.1516     2.4161     0.1420     0.0121   135.6256
   81.0000   -69.4825     7.1423     7.0786     6.1641     8.1507     2.4045     0.1491     0.0048   132.1337
   81.5000   -69.7323     7.3575     7.1005     6.2553     8.1498     2.4081     0.1483     0.0092   127.8350
   82.0000   -69.8097     7.5236     7.1625     6.4299     8.1489     2.4137     0.1444     0.0131   124.0185
   82.5000   -69.7624     7.6937     7.2250     6.6079     8.1479     2.4193     0.1405     0.0169   120.3433
   83.0000   -69.7124     7.8678     7.2881     6.6358     8.1470     2.4248     0.1366     0.0208   118.1123
   83.5000   -69.6625     8.1295     7.3517     6.6358     8.1461     2.4304     0.1327     0.0246   118.0709
   84.0000   -69.6127     8.0748     7.4159     6.6358     8.1451     2.4360     0.1294     0.0285   121.8177
   84.5000   -69.5629     7.9726     7.4820     6.6358     8.1442     2.4402     0.1295     0.0325   125.6120
   85.0000   -69.5132     7.8716     7.4489     6.6366     8.1433     2.4302     0.1336     0.0200   127.0201
   85.5000   -69.4635     7.8149     7.4073     6.5970     8.1424     2.4205     0.1404     0.0039   126.7216
   86.0000   -69.4854     7.7698     7.3660     6.5110     8.1414     2.4219     0.1404     0.0102   126.3816
   86.5000   -69.5778     7.7249     7.3251     6.4252     8.1405     2.4244     0.1392     0.0160   126.0463
   87.0000   -69.6703     7.6803     7.2843     6.3408     8.1396     2.4242     0.1369     0.0264   125.7394
   87.5000   -69.7629     7.6359     7.2438     6.2575     8.1386     2.4421     0.1320     0.0353   126.5217
   88.0000   -69.8555     7.5918     7.2035     6.1753     8.1377     2.4421     0.1267     0.0294   128.4625
   88.5000   -69.9480     7.5509     7.1635     6.0942     8.1368     2.4389     0.1315     0.0276   129.6967
   89.0000   -70.0405     7.5505     7.1236     6.0142     8.1358     2.4387     0.1277     0.0358   129.7897
   89.5000   -70.1330     7.5494     7.0839     5.9352     8.1349     2.4490     0.1239     0.0385   128.8311
   90.0000   -70.2255     7.5510     7.0448     5.8857     8.1340     2.4556     0.1239     0.0277   125.8014
   90.5000   -70.3180     7.8664     7.0136     6.0108     8.1330     2.4299     0.1389     0.0172   122.5947
   91.0000   -70.4105     8.1895     7.0951     6.1041     8.1321     2.4240     0.1419     0.0151   121.0977
   91.5000   -70.5031     8.5259     7.1632     6.1988     8.1312     2.4358     0.1336     0.0211   122.2873
   92.0000   -70.5956     8.8334     7.2363     6.2949     8.1303     2.4455     0.1267     0.0273   123.7913
   92.5000   -70.6886     8.4792     7.3193     6.3926     8.1293     2.4534     0.1239     0.0222   123.8275
   93.0000   -70.7802     8.1749     7.4034     6.4917     8.1284     2.4364     0.1303     0.0148   122.6989
   93.5000   -70.8260     7.8349     7.4883     6.5924     8.1275     2.4373     0.1311     0.0190   124.4339
   94.0000   -70.7057     7.9975     7.5743     6.6947     8.1265     2.4380     0.1299     0.0163   127.7662
   94.5000   -70.5870     8.2565     7.6613     6.7985     8.1256     2.4417     0.1293     0.0240   130.5477
   95.0000   -70.4682     8.5238     7.7492     6.9040     8.1247     2.4481     0.1243     0.0297   131.5163
   95.5000   -70.3496     8.7998     7.8382     7.0136     8.1238     2.4474     0.1230     0.0263   129.6824
   96.0000   -70.2309     9.0814     7.9282     7.1458     8.1228     2.4440     0.1267     0.0231   123.2087
   96.5000   -70.1122     8.9994     8.0192     7.2838     8.1219     2.4434     0.1279     0.0212   115.0198
   97.0000   -69.9935     8.9191     8.1113     7.4244     8.1210     2.4434     0.1270     0.0225   116.6480
   97.5000   -69.8730     8.8334     8.2044     7.5677     8.1200     2.4434     0.1260     0.0236   119.0319
   98.0000   -69.8600     8.9303     8.2986     7.7142     8.1191     2.4446     0.1270     0.0207   120.1717
   98.5000   -69.8880     9.0646     8.3584     7.8637     8.1182     2.4347     0.1336     0.0127   119.4630
   99.0000   -69.9168     9.2528     8.2990     7.9826     8.1173     2.4283     0.1363     0.0101   120.1098
   99.5000   -69.9454     9.1386     8.2495     7.7442     8.1163     2.4276     0.1360     0.0125   121.3501
  100.0000   -69.9740     8.8960     8.1923     7.5186     8.1154     2.4244     0.1377     0.0149   121.8491
  100.5000   -70.0025     8.6564     8.0613     7.3001     8.1145     2.4158     0.1294     0.0181   119.8840
  101.0000   -70.0311     8.5133     7.9323     7.0882     8.1135     2.4297     0.1235     0.0247   117.8011
  101.5000   -70.0597     8.5133     7.8055     6.8823     8.1126     2.4435     0.1283     0.0310   114.6078
  102.0000   -70.0882     8.5133     7.6807     6.6836     8.1118     2.4492     0.1247     0.0261   109.4245
  102.5000   -70.1168     8.1520     7.5510     6.5145     8.1109     2.4506     0.1243     0.0228    97.1973
  103.0000   -70.1453     7.6210     7.5847     6.5145     8.1024     2.4539     0.1076     0.0396    85.5399
  103.5000   -70.1739     7.6916     7.6221     6.5145     8.0574     2.5260     0.0891     0.0559    78.7181
  104.0000   -70.2025     7.9808     7.6592     7.0337     8.0131     2.5245     0.0746     0.0586    89.6756
  104.5000   -70.2310     9.0814     7.6963     7.5750     7.9687     2.5063     0.0875     0.0284   104.6761
  105.0000   -70.2596    13.6297     7.7332     8.0548     7.9584     2.4765     0.1002     0.0308   112.6555
  105.5000   -70.2881    12.8575     7.7634     7.4373     8.0061     2.4462     0.1186     0.0244   117.8498
  106.0000   -70.3167    10.2603     7.8404     6.8022     8.0535     2.4239     0.1394     0.0134   118.9456
  106.5000   -70.3453     8.0548     7.9166     6.3320     8.1004     2.4107     0.1467     0.0061   118.9976
  107.0000   -70.3739     8.1618     7.9935     6.2784     8.1299     2.4118     0.1446     0.0128   117.6060
  107.5000   -70.4022     8.3092     8.0548     6.3254     8.1284     2.4235     0.1413     0.0194   115.4658
  108.0000   -70.4323     8.4594     7.9110     6.4441     8.1273     2.4397     0.1350     0.0175   111.7988
  108.5000   -70.3638     8.6123     7.7943     6.5651     8.1261     2.4440     0.1287     0.0144   109.3280
  109.0000   -70.2487     8.7679     7.6792     6.6883     8.1249     2.4443     0.1277     0.0184   111.6258
  109.5000   -70.1321     8.9153     7.5658     6.8139     8.1237     2.4386     0.1306     0.0171   115.7277
  110.0000   -70.0256     8.7128     7.4816     6.8854     8.1226     2.4327     0.1339     0.0142   119.7754
  110.5000   -69.9617     8.5141     7.5627     6.7984     8.1214     2.4329     0.1327     0.0183   122.1431
