~VERSION INFORMATION
 VERS.                2.0:   CWLS LOG ASCII STANDARD - VERSION 2.0
 WRAP.                 NO:   ONE LINE PER DEPTH STEP
~WELL INFORMATION
#MNEM.UNIT      DATA TYPE    INFORMATION
#----------   ------------   ------------------------------
 STRT.F           28.0000:   START DEPTH
 STOP.F          636.0000:   STOP DEPTH
 STEP.F            0.5000:   STEP LENGTH
 NULL.          -999.2500:   NO VALUE
 COMP. FENIX & SCISSON INC:   COMPANY
 WELL.    NPR-3 #12S14-14:   WELL
 FLD .             TEAPOT:   FIELD
 LOC .      S14 T38N R78W:   LOCATION
 CNTY.            NATRONA:   COUNTY
 STAT.            WYOMING:   STATE
 CTRY. UNITED STATES OF AMERICA:   COUNTRY
 SRVC.           BIRDWELL:   SERVICE COMPANY
 DATE.        21-JUN-1978:   LOGDATE
 API .       490251065000:   API NUMBER
~CURVE INFORMATION
#MNEM.UNIT       API CODE    CURVE DESCRIPTION
#----------   ------------   ------------------------------
 DEPT.F                  :   
 SPR .MV     07 010 01 00:   SPONTANEOUS POTENTIAL
 ILD .OHMM   07 120 46 00:   INDUCTION LOG DEEP
 SN  .OHMM   07 040 16 00:   SHORT NORMAL 16"
 GRD .GAPI   45 310 01 00:   GAMMA RAY FROM DENSITY LOG
 CORR.G/C3   45 356 01 00:   DENSITY CORRECTION
 DEN .G/C3   45 350 01 00:   COMPENSATED BULK DENSTIY
 DPHI.DEC    45 890 12 00:   DENSITY POROSITY SANDSTONE
~PARAMETER INFORMATION
#MNEM.UNIT          VALUE    DESCRIPTION
#----------   ------------   ------------------------------
 PD  .                 GL:   PERMANENT DATUM
 EPD .F              5237:   ELEVATION PERMANENT DATUM
 LMF .                 KB:   LOG MEASURED FROM
 DMF .                 KB:   DRILLING MEASURED FROM
 EKB .F              5241:   KELLING BUSHING
 EGL .F              5237:   GROUND LEVEL
 DATE.        21-JUN-1978:   RUN DATE
 RUN .                  1:   RUN NUMBER
 DD  .F               637:   DEPTH DRILLER
 DL  .F               642:   DEPTH LOGGER
 BLI .F               636:   BOTTOM LOG INTERVAL
 TLI .F                40:   TOP LOG INTERVAL
 CS  .IN            8.625:   CASING SIZE
 CBD .F                40:   CASING BOTTOM DRILLER
 CBL .F                40:   CASING BOTTOM LOGGER
 BS  .IN            7.875:   BIT SIZE
 BSD .F               637:   BIT SIZE AT DEPTH
 DFT .                KCL:   DRILLING FLUID TYPE
 DFD .                8.7:   DRILLING FLUID DENSITY
 DFV .                 32:   DRILLING FLUID VISCOSITY
 DFPH.                 10:   DRILLING FLUID PH
 MSS .           FLOWLINE:   MUD SAMPLE SOURCE
 RMS .OHMM            .18:   RESISTIVITY MUD SAMPLE
 MST .F                84:   MUD SAMPLE TEMPERATURE
 RMF .OHMM            .17:   RESISTIVITY MUD FILTRATE SAMPLE
 MFST.F                72:   MUD FILTRATE SAMPLE TEMPERATURE
 RMC .OHMM            .28:   RESISTIVITY MUD CAKE
 MCST.F                82:   MUD CAKE SAMPLE TEMPERATURE
 MFSS.               MEAS:   MUD FILTRATE SAMPLE SOURCE
 MCSS.               MEAS:   MUD CAKE SAMPLE SOURCE
 BHT .F                72:   BOTTOM HOLE TEMPERATURE
 TCS .HRS            0230:   TIME CURCULATED STOPPED
 MRT .F                72:   MAXIMUM RECORDED TEMPERATURE
 LUN .               2958:   LOGGING UNIT NUMBER
 LUL .               CASP:   LOGGING UNIT LOCATION
 ENGI.             MILLER:   RECORDING ENGINEER
 WITN.           MCGINLEY:   WITNESSED BY
 CLNT.            A2DTECH:   CLIENT CODE
 ORIG.           5" PRINT:   ORIGIN OF DATA
 UWI .       490251065000:   UNIQUE WELL ID
 DICO. A2D Technologies, Inc.:   DIGITIZING COMPANY
~OTHER INFORMATION
~A   DEPT      SPR        ILD         SN        GRD       CORR        DEN       DPHI   
# ...
  255.5000   -52.9143     6.5535     8.2119    84.0735     0.0025     2.4690     0.1244
  256.0000   -52.9011     6.5566     8.2164    84.3670     0.0025     2.4682     0.1181
  256.5000   -52.8878     6.5146     8.2778    84.0555    -0.0006     2.4719     0.1172
  257.0000   -52.8746     6.4729     8.2833    81.4939    -0.0036     2.4831     0.1184
  257.5000   -52.8614     6.4760     8.2308    77.8813    -0.0082     2.4666     0.1223
  258.0000   -52.8481     6.5239     8.1776    76.8234    -0.0097     2.4494     0.1304
  258.5000   -52.8349     6.4820     8.1258    81.1733    -0.0082     2.4501     0.1307
  259.0000   -52.9716     6.4405     8.1314    85.4111    -0.0083     2.4545     0.1298
  259.5000   -52.9579     6.4437     8.1358    89.6490    -0.0083     2.4553     0.1268
  260.0000   -53.2436     6.4915     8.1402    93.6042    -0.0069     2.4492     0.1280
  260.5000   -53.3799     6.5394     8.2010    88.7881    -0.0054     2.4477     0.1313
  261.0000   -53.3662     6.4529     8.2054    85.7761    -0.0040     2.4447     0.1334
  261.5000   -53.3501     6.4123     8.1524    83.0644    -0.0040     2.4447     0.1346
  262.0000   -53.3369     6.4598     8.1579    82.7551    -0.0011     2.4461     0.1335
  262.5000   -53.3237     6.4628     8.1623    82.7461     0.0004     2.4566     0.1281
  263.0000   -53.3104     6.4659     8.1667    82.8872     0.0018     2.4611     0.1245
  263.5000   -53.1477     6.4690     8.1712    84.5298     0.0018     2.4610     0.1221
  264.0000   -53.1345     6.4720     8.1757    87.8241     0.0017     2.4610     0.1200
  264.5000   -53.1213     6.5199     8.1803    89.3189     0.0017     2.4595     0.1215
  265.0000   -53.2608     6.5230     8.1856    86.9052     0.0016     2.4549     0.1233
  265.5000   -53.2443     6.4812     8.1901    85.9953     0.0016     2.4534     0.1188
  266.0000   -53.0816     6.4843     8.1945    85.9862     0.0015     2.4624     0.1221
  266.5000   -53.0683     6.4428     8.1426    87.3286     0.0015     2.4608     0.1210
  267.0000   -53.0551     6.4905     8.0911    91.2235     0.0015     2.4601     0.1246
  267.5000   -53.0419     6.4937     8.0388    95.8691     0.0014     2.4593     0.1213
  268.0000   -53.1781     6.4974     7.9879    94.6589     0.0014     2.4600     0.1258
  268.5000   -53.1645     6.5005     8.0486    88.6439     0.0013     2.4712     0.1195
  269.0000   -53.1483     6.5036     8.1087    86.5327     0.0013     2.4846     0.1111
  269.5000   -53.1351     6.5067     8.1131    84.4216     0.0012     2.4898     0.1069
  270.0000   -53.1219     6.5098     8.1175    82.1622     0.0012     2.4921     0.1049
  270.5000   -53.1086     6.4681     8.1219    80.2016     0.0011     2.4913     0.1043
  271.0000   -53.0954     6.4712     8.1263    83.3985     0.0011     2.4860     0.1091
  271.5000   -53.0822     6.4742     8.0748    87.3543    -0.0049     2.4808     0.1079
  272.0000   -53.2217     6.4773     8.0793    89.8679    -0.0065     2.4904     0.1055
  272.5000   -53.2052     6.4804     8.0281    85.1050    -0.0050     2.4837     0.1127
  273.0000   -53.1919     6.4388     8.0335    83.1592     0.0024     2.4717     0.1178
  273.5000   -53.1787     6.4419     8.0379    85.4379     0.0069     2.4746     0.1136
  274.0000   -53.1655     6.4450     7.9859    90.4524     0.0053     2.4798     0.1113
  274.5000   -53.3019     6.4482     7.9913    92.8183     0.0008     2.4768     0.1106
  275.0000   -53.1390     6.4068     7.9957    91.2313    -0.0008     2.4618     0.1203
  275.5000   -52.9761     6.3657     8.0000    87.7964    -0.0053     2.4648     0.1223
  276.0000   -52.9627     6.3695     8.0044    84.9073    -0.0053     2.4692     0.1192
  276.5000   -52.7971     6.3287     7.9526    86.8969    -0.0054     2.4640     0.1174
  277.0000   -52.7838     6.3317     7.9580    87.1415    -0.0054     2.4595     0.1173
  277.5000   -52.7706     6.3347     7.9623    87.1547    -0.0055     2.4572     0.1212
  278.0000   -52.9068     6.3378     7.9667    89.7418    -0.0055     2.4594     0.1248
  278.5000   -52.8936     6.3847     7.9710    91.0183    -0.0056     2.4594     0.1235
  279.0000   -52.8804     6.3430     7.9753    89.8739    -0.0026     2.4541     0.1224
  279.5000   -53.0166     6.3468     8.0350    86.8433     0.0003     2.4481     0.1230
  280.0000   -53.0034     6.3498     8.0392    84.6247     0.0033     2.4720     0.1194
  280.5000   -52.8407     6.3528     7.9883    86.5030     0.0048     2.4780     0.1104
  281.0000   -52.8274     6.3558     8.0490    89.6787     0.0032     2.4809     0.1083
  281.5000   -52.8142     6.3589     8.0534    90.8323     0.0032     2.4697     0.1134
  282.0000   -52.8010     6.3620     8.0578    90.6366     0.0016     2.4689     0.1120
  282.5000   -52.7877     6.3656     8.0622    88.3335     0.0016     2.4704     0.1188
  283.0000   -52.7743     6.3687     8.0665    84.1462     0.0015     2.4711     0.1192
  283.5000   -52.9108     6.3717     8.1268    83.5706     0.0015     2.4710     0.1180
  284.0000   -53.0470     6.3747     8.1312    83.4114     0.0014     2.4688     0.1153
  284.5000   -53.0305     6.4219     8.1356    83.4024     0.0029     2.4627     0.1168
  285.0000   -52.8678     6.4249     8.0830    84.6697     0.0028     2.4567     0.1255
  285.5000   -52.8545     6.4280     8.0885    89.1626     0.0043     2.4619     0.1174
  286.0000   -52.9908     6.4310     8.0929    91.0611     0.0042     2.4694     0.1204
  286.5000   -52.9775     6.4341     8.0416    92.3889     0.0042     2.4686     0.1213
  287.0000   -52.9643     6.3928     8.0460    90.3624     0.0042     2.4708     0.1183
  287.5000   -52.9511     6.3959     8.0504    88.5786     0.0026     2.4745     0.1132
  288.0000   -52.9378     6.3550     7.9994    87.9942    -0.0004     2.4655     0.1192
  288.5000   -52.7751     6.3580     8.0048    89.3823    -0.0020     2.4625     0.1213
  289.0000   -52.7619     6.3173     7.9531    91.3013    -0.0065     2.4610     0.1193
  289.5000   -52.8983     6.2768     7.8484    92.9324    -0.0065     2.4557     0.1226
  290.0000   -52.8849     6.2366     7.7462    93.9641    -0.0096     2.4504     0.1244
  290.5000   -52.8717     6.2403     7.7504    93.4950    -0.0096     2.4474     0.1334
  291.0000   -53.0274     6.2433     7.7546    92.7268    -0.0097     2.4422     0.1310
  291.5000   -53.1442     6.2026     7.7588    91.3759    -0.0082     2.4376     0.1340
  292.0000   -53.1276     6.1636     7.7631    91.0671    -0.0053     2.4533     0.1394
  292.5000   -53.1144     6.1234     7.7129    90.4429     0.0052     2.4675     0.1214
  293.0000   -53.1012     6.0842     7.6124    88.4765     0.0126     2.4712     0.1136
  293.5000   -53.0879     6.0878     7.6692    86.5370     0.0036     2.4585     0.1193
  294.0000   -53.0747     6.0907     7.6734    88.5706    -0.0010     2.4532     0.1274
  294.5000   -53.0615     6.0936     7.6776    93.3098    -0.0040     2.4547     0.1257
  295.0000   -53.0482     6.0964     7.6835    94.6247    -0.0040     2.4531     0.1305
  295.5000   -53.0350     6.0993     7.7392    92.8003    -0.0026     2.4516     0.1278
  296.0000   -53.0218     6.1023     7.7435    90.2323    -0.0026     2.4516     0.1290
  296.5000   -53.0085     6.1475     7.7485    88.8919    -0.0012     2.4523     0.1287
  297.0000   -52.9953     6.2365     7.7527    89.6396     0.0033     2.4560     0.1275
  297.5000   -52.9821     6.3262     7.8106    90.5256     0.0047     2.4620     0.1263
  298.0000   -52.9686     6.4171     7.8689    89.8958     0.0032     2.4694     0.1224
  298.5000   -52.9552     6.4646     7.9277    86.3018     0.0016     2.4716     0.1170
  299.0000   -52.9391     6.5124     7.9868    85.9940    -0.0029     2.4709     0.1144
  299.5000   -52.9258     6.5155     8.0464    86.8868    -0.0074     2.4708     0.1132
  300.0000   -52.7631     6.5184     8.0507    88.6787    -0.0090     2.4665     0.1178
  300.5000   -52.7498     6.5206     8.0540    86.8682    -0.0081     2.4558     0.1228
