~VERSION INFORMATION
 VERS.                2.0:   CWLS LOG ASCII STANDARD - VERSION 2.0
 WRAP.                 NO:   ONE LINE PER DEPTH STEP
~WELL INFORMATION
#MNEM.UNIT      DATA TYPE    INFORMATION
#----------   ------------   ------------------------------
 STRT.F           30.0000:   START DEPTH
 STOP.F         2432.5000:   STOP DEPTH
 STEP.F            0.5000:   STEP LENGTH
 NULL.          -999.2500:   NO VALUE
 COMP. FENIX & SCISSON INC:   COMPANY
 WELL.     72 SHX 4 #72-4:   WELL
 FLD .             TEAPOT:   FIELD
 LOC .       S4 T38N R78W:   LOCATION
 CNTY.            NATRONA:   COUNTY
 STAT.            WYOMING:   STATE
 CTRY. UNITED STATES OF AMERICA:   COUNTRY
 SRVC.           BIRDWELL:   SERVICE COMPANY
 DATE.        05-MAR-1979:   LOGDATE
 API .       490251074300:   API NUMBER
~CURVE INFORMATION
#MNEM.UNIT       API CODE    CURVE DESCRIPTION
#----------   ------------   ------------------------------
 DEPT.F                  :   
 SPR .MV     05 010 01 00:   SPONTANEOUS POTENTIAL FROM RES.
 SN  .OHMM   05 040 16 00:   SHORT NORMAL 16"
 ILD .OHMM   05 120 46 00:   INDUCTION LOG DEEP
 CALD.IN     45 280 60 00:   CALIPER
 GRD .GAPI   45 310 01 00:   GAMMA RAY FROM DENSITY LOG
 RHOB.G/C3   45 350 01 00:   BULK DENSITY
 CORR.G/C3   45 356 01 00:   DENSITY CORRECTION
 DPHI.DEC    45 890 12 00:   DENSITY POROSITY SANDSTONE
~PARAMETER INFORMATION
#MNEM.UNIT          VALUE    DESCRIPTION
#----------   ------------   ------------------------------
 PD  .                 GL:   PERMANENT DATUM
 EPD .F              5194:   ELEVATION PERMANENT DATUM
 LMF .                 KB:   LOG MEASURED FROM
 DAPD.F                10:   FEET ABOVE PERMANENT DATUM
 DMF .                 KB:   DRILLING MEASURED FROM
 EKB .F              5204:   KELLING BUSHING
 EGL .F              5194:   GROUND LEVEL
 DATE.             3-5-79:   RUN DATE
 RUN .                  1:   RUN NUMBER
 DD  .F              2560:   DEPTH DRILLER
 DL  .F              2432:   DEPTH LOGGER
 BLI .F              2432:   BOTTOM LOG INTERVAL
 TLI .F               400:   TOP LOG INTERVAL
 CS  .IN            9.625:   CASING SIZE
 CBD .F               685:   CASING BOTTOM DRILLER
 CBL .F               685:   CASING BOTTOM LOGGER
 BS  .IN             8.75:   BIT SIZE
 BSD .F              2560:   BIT SIZE AT DEPTH
 DFT .                AIR:   DRILLING FLUID TYPE
 TCS .HRS               5:   TIME CURCULATED STOPPED
 LUN .               3006:   LOGGING UNIT NUMBER
 LUL .             CASPER:   LOGGING UNIT LOCATION
 ENGI.         B. ROLLINS:   RECORDING ENGINEER
 WITN.           DINSMORE:   WITNESSED BY
 CLNT.            A2DTECH:   CLIENT CODE
 ORIG.           5" PRINT:   ORIGIN OF DATA
 UWI .       490251074300:   UNIQUE WELL ID
 DICO. A2D Technologies, Inc.:   DIGITIZING COMPANY
~OTHER INFORMATION
~A   DEPT      SPR         SN        ILD        CALD       GRD       RHOB         CORR      DPHI  
# ...
  192.0000   -40.9861     5.7644     7.6963    12.2915    80.2128     2.3597     0.3900     0.2059
  192.5000   -40.9767     5.7001     7.7264    12.2890    80.1117     2.3642     0.3935     0.1971
  193.0000   -40.9673     5.6389     7.7566    12.2867    80.0176     2.3682     0.3822     0.2209
  193.5000   -40.9579     5.5851     7.7840    12.2843    80.1949     2.3031     0.3953     0.2432
  194.0000   -40.9485     5.7095     7.7999    12.2819    80.4470     2.2911     0.4083     0.2473
  194.5000   -40.9390     5.8360     7.8158    12.2795    80.6922     2.3419     0.4113     0.1997
  195.0000   -40.9296     5.9653     7.8317    12.2771    80.9720     2.3789     0.4091     0.1951
  195.5000   -40.9202     6.0974     7.8476    12.2744    79.3997     2.3793     0.4150     0.1953
  196.0000   -40.9104     6.2325     7.8636    12.2729    77.0694     2.3790     0.4217     0.1923
  196.5000   -40.8979     6.3705     7.8796    12.3119    75.6500     2.3927     0.4285     0.1739
  197.0000   -41.0173     6.5117     7.8956    12.3544    78.4659     2.4151     0.4303     0.1735
  197.5000   -41.1556     6.6557     7.9117    12.3972    80.6631     2.4174     0.4293     0.1738
  198.0000   -41.2941     6.8033     7.9416    12.4352    80.5780     2.4163     0.4283     0.1744
  198.5000   -41.4325     6.8869     8.0575    12.3461    82.9582     2.4148     0.4274     0.1672
  199.0000   -41.5711     6.9499     8.1750    12.1455    86.0989     2.4358     0.4244     0.1537
  199.5000   -41.6983     7.0134     8.2942    12.1319    88.5561     2.4692     0.4204     0.1402
  200.0000   -41.7007     7.0963     8.4150    12.2277    87.8310     2.4480     0.4097     0.1325
  200.5000   -41.7001     7.0690     8.5376    12.1890    87.8475     2.4889     0.3950     0.1133
  201.0000   -41.7000     7.0168     8.6629    12.1285    89.6439     2.5449     0.3444     0.0971
  201.5000   -41.7000     6.9647     8.7073    12.1039    89.7729     2.5458     0.2898     0.1190
  202.0000   -41.7000     6.9130     8.7302    12.1390    87.3283     2.4778     0.2350     0.1577
  202.5000   -41.6999     6.8617     8.7526    12.1762    84.4092     2.4209     0.2017     0.1836
  203.0000   -41.7020     6.8103     8.7751    12.1787    81.7491     2.3815     0.1931     0.2067
  203.5000   -41.7195     6.7762     8.7976    12.1649    81.7850     2.3519     0.1911     0.2298
  204.0000   -41.7371     6.8131     8.8200    12.1505    83.6700     2.2904     0.2470     0.2590
  204.5000   -41.7546     6.8524     8.8435    12.1361    88.2230     2.2506     0.3554     0.2334
  205.0000   -41.7722     6.8917     8.9503    12.1278    94.0764     2.3500     0.4223     0.1858
  205.5000   -41.7898     6.9312     9.1144    12.1227    97.1661     2.4342     0.4051     0.1661
  206.0000   -41.8073     6.9861     9.2805    12.1175    96.4455     2.4130     0.3796     0.1771
  206.5000   -41.8249     7.1745     9.4497    12.1124    95.1169     2.3883     0.3834     0.1927
  207.0000   -41.8424     7.3680     9.6219    12.1073    90.7905     2.3854     0.3929     0.1868
  207.5000   -41.8600     7.5667     9.7956    12.1022    88.7523     2.3912     0.3938     0.1807
  208.0000   -41.8775     7.7708     9.9051    12.0971    88.4330     2.3938     0.3953     0.1842
  208.5000   -41.8949     7.9803    10.0144    12.0920    88.1864     2.3907     0.4155     0.1883
  209.0000   -41.9441     8.1955    10.1251    12.0868    85.8306     2.4105     0.4330     0.1619
  209.5000   -42.0049     8.2991    10.2374    12.0817    83.8775     2.4318     0.4195     0.1575
  210.0000   -42.0659     8.2824    10.3531    12.0766    85.6980     2.4392     0.4058     0.1627
  210.5000   -42.1268     8.1870    10.3454    12.0715    87.5853     2.4233     0.3924     0.1689
  211.0000   -42.1880     8.0927    10.3341    12.0663    89.3257     2.4107     0.3892     0.1747
  211.5000   -42.2494     7.9995    10.3228    12.0612    88.8277     2.4104     0.3874     0.1744
  212.0000   -42.3000     7.9074    10.3115    12.0561    86.6174     2.4111     0.3802     0.1720
  212.5000   -42.2265     7.8163    10.3002    12.0510    84.9819     2.4083     0.3713     0.1731
  213.0000   -42.1493     7.7263    10.2889    12.0459    84.6858     2.4048     0.3623     0.1798
  213.5000   -42.0725     7.6389    10.2777    12.0407    85.9184     2.4025     0.3600     0.1806
  214.0000   -41.9959     7.6389    10.2664    12.0356    87.7907     2.4050     0.3592     0.1786
  214.5000   -41.9205     7.7100    10.2552    12.0302    89.1158     2.4081     0.3552     0.1754
  215.0000   -41.7265     7.7783    10.2440    12.0410    88.7927     2.4163     0.3502     0.1706
  215.5000   -41.4958     7.8471    10.2328    12.0553    88.4654     2.4247     0.3450     0.1642
  216.0000   -41.2665     7.9166    10.2216    12.0697    89.1924     2.4331     0.3382     0.1577
  216.5000   -41.1318     7.9989    10.2104    12.0840    90.0559     2.4413     0.3234     0.1527
  217.0000   -41.2889     7.9674    10.1992    12.0984    89.1476     2.4459     0.3088     0.1542
  217.5000   -41.4370     7.9296    10.1881    12.1127    85.9651     2.4432     0.2941     0.1604
  218.0000   -41.5851     7.8919    10.1770    12.1270    85.0736     2.4352     0.2794     0.1666
  218.5000   -41.7331     7.8544    10.1638    12.1414    87.0082     2.4269     0.2659     0.1695
  219.0000   -41.8812     7.8171    10.1779    12.1558    89.4000     2.4263     0.2624     0.1682
  219.5000   -42.0300     7.7800    10.1974    12.1707    91.8048     2.4278     0.2585     0.1643
  220.0000   -42.1781     7.7430    10.2169    12.1789    92.8459     2.4284     0.2548     0.1649
  220.5000   -42.2764     7.7096    10.2364    12.1870    89.2850     2.4245     0.2583     0.1684
  221.0000   -42.0982     7.7430    10.2559    12.1952    85.5270     2.4208     0.2762     0.1665
  221.5000   -41.9240     7.7738    10.2754    12.2034    86.9507     2.4321     0.2940     0.1559
  222.0000   -41.8994     7.8047    10.2950    12.2116    89.3653     2.4435     0.2948     0.1567
  222.5000   -41.8996     7.8357    10.3146    12.2198    91.8189     2.4367     0.2871     0.1636
  223.0000   -41.9000     7.8529    10.3343    12.2280    91.8466     2.4283     0.2849     0.1683
  223.5000   -41.8999     7.7186    10.3521    12.2362    86.7170     2.4249     0.2907     0.1654
  224.0000   -41.9000     7.6273    10.2371    12.2445    82.1845     2.4245     0.2857     0.1659
  224.5000   -41.9088     7.5370    10.1332    12.2514    78.5009     2.4245     0.2747     0.1777
  225.0000   -41.9500     7.4478    10.0303    12.2382    77.4901     2.3996     0.2648     0.1895
  225.5000   -41.9898     7.3597     9.9285    12.2243    77.1330     2.3749     0.2730     0.1972
  226.0000   -42.0297     7.2726     9.8277    12.2154    82.5603     2.3770     0.2892     0.1945
  226.5000   -42.0695     7.1866     9.7885    12.3506    89.5289     2.3820     0.3057     0.1913
  227.0000   -42.1094     7.1017     9.7752    12.4298    92.2642     2.3869     0.3084     0.1879
  227.5000   -42.1492     7.0086     9.7615    12.3260    92.6014     2.3933     0.3267     0.1707
  228.0000   -42.1891     6.8725     9.7479    12.2358    92.8846     2.4289     0.3417     0.1449
  228.5000   -42.2295     6.7391     9.7345    12.2389    93.1506     2.4691     0.3206     0.1416
  229.0000   -42.2722     6.6082     9.7213    12.2471    92.3294     2.4598     0.2948     0.1534
  229.5000   -42.2855     6.5922     9.7065    12.2553    91.2888     2.4414     0.2683     0.1642
  230.0000   -41.8264     6.5922     9.3962    12.2635    90.4870     2.4226     0.2575     0.1731
  230.5000   -41.3558     6.5922     9.0661    12.2713    90.5060     2.4191     0.2509     0.1731
  231.0000   -40.8889     6.5922     8.7480    12.2519    90.4963     2.4190     0.2507     0.1731
  231.5000   -40.4913     6.5921     8.4411    12.2290    89.9133     2.4230     0.2510     0.1657
  232.0000   -40.5177     6.5915     8.1455    12.2063    89.2765     2.4289     0.2431     0.1611
