~VERSION INFORMATION
 VERS.                2.0:   CWLS LOG ASCII STANDARD - VERSION 2.0
 WRAP.                 NO:   ONE LINE PER DEPTH STEP
~WELL INFORMATION
#MNEM.UNIT      DATA TYPE    INFORMATION
#----------   ------------   ------------------------------
 STRT.F            8.0000:   START DEPTH
 STOP.F          508.0000:   STOP DEPTH
 STEP.F            0.1000:   STEP LENGTH
 NULL.          -999.2500:   NO VALUE
 COMP. LAWRENCE/ALLISON INC:   COMPANY
 WELL. NPR 3 47-12 SX #3-3:   WELL
 FLD .             TEAPOT:   FIELD
 LOC .       S3 T38N R78W:   LOCATION
 CNTY.            NATRONA:   COUNTY
 STAT.            WYOMING:   STATE
 CTRY. UNITED STATES OF AMERICA:   COUNTRY
 SRVC.           Gearhart:   SERVICE COMPANY
 DATE.        12-AUG-1988:   LOGDATE
 API .       490251124100:   API NUMBER
~CURVE INFORMATION
#MNEM.UNIT       API CODE    CURVE DESCRIPTION
#----------   ------------   ------------------------------
 DEPT.F                  :   
 GRR .GAPI   07 310 01 00:   GAMMA RAY
 RILD.OHMM   07 120 46 00:   INDUCTION LOG DEEP RESISTIVITY
 RILM.OHMM   07 120 44 00:   INDUCTION LOG MEDIUM RESISTIVITY
~PARAMETER INFORMATION
#MNEM.UNIT          VALUE    DESCRIPTION
#----------   ------------   ------------------------------
 PD  .                 GL:   PERMANENT DATUM
 EPD .F              5208:   ELEVATION PERMANENT DATUM
 LMF .                 KB:   LOG MEASURED FROM
 DAPD.F                10:   FEET ABOVE PERMANENT DATUM
 DMF .                 KB:   DRILLING MEASURED FROM
 EKB .F              5218:   KELLING BUSHING
 EDF .F              5216:   DRILLING FLOOR
 EGL .F              5208:   GROUND LEVEL
 DATE.        12-AUG-1988:   RUN DATE
 RUN .                  1:   RUN NUMBER
 DD  .F               515:   DEPTH DRILLER
 DL  .F               516:   DEPTH LOGGER
 BLI .F               508:   BOTTOM LOG INTERVAL
 TLI .F                50:   TOP LOG INTERVAL
 CS  .IN            9.625:   CASING SIZE
 CBD .F                50:   CASING BOTTOM DRILLER
 CBL .F                50:   CASING BOTTOM LOGGER
 BS  .IN             8.75:   BIT SIZE
 BSD .F               515:   BIT SIZE AT DEPTH
 DFT .                AIR:   DRILLING FLUID TYPE
 TCS .HRS            1500:   TIME CURCULATED STOPPED
 TLAB.HRS            1640:   TIME LOGGER AT BOTTOM
 MRT .F                70:   MAXIMUM RECORDED TEMPERATURE
 LUN .               7597:   LOGGING UNIT NUMBER
 LUL .           GILLETTE:   LOGGING UNIT LOCATION
 ENGI.         WEATHERMON:   RECORDING ENGINEER
 WITN.             STRONG:   WITNESSED BY
 CLNT.            A2DTECH:   CLIENT CODE
 ORIG.       2", 5" PRINT:   ORIGIN OF DATA
 UWI .       490251124100:   UNIQUE WELL ID
 DICO. A2D Technologies, Inc.:   DIGITIZING COMPANY
~OTHER INFORMATION
~A    DEPT      GRR      RILD       RILM   
# ...
  481.2000   109.0009    14.2763    14.1615
  481.3000   108.9009    14.2175    14.1278
  481.4000   108.6492    14.2166    14.0944
  481.5000   108.3974    14.2155    14.0283
  481.6000   108.0983    14.2146    14.0276
  481.7000   107.8938    14.1556    13.9459
  481.8000   107.7979    14.0728    13.9289
  481.9000   107.5871    14.0156    13.8799
  482.0000   107.1387    14.0055    13.8309
  482.1000   106.8870    13.9165    13.8301
  482.2000   106.5926    13.8422    13.8293
  482.3000   106.5936    13.7613    13.8285
  482.4000   106.5948    13.6807    13.7639
  482.5000   106.5960    13.6006    13.7312
  482.6000   106.6587    13.5211    13.6988
  482.7000   106.9243    13.4359    13.6346
  482.8000   107.5076    13.4351    13.6338
  482.9000   107.9387    13.3779    13.5544
  483.0000   108.6113    13.2996    13.4754
  483.1000   109.4874    13.2470    13.4433
  483.2000   110.5004    13.2360    13.4116
  483.3000   111.4963    13.1534    13.3333
  483.4000   112.3560    13.0816    13.2555
  483.5000   113.4562    13.0605    13.2547
  483.6000   114.5520    13.0597    13.1929
  483.7000   115.3239    13.0332    13.1160
  483.8000   115.8310    12.9675    13.0696
  483.9000   116.2953    12.9665    13.0538
  484.0000   116.2967    12.8950    12.9776
  484.1000   116.2977    12.8750    12.9768
  484.2000   116.2990    12.8335    12.9163
  484.3000   116.1747    12.7841    12.8856
  484.4000   115.9229    12.7722    12.8552
  484.5000   115.6831    12.6938    12.7950
  484.6000   115.5464    12.6930    12.7942
  484.7000   115.4096    12.6921    12.7935
  484.8000   115.2729    12.6912    12.7337
  484.9000   115.1362    12.6641    12.7035
  485.0000   114.9170    12.6017    12.7027
  485.1000   114.6652    12.6007    12.6874
  485.2000   114.4134    12.5999    12.6134
  485.3000   114.1616    12.5434    12.6126
  485.4000   113.8930    12.5109    12.6120
  485.5000   113.8941    12.4835    12.5676
  485.6000   113.7089    12.4226    12.5232
  485.7000   113.5939    12.4217    12.5225
  485.8000   113.5951    12.3512    12.5218
  485.9000   113.6338    12.3341    12.4488
  486.0000   113.9002    12.3332    12.4337
  486.1000   113.9014    12.3324    12.3900
  486.2000   114.0939    12.3187    12.3462
  486.3000   114.3481    12.2452    12.3455
  486.4000   114.6023    12.2444    12.3448
  486.5000   114.8564    12.1882    12.2585
  486.6000   115.1177    12.1580    12.2013
  486.7000   115.3646    12.1300    12.1723
  486.8000   116.0109    12.0590    12.1435
  486.9000   116.4781    11.9877    12.0727
  487.0000   116.8292    11.9869    12.0023
  487.1000   117.3363    11.9312    12.0015
  487.2000   117.8481    11.9023    11.9456
  487.3000   118.3504    11.8742    11.9172
  487.4000   118.6566    11.8182    11.8890
  487.5000   119.0620    11.8174    11.8333
  487.6000   119.5691    11.7347    11.8326
  487.7000   120.0242    11.7340    11.7637
  487.8000   120.2784    11.6923    11.7494
  487.9000   120.5799    11.6512    11.7080
  488.0000   120.7866    11.6503    11.6667
  488.1000   120.8847    11.6496    11.6661
  488.2000   120.8859    11.6486    11.6654
  488.3000   120.8872    11.5934    11.6647
  488.4000   120.8883    11.5665    11.6102
  488.5000   120.8898    11.5379    11.5826
  488.6000   120.8908    11.4848    11.5552
  488.7000   120.7311    11.4841    11.5011
  488.8000   120.4794    11.4831    11.5005
  488.9000   120.2276    11.4280    11.4335
  489.0000   119.9636    11.3612    11.4196
  489.1000   119.3841    11.3225    11.3794
  489.2000   118.9541    11.3217    11.3392
  489.3000   118.6154    11.3209    11.3386
  489.4000   118.1315    11.3200    11.3379
  489.5000   117.5068    11.3193    11.2586
  489.6000   117.2380    11.3185    11.2061
  489.7000   116.6682    11.3177    11.1024
  489.8000   116.4489    11.3169    11.0246
  489.9000   116.0263    11.3162    11.0113
  490.0000   115.7640    11.3153    10.9470
  490.1000   115.6937    11.3146    10.9462
  490.2000   115.4637    11.3138    10.9457
  490.3000   115.4652    11.3130    10.9833
  490.4000   115.6914    11.3122    11.0209
  490.5000   115.9455    11.3115    11.0203
  490.6000   116.1996    11.3106    11.0197
  490.7000   116.5300    11.3099    11.0190
  490.8000   117.0105    11.3091    11.0184
  490.9000   117.2879    11.3083    11.0178
  491.0000   117.5190    11.3075    11.0429
  491.1000   117.9536    11.3068    11.0935
  491.2000   118.4607    11.3059    11.0928
  491.3000   118.9677    11.3052    11.0922
  491.4000   119.4746    11.3044    11.0916
  491.5000   120.0182    11.3036    11.0910
  491.6000   120.4889    11.3028    11.0904
  491.7000   120.9961    11.3020    11.0898
  491.8000   121.5033    11.3011    11.0891
  491.9000   122.0103    11.3004    11.0885
  492.0000   122.4810    11.2997    11.0367
  492.1000   122.7486    11.2680    11.0105
  492.2000   122.9893    11.2199    11.0099
  492.3000   123.4334    11.2191    10.9966
  492.4000   123.6599    11.2183    10.9324
  492.5000   123.8427    11.2176    10.8559
  492.6000   124.3087    11.2168    10.8554
  492.7000   124.5713    11.1848    10.8173
  492.8000   124.5724    11.1376    10.7542
  492.9000   124.7685    11.1368    10.7038
  493.0000   124.8782    11.1360    10.7032
  493.1000  -999.2500    11.1353    10.5547
  493.2000  -999.2500    11.0901    10.4571
  493.3000  -999.2500    11.0566    10.3361
  493.4000  -999.2500    11.0371    10.2164
  493.5000  -999.2500    10.9786    10.1097
  493.6000  -999.2500    10.9778    10.0507
  493.7000  -999.2500    10.9202     9.9345
  493.8000  -999.2500    10.9004     9.8651
  493.9000  -999.2500    10.8996     9.8076
  494.0000  -999.2500    10.8797     9.7957
  494.1000  -999.2500    10.8160     9.8520
  494.2000  -999.2500    10.7469     9.9087
  494.3000  -999.2500    10.7462    10.0237
  494.4000  -999.2500    10.7014    10.0930
  494.5000  -999.2500    10.6704    10.1158
  494.6000  -999.2500    10.6697    10.1153
  494.7000  -999.2500    10.6618    10.1265
  494.8000  -999.2500    10.5942    10.1847
  494.9000  -999.2500    10.5936    10.1841
  495.0000  -999.2500    10.5929    10.1835
  495.1000  -999.2500    10.5921    10.2184
  495.2000  -999.2500    10.5716    10.2297
  495.3000  -999.2500    10.5173    10.1700
  495.4000  -999.2500    10.5165    10.1107
  495.5000  -999.2500    10.4596    10.1101
  495.6000  -999.2500    10.3984    10.1096
  495.7000  -999.2500    10.3693    10.1090
  495.8000  -999.2500    10.3687    10.0851
  495.9000  -999.2500    10.3599    10.0263
  496.0000  -999.2500    10.2954     9.9678
  496.1000  -999.2500    10.2947     9.8981
  496.2000  -999.2500    10.2940     9.8976
  496.3000  -999.2500    10.2612     9.8628
  496.4000  -999.2500    10.2213     9.8280
  496.5000  -999.2500    10.2121     9.8161
  496.6000  -999.2500    10.1491     9.7588
  496.7000  -999.2500    10.1485     9.7583
  496.8000  -999.2500    10.1039     9.7127
  496.9000  -999.2500    10.0768     9.6560
  497.0000  -999.2500    10.0556     9.5998
  497.1000  -999.2500    10.0057     9.5548
  497.2000  -999.2500    10.0049     9.5543
  497.3000  -999.2500     9.9491     9.4986
  497.4000  -999.2500     9.9343     9.4870
  497.5000  -999.2500     9.9015     9.4536
  497.6000  -999.2500     9.8436     9.3985
  497.7000  -999.2500     9.7952     9.3437
  497.8000  -999.2500     9.7945     9.2892
  497.9000  -999.2500     9.7392     9.2886
  498.0000  -999.2500     9.7254     9.2452
  498.1000  -999.2500     9.6928     9.2233
  498.2000  -999.2500     9.6361     9.2228
  498.3000  -999.2500     9.5797     9.2223
  498.4000  -999.2500     9.5222     9.2217
  498.5000  -999.2500     9.5216     9.2211
  498.6000  -999.2500     9.4782     9.2207
  498.7000  -999.2500     9.4228     9.2202
  498.8000  -999.2500     9.3882     9.2197
  498.9000  -999.2500     9.3777     9.2192
  499.0000  -999.2500     9.3219     9.2187
  499.1000  -999.2500     9.2683     9.2180
  499.2000  -999.2500     9.2561     9.1751
  499.3000  -999.2500     9.2240     9.1533
