~VERSION INFORMATION
 VERS.                2.0:   CWLS LOG ASCII STANDARD - VERSION 2.0
 WRAP.                 NO:   ONE LINE PER DEPTH STEP
~WELL INFORMATION
#MNEM.UNIT      DATA TYPE    INFORMATION
#----------   ------------   ------------------------------
 STRT.F           18.0000:   START DEPTH
 STOP.F         2312.0000:   STOP DEPTH
 STEP.F            0.5000:   STEP LENGTH
 NULL.          -999.2500:   NO VALUE
 COMP. FENIX & SCISSON INC:   COMPANY
 WELL.  NPR 3 #51 SHX -15:   WELL
 FLD .             TEAPOT:   FIELD
 LOC .      S15 T38N R78W:   LOCATION
 CNTY.            NATRONA:   COUNTY
 STAT.            WYOMING:   STATE
 CTRY. UNITED STATES OF AMERICA:   COUNTRY
 SRVC.            Unknown:   SERVICE COMPANY
 DATE.        14-MAR-1978:   LOGDATE
 API .       490251060000:   API NUMBER
~CURVE INFORMATION
#MNEM.UNIT       API CODE    CURVE DESCRIPTION
#----------   ------------   ------------------------------
 DEPT.F                  :   
 ILD .OHMM   05 120 46 00:   INDUCTION LOG DEEP
 CILD.MMHO   05 110 46 00:   CONDUCTIVITY INDUCTION LOG DEEP
 CALD.IN     45 280 60 00:   CALIPER FROM DENSITY LOG
 GRD .GAPI   45 310 01 00:   GAMMA RAY FROM DENSITY LOG
 CORR.G/C3   45 356 01 00:   DENSITY CORRECTION
 RHOB.G/C3   45 350 01 00:   BULK DENSITY
 DPHI.DEC    45 890 12 00:   DENSITY POROSITY SANDSTONE
~PARAMETER INFORMATION
#MNEM.UNIT          VALUE    DESCRIPTION
#----------   ------------   ------------------------------
 PD  .                 GL:   PERMANENT DATUM
 EPD .F              5223:   ELEVATION PERMANENT DATUM
 LMF .                 KB:   LOG MEASURED FROM
 DAPD.F                10:   FEET ABOVE PERMANENT DATUM
 DMF .                 KB:   DRILLING MEASURED FROM
 EKB .F              5233:   KELLING BUSHING
 EGL .F              5223:   GROUND LEVEL
 DATE.            3-14-78:   RUN DATE
 RUN .                  1:   RUN NUMBER
 DD  .F              2323:   DEPTH DRILLER
 DL  .F              2314:   DEPTH LOGGER
 BLI .F              2312:   BOTTOM LOG INTERVAL
 TLI .F                20:   TOP LOG INTERVAL
 CS  .IN                9:   CASING SIZE
 CBD .F               680:   CASING BOTTOM DRILLER
 CBL .F               682:   CASING BOTTOM LOGGER
 BS  .IN            7.875:   BIT SIZE
 BSD .F              2323:   BIT SIZE AT DEPTH
 DFT .           AIR MIST:   DRILLING FLUID TYPE
 TCS .HRS               2:   TIME CURCULATED STOPPED
 LUN .               2958:   LOGGING UNIT NUMBER
 LUL .               CASP:   LOGGING UNIT LOCATION
 ENGI.             MILLER:   RECORDING ENGINEER
 WITN.           MCGINLEY:   WITNESSED BY
 CLNT.            A2DTECH:   CLIENT CODE
 ORIG.       2", 5" PRINT:   ORIGIN OF DATA
 UWI .       490251060000:   UNIQUE WELL ID
 DICO. A2D Technologies, Inc.:   DIGITIZING COMPANY
~OTHER INFORMATION
~A   DEPT      ILD       CILD       CALD         GRD      CORR       RHOB       DPHI   
# ...
 1428.5000  -999.2500  -999.2500    10.0083    85.8884     0.0106     2.5014     0.1090
 1429.0000  -999.2500  -999.2500     9.9571    93.4639     0.0109     2.4776     0.1151
 1429.5000  -999.2500  -999.2500     9.9440    90.4027     0.0256     2.4563     0.1036
 1430.0000  -999.2500  -999.2500     9.9435    88.4433     0.0572     2.4729     0.0880
 1430.5000  -999.2500  -999.2500     9.9438    88.1122     0.0547     2.5181     0.0823
 1431.0000  -999.2500  -999.2500     9.9631    83.5384     0.0515     2.5326     0.0772
 1431.5000  -999.2500  -999.2500     9.9847    85.0115     0.0389     2.5337     0.0816
 1432.0000  -999.2500  -999.2500    10.0064    89.0502     0.0259     2.5255     0.0872
 1432.5000  -999.2500  -999.2500    10.0279    93.6982     0.0251     2.5171     0.0914
 1433.0000  -999.2500  -999.2500    10.0434    89.3643     0.0246     2.5088     0.0918
 1433.5000  -999.2500  -999.2500    10.0430    85.8681     0.0270     2.5076     0.0864
 1434.0000  -999.2500  -999.2500    10.0430    82.6465     0.0312     2.5186     0.0841
 1434.5000  -999.2500  -999.2500    10.0431    84.4885     0.0355     2.5202     0.0818
 1435.0000  -999.2500  -999.2500    10.0431    89.8934     0.0303     2.5316     0.0804
 1435.5000  -999.2500  -999.2500    10.0430    93.7406     0.0197     2.5303     0.0812
 1436.0000  -999.2500  -999.2500    10.0422    98.7809     0.0097     2.5137     0.0869
 1436.5000  -999.2500  -999.2500    10.0391   102.2182     0.0066     2.5176     0.0919
 1437.0000  -999.2500  -999.2500    10.0361    98.4891     0.0033     2.5067     0.0911
 1437.5000  -999.2500  -999.2500    10.0331    96.6062     0.0000     2.5171     0.0912
 1438.0000  -999.2500  -999.2500    10.0301    95.2918     0.0009     2.5015     0.0944
 1438.5000  -999.2500  -999.2500    10.0271    90.4673     0.0173     2.5044     0.0927
 1439.0000  -999.2500  -999.2500    10.0240    86.3026     0.0340     2.5091     0.0909
 1439.5000  -999.2500  -999.2500    10.0225    87.2817     0.0391     2.5139     0.0886
 1440.0000  -999.2500  -999.2500    10.0198    88.3239     0.0437     2.5187     0.0833
 1440.5000  -999.2500  -999.2500    10.0172    89.0938     0.0483     2.5255     0.0796
 1441.0000  -999.2500  -999.2500    10.0146    92.9522     0.0443     2.5135     0.0875
 1441.5000  -999.2500  -999.2500    10.0119    94.3068     0.0396     2.5043     0.0965
 1442.0000  -999.2500  -999.2500    10.0093    90.2971     0.0385     2.4952     0.0944
 1442.5000  -999.2500  -999.2500    10.0067    85.5318     0.0454     2.4911     0.0922
 1443.0000  -999.2500  -999.2500    10.0037    84.9754     0.0627     2.4998     0.0906
 1443.5000  -999.2500  -999.2500    10.0173    84.9782     0.0704     2.5096     0.0895
 1444.0000  -999.2500  -999.2500    10.0370    85.0152     0.0643     2.5115     0.0887
 1444.5000  -999.2500  -999.2500    10.0569    87.1076     0.0501     2.5106     0.0890
 1445.0000  -999.2500  -999.2500    10.0774    89.4542     0.0403     2.5124     0.0904
 1445.5000  -999.2500  -999.2500    10.0827    91.5661     0.0407     2.5169     0.0828
 1446.0000  -999.2500  -999.2500    10.0828    91.3676     0.0360     2.5160     0.0879
 1446.5000  -999.2500  -999.2500    10.0828    82.8087     0.0291     2.5085     0.0934
 1447.0000  -999.2500  -999.2500    10.0828    82.4285     0.0269     2.5020     0.0976
 1447.5000  -999.2500  -999.2500    10.0828    82.4059     0.0295     2.5021     0.0916
 1448.0000  -999.2500  -999.2500    10.0828    82.4187     0.0324     2.5158     0.0807
 1448.5000  -999.2500  -999.2500    10.0828    82.9821     0.0325     2.5314     0.0788
 1449.0000  -999.2500  -999.2500    10.0828    85.4926     0.0325     2.5322     0.0802
 1449.5000  -999.2500  -999.2500    10.0850    88.5265     0.0331     2.5307     0.0816
 1450.0000  -999.2500  -999.2500    10.0935    88.5523     0.0338     2.5254     0.0780
 1450.5000  -999.2500  -999.2500    10.1018    83.7717     0.0344     2.5309     0.0744
 1451.0000  -999.2500  -999.2500    10.1100    82.1618     0.0311     2.5383     0.0768
 1451.5000  -999.2500  -999.2500    10.1181    91.3288     0.0272     2.5357     0.0764
 1452.0000  -999.2500  -999.2500    10.1134    96.6331     0.0225     2.5356     0.0800
 1452.5000  -999.2500  -999.2500    10.0948    89.5295     0.0147     2.5327     0.0758
 1453.0000  -999.2500  -999.2500    10.0766    90.1036     0.0098     2.5323     0.0740
 1453.5000  -999.2500  -999.2500    10.0702    90.2214     0.0056     2.5400     0.0756
 1454.0000  -999.2500  -999.2500    10.1023    87.2912     0.0039     2.5352     0.0793
 1454.5000  -999.2500  -999.2500    10.1334    88.3131     0.0029     2.5261     0.0824
 1455.0000  -999.2500  -999.2500    10.1618    89.4332     0.0019     2.5260     0.0834
 1455.5000  -999.2500  -999.2500    10.1624    91.6836     0.0010     2.5224     0.0868
 1456.0000  -999.2500  -999.2500    10.1623    93.4079     0.0024     2.5149     0.0864
 1456.5000  -999.2500  -999.2500    10.1623    88.7245     0.0104     2.5208     0.0838
 1457.0000  -999.2500  -999.2500    10.1623    87.3549     0.0145     2.5282     0.0816
 1457.5000  -999.2500  -999.2500    10.1623    84.1552     0.0145     2.5229     0.0867
 1458.0000  -999.2500  -999.2500    10.1622    80.3749     0.0145     2.5120     0.0918
 1458.5000  -999.2500  -999.2500    10.1587    87.7063     0.0145     2.5042     0.0939
 1459.0000  -999.2500  -999.2500    10.1419    94.2167     0.0147     2.5164     0.0907
 1459.5000  -999.2500  -999.2500    10.1254    94.4279     0.0108     2.5206     0.0851
 1460.0000  -999.2500  -999.2500    10.1089    89.9740     0.0127     2.5078     0.0819
 1460.5000  -999.2500  -999.2500    10.0950    85.7849     0.0272     2.5275     0.0795
 1461.0000  -999.2500  -999.2500    10.0826    89.1480     0.0284     2.5131     0.0775
 1461.5000  -999.2500  -999.2500    10.0703    91.7628     0.0474     2.5063     0.0756
 1462.0000  -999.2500  -999.2500    10.0579    84.4539     0.0449     2.5362     0.0735
 1462.5000  -999.2500  -999.2500    10.0455    75.9155     0.0383     2.5338     0.0716
 1463.0000  -999.2500  -999.2500    10.0405    75.6237     0.0350     2.5459     0.0805
 1463.5000  -999.2500  -999.2500    10.0373    80.8304     0.0358     2.5299     0.0746
 1464.0000  -999.2500  -999.2500    10.0341    81.2096     0.0343     2.5464     0.0673
 1464.5000  -999.2500  -999.2500    10.0309    86.0688     0.0241     2.5393     0.0787
 1465.0000  -999.2500  -999.2500    10.0277    87.7346     0.0140     2.5216     0.0892
 1465.5000  -999.2500  -999.2500    10.0245    85.8150     0.0110     2.5087     0.0901
 1466.0000  -999.2500  -999.2500    10.0213    84.1618     0.0132     2.5141     0.0854
 1466.5000  -999.2500  -999.2500    10.0182    84.6972     0.0123     2.5335     0.0758
 1467.0000  -999.2500  -999.2500    10.0150    88.1857     0.0073     2.5278     0.0868
 1467.5000  -999.2500  -999.2500    10.0118    92.2810     0.0087     2.5195     0.0849
 1468.0000  -999.2500  -999.2500    10.0086    93.9497     0.0189     2.5264     0.0832
 1468.5000  -999.2500  -999.2500    10.0054    83.8624     0.0279     2.5354     0.0688
 1469.0000  -999.2500  -999.2500    10.0050    83.7878     0.0154     2.5386     0.0832
 1469.5000  -999.2500  -999.2500    10.0107    83.9032     0.0111     2.5216     0.0737
 1470.0000  -999.2500  -999.2500    10.0162    81.7908     0.0123     2.5580     0.0677
 1470.5000  -999.2500  -999.2500    10.0217    79.3191     0.0109     2.5500     0.0649
 1471.0000  -999.2500  -999.2500    10.0272    77.4291     0.0085     2.5564     0.0632
 1471.5000  -999.2500  -999.2500    10.0327    89.9115     0.0086     2.5496     0.0692
 1472.0000  -999.2500  -999.2500    10.0382   109.9173     0.0198     2.5426     0.0659
 1472.5000  -999.2500  -999.2500    10.0423    98.2160     0.0303     2.5498     0.0619
 1473.0000  -999.2500  -999.2500    10.0362    81.7222     0.0289     2.5637     0.0600
 1473.5000  -999.2500  -999.2500    10.0299    76.5770     0.0201     2.5551     0.0693
