~VERSION INFORMATION
 VERS.                2.0:   CWLS LOG ASCII STANDARD - VERSION 2.0
 WRAP.                 NO:   ONE LINE PER DEPTH STEP
~WELL INFORMATION
#MNEM.UNIT      DATA TYPE    INFORMATION
#----------   ------------   ------------------------------
 STRT.F            5.0000:   START DEPTH
 STOP.F          668.0000:   STOP DEPTH
 STEP.F            0.5000:   STEP LENGTH
 NULL.          -999.2500:   NO VALUE
 COMP. LAWRENCE/ALLISON INC:   COMPANY
 WELL.    38-61 SX #38-34:   WELL
 FLD .             TEAPOT:   FIELD
 LOC .      S34 T39N R78W:   LOCATION
 CNTY.            NATRONA:   COUNTY
 STAT.            WYOMING:   STATE
 CTRY. UNITED STATES OF AMERICA:   COUNTRY
 SRVC.           Gearhart:   SERVICE COMPANY
 DATE.        18-AUG-1987:   LOGDATE
 API .       490251116700:   API NUMBER
~CURVE INFORMATION
#MNEM.UNIT       API CODE    CURVE DESCRIPTION
#----------   ------------   ------------------------------
 DEPT.F                  :   
 GRR .GAPI   07 310 01 00:   GAMMA RAY
 ILD .OHMM   07 120 46 00:   INDUCTION LOG DEEP
 ILM .OHMM   07 120 44 00:   INDUCTION LOG MEDIUM
~PARAMETER INFORMATION
#MNEM.UNIT          VALUE    DESCRIPTION
#----------   ------------   ------------------------------
 PD  .                 GL:   PERMANENT DATUM
 EPD .F              5175:   ELEVATION PERMANENT DATUM
 LMF .                 KB:   LOG MEASURED FROM
 DAPD.F                 8:   FEET ABOVE PERMANENT DATUM
 DMF .                 KB:   DRILLING MEASURED FROM
 EKB .F              5183:   KELLING BUSHING
 EGL .F              5175:   GROUND LEVEL
 DATE.        18-AUG-1987:   RUN DATE
 RUN .                  1:   RUN NUMBER
 DD  .F               665:   DEPTH DRILLER
 DL  .F               669:   DEPTH LOGGER
 BLI .F               667:   BOTTOM LOG INTERVAL
 CBD .F                47:   CASING BOTTOM DRILLER
 CBL .F                47:   CASING BOTTOM LOGGER
 BS  .IN            7.875:   BIT SIZE
 BSD .F               665:   BIT SIZE AT DEPTH
 DFT .           NONE AIR:   DRILLING FLUID TYPE
 TLAB.HRS            0830:   TIME LOGGER AT BOTTOM
 MRT .F                80:   MAXIMUM RECORDED TEMPERATURE
 LUN .               7597:   LOGGING UNIT NUMBER
 LUL .           GILLETTE:   LOGGING UNIT LOCATION
 ENGI.        K.HUCKFELDT:   RECORDING ENGINEER
 WITN.          G. STRONG:   WITNESSED BY
 CLNT.            A2DTECH:   CLIENT CODE
 ORIG.           5" PRINT:   ORIGIN OF DATA
 UWI .       490251116700:   UNIQUE WELL ID
 DICO. A2D Technologies, Inc.:   DIGITIZING COMPANY
~OTHER INFORMATION
~A    DEPT      GRR       ILD        ILM   
# ...
  187.0000   114.3540    10.5535    10.4041
  187.5000   120.1377    10.5563    10.4780
  188.0000   125.3135    10.5590    10.5525
  188.5000   127.1458    10.5625    10.6276
  189.0000   123.5092    10.6389    10.6293
  189.5000   121.6941    10.6417    10.6307
  190.0000   121.7027    10.6446    10.6321
  190.5000   121.7224    10.6474    10.5598
  191.0000   121.4160    10.5764    10.4880
  191.5000   120.2110    10.5799    10.3446
  192.0000   119.0016    10.4360    10.2746
  192.5000   123.8756    10.2954    10.1341
  193.0000   127.2624    10.1489     9.9266
  193.5000   128.4521     9.9499     9.6557
  194.0000   126.3353     9.8152     9.3921
  194.5000   125.4320     9.6153     9.1995
  195.0000   125.4509     9.4131     9.0067
  195.5000   125.7554     9.1644     8.7652
  196.0000   126.9798     8.9778     8.6453
  196.5000   125.7726     8.7944     8.5271
  197.0000   125.1733     8.6759     8.0671
  197.5000   124.5741     8.6788     7.7925
  198.0000   127.0165     8.7416     7.7936
  198.5000   127.6330     8.8662     7.8489
  199.0000   127.0334     9.0553     7.9601
  199.5000   126.0365     9.2484     8.1856
  200.0000   122.4650     9.4456     8.3888
  200.5000   117.9508     9.5163     8.7180
  201.0000   114.6215     9.9269     9.0287
  201.5000   113.4195    10.1406     9.2856
  202.0000   114.6534    10.3588     9.5678
  202.5000   114.3636    10.3636     9.8224
  203.0000   112.8580    10.3694     9.8935
  203.5000   111.6241    10.3741     9.8960
  204.0000   111.0626    10.3069     9.7619
  204.5000   113.8159    10.2414     9.5629
  205.0000   115.0458    10.1047     9.3686
  205.5000   114.1517     9.9699     9.1777
  206.0000   112.3421     9.8350     9.0533
  206.5000   113.5721     9.6394     8.9929
  207.0000   114.4985     9.7110     9.1854
  207.5000   114.2083     9.7831     9.3820
  208.0000   115.7458     9.9256     9.5822
  208.5000   118.1915     9.9994     9.7867
  209.0000   121.8567    10.0736     9.8576
  209.5000   124.3024    10.0782     9.9295
  210.0000   124.0126    10.0839     9.9321
  210.5000   120.0790    10.0176     9.9346
  211.0000   118.2694     9.9527     9.8684
  211.5000   116.7638     9.9584     9.8716
  212.0000   115.8661     9.8940     9.8742
  212.5000   118.6194     9.8996     9.8768
  213.0000   119.5454     9.9731     9.9488
  213.5000   119.5595     9.9788     9.9512
  214.0000   118.3614     9.9827     9.9540
  214.5000   117.7642     9.9878     9.9567
  215.0000   118.3898     9.9925     9.9595
  215.5000   118.0720     9.9981     9.9624
  216.0000   119.0295    10.0026     9.9650
  216.5000   122.0832    10.0072     9.9678
  217.0000   121.1855    10.0119     9.9706
  217.5000   119.6834    10.0174     9.9043
  218.0000   118.4818    10.0219     9.9075
  218.5000   117.2766    10.0964     9.9101
  219.0000   120.3374    10.1725     9.9125
  219.5000   121.8713    10.1772     9.8466
  220.0000   122.1859    10.1112     9.8380
  220.5000   120.9798     9.9775     9.7163
  221.0000   120.6980     9.9118     9.6515
  221.5000   121.3236     9.7795     9.5207
  222.0000   121.0334     9.6500     9.3923
  222.5000   120.4436     9.5213     9.3297
  223.0000   119.5423     9.4596     9.2653
  223.5000   120.4719     9.3984     9.0792
  224.0000   122.6626     9.2744     8.9561
  224.5000   125.0630     9.2144     8.8347
  225.0000   125.3811     9.1548     8.7156
  225.5000   125.3953     9.1600     8.6569
  226.0000   126.3248     9.1641     8.5996
  226.5000   128.7706     9.1693     8.5424
  227.0000   130.0006     9.1735     8.4854
  227.5000   128.1104     9.2416     8.5474
  228.0000   124.5613     9.2459     8.5495
  228.5000   121.2285     9.3805     8.6721
  229.0000   123.9818     9.4502     8.8572
  229.5000   123.6955     9.5204     9.0462
  230.0000   123.1017     9.5912     9.3685
  230.5000   122.2040     9.6634     9.7707
  231.0000   120.3980     9.6009    10.1189
  231.5000   119.1964     9.6053    10.2632
  232.0000   117.0829     9.5431    10.4097
  232.5000   115.2533     9.4824    10.4856
  233.0000   113.7713     9.4868    10.4883
  233.5000   113.1740     9.4194    10.4184
  234.0000   115.0154     9.3006     9.7897
  234.5000   120.2003     9.2404     9.8606
  235.0000   122.6460     9.2446    10.0012
  235.5000   122.9606     9.1212     9.6466
  236.0000   119.5623     9.1264     9.3345
  236.5000   117.8253     9.0663     9.4682
  237.0000   119.9706     9.0716     9.4051
  237.5000   121.8085     9.0767     9.1502
  238.0000   123.9539     9.0808     8.9016
  238.5000   126.0957     9.0219     8.6597
  239.0000   127.9336     9.0271     8.3546
  239.5000   130.0789     9.0312     8.1388
  240.0000   129.7856     9.0354     8.0285
  240.5000   128.8914     9.0403     7.9754
  241.0000   127.6738     9.1076     8.0337
  241.5000   125.5798     9.1753     8.1483
  242.0000   122.5545     9.1795     8.2645
  242.5000   122.2442     9.2478     8.4409
  243.0000   124.1061     9.3174     8.7422
  243.5000   124.4207     9.3216     9.0538
  244.0000   121.3988     9.3259     9.3764
  244.5000   120.4691     9.3962     9.7789
  245.0000   119.3030     9.3343     9.9876
  245.5000   117.1895     9.3396    10.0598
  246.0000   115.3800     9.2792    10.0627
  246.5000   114.7862     9.2845     9.9956
  247.0000   115.4118     9.2887     9.9988
  247.5000   116.3379     9.2929    10.0011
  248.0000   119.0911     9.2330    10.0040
  248.5000   121.2329     9.2380    10.0067
  249.0000   122.1590     9.2173    10.0246
  249.5000   121.8571     9.1824    10.0823
  250.0000   121.2754     9.2786     9.9459
  250.5000   122.5123     9.1553     9.8795
  251.0000   124.0491     9.0954     9.8137
  251.5000   124.6784     8.9757     9.8165
  252.0000   122.8717     8.9182     9.8195
  252.5000   121.3691     8.8622     9.8905
  253.0000   120.4742     8.8669     9.9210
  253.5000   119.8834     8.8101     9.9654
  254.0000   121.1206     8.8773     9.9680
  254.5000   121.4416     8.9439    10.0401
  255.0000   120.2229     8.9486    10.0434
  255.5000   118.4405     9.0864    10.1161
  256.0000   116.9378     9.2760    10.1188
  256.5000   115.7391     9.5425    10.1214
  257.0000   113.9367     9.8167    10.1953
  257.5000   112.4340    10.1083    10.2691
  258.0000   111.2353    10.4035    10.2718
  258.5000   114.5958    10.7634    10.2745
  259.0000   116.4409    11.0726    10.2779
  259.5000   115.5461    11.3237    10.3523
  260.0000   114.0434    11.6384    10.5147
  260.5000   112.5188    11.8075    10.6540
  261.0000   111.9542    11.9791    10.9011
  261.5000   111.3633    12.2395    11.2092
  262.0000   110.7725    12.4174    11.4260
  262.5000   108.6619    12.6857    11.8402
  263.0000   109.2911    12.7808    12.1708
  263.5000   110.2201    12.9682    12.5173
  264.0000   105.9847    13.1567    12.6958
  264.5000   102.0504    13.3478    12.9668
  265.0000   100.2432    13.5418    12.9710
  265.5000   100.3465    13.6451    12.9744
  266.0000   102.4098    13.5559    12.8878
  266.5000   104.5545    13.3775    12.8791
  267.0000   106.3953    13.1996    12.7166
  267.5000   108.2404    13.0260    12.5451
  268.0000   107.6453    12.9408    12.3751
  268.5000   107.3584    12.8579    12.2926
  269.0000   108.3243    12.6887    12.2107
  269.5000   112.2643    12.6074    12.0452
  270.0000   110.7616    12.5283    11.9656
  270.5000   106.8273    12.4463    11.8043
  271.0000   101.0736    12.2825    11.6436
  271.5000    98.3551    12.2038    11.5660
  272.0000   102.6274    12.3828    11.5698
  272.5000   105.9880    12.3893    11.4926
  273.0000   107.8288    12.3957    11.4964
  273.5000   105.4185    12.4038    11.5796
  274.0000   103.3093    12.3228    11.6634
  274.5000   103.6303    12.2438    11.6672
  275.0000   104.8632    12.1669    11.5887
  275.5000   107.6201    11.9236    11.4317
  276.0000   110.0688    11.7652    11.2775
  276.5000   109.7819    11.6882    11.1248
  277.0000   107.3110    11.6959    10.9747
  277.5000   103.4374    11.6209    10.8261
