~VERSION INFORMATION
 VERS.                2.0:   CWLS LOG ASCII STANDARD - VERSION 2.0
 WRAP.                 NO:   ONE LINE PER DEPTH STEP
~WELL INFORMATION
#MNEM.UNIT      DATA TYPE    INFORMATION
#----------   ------------   ------------------------------
 STRT.F            0.0000:   START DEPTH
 STOP.F          825.0000:   STOP DEPTH
 STEP.F            0.5000:   STEP LENGTH
 NULL.          -999.2500:   NO VALUE
 COMP. BROWN JOHN E&C INC:   COMPANY
 WELL. NAVAL PETROLEUM RESERVE 3 SHX- #21-1-2:   WELL
 FLD .             TEAPOT:   FIELD
 LOC .       S2 T38N R78W:   LOCATION
 CNTY.            NATRONA:   COUNTY
 STAT.            WYOMING:   STATE
 CTRY. UNITED STATES OF AMERICA:   COUNTRY
 SRVC.     Atlas Wireline:   SERVICE COMPANY
 DATE.        11-NOV-1991:   LOGDATE
 API .       490252247600:   API NUMBER
~CURVE INFORMATION
#MNEM.UNIT       API CODE    CURVE DESCRIPTION
#----------   ------------   ------------------------------
 DEPT.F                  :   
 GRR .GAPI   07 310 01 00:   GAMMA RAY
 RFOC.OHMM   07 220 04 00:   RESISTIVITY FOCUSED LOG
 RILD.OHMM   07 120 46 00:   INDUCTION LOG DEEP RESISTIVITY
 RILM.OHMM   07 120 44 00:   INDUCTION LOG MEDIUM RESISTIVITY
 SPR .MV     07 010 01 00:   SPONTANEOUS POTENTIAL
~PARAMETER INFORMATION
#MNEM.UNIT          VALUE    DESCRIPTION
#----------   ------------   ------------------------------
 PD  .                 GL:   PERMANENT DATUM
 EPD .F              5110:   ELEVATION PERMANENT DATUM
 LMF .                 KB:   LOG MEASURED FROM
 DAPD.F                10:   FEET ABOVE PERMANENT DATUM
 DMF .                 KB:   DRILLING MEASURED FROM
 EKB .F              5120:   KELLING BUSHING
 EGL .F              5110:   GROUND LEVEL
 DATE.        11-NOV-1991:   RUN DATE
 RUN .                  1:   RUN NUMBER
 DD  .F               830:   DEPTH DRILLER
 DL  .F               527:   DEPTH LOGGER
 BLI .F               525:   BOTTOM LOG INTERVAL
 CS  .IN            9.625:   CASING SIZE
 CBD .F                58:   CASING BOTTOM DRILLER
 CBL .F                58:   CASING BOTTOM LOGGER
 BS  .IN             8.75:   BIT SIZE
 BSD .F               830:   BIT SIZE AT DEPTH
 DFT .          KCL WATER:   DRILLING FLUID TYPE
 RMS .OHMM          0.248:   RESISTIVITY MUD SAMPLE
 MST .F                93:   MUD SAMPLE TEMPERATURE
 BHT .F               104:   BOTTOM HOLE TEMPERATURE
 TCS .HRS               2:   TIME CURCULATED STOPPED
 MRT .F               104:   MAXIMUM RECORDED TEMPERATURE
 LUN .            HL 6274:   LOGGING UNIT NUMBER
 LUL .             CASPER:   LOGGING UNIT LOCATION
 ENGI.       P. RASMUSSEN:   RECORDING ENGINEER
 WITN.        GARY STRONG:   WITNESSED BY
 CLNT.            A2DTECH:   CLIENT CODE
 ORIG.           5" PRINT:   ORIGIN OF DATA
 UWI .       490252247600:   UNIQUE WELL ID
 DICO. A2D Technologies, Inc.:   DIGITIZING COMPANY
~OTHER INFORMATION
~A    DEPT       GRR     RFOC       RILD       RILM        SPR   
# ...
   61.0000    78.4155     2.6405     3.0246     2.3817   -37.2146
   61.5000    78.3973     2.4279     3.1513     2.4989   -36.6163
   62.0000    73.8918     2.1739     3.3290     2.5329   -36.9176
   62.5000    71.1826     2.3127     3.3542     2.4622   -37.5188
   63.0000    72.4730     3.1131     3.2335     2.0825   -38.1200
   63.5000    78.9344     3.1776     3.1879     1.9981   -38.4213
   64.0000    81.3187     2.7657     3.5106     2.0817   -37.7971
   64.5000    81.3005     2.1551     3.7603     2.5616   -36.7754
   65.0000    81.5890     2.1495     3.7066     2.6876   -36.4766
   65.5000    81.8739     2.3728     3.2932     2.5592   -36.4784
   66.0000    81.2569     2.9031     3.1357     2.3538   -36.4799
   66.5000    78.8472     3.0420     3.1777     2.2569   -36.6313
   67.0000    73.9701     2.9577     3.3357     2.2248   -36.9326
   67.5000    68.6348     2.8959     3.5213     2.2237   -37.6837
   68.0000    65.9257     3.1239     3.7199     2.4489   -38.4588
   68.5000    63.8153     4.5693     3.8756     3.0554   -40.3856
   69.0000    66.1960     6.3233     3.8468     3.3419   -43.0857
   69.5000    77.2593     7.3099     3.8182     3.4346   -44.7363
   70.0000    97.6041     7.7770     3.8963     3.4326   -46.0871
   70.5000   106.8710     7.8284     4.0594     3.4073   -45.9387
   71.0000   108.0540     7.1519     4.2330     3.4057   -45.9401
   71.5000   108.3862     6.1827     4.4672     3.6501   -45.9416
   72.0000   111.0153     5.5712     4.6866     3.9978   -46.2429
   72.5000   113.0966     5.3060     4.8491     4.1863   -46.7241
   73.0000   111.5851     5.0873     4.9141     4.2723   -47.7454
   73.5000   105.5825     5.0464     5.0146     4.3299   -49.8458
   74.0000   104.3740     4.9802     5.1885     4.2979   -50.8968
   74.5000   105.5535     4.9442     5.2217     4.2662   -52.0976
   75.0000   106.1377     4.9425     5.1768     4.2940   -53.1485
   75.5000   105.8238     4.9409     5.0032     4.2919   -54.0496
   76.0000   107.3026     4.9392     4.8977     4.1996   -55.1005
   76.5000   107.5911     4.9375     4.7613     4.1127   -56.0015
   77.0000   106.9742     4.9019     4.6609     4.0824   -56.0030
   77.5000   104.8638     4.7967     4.4688     3.9415   -56.0048
   78.0000   101.5559     4.7316     4.2257     3.6758   -56.6059
   78.5000   101.4461     4.5691     3.8805     3.2885   -57.2071
   79.0000   103.0238     4.2622     3.6749     2.9624   -57.8083
   79.5000   104.2069     3.9485     3.1979     2.8800   -58.4094
   80.0000   104.4917     3.8129     2.9210     2.6859   -59.1605
   80.5000   102.9766     3.4597     2.8201     2.4664   -59.3119
   81.0000   101.7644     3.1610     2.7606     2.3849   -59.1594
   81.5000   100.5523     2.9894     2.7397     2.3676   -58.8650
   82.0000   104.1306     2.8844     2.7957     2.5011   -59.0168
   82.5000   109.8047     2.8462     2.8927     2.8125   -59.3181
   83.0000   107.6943     2.8849     2.9930     3.0338   -59.6194
   83.5000   106.7814     3.0481     3.1183     3.2500   -59.7708
   84.0000   107.5569     3.3339     3.2714     3.5058   -59.7722
   84.5000   111.5393     3.6465     3.5285     3.8935   -59.7737
   85.0000   110.3272     3.9884     3.9048     4.2379   -59.4753
   85.5000    99.8336     4.2433     4.7466     4.5551   -59.1699
   86.0000    93.2322     4.4237     4.9453     4.5851   -58.7046
   86.5000    92.6225     4.5442     5.0815     4.6787   -58.4302
   87.0000    94.7002     4.4490     5.1861     4.8079   -58.2817
   87.5000    98.2784     4.3864     5.3282     4.8057   -58.2835
   88.0000   100.0603     4.6025     5.4371     4.9384   -58.2850
   88.5000    99.7427     4.8966     5.5104     4.9704   -58.4364
   89.0000   100.3307     5.0328     5.6671     5.0217   -58.4378
   89.5000   100.9149     5.0657     5.8168     5.0701   -58.8891
   90.0000   101.1998     5.1345     5.8956     5.0671   -59.3503
   90.5000    99.6846     5.1369     5.8510     5.0647   -60.2417
   91.0000    98.7719     5.1306     5.7674     4.9926   -60.9928
   91.5000    98.7455     5.0235     5.6458     4.8538   -61.8938
   92.0000   102.0238     4.8510     5.5267     4.7189   -61.7449
   92.5000   109.8025     4.7170     5.4083     4.6841   -61.5965
   93.0000   110.6862     4.6506     5.2954     4.6495   -61.4480
   93.5000   110.3722     4.6170     5.1480     4.5493   -61.4498
   94.0000   102.2738     4.5206     5.0046     4.3941   -61.4513
   94.5000    95.9719     4.3942     4.8317     4.1552   -61.3028
   95.0000    96.8556     4.2693     4.6648     3.9292   -61.3046
   95.5000    98.6374     4.1558     4.5664     3.9274   -61.6059
   96.0000    96.8144     4.0974     4.3782     3.8715   -61.7573
   96.5000    96.8114     4.0960     4.1374     3.6357   -62.0586
   97.0000    97.6920     4.0946     4.0242     3.3440   -62.2100
   97.5000   100.0727     4.0091     3.9668     3.0055   -62.3614
   98.0000   101.5588     3.7658     3.7510     2.8286   -62.8126
   98.5000   102.7382     3.2780     3.1970     2.8077   -63.4138
   99.0000   104.8195     2.9538     2.8601     2.8259   -63.7311
   99.5000   108.0984     3.0354     2.8784     2.9856   -63.8668
  100.0000   104.7904     3.2744     3.4207     3.2430   -63.8683
  100.5000   103.8413     3.5567     3.9066     3.4741   -63.7195
  101.0000   103.8631     3.7062     4.0070     3.7216   -63.5710
  101.5000   104.1480     3.8090     4.0884     3.8519   -63.1231
  102.0000   103.8304     3.9417     4.2891     4.0163   -62.3749
  102.5000   103.2477     4.0791     4.5625     4.1805   -61.9265
  103.0000   102.6402     4.1922     4.6243     4.2960   -61.9340
  103.5000   100.2363     4.2831     4.6212     4.3842   -63.1479
  104.0000   101.1377     4.3369     4.6187     4.3821   -62.8305
  104.5000   103.8117     4.3351     4.5473     4.3498   -62.3822
  105.0000   101.7050     4.3037     4.4254     4.2289   -62.3993
  105.5000    98.4029     4.2431     4.4544     4.0548   -63.0019
  106.0000    96.5978     4.1259     4.5141     3.9130   -63.6045
  106.5000    97.1879     3.9568     4.5430     3.8320   -64.0572
  107.0000    98.6762     3.7684     4.4159     3.9379   -64.5098
  107.5000   101.9609     3.9020     4.0057     3.9914   -64.6627
  108.0000   102.2516     4.0079     3.5492     3.1083   -64.5156
  108.5000    99.4102     4.0344     2.9912     2.7047   -65.2689
  109.0000    96.2439     3.9498     2.7133     2.2892   -65.4217
  109.5000    95.6364     3.4637     2.4107     1.9782   -65.4246
  110.0000   104.0110     2.4827     2.1868     1.9232   -65.4275
  110.5000   104.9026     2.3320     2.0535     1.9491   -65.4304
  111.0000   104.5945     2.2833     2.0242     2.0027   -65.4333
  111.5000   105.7812     2.4125     2.1532     2.1306   -65.2863
  112.0000   110.2636     2.9071     2.6100     2.3959   -64.8394
  112.5000   107.2606     4.0231     3.9013     2.6205   -63.9435
  113.0000    97.6691     4.4308     4.1500     2.9726   -63.1968
  113.5000    94.9658     4.3681     4.3538     3.2969   -63.3496
  114.0000    94.0589     4.2181     4.5361     3.6821   -63.6524
  114.5000    93.1520     3.9896     4.5657     3.9175   -63.8052
  115.0000    94.0415     3.6705     4.4999     3.9706   -63.8081
  115.5000    97.9250     3.6191     4.3435     3.9139   -63.5111
  116.0000   107.4971     3.8235     4.2434     3.7271   -63.0643
  116.5000   106.2886     4.0120     4.0489     3.5987   -62.6181
  117.0000   101.1901     4.0948     3.9910     3.5233   -62.4704
  117.5000    96.6904     4.0368     3.9340     3.4734   -62.4740
  118.0000    95.4862     3.9253     3.8511     3.4005   -62.9267
  118.5000    99.6670     3.8168     3.7699     3.3510   -63.9791
  119.0000   105.6463     3.7372     3.6619     3.2591   -64.7416
  119.5000   107.7335     3.6089     3.5828     3.2129   -65.3349
  120.0000   104.6308     3.5335     3.3688     3.0808   -65.3378
  120.5000    93.9414     3.5080     3.1646     2.8934   -65.0409
  121.0000    92.4356     3.5068     2.7169     2.5354   -64.7439
  121.5000    92.7263     3.4493     2.4997     2.3000   -64.2970
