~VERSION INFORMATION
 VERS.                2.0:   CWLS LOG ASCII STANDARD - VERSION 2.0
 WRAP.                 NO:   ONE LINE PER DEPTH STEP
~WELL INFORMATION
#MNEM.UNIT      DATA TYPE    INFORMATION
#----------   ------------   ------------------------------
 STRT.F           42.0000:   START DEPTH
 STOP.F          530.5000:   STOP DEPTH
 STEP.F            0.5000:   STEP LENGTH
 NULL.          -999.2500:   NO VALUE
 COMP. LAWRENCE/ALLISON INC:   COMPANY
 WELL. 65-25-1 SX FI #3-3:   WELL
 FLD .              NPR 3:   FIELD
 LOC .       S3 T38N R78W:   LOCATION
 CNTY.            NATRONA:   COUNTY
 STAT.            WYOMING:   STATE
 CTRY. UNITED STATES OF AMERICA:   COUNTRY
 SRVC.       Schlumberger:   SERVICE COMPANY
 DATE.        08-JUL-1982:   LOGDATE
 API .       490251093000:   API NUMBER
~CURVE INFORMATION
#MNEM.UNIT       API CODE    CURVE DESCRIPTION
#----------   ------------   ------------------------------
 DEPT.F                  :   
 GRD .GAPI   45 310 01 00:   GAMMA RAY FROM DENSITY LOG
 CALD.IN     45 280 60 00:   CALIPER
 RHOB.G/C3   45 350 01 00:   BULK DENSITY
 DPHI.DEC    45 890 12 00:   DENSITY POROSITY SANDSTONE
 CORR.G/C3   45 356 01 00:   DENSITY CORRECTION
~PARAMETER INFORMATION
#MNEM.UNIT          VALUE    DESCRIPTION
#----------   ------------   ------------------------------
 PD  .                 GL:   PERMANENT DATUM
 EPD .F              5162:   ELEVATION PERMANENT DATUM
 LMF .                 KB:   LOG MEASURED FROM
 DAPD.F                 9:   FEET ABOVE PERMANENT DATUM
 DMF .                 KB:   DRILLING MEASURED FROM
 EKB .F              5171:   KELLING BUSHING
 EGL .F              5162:   GROUND LEVEL
 DATE.             7-8-82:   RUN DATE
 RUN .                  1:   RUN NUMBER
 DD  .F               531:   DEPTH DRILLER
 DL  .F               533:   DEPTH LOGGER
 BLI .F               530:   BOTTOM LOG INTERVAL
 TLI .F                52:   TOP LOG INTERVAL
 CS  .IN           13.375:   CASING SIZE
 CBD .F                50:   CASING BOTTOM DRILLER
 CBL .F                52:   CASING BOTTOM LOGGER
 BS  .IN            12.25:   BIT SIZE
 BSD .F               531:   BIT SIZE AT DEPTH
 DFT .                AIR:   DRILLING FLUID TYPE
 TCS .HRS            0500:   TIME CURCULATED STOPPED
 TLAB.HRS            0700:   TIME LOGGER AT BOTTOM
 LUL .               CSPR:   LOGGING UNIT LOCATION
 WITN.             TAYLOR:   WITNESSED BY
 CLNT.            A2DTECH:   CLIENT CODE
 ORIG.           5" PRINT:   ORIGIN OF DATA
 UWI .       490251093000:   UNIQUE WELL ID
 DICO. A2D Technologies, Inc.:   DIGITIZING COMPANY
~OTHER INFORMATION
~A   DEPT       GRD      CALD       RHOB       DPHI       CORR   
# ...
  164.0000    92.0586    12.6091     2.4502     0.1369     0.0221
  164.5000    92.9859    12.6038     2.4449     0.1396     0.0231
  165.0000    93.7913    12.5985     2.4503     0.1367     0.0204
  165.5000    92.4356    12.5931     2.4558     0.1338     0.0138
  166.0000    91.0387    12.5953     2.4533     0.1341     0.0057
  166.5000    90.6969    12.6011     2.4482     0.1375    -0.0029
  167.0000    93.6568    12.6071     2.4450     0.1380     0.0008
  167.5000    96.4467    12.6210     2.4491     0.1350     0.0077
  168.0000    97.9781    12.6522     2.4576     0.1312     0.0147
  168.5000    95.7262    12.6832     2.4662     0.1275     0.0195
  169.0000    93.5055    12.7142     2.4748     0.1222     0.0220
  169.5000    92.2816    12.7451     2.4832     0.1160     0.0300
  170.0000    91.7445    12.7671     2.4883     0.1155     0.0360
  170.5000    93.1428    12.7592     2.4709     0.1238     0.0291
  171.0000    94.7121    12.7520     2.4559     0.1326     0.0224
  171.5000    96.2841    12.7448     2.4451     0.1391     0.0155
  172.0000    97.8552    12.7376     2.4481     0.1371     0.0212
  172.5000    99.4649    12.7303     2.4498     0.1379     0.0293
  173.0000    99.9067    12.7289     2.4294     0.1460     0.0366
  173.5000    99.2352    12.7289     2.4027     0.1611     0.0325
  174.0000    94.9448    12.7289     2.3755     0.1750     0.0183
  174.5000    90.7193    12.7289     2.3633     0.1861     0.0042
  175.0000    88.7793    12.7289     2.4047     0.1756    -0.0005
  175.5000    88.9250    12.7282     2.4451     0.1512     0.0141
  176.0000    91.0834    12.7226     2.4825     0.1239     0.0266
  176.5000    93.8129    12.7170     2.4846     0.1151     0.0290
  177.0000    95.6023    12.7114     2.4805     0.1183     0.0253
  177.5000    96.5318    12.7058     2.4744     0.1220     0.0215
  178.0000    97.2928    12.7003     2.4686     0.1256     0.0178
  178.5000    97.9526    12.6947     2.4646     0.1279     0.0204
  179.0000    97.3904    12.6891     2.4697     0.1259     0.0235
  179.5000    96.8090    12.6835     2.4746     0.1217     0.0255
  180.0000    96.2539    12.6779     2.4795     0.1176     0.0262
  180.5000    96.9878    12.6723     2.4839     0.1153     0.0243
  181.0000    97.8456    12.6700     2.4835     0.1161     0.0224
  181.5000    97.3046    12.6699     2.4829     0.1170     0.0204
  182.0000    96.6050    12.6699     2.4859     0.1152     0.0190
  182.5000    98.4186    12.6699     2.4978     0.1087     0.0266
  183.0000   100.2721    12.6700     2.4977     0.1070     0.0347
  183.5000   100.3085    12.6701     2.4901     0.1109     0.0377
  184.0000    98.3498    12.6696     2.4845     0.1147     0.0318
  184.5000   100.2218    12.6407     2.4816     0.1186     0.0240
  185.0000   103.2487    12.6092     2.4718     0.1227     0.0164
  185.5000   105.6422    12.5777     2.4612     0.1278     0.0088
  186.0000   105.0535    12.5463     2.4604     0.1291     0.0024
  186.5000    96.6080    12.5148     2.4730     0.1239     0.0033
  187.0000    93.7905    12.4832     2.4663     0.1258     0.0000
  187.5000    92.1695    12.4640     2.4584     0.1291    -0.0058
  188.0000    92.5760    12.4503     2.4648     0.1315     0.0007
  188.5000    93.5471    12.4366     2.4780     0.1186     0.0128
  189.0000    92.6012    12.4231     2.4913     0.1126     0.0238
  189.5000    91.3285    12.4171     2.4868     0.1131     0.0246
  190.0000    90.6258    12.4242     2.4828     0.1171     0.0216
  190.5000    92.4003    12.4311     2.4952     0.1092     0.0185
  191.0000    94.1075    12.4380     2.5163     0.1012     0.0158
  191.5000    95.2672    12.4450     2.5352     0.0906     0.0212
  192.0000    94.8465    12.4522     2.5235     0.0963     0.0268
  192.5000    94.4667    12.4538     2.5048     0.1048     0.0314
  193.0000    94.3726    12.4538     2.4859     0.1130     0.0280
  193.5000    95.8871    12.4538     2.4861     0.1149     0.0247
  194.0000    98.7118    12.4538     2.4872     0.1139     0.0215
  194.5000   102.3440    12.4538     2.4850     0.1167     0.0185
  195.0000   104.9319    12.4538     2.4776     0.1195     0.0156
  195.5000   102.3223    12.4546     2.4702     0.1237     0.0146
  196.0000    99.1266    12.4583     2.4631     0.1293     0.0146
  196.5000    95.9722    12.4617     2.4504     0.1350     0.0160
  197.0000    94.2680    12.4652     2.4374     0.1419     0.0210
  197.5000    95.6208    12.4687     2.4245     0.1514     0.0258
  198.0000    96.9232    12.4719     2.3980     0.1660     0.0307
  198.5000    98.2532    12.4955     2.3622     0.1882     0.0323
  199.0000    99.3172    12.5308     2.3262     0.2125     0.0315
  199.5000    96.3268    12.5661     2.2904     0.2363     0.0303
  200.0000    93.2873    12.5869     2.2551     0.2601     0.0223
  200.5000    90.2669    12.5655     2.2397     0.2628     0.0144
  201.0000    87.1315    12.5454     2.2629     0.2510     0.0067
  201.5000    86.9837    12.5253     2.2949     0.2324    -0.0014
  202.0000    89.2191    12.5053     2.3268     0.2056     0.0184
  202.5000    93.5336    12.4854     2.3489     0.1956     0.0185
  203.0000    97.6249    12.4760     2.3561     0.1908     0.0106
  203.5000    98.7971    12.4826     2.3735     0.1768     0.0028
  204.0000    99.8642    12.4890     2.4123     0.1572     0.0056
  204.5000   101.4051    12.4955     2.4486     0.1363     0.0088
  205.0000   104.8187    12.5020     2.4585     0.1305     0.0119
  205.5000   106.4852    12.5084     2.4674     0.1249     0.0150
  206.0000   105.5568    12.5109     2.4718     0.1240     0.0162
  206.5000   104.1412    12.5049     2.4662     0.1253     0.0147
  207.0000   104.9410    12.4990     2.4659     0.1261     0.0132
  207.5000   106.2989    12.4931     2.4652     0.1266     0.0100
  208.0000   106.7587    12.4872     2.4592     0.1307     0.0054
  208.5000   104.7740    12.4813     2.4531     0.1352     0.0019
  209.0000   102.8405    12.4754     2.4515     0.1354     0.0056
  209.5000   101.8115    12.4690     2.4507     0.1355     0.0091
  210.0000   102.0478    12.4623     2.4310     0.1468     0.0162
  210.5000   103.9172    12.4553     2.4074     0.1607     0.0254
  211.0000   105.9328    12.4599     2.3820     0.1746     0.0323
  211.5000   107.9577    12.4682     2.3566     0.1885     0.0202
  212.0000   108.9123    12.4766     2.3478     0.1954     0.0055
  212.5000   107.2337    12.4849     2.3668     0.1845    -0.0090
  213.0000   105.1082    12.4933     2.3862     0.1719    -0.0039
  213.5000   102.9780    12.5037     2.3982     0.1663     0.0035
  214.0000   101.7786    12.5141     2.4144     0.1533     0.0110
  214.5000   102.8007    12.5244     2.4355     0.1391     0.0184
  215.0000   106.3246    12.5348     2.4538     0.1342     0.0206
  215.5000   109.8431    12.5450     2.4557     0.1332     0.0133
  216.0000   110.9675    12.5471     2.4590     0.1330     0.0058
  216.5000   109.7821    12.5309     2.4699     0.1215     0.0024
  217.0000   108.1973    12.5152     2.4769     0.1202    -0.0001
  217.5000   106.6099    12.4992     2.4703     0.1250     0.0007
  218.0000   105.0482    12.4918     2.4648     0.1259     0.0059
  218.5000   103.7572    12.4884     2.4743     0.1201     0.0153
  219.0000   103.2420    12.4851     2.4863     0.1147     0.0243
  219.5000   103.8366    12.4817     2.4815     0.1168     0.0307
  220.0000   106.0363    12.4784     2.4753     0.1204     0.0263
  220.5000   108.1860    12.4750     2.4757     0.1221     0.0181
  221.0000   108.5151    12.4849     2.4770     0.1205     0.0156
  221.5000   107.3064    12.5063     2.4771     0.1211     0.0173
  222.0000   106.0735    12.5278     2.4693     0.1253     0.0132
  222.5000   104.8481    12.5493     2.4614     0.1295     0.0077
  223.0000   103.8730    12.5708     2.4541     0.1326     0.0027
  223.5000   103.5909    12.5910     2.4556     0.1323     0.0047
  224.0000   103.7232    12.5926     2.4577     0.1311     0.0068
  224.5000   105.0381    12.5935     2.4575     0.1319     0.0126
