~VERSION INFORMATION
 VERS.                2.0:   CWLS LOG ASCII STANDARD - VERSION 2.0
 WRAP.                 NO:   ONE LINE PER DEPTH STEP
~WELL INFORMATION
#MNEM.UNIT      DATA TYPE    INFORMATION
#----------   ------------   ------------------------------
 STRT.F           70.0000:   START DEPTH
 STOP.F         1072.0000:   STOP DEPTH
 STEP.F            0.5000:   STEP LENGTH
 NULL.          -999.2500:   NO VALUE
 COMP. LAWRENCE/ALLISON INC:   COMPANY
 WELL.    67-66 SX #11-11:   WELL
 FLD .             TEAPOT:   FIELD
 LOC .      S11 T38N R78W:   LOCATION
 CNTY.            NATRONA:   COUNTY
 STAT.            WYOMING:   STATE
 CTRY. UNITED STATES OF AMERICA:   COUNTRY
 SRVC.      Dresser Atlas:   SERVICE COMPANY
 DATE.        03-FEB-1986:   LOGDATE
 API .       490251105700:   API NUMBER
~CURVE INFORMATION
#MNEM.UNIT       API CODE    CURVE DESCRIPTION
#----------   ------------   ------------------------------
 DEPT.F                  :   
 RILD.OHMM   07 120 46 00:   RESISTIVITY INDUCTION LOG DEEP
 RILM.OHMM   07 120 44 00:   RESISTIVITY INDUCTION LOG MEDIUM
 GRD .GAPI   45 310 01 00:   GAMMA RAY FROM DENSITY LOG
 CALD.IN     45 280 60 00:   CALIPER FROM DENSITY LOG
 CORR.G/C3   45 356 01 00:   DENSITY CORRECTION
 PORD.DEC    45 890 12 00:   POROSITY DENSITY SANDSTONE
 DEN .G/C3   45 350 01 00:   COMPENSATED BULK DENSTIY
~PARAMETER INFORMATION
#MNEM.UNIT          VALUE    DESCRIPTION
#----------   ------------   ------------------------------
 PD  .                 GL:   PERMANENT DATUM
 EPD .F              5245:   ELEVATION PERMANENT DATUM
 LMF .                 GL:   LOG MEASURED FROM
 DMF .                 GL:   DRILLING MEASURED FROM
 EGL .F              5245:   GROUND LEVEL
 DATE.        03-FEB-1986:   RUN DATE
 RUN .                  1:   RUN NUMBER
 DD  .F              1120:   DEPTH DRILLER
 DL  .F              1074:   DEPTH LOGGER
 BLI .F              1068:   BOTTOM LOG INTERVAL
 TLI .F                86:   TOP LOG INTERVAL
 CS  .IN            8.625:   CASING SIZE
 CBD .F                86:   CASING BOTTOM DRILLER
 CBL .F                86:   CASING BOTTOM LOGGER
 BS  .IN             6.25:   BIT SIZE
 BSD .F              1120:   BIT SIZE AT DEPTH
 DFT .                AIR:   DRILLING FLUID TYPE
 TCS .HRS               2:   TIME CURCULATED STOPPED
 LUN .               6274:   LOGGING UNIT NUMBER
 LUL .           GILLETTE:   LOGGING UNIT LOCATION
 ENGI.             MILLER:   RECORDING ENGINEER
 WITN.           JENNINGS:   WITNESSED BY
 CLNT.            A2DTECH:   CLIENT CODE
 ORIG.           5" PRINT:   ORIGIN OF DATA
 UWI .       490251105700:   UNIQUE WELL ID
 DICO. A2D Technologies, Inc.:   DIGITIZING COMPANY
~OTHER INFORMATION
~A   DEPT     RILD       RILM        GRD       CALD       CORR       PORD        DEN   
# ...
  434.0000     2.4066     3.0252   110.7476     7.9355     0.1068     0.2815     2.2083
  434.5000     2.6728     3.4057   108.3742     7.9371     0.1062     0.2462     2.2776
  435.0000     3.0731     3.8340   114.0848     7.9388     0.0818     0.1862     2.3605
  435.5000     3.5579     4.1122   121.8819     7.9405     0.0668     0.1426     2.4419
  436.0000     3.9789     4.3500   127.7010     7.9268     0.0851     0.1380     2.4547
  436.5000     4.2535     4.4452   134.0430     7.9139     0.1004     0.1443     2.4406
  437.0000     4.4923     4.5425   137.8534     7.9156     0.1022     0.1542     2.4216
  437.5000     4.6499     4.6100   140.5082     7.9173     0.0964     0.1623     2.4114
  438.0000     4.6844     4.6142   142.6252     7.9036     0.0741     0.1647     2.4055
  438.5000     4.5929     4.4914   142.9485     7.9057     0.0502     0.1659     2.4033
  439.0000     4.5660     4.4965   141.4780     7.9070     0.0429     0.1649     2.4042
  439.5000     4.4768     4.5006   129.8432     7.9087     0.0507     0.1622     2.4088
  440.0000     4.4198     4.5038   124.1874     7.8953     0.0690     0.1576     2.4172
  440.5000     4.3634     4.4106   124.2117     7.8970     0.0994     0.1529     2.4248
  441.0000     4.2784     4.2690   124.2360     7.8987     0.1117     0.1519     2.4264
  441.5000     4.2240     4.1832   123.6624     7.9004     0.1149     0.1543     2.4205
  442.0000     4.0283     4.0173   121.8930     7.9020     0.0963     0.1578     2.4146
  442.5000     3.7110     3.8323   124.0100     7.9037     0.0715     0.1626     2.4086
  443.0000     3.5147     3.5061   125.5291     7.9054     0.0569     0.1671     2.4020
  443.5000     3.2830     3.1855   125.4888     7.9071     0.0692     0.1710     2.3989
  444.0000     2.9013     2.8152   124.9738     7.9087     0.0754     0.1761     2.3927
  444.5000     2.5818     2.5578   130.7784     7.9104     0.0771     0.1863     2.3787
  445.0000     2.4452     2.4223   135.7848     7.9121     0.0428     0.1928     2.3594
  445.5000     2.4302     2.4925   136.4070     7.9137     0.0204     0.2024     2.3475
  446.0000     2.5543     2.6920   134.9365     7.9154     0.0237     0.2196     2.3363
  446.5000     2.6840     3.0096   125.9922     7.9167     0.0405     0.2424     2.2890
  447.0000     2.8008     3.2957   121.2272     7.9333     0.0483     0.2635     2.2477
  447.5000     3.0467     3.5594   127.8346     7.9350     0.0621     0.2550     2.2395
  448.0000     3.3568     3.9520   140.1160     7.9366     0.0548     0.2167     2.2682
  448.5000     3.9582     4.2978   141.9280     7.9233     0.0456     0.1878     2.3549
  449.0000     4.3578     4.5779   140.1647     7.9250     0.0432     0.1653     2.4001
  449.5000     4.6680     4.8427   138.6942     7.9267     0.0558     0.1607     2.4100
  450.0000     4.9375     5.0075   137.4697     7.9284     0.0617     0.1631     2.4108
  450.5000     5.1529     5.1286   136.3654     7.9301     0.0593     0.1636     2.4042
  451.0000     5.1583     5.0980   134.0102     7.9317     0.0546     0.1621     2.4043
  451.5000     5.0926     5.0335   131.2109     7.9180     0.0548     0.1566     2.4141
  452.0000     4.9587     4.8680   128.0120     7.9201     0.0658     0.1539     2.4218
  452.5000     4.5998     4.6111   125.4407     7.9069     0.0780     0.1550     2.4226
  453.0000     4.2374     4.1904   127.5698     7.9085     0.0668     0.1577     2.4077
  453.5000     3.7447     3.6030   129.6988     7.9077     0.0477     0.1631     2.4002
  454.0000     3.2189     3.2070   131.8279     7.9091     0.0314     0.1703     2.3958
  454.5000     3.0276     2.9549   135.4518     7.8955     0.0409     0.1768     2.3884
  455.0000     2.8674     2.8185   141.4673     7.8969     0.0667     0.1840     2.3727
  455.5000     2.8704     2.8609   144.7922     7.8982     0.0880     0.1975     2.3532
  456.0000     2.8734     2.9854   144.2307     7.8996     0.1078     0.2107     2.3285
  456.5000     2.9165     3.2249   142.4734     7.9009     0.0989     0.2405     2.2812
  457.0000     2.9603     3.4358   138.9224     7.9023     0.0856     0.2444     2.2700
  457.5000     3.1322     3.5117   132.0829     7.9036     0.0828     0.2263     2.3062
  458.0000     3.3837     3.6393   122.5528     7.9050     0.0649     0.2099     2.3382
  458.5000     3.7063     3.9586   118.9927     7.9064     0.0635     0.1724     2.3988
  459.0000     4.0466     4.1884   123.5225     7.9227     0.0728     0.1630     2.4096
  459.5000     4.2648     4.3107   129.9352     7.9087     0.0760     0.1651     2.4058
  460.0000     4.3932     4.4059   137.2000     7.9254     0.0642     0.1680     2.3977
  460.5000     4.5172     4.4414   139.1682     7.9267     0.0463     0.1667     2.3993
  461.0000     4.5533     4.5083   137.4070     7.9281     0.0389     0.1628     2.4055
  461.5000     4.5597     4.5762   136.5505     7.9294     0.0512     0.1591     2.4131
  462.0000     4.5944     4.5813   135.9880     7.9308     0.0695     0.1615     2.4135
  462.5000     4.5675     4.5535   135.7250     7.9322     0.0712     0.1645     2.4020
  463.0000     4.5407     4.4662   136.3608     7.9335     0.0653     0.1648     2.4013
  463.5000     4.4520     4.3493   138.1909     7.9196     0.0475     0.1623     2.4067
  464.0000     4.3050     4.1198   139.7130     7.9213     0.0401     0.1601     2.4121
  464.5000     4.0772     3.9568   136.4701     7.9073     0.0539     0.1592     2.4137
  465.0000     3.7209     3.7577   133.8159     7.8938     0.0541     0.1601     2.4108
  465.5000     3.4601     3.5166   131.4607     7.8805     0.0543     0.1618     2.4071
  466.0000     3.3228     3.3554   133.8887     7.8819     0.0462     0.1660     2.4027
  466.5000     3.2797     3.2514   143.4917     7.8832     0.0426     0.1723     2.3960
  467.0000     3.2388     3.2326   146.5176     7.8843     0.0555     0.1804     2.3781
  467.5000     3.2189     3.2362   143.5645     7.8857     0.0826     0.1951     2.3511
  468.0000     3.1569     3.2166   135.5375     7.8870     0.1125     0.2157     2.3211
  468.5000     3.0107     3.1543   124.7614     7.8883     0.0991     0.2154     2.3162
  469.0000     2.8712     3.0301   125.7915     7.8897     0.0662     0.2009     2.3386
  469.5000     2.7957     2.9304   129.0524     7.8910     0.0558     0.1866     2.3710
  470.0000     2.7786     2.7950   132.3773     7.8924     0.0500     0.1774     2.3847
  470.5000     2.7062     2.6844   136.5991     7.8937     0.0502     0.1777     2.3810
  471.0000     2.5988     2.6140   140.2229     7.8951     0.0624     0.1867     2.3683
  471.5000     2.4613     2.5107   140.5492     7.8964     0.0747     0.1939     2.3579
  472.0000     2.2990     2.4788   139.3898     7.8978     0.0689     0.2038     2.3294
  472.5000     2.1474     2.4307   140.0332     7.9141     0.0630     0.2185     2.3144
  473.0000     2.0760     2.3185   137.6780     7.9155     0.0753     0.2239     2.3032
  473.5000     2.0214     2.0489   129.3438     7.9168     0.0996     0.2280     2.2913
  474.0000     2.1393     2.1386   122.5042     7.9032     0.1179     0.2331     2.2816
  474.5000     2.2793     2.3586   125.8291     7.9046     0.1286     0.2400     2.2734
  475.0000     2.3950     2.5479   128.5562     7.9059     0.1333     0.2454     2.2671
  475.5000     2.6052     2.8689   126.2009     7.9073     0.1410     0.2535     2.2525
  476.0000     2.7950     3.1205   122.9398     7.9087     0.1247     0.2486     2.2560
  476.5000     3.0403     3.3246   126.4951     7.8947     0.0767     0.2215     2.2868
  477.0000     3.3533     3.5176   131.7389     7.8964     0.0587     0.1670     2.3845
  477.5000     3.5622     3.6454   133.2238     7.8978     0.0650     0.1458     2.4373
  478.0000     3.7319     3.6748   130.8582     7.8991     0.0743     0.1449     2.4377
  478.5000     3.7311     3.6284   128.1256     7.9005     0.0790     0.1483     2.4269
  479.0000     3.6553     3.5090   131.8279     7.9018     0.0791     0.1512     2.4233
