~VERSION INFORMATION
 VERS.                2.0:   CWLS LOG ASCII STANDARD - VERSION 2.0
 WRAP.                 NO:   ONE LINE PER DEPTH STEP
~WELL INFORMATION
#MNEM.UNIT      DATA TYPE    INFORMATION
#----------   ------------   ------------------------------
 STRT.F          217.0000:   START DEPTH
 STOP.F         3170.0000:   STOP DEPTH
 STEP.F            0.5000:   STEP LENGTH
 NULL.          -999.2500:   NO VALUE
 COMP. FENIX & SCISSON INC:   COMPANY
 WELL.    51 TX 33 #51-33:   WELL
 FLD .             TEAPOT:   FIELD
 LOC .      S33 T39N R78W:   LOCATION
 CNTY.            NATRONA:   COUNTY
 STAT.            WYOMING:   STATE
 CTRY. UNITED STATES OF AMERICA:   COUNTRY
 SRVC.            Unknown:   SERVICE COMPANY
 DATE.        02-APR-1978:   LOGDATE
 API .       490251068600:   API NUMBER
~CURVE INFORMATION
#MNEM.UNIT       API CODE    CURVE DESCRIPTION
#----------   ------------   ------------------------------
 DEPT.F                  :   
 TGAS.UNITS  91 830 01 00:   TOTAL GAS FROM HOTWIRE
 ROP .MIN/FT 91 810 01 00:   RATE OF DRILLING PENETRATION
~PARAMETER INFORMATION
#MNEM.UNIT          VALUE    DESCRIPTION
#----------   ------------   ------------------------------
 DATE.         2-APR-1978:   RUN DATE
 RUN .                  1:   RUN NUMBER
 BLI .F              3150:   BOTTOM LOG INTERVAL
 TLI .F               250:   TOP LOG INTERVAL
 DFT .       CHEMICAL GEL:   DRILLING FLUID TYPE
 ENGI.            R. CABS:   RECORDING ENGINEER
 CLNT.            A2DTECH:   CLIENT CODE
 ORIG.           5" PRINT:   ORIGIN OF DATA
 UWI .       490251068600:   UNIQUE WELL ID
 DICO. A2D Technologies, Inc.:   DIGITIZING COMPANY
~OTHER INFORMATION
~A   DEPT       TGAS      ROP   
# ...
 2039.5000    11.8413     2.0786
 2040.0000    12.0175     2.0780
 2040.5000    12.0255     2.0773
 2041.0000    12.0336     2.1417
 2041.5000    12.2118     2.2060
 2042.0000    12.3879     2.2054
 2042.5000    12.3960     2.2047
 2043.0000    12.4040     2.2041
 2043.5000    12.4121     2.2035
 2044.0000    12.2521     1.6500
 2044.5000    12.4286     1.6820
 2045.0000    12.4383     1.6487
 2045.5000    12.4464     1.6479
 2046.0000    12.4545     1.6473
 2046.5000    12.4625     1.6467
 2047.0000    12.4706     1.6461
 2047.5000    12.4807     1.6454
 2048.0000    12.4887     0.9294
 2048.5000    12.6649     0.8962
 2049.0000    12.6729     0.8956
 2049.5000    12.8491     0.8624
 2050.0000    12.6891     1.4146
 2050.5000    12.6741     1.4143
 2051.0000    12.6591     1.4140
 2051.5000    12.6441     1.3811
 2052.0000    12.6291     1.3808
 2052.5000    12.6141     2.1935
 2053.0000    12.5991     2.1932
 2053.5000    12.5841     2.1929
 2054.0000    12.5691     2.1926
 2054.5000    12.5518     1.4280
 2055.0000    12.3862     1.4439
 2055.5000    12.5583     1.4436
 2056.0000    12.7298     1.4107
 2056.5000    12.5642     1.4104
 2057.0000    12.5683     1.4101
 2057.5000    12.4034     1.4098
 2058.0000    12.4067     2.1249
 2058.5000    12.4107     2.1571
 2059.0000    12.2451     2.1568
 2059.5000    12.0803     2.1890
 2060.0000    11.9154     1.3431
 2060.5000    11.5825     1.3427
 2061.0000    10.9143     1.3099
 2061.5000     9.7027     1.2771
 2062.0000     9.2263     1.2767
 2062.5000     8.8214     1.2764
 2063.0000     8.3351     1.2761
 2063.5000     8.0115     1.2758
 2064.0000     7.6879     1.8608
 2064.5000     7.5255     1.9906
 2065.0000     7.3658     1.9578
 2065.5000     7.2861     1.9574
 2066.0000     7.2880     1.9570
 2066.5000     7.3709     1.9567
 2067.0000     7.3724     1.9564
 2067.5000     7.4553     1.9561
 2068.0000     7.6249     1.9558
 2068.5000     7.8653     1.9229
 2069.0000     8.1108     1.9226
 2069.5000     8.3563     1.9223
 2070.0000     8.6831     1.8244
 2070.5000     8.9285     1.7265
 2071.0000     9.3366     1.5798
 2071.5000     9.6730     1.4006
 2072.0000     9.9905     1.2702
 2072.5000    10.3190     1.1723
 2073.0000     9.9933     1.0419
 2073.5000     9.8322     0.9441
 2074.0000     9.6715     0.8462
 2074.5000     9.5106     0.7808
 2075.0000     9.3495     0.7480
 2075.5000     9.1889     0.7151
 2076.0000     9.1088     1.4790
 2076.5000     9.0290     1.5274
 2077.0000     9.0310     1.4946
 2077.5000     8.9513     1.4943
 2078.0000     8.9528     1.5265
 2078.5000     8.9548     0.7132
 2079.0000     8.8747     0.7129
 2079.5000     8.9579     0.7125
 2080.0000     9.0408     2.1431
 2080.5000     9.0423     2.1103
 2081.0000     9.0439     2.0774
 2081.5000     9.0455     2.0770
 2082.0000     9.0474     2.2393
 2082.5000     9.1303     2.6943
 2083.0000     9.2132     2.6940
 2083.5000     9.3773     2.6937
 2084.0000     9.5415     2.6933
 2084.5000     9.5444     2.6930
 2085.0000     9.6260     2.6927
 2085.5000     9.7092     2.7249
 2086.0000     9.7108     2.7246
 2086.5000     9.7123     2.2039
 2087.0000     9.7139     2.1711
 2087.5000     9.7968     2.1707
 2088.0000     9.8797     2.1704
 2088.5000    10.0914     3.1782
 2089.0000    10.4308     3.1779
 2089.5000    10.4340     3.1776
 2090.0000    10.7734     2.6894
 2090.5000    10.7766     2.6566
 2091.0000    11.1160     2.6888
 2091.5000    11.2874     2.6560
 2092.0000    11.4594     2.6557
 2092.5000    11.7988     2.6553
 2093.0000    11.9701     2.6549
 2093.5000    12.1414     2.6871
 2094.0000    12.1446     2.1015
 2094.5000    12.3160     2.1011
 2095.0000    12.3473     2.1008
 2095.5000    12.4913     2.1005
 2096.0000    12.4945     2.1002
 2096.5000    12.6659     2.0673
 2097.0000    12.8372     2.0669
 2097.5000    13.0085     2.0666
 2098.0000    13.0230     2.0663
 2098.5000    13.1838     2.6188
 2099.0000    13.0182     2.5860
 2099.5000    12.8534     2.5857
 2100.0000    12.8574     3.5285
 2100.5000    12.8607     4.0102
 2101.0000    13.2000     4.0303
 2101.5000    13.3909     4.0504
 2102.0000    13.5435     4.0607
 2102.5000    13.5467     4.0710
 2103.0000    13.5499     2.9795
 2103.5000    13.5532     3.0127
 2104.0000    13.5564     1.9401
 2104.5000    13.7277     1.4205
 2105.0000    13.7590     1.4211
 2105.5000    13.9031     1.3893
 2106.0000    13.9063     1.3900
 2106.5000    13.9096     1.3581
 2107.0000    14.0809     2.6920
 2107.5000    14.7564     2.6927
 2108.0000    16.1267     2.6933
 2108.5000    17.7889     2.6939
 2109.0000    18.9686     2.6947
 2109.5000    19.6441     2.6953
 2110.0000    19.4793     2.6960
 2110.5000    18.4741     2.6966
 2111.0000    17.1328     1.6566
 2111.5000    17.6798     1.6897
 2112.0000    18.9888     1.6904
 2112.5000    19.3282     1.6911
 2113.0000    18.4911     1.3665
 2113.5000    16.6456     1.0420
 2114.0000    14.9682     1.0426
 2114.5000    13.9603     1.0433
 2115.0000    13.0981     1.0439
 2115.5000    12.6250     1.0445
 2116.0000    12.6290     1.0451
 2116.5000    12.6322     1.0459
 2117.0000    12.6355     1.0466
 2117.5000    12.8068     1.0147
 2118.0000    12.6308     1.0153
 2118.5000    11.9737     1.0159
 2119.0000    11.1366     1.0166
 2119.5000     9.9823     1.0172
 2120.0000     9.8210     2.1236
 2120.5000    11.4828     3.2625
 2121.0000    13.8390     3.2306
 2121.5000    15.3548     3.2312
 2122.0000    16.5345     3.2319
 2122.5000    17.3921     2.1918
 2123.0000    18.0544     2.1925
 2123.5000    18.2257     2.1932
 2124.0000    18.3970     2.1613
 2124.5000    18.4003     2.1945
 2125.0000    18.2354     2.1951
 2125.5000    18.0706     2.1958
 2126.0000    17.7154     2.1964
 2126.5000    16.9014     0.5060
 2127.0000    16.4005     0.5066
 2127.5000    15.8995     0.5073
 2128.0000    15.7339     1.0283
 2128.5000    15.4017     1.0290
 2129.0000    15.0689     1.0296
 2129.5000    14.7360     1.0302
 2130.0000    14.4031     1.0309
 2130.5000    14.5752     1.0315
 2131.0000    14.7465     1.0159
 2131.5000    14.5809     1.0004
 2132.0000    17.1059     1.5213
 2132.5000    26.5146     1.5220
 2133.0000    46.1618     1.5226
 2133.5000    50.6691     2.2387
 2134.0000    38.7772     2.2068
 2134.5000    21.6409     2.9067
 2135.0000    15.1094     3.3138
 2135.5000    10.0706     3.7048
 2136.0000     7.4286     3.6729
 2136.5000     6.2974     3.6735
 2137.0000     6.4620     3.6741
 2137.5000     6.9514     4.2758
 2138.0000     8.4977     4.2959
 2138.5000    12.7799     4.3161
 2139.0000    18.2485     4.3165
 2139.5000    19.3410     4.3366
 2140.0000    17.1602     2.7350
 2140.5000    12.7937     2.7356
 2141.0000     9.0766     2.7362
 2141.5000     7.9399     2.7694
 2142.0000     7.5350     2.0221
 2142.5000     7.2926     1.9903
 2143.0000     7.4572     1.9909
 2143.5000     8.9222     1.9590
 2144.0000     9.8994     2.5125
 2144.5000    11.4759     2.4806
 2145.0000    11.6472     2.4813
 2145.5000    11.6504     2.4820
 2146.0000    11.8218     3.2631
 2146.5000    11.9939     3.2638
 2147.0000    12.3332     3.2644
 2147.5000    12.8407     3.2650
 2148.0000    13.3481     2.2250
 2148.5000    14.1917     2.2257
 2149.0000    14.5311     2.2263
 2149.5000    14.7032     2.2270
 2150.0000    14.2022     2.2277
 2150.5000    13.3651     2.2275
 2151.0000    12.1919     1.3158
 2151.5000    12.0357     1.2826
 2152.0000    11.5396     1.2820
 2152.5000    11.5462     2.7122
 2153.0000    12.5627     2.7441
 2153.5000    14.7540     2.7434
 2154.0000    16.7773     2.7102
 2154.5000    17.4545     2.7096
 2155.0000    16.4542     2.7089
 2155.5000    15.7884     2.6758
 2156.0000    14.9458     2.6426
 2156.5000    14.1223     2.6420
 2157.0000    13.1204     2.6413
 2157.5000    12.2866     2.6082
 2158.0000    12.1234     2.7051
 2158.5000    11.7953     3.4198
 2159.0000    11.6338     3.4517
 2159.5000    11.4722     3.4510
 2160.0000    11.6484     3.4178
 2160.5000    12.1590     2.5717
