~VERSION INFORMATION
 VERS.                2.0:   CWLS LOG ASCII STANDARD - VERSION 2.0
 WRAP.                 NO:   ONE LINE PER DEPTH STEP
~WELL INFORMATION
#MNEM.UNIT      DATA TYPE    INFORMATION
#----------   ------------   ------------------------------
 STRT.F            8.0000:   START DEPTH
 STOP.F          420.0000:   STOP DEPTH
 STEP.F            0.5000:   STEP LENGTH
 NULL.          -999.2500:   NO VALUE
 COMP.    FENIX & SCISSON:   COMPANY
 WELL.    NPR 3 SX #61-10:   WELL
 FLD .             TEAPOT:   FIELD
 LOC .      S10 T38N R78W:   LOCATION
 CNTY.            NATRONA:   COUNTY
 STAT.            WYOMING:   STATE
 CTRY. UNITED STATES OF AMERICA:   COUNTRY
 SRVC.            Unknown:   SERVICE COMPANY
 DATE.        20-NOV-1978:   LOGDATE
 API .       490251074900:   API NUMBER
~CURVE INFORMATION
#MNEM.UNIT       API CODE    CURVE DESCRIPTION
#----------   ------------   ------------------------------
 DEPT.F                  :   
 ILD .OHMM   01 120 46 00:   LOG INDUCTION
 SN  .OHMM   01 040 00 00:   SHORT NORMAL
 SPR .MV     01 010 01 00:   SPONTANEOUS POTENSIAL
 CALD.IN     45 280 60 00:   CALIPER
 GRD .GAPI   45 310 01 00:   GAMMA RAY FROM DENSITY LOG
 DPHI.DEC    45 890 12 00:   DENSITY POROSITY SANDSTONE
 RHOB.G/C3   45 350 01 00:   BULK DENSITY
 CORR.G/C3   45 356 01 00:   DENSITY CORRECTION
~PARAMETER INFORMATION
#MNEM.UNIT          VALUE    DESCRIPTION
#----------   ------------   ------------------------------
 PD  .                 GL:   PERMANENT DATUM
 EPD .F              5145:   ELEVATION PERMANENT DATUM
 LMF .                 KB:   LOG MEASURED FROM
 DAPD.F                 4:   FEET ABOVE PERMANENT DATUM
 DMF .                 KB:   DRILLING MEASURED FROM
 EKB .F              5149:   KELLING BUSHING
 EGL .F              5145:   GROUND LEVEL
 DATE.        20-NOV-1978:   RUN DATE
 RUN .                  1:   RUN NUMBER
 DD  .F               435:   DEPTH DRILLER
 DL  .F               426:   DEPTH LOGGER
 BLI .F               420:   BOTTOM LOG INTERVAL
 TLI .F                48:   TOP LOG INTERVAL
 CS  .IN            8.625:   CASING SIZE
 CBD .F                40:   CASING BOTTOM DRILLER
 CBL .F                42:   CASING BOTTOM LOGGER
 BS  .IN            7.875:   BIT SIZE
 BSD .F               435:   BIT SIZE AT DEPTH
 DFT .                KCL:   DRILLING FLUID TYPE
 DFD .                8.6:   DRILLING FLUID DENSITY
 DFV .                 38:   DRILLING FLUID VISCOSITY
 DFPH.                9.8:   DRILLING FLUID PH
 DFL .                 10:   DRILLING FLUID LOSS
 MSS .           FLOWLINE:   MUD SAMPLE SOURCE
 RMS .OHMM            .39:   RESISTIVITY MUD SAMPLE
 MST .F                54:   MUD SAMPLE TEMPERATURE
 RMF .OHMM            .26:   RESISTIVITY MUD FILTRATE SAMPLE
 MFST.F                72:   MUD FILTRATE SAMPLE TEMPERATURE
 RMC .OHMM            .34:   RESISTIVITY MUD CAKE
 MCST.F                74:   MUD CAKE SAMPLE TEMPERATURE
 MFSS.           MEASURED:   MUD FILTRATE SAMPLE SOURCE
 RMB .OHMM            .33:   RESISTIVITY MUD AT BHT
 BHT .F                63:   BOTTOM HOLE TEMPERATURE
 TCS .HRS               1:   TIME CURCULATED STOPPED
 MRT .F                63:   MAXIMUM RECORDED TEMPERATURE
 LUN .               2958:   LOGGING UNIT NUMBER
 LUL .               CASP:   LOGGING UNIT LOCATION
 ENGI.             MILLER:   RECORDING ENGINEER
 WITN.              AMEND:   WITNESSED BY
 CLNT.            A2DTECH:   CLIENT CODE
 ORIG.        2" 5" PRINT:   ORIGIN OF DATA
 UWI .       490251074900:   UNIQUE WELL ID
 DICO. A2D Technologies, Inc.:   DIGITIZING COMPANY
~OTHER INFORMATION
~A    DEPT     ILD         SN        SPR       CALD         GRD      DPHI       RHOB       CORR   
# ...
  372.5000    17.6448    15.7278   -13.0720     7.5922    79.1604     0.1516     2.4216     0.0370
  373.0000    17.6591    15.5283   -13.3531     7.5916    79.0192     0.1512     2.4276     0.0326
  373.5000    17.3097    15.4346   -13.6386     7.5910    78.4367     0.1546     2.4285     0.0251
  374.0000    17.0853    15.4481   -13.0199     7.5904    77.5540     0.1596     2.4255     0.0208
  374.5000    16.7439    15.3549   -12.5547     7.5898    76.8199     0.1586     2.4225     0.0210
  375.0000    16.4159    15.2622   -12.9851     7.5892    76.8304     0.1586     2.4197     0.0196
  375.5000    16.2029    15.2789   -13.2836     7.5887    77.4499     0.1598     2.4198     0.0213
  376.0000    15.9873    15.1834   -13.8415     7.5881    77.7461     0.1609     2.4213     0.0244
  376.5000    15.7856    15.0950   -14.1269     7.5875    77.7563     0.1513     2.4229     0.0291
  377.0000    15.5809    15.0006   -14.2588     7.5869    77.7665     0.1407     2.4290     0.0337
  377.5000    15.3820    14.9130   -14.3863     7.5863    77.7766     0.1395     2.4441     0.0369
  378.0000    15.3945    14.9265   -14.5225     7.5857    77.3404     0.1362     2.4517     0.0385
  378.5000    15.2974    14.8363   -14.6507     7.5852    82.4093     0.1322     2.4547     0.0387
  379.0000    15.3129    14.6481   -14.7819     7.5846    83.0268     0.1307     2.4571     0.0373
  379.5000    15.2189    14.5597   -14.7642     7.5840    82.4043     0.1291     2.4616     0.0374
  380.0000    15.2318    14.4702   -15.0413     7.5834    81.8446     0.1270     2.4655     0.0376
  380.5000    15.3503    14.3813   -15.1775     7.5828    84.2382     0.1318     2.4655     0.0392
  381.0000    15.3631    14.3971   -15.1558     7.5822    78.8913     0.1393     2.4591     0.0363
  381.5000    15.2688    14.4097   -15.1384     7.5817    78.3062     0.1416     2.4507     0.0380
  382.0000    15.2843    14.4224   -15.1210     7.5811    78.1650     0.1401     2.4500     0.0411
  382.5000    15.1880    14.4350   -15.2572     7.5805    78.4728     0.1401     2.4501     0.0413
  383.0000    14.9941    14.3338   -15.3851     7.5799    77.8899     0.1406     2.4509     0.0444
  383.5000    14.9026    14.2613   -15.3672     7.5793    77.9005     0.1367     2.4532     0.0445
  384.0000    14.9146    14.1752   -15.3493     7.5788    78.3591     0.1286     2.4593     0.0522
  384.5000    14.8236    14.1907   -15.3282     7.5782    79.1592     0.1201     2.4744     0.0629
  385.0000    14.7332    14.1020   -15.3108     7.5776    81.6538     0.1119     2.4902     0.0661
  385.5000    14.5281    14.1174   -15.4470     7.5770    84.1938     0.1125     2.4948     0.0677
  386.0000    14.3536    14.0317   -15.7238     7.5764    86.1385     0.1130     2.4934     0.0588
  386.5000    14.2689    14.0445   -15.8600     7.5758    89.1248     0.1245     2.4863     0.0499
  387.0000    14.1789    13.9597   -15.6890     7.5753    91.0695     0.1323     2.4690     0.0410
  387.5000    14.0924    13.9720   -15.8209     7.5747    91.6750     0.1277     2.4629     0.0396
  388.0000    14.1067    13.8876   -15.9528     7.5741    91.2387     0.1232     2.4652     0.0413
  388.5000    14.0177    13.8068   -15.9310     7.5735    89.9096     0.1217     2.4728     0.0383
  389.0000    13.9348    13.8189   -15.9136     7.5729    89.9198     0.1264     2.4803     0.0370
  389.5000    13.8500    13.8311   -16.0498     7.5732    89.9301     0.1270     2.4707     0.0356
  390.0000    13.8616    13.8432   -16.1817     7.5744    90.5754     0.1264     2.4692     0.0373
  390.5000    13.8752    13.7592   -16.3136     7.5756    90.9945     0.1263     2.4700     0.0434
  391.0000    13.8865    13.6765   -16.4418     7.5770    89.6654     0.1269     2.4701     0.0437
  391.5000    13.8977    13.5874   -16.5731     7.5782    87.1458     0.1281     2.4672     0.0452
  392.0000    13.9090    13.4187   -17.0149     7.5793    87.4536     0.1295     2.4643     0.0438
  392.5000    13.9202    13.4334   -17.1352     7.5805    88.9519     0.1291     2.4628     0.0409
  393.0000    13.8353    13.4451   -17.1135     7.5817    90.1526     0.1252     2.4654     0.0396
  393.5000    13.8465    13.4569   -16.9468     7.5828    90.0139     0.1252     2.4705     0.0412
  394.0000    13.7620    13.4687   -16.6309     7.5840    89.7262     0.1261     2.4721     0.0414
  394.5000    13.7731    13.3845   -16.4643     7.5853    90.6295     0.1224     2.4714     0.0430
  395.0000    13.5034    13.3992   -16.2976     7.5863    91.3839     0.1200     2.4737     0.0462
  395.5000    13.4183    13.4109   -16.1310     7.5875    91.4182     0.1197     2.4806     0.0508
  396.0000    13.2443    13.4227   -16.1075     7.5887    91.5555     0.1184     2.4979     0.0555
  396.5000    13.1650    13.3416   -15.9463     7.5899    89.3335     0.1235     2.4845     0.0465
  397.0000    13.0831    13.2611   -16.2237     7.5913    88.1532     0.1289     2.4643     0.0422
  397.5000    13.0059    13.0900   -16.5049     7.5925    88.4610     0.1319     2.4628     0.0393
  398.0000    13.0165    13.1044   -17.0845     7.5936    88.9176     0.1318     2.4622     0.0394
  398.5000    12.9370    13.0224   -17.5149     7.5948    88.3326     0.1312     2.4630     0.0396
  399.0000    12.8581    12.9438   -17.7960     7.5808    87.4499     0.1318     2.4638     0.0397
  399.5000    12.7796    12.8682   -18.2263     7.5671    86.5672     0.1284     2.4646     0.0398
  400.0000    12.7016    12.7908   -18.6567     7.5388    87.3214     0.1233     2.4640     0.0415
  400.5000    12.6241    12.5386   -18.9378     7.5400    89.8755     0.1184     2.4806     0.0446
  401.0000    12.4630    12.3769   -19.0697     7.5262    90.3205     0.1211     2.4836     0.0493
  401.5000    12.3844    12.1355   -19.2016     7.5423    92.4140     0.1211     2.4814     0.0524
  402.0000    12.2238    11.9789   -19.1798     7.5435    93.7635     0.1195     2.4815     0.0495
  402.5000    11.9844    11.8218   -19.1810     7.5446    94.5177     0.1159     2.4839     0.0467
  403.0000    11.7473    11.5913   -19.1823     7.5607    94.8255     0.1102     2.4899     0.0559
  403.5000    11.5070    11.3627   -19.1836     7.5770    94.8357     0.1101     2.4983     0.0681
  404.0000    11.1340    11.1384   -19.1849     7.5633    94.1018     0.1122     2.4991     0.0728
  404.5000    10.7635    10.8422   -19.1862     7.5493    93.8140     0.1182     2.4900     0.0729
  405.0000     9.7762    10.6203   -19.1875     7.5508    95.9088     0.1287     2.4831     0.0715
  405.5000     8.6366    10.2790   -19.1888     7.5519    98.8951     0.1385     2.4693     0.0731
  406.0000     7.1686     9.8009   -19.1856     7.5680   106.4946     0.1517     2.4461     0.0748
  406.5000     6.6019     9.3449   -19.1682     7.5691   112.1595     0.1622     2.4244     0.0764
  407.0000     6.4711     8.5473   -19.1508     7.5703   116.9316     0.1640     2.4050     0.0826
  407.5000     6.4317     7.8178   -19.1335     7.5715   120.2356     0.1330     2.4118     0.0963
  408.0000     6.4371     7.4026   -18.9668     7.5577   120.5234     0.1156     2.4914     0.0542
  408.5000     6.4883     7.3071   -19.0987     7.5589   111.9052     0.1191     2.4870     0.0509
  409.0000     6.6300     7.4198   -19.0806     7.5601   103.1356     0.1197     2.4826     0.0455
  409.5000     7.1115     7.9980   -19.3624     7.5615    95.5565     0.1203     2.4804     0.0425
  410.0000     7.8969     9.4045   -19.6435     7.5627    94.0760     0.1208     2.4782     0.0412
  410.5000     9.0783    10.5165   -20.0696     7.5788    94.5352     0.1256     2.4744     0.0428
  411.0000    10.2928    11.2031   -20.0522     7.5799    94.2477     0.1292     2.4701     0.0475
  411.5000    10.9641    11.5282   -20.0348     7.5659    93.2162     0.1273     2.4672     0.0506
  412.0000    10.9730    11.7807   -20.1672     7.5674    95.0121     0.1261     2.4703     0.0553
  412.5000    10.9884    11.9556   -20.5970     7.5537    96.6592     0.1273     2.4718     0.0539
