~VERSION INFORMATION
 VERS.                2.0:   CWLS LOG ASCII STANDARD - VERSION 2.0
 WRAP.                 NO:   ONE LINE PER DEPTH STEP
~WELL INFORMATION
#MNEM.UNIT      DATA TYPE    INFORMATION
#----------   ------------   ------------------------------
 STRT.F            3.0000:   START DEPTH
 STOP.F          600.0000:   STOP DEPTH
 STEP.F            0.5000:   STEP LENGTH
 NULL.          -999.2500:   NO VALUE
 COMP. FENIX & SCISSON INC:   COMPANY
 WELL.     NPR-3 #83SX4-4:   WELL
 FLD .             TEAPOT:   FIELD
 LOC .       S4 T38N R78W:   LOCATION
 CNTY.            NATRONA:   COUNTY
 STAT.            WYOMING:   STATE
 CTRY. UNITED STATES OF AMERICA:   COUNTRY
 SRVC.           BIRDWELL:   SERVICE COMPANY
 DATE.        02-AUG-1978:   LOGDATE
 API .       490251067700:   API NUMBER
~CURVE INFORMATION
#MNEM.UNIT       API CODE    CURVE DESCRIPTION
#----------   ------------   ------------------------------
 DEPT.F                  :   
 GRD .GAPI   45 310 01 00:   GAMMA RAY FROM DENSITY LOG
 CORR.G/C3   45 356 01 00:   DENSITY CORRECTION
 RHOB.G/C3   45 350 01 00:   BULK DENSITY
 DPHI.DEC    45 890 12 00:   DENSITY POROSITY SANDSTONE
 SPR .MV     05 010 01 00:   SPONTANEOUS POTENTIAL
 ILD .OHMM   05 120 46 00:   INDUCTION LOG DEEP
 SN  .OHMM   05 040 00 00:   SHORT NORMAL
~PARAMETER INFORMATION
#MNEM.UNIT          VALUE    DESCRIPTION
#----------   ------------   ------------------------------
 PD  .                 GL:   PERMANENT DATUM
 EPD .F              5204:   ELEVATION PERMANENT DATUM
 LMF .                 KB:   LOG MEASURED FROM
 DAPD.F                 4:   FEET ABOVE PERMANENT DATUM
 DMF .                 KB:   DRILLING MEASURED FROM
 EKB .F              5204:   KELLING BUSHING
 EGL .F              5200:   GROUND LEVEL
 DATE.        02-AUG-1978:   RUN DATE
 RUN .                  1:   RUN NUMBER
 DD  .F               590:   DEPTH DRILLER
 DL  .F               606:   DEPTH LOGGER
 BLI .F               590:   BOTTOM LOG INTERVAL
 TLI .F                30:   TOP LOG INTERVAL
 CS  .IN            8.625:   CASING SIZE
 CBD .F                40:   CASING BOTTOM DRILLER
 BS  .IN            7.875:   BIT SIZE
 BSD .F               590:   BIT SIZE AT DEPTH
 DFT .                KCL:   DRILLING FLUID TYPE
 DFD .                8.7:   DRILLING FLUID DENSITY
 DFV .                 32:   DRILLING FLUID VISCOSITY
 DFPH.                  9:   DRILLING FLUID PH
 DFL .                 12:   DRILLING FLUID LOSS
 MSS .           FLOWLINE:   MUD SAMPLE SOURCE
 RMS .OHMM             .4:   RESISTIVITY MUD SAMPLE
 MST .F                61:   MUD SAMPLE TEMPERATURE
 RMF .OHMM             .5:   RESISTIVITY MUD FILTRATE SAMPLE
 MFST.F                50:   MUD FILTRATE SAMPLE TEMPERATURE
 RMC .OHMM            .65:   RESISTIVITY MUD CAKE
 MCST.F                66:   MUD CAKE SAMPLE TEMPERATURE
 MFSS.               MEAS:   MUD FILTRATE SAMPLE SOURCE
 BHT .F                78:   BOTTOM HOLE TEMPERATURE
 TCS .HRS            0300:   TIME CURCULATED STOPPED
 MRT .F                78:   MAXIMUM RECORDED TEMPERATURE
 LUN .               3006:   LOGGING UNIT NUMBER
 LUL .               CASP:   LOGGING UNIT LOCATION
 ENGI.             MILLER:   RECORDING ENGINEER
 WITN.              AMEND:   WITNESSED BY
 CLNT.            A2DTECH:   CLIENT CODE
 ORIG.           5" PRINT:   ORIGIN OF DATA
 UWI .       490251067700:   UNIQUE WELL ID
 DICO. A2D Technologies, Inc.:   DIGITIZING COMPANY
~OTHER INFORMATION
~A    DEPT     GRD       CORR       RHOB       DPHI        SPR        ILD         SN   
# ...
  230.5000    67.4023     0.0433     2.4983     0.1115   -13.7146     8.8944     9.9984
  231.0000    69.7481     0.0433     2.4968     0.1132   -13.6999     8.9004    10.0031
  231.5000    72.6346     0.0448     2.4953     0.1145   -13.6851     8.8441    10.0079
  232.0000    72.4789     0.0447     2.4990     0.1085   -13.6704     8.9101    10.0126
  232.5000    64.9769     0.0447     2.5028     0.1064   -13.5064     8.9150    10.0174
  233.0000    57.6247     0.0432     2.5058     0.1070   -13.4916     8.9198    10.0221
  233.5000    57.7703     0.0416     2.5065     0.1097   -13.4768     8.9247    10.0269
  234.0000    63.4602     0.0386     2.5035     0.1064   -13.4621     8.9295    10.0316
  234.5000    63.4253     0.0401     2.5020     0.1073   -13.4473     8.9344    10.0364
  235.0000    58.7995     0.0415     2.5004     0.1106   -13.4326     9.0011    10.0412
  235.5000    57.1445     0.0445     2.5004     0.1100   -13.4178     9.1309    10.1153
  236.0000    58.4880     0.0446     2.5057     0.1061   -13.4030     9.3266    10.2604
  236.5000    62.8301     0.0459     2.5124     0.1049   -13.3881     9.6587    10.4110
  237.0000    64.7747     0.0444     2.5154     0.1037   -13.3731     9.9363    10.6299
  237.5000    62.9684     0.0444     2.5206     0.1010   -13.2090    10.2290    10.8695
  238.0000    61.7551     0.0459     2.5213     0.1008   -13.3441    10.6641    11.0899
  238.5000    60.5565     0.0488     2.5213     0.1004   -13.4786    11.0477    11.2489
  239.0000    60.2509     0.0503     2.5236     0.0978   -13.6094    11.4278    11.4891
  239.5000    60.6949     0.0562     2.5280     0.0912   -14.1916    11.6728    11.6539
  240.0000    62.6381     0.0622     2.5347     0.0858   -14.7739    11.9230    11.9849
  240.5000    64.8812     0.0607     2.5542     0.0783   -15.0577    12.0120    12.2408
  241.0000    65.9249     0.0561     2.5736     0.0705   -15.1958    12.1016    12.3312
  241.5000    66.0690     0.0486     2.5661     0.0810   -15.1774    12.1919    12.3371
  242.0000    64.6477     0.0411     2.5392     0.0873   -15.1627    12.2829    12.3429
  242.5000    62.9075     0.0351     2.5174     0.1076   -15.1479    12.2896    12.3488
  243.0000    62.1521     0.0336     2.5022     0.1104   -15.1331    12.2963    12.2697
  243.5000    62.4476     0.0336     2.4972     0.1110   -15.2713    12.3029    12.2757
  244.0000    60.4913     0.0335     2.4964     0.1122   -15.2529    12.3096    12.1973
  244.5000    60.0357     0.0350     2.4957     0.1140   -15.2381    12.3163    12.2031
  245.0000    60.7796     0.0365     2.4964     0.1146   -15.2234    12.3231    12.2090
  245.5000    61.0736     0.0364     2.4964     0.1125   -15.2086    12.2451    12.1309
  246.0000    55.6691     0.0364     2.4986     0.1104   -15.1939    12.1677    12.0534
  246.5000    46.8177     0.0319     2.4994     0.1092   -15.1791    12.0907    11.9764
  247.0000    41.4146     0.0304     2.4941     0.1128   -15.1642    12.0143    11.8999
  247.5000    39.9095     0.0318     2.4873     0.1179   -15.1493    11.9316    11.7428
  248.0000    40.5034     0.0318     2.4843     0.1224   -15.2841    11.7813    11.6677
  248.5000    47.8440     0.0348     2.4851     0.1203   -15.4186    11.7068    11.5150
  249.0000    49.0465     0.0377     2.4881     0.1180   -15.5531    11.6328    11.3630
  249.5000    50.6795     0.0392     2.4918     0.1168   -15.6876    11.4798    11.2904
  250.0000    61.3193     0.0392     2.4955     0.1165   -15.6719    11.4072    11.2169
  250.5000    64.6120     0.0383     2.4925     0.1159   -15.6598    11.4128    11.2265
  251.0000    62.0561     0.0375     2.4932     0.1156   -15.4969    11.2612    11.1568
  251.5000    60.5511     0.0405     2.4955     0.1144   -15.4852    11.1116    11.0135
  252.0000    60.9951     0.0419     2.4977     0.1126   -15.6227    11.1161    10.9464
  252.5000    62.7885     0.0448     2.5007     0.1108   -15.6109    11.0443    10.9546
  253.0000    64.7466     0.0463     2.5014     0.1087   -15.7513    11.0489    10.9629
  253.5000    65.1758     0.0462     2.4984     0.1099   -15.8888    10.9774    10.9712
  254.0000    61.8703     0.0447     2.4991     0.1135   -16.0239    10.9830    10.9811
  254.5000    56.4673     0.0431     2.4991     0.1111   -16.0117    10.9109    10.9119
  255.0000    53.6130     0.0430     2.4969     0.1099   -16.1493    10.9165    10.9975
  255.5000    53.1574     0.0430     2.4946     0.1132   -16.2867    10.7715    10.8532
  256.0000    54.9494     0.0429     2.4977     0.1123   -16.2746    10.6284    10.7128
  256.5000    58.8417     0.0429     2.4991     0.1088   -16.4124    10.5587    10.6492
  257.0000    61.0863     0.0428     2.5013     0.1142   -16.3977    10.4904    10.5094
  257.5000    60.6293     0.0427     2.4953     0.1139   -16.3860    10.4958    10.3754
  258.0000    61.2233     0.0427     2.4923     0.1160   -16.3742    10.5000    10.3100
  258.5000    64.1359     0.0441     2.4838     0.1203   -16.5146    10.4311    10.1087
  259.0000    70.2059     0.0456     2.4758     0.1241   -16.3507    10.2935     9.9094
  259.5000    71.8508     0.0455     2.4885     0.1235   -16.3389    10.0179     9.8488
  260.0000    67.6457     0.0454     2.4840     0.1196   -16.3272     9.7496     9.7213
  260.5000    61.6430     0.0424     2.4929     0.1160   -16.3154     9.4885     9.5913
  261.0000    58.9386     0.0408     2.5019     0.1106   -16.3037     9.4272     9.4630
  261.5000    59.2327     0.0408     2.4914     0.1151   -16.4441     9.4972     9.4135
  262.0000    58.7758     0.0407     2.4719     0.1289   -16.4294     9.5010     9.4222
  262.5000    56.2213     0.0406     2.4659     0.1337   -16.4177     9.5049     9.4944
  263.0000    55.6159     0.0406     2.4644     0.1304   -16.4059     9.5088     9.5671
  263.5000    56.2099     0.0390     2.4689     0.1280   -16.3940     9.4473     9.5742
  264.0000    56.2039     0.0360     2.4711     0.1289   -16.3821     9.4512     9.5813
  264.5000    55.4473     0.0344     2.4644     0.1319   -16.3701     9.4550     9.5209
  265.0000    54.9918     0.0344     2.4599     0.1361   -16.3560     9.4589     9.4627
  265.5000    55.7357     0.0343     2.4629     0.1328   -16.4964     9.4627     9.4715
  266.0000    60.8274     0.0357     2.4696     0.1292   -16.4817     9.5320     9.4785
  266.5000    62.0211     0.0372     2.4688     0.1292   -16.6192     9.4703     9.4856
  267.0000    60.6646     0.0401     2.4711     0.1283   -16.6074     9.4743     9.4927
  267.5000    59.3095     0.0445     2.4748     0.1275   -16.5957     9.4781     9.4346
  268.0000    58.8540     0.0475     2.4718     0.1260   -16.5839     9.4820     9.4417
  268.5000    58.8483     0.0459     2.4747     0.1221   -16.5722     9.4860     9.3755
  269.0000    59.1424     0.0427     2.4897     0.1146   -16.5604     9.4245     9.3264
  269.5000    60.0810     0.0383     2.4919     0.1137   -16.5487     9.2994     9.2693
  270.0000    61.5283     0.0338     2.4777     0.1242   -16.6866     9.1128     9.2779
  270.5000    62.7219     0.0337     2.4739     0.1260   -16.6744     8.8697     9.2194
  271.0000    64.0655     0.0366     2.4717     0.1296   -16.6627     8.6321     9.0394
  271.5000    64.5097     0.0396     2.4724     0.1305   -16.6507     8.4009     9.0462
  272.0000    63.7240     0.0425     2.4746     0.1290   -16.6388     8.2893     8.9274
  272.5000    59.8490     0.0424     2.4769     0.1260   -16.6269     8.2349     8.8119
  273.0000    54.5959     0.0439     2.4761     0.1117   -16.7649     8.2391     8.6383
  273.5000    50.0924     0.0408     2.4761     0.1260   -16.7502     8.2425     8.5854
  274.0000    49.1871     0.0393     2.4761     0.1245   -16.7385     8.3602     8.6528
  274.5000    49.4812     0.0392     2.4746     0.1254   -16.8789     8.3636     8.7190
  275.0000    52.4726     0.0406     2.4701     0.1308   -16.8642     8.4249     8.7858
  275.5000    57.1145     0.0451     2.4865     0.1228   -16.8524     8.5492     8.7924
