~VERSION INFORMATION
 VERS.                2.0:   CWLS LOG ASCII STANDARD - VERSION 2.0
 WRAP.                 NO:   ONE LINE PER DEPTH STEP
~WELL INFORMATION
#MNEM.UNIT      DATA TYPE    INFORMATION
#----------   ------------   ------------------------------
 STRT.F            1.0000:   START DEPTH
 STOP.F          520.0000:   STOP DEPTH
 STEP.F            0.5000:   STEP LENGTH
 NULL.          -999.2500:   NO VALUE
 COMP. LAWRENCE/ALLISON INC:   COMPANY
 WELL.      77-13 SX #3-3:   WELL
 FLD .              NPR 3:   FIELD
 LOC .       S3 T38N R78W:   LOCATION
 CNTY.            NATRONA:   COUNTY
 STAT.            WYOMING:   STATE
 CTRY. UNITED STATES OF AMERICA:   COUNTRY
 SRVC.           Gearhart:   SERVICE COMPANY
 DATE.        22-JUN-1988:   LOGDATE
 API .       490251123700:   API NUMBER
~CURVE INFORMATION
#MNEM.UNIT       API CODE    CURVE DESCRIPTION
#----------   ------------   ------------------------------
 DEPT.F                  :   
 GRR .GAPI   07 310 01 00:   GAMMA RAY
 RILD.OHMM   07 120 46 00:   INDUCTION LOG DEEP RESISTIVITY
 RILM.OHMM   07 120 44 00:   INDUCTION LOG MEDIUM RESISTIVITY
~PARAMETER INFORMATION
#MNEM.UNIT          VALUE    DESCRIPTION
#----------   ------------   ------------------------------
 PD  .                 GL:   PERMANENT DATUM
 EPD .F              5166:   ELEVATION PERMANENT DATUM
 LMF .                 KB:   LOG MEASURED FROM
 DAPD.F                10:   FEET ABOVE PERMANENT DATUM
 DMF .                 KB:   DRILLING MEASURED FROM
 EKB .F              5176:   KELLING BUSHING
 EGL .F              5166:   GROUND LEVEL
 DATE.        22-JUN-1988:   RUN DATE
 RUN .                  1:   RUN NUMBER
 DD  .F               530:   DEPTH DRILLER
 DL  .F               528:   DEPTH LOGGER
 BLI .F               520:   BOTTOM LOG INTERVAL
 TLI .F                50:   TOP LOG INTERVAL
 CS  .IN            9.625:   CASING SIZE
 CBD .F                50:   CASING BOTTOM DRILLER
 CBL .F                50:   CASING BOTTOM LOGGER
 BS  .IN             8.75:   BIT SIZE
 BSD .F               530:   BIT SIZE AT DEPTH
 DFT .                AIR:   DRILLING FLUID TYPE
 TLAB.HRS            0908:   TIME LOGGER AT BOTTOM
 MRT .F                70:   MAXIMUM RECORDED TEMPERATURE
 LUN .               7597:   LOGGING UNIT NUMBER
 LUL .           GILLETTE:   LOGGING UNIT LOCATION
 ENGI.           JOHNSTON:   RECORDING ENGINEER
 WITN.             STRONG:   WITNESSED BY
 CLNT.            A2DTECH:   CLIENT CODE
 ORIG.           5" PRINT:   ORIGIN OF DATA
 UWI .       490251123700:   UNIQUE WELL ID
 DICO. A2D Technologies, Inc.:   DIGITIZING COMPANY
~OTHER INFORMATION
~A    DEPT       GRR     RILD       RILM   
# ...
  365.0000   110.2595    16.3566    15.7125
  365.5000   114.2289    15.8871    15.3863
  366.0000   116.3719    15.5538    15.2791
  366.5000   116.3839    15.2499    14.8576
  367.0000   116.7004    15.1428    14.6512
  367.5000   116.7125    15.1417    14.3471
  368.0000   115.8113    15.0353    14.1478
  368.5000   112.4606    15.1399    13.9513
  369.0000   111.8781    15.4590    13.8540
  369.5000   113.8053    15.7852    13.8540
  370.0000   115.8600    16.2312    14.0492
  370.5000   114.6027    16.9245    14.2471
  371.0000   112.2337    18.0210    14.7541
  371.5000   110.4193    19.4584    15.7125
  372.0000   108.9093    21.6056    18.8458
  372.5000   106.7905    24.4976    21.9802
  373.0000   102.2364    29.7856    25.9971
  373.5000    94.3336    34.4874    30.5338
  374.0000    90.6927    37.4992    36.8795
  374.5000    89.1827    39.9287    42.1204
  375.0000    88.8874    42.5156    48.1060
  375.5000    88.9025    45.2701    59.7970
  376.0000    88.6071    46.5500    63.6338
  376.5000    86.7957    46.2220    63.1903
  377.0000    83.1548    45.2607    62.2664
  377.5000    81.9462    43.4006    58.8132
  378.0000    85.3098    41.9085    54.6994
  378.5000    89.8881    40.7513    50.3237
  379.0000    92.6399    39.9038    45.1715
  379.5000    93.8696    38.5319    42.4160
  380.0000    94.1861    38.5293    41.5354
  380.5000    94.1982    37.2047    40.9585
  381.0000    93.2970    35.9256    40.6730
  381.5000    92.3958    34.9274    40.1081
  382.0000    90.8858    33.9595    39.5510
  382.5000    92.7702    33.2470    38.4600
  383.0000    95.1983    32.3440    37.6615
  383.5000    96.1349    31.6449    36.6225
  384.0000    96.0609    31.0125    35.3641
  384.5000    93.0800    30.5803    34.1489
  385.0000    89.4391    30.5781    32.5174
  385.5000    90.0600    30.3633    31.6204
  386.0000    94.6383    30.5739    30.7481
  386.5000    97.0857    30.5718    30.5338
  387.0000    97.3992    30.5697    30.3210
  387.5000    95.5878    30.5675    30.3210
  388.0000    94.9880    30.5654    30.3210
  388.5000    97.1340    30.5633    30.1097
  389.0000    97.4504    30.5612    29.8999
  389.5000    97.1551    30.5590    29.8777
  390.0000    98.3878    30.5568    29.6915
  390.5000   100.5308    30.3421    29.4846
  391.0000   101.7605    29.6724    29.4846
  391.5000   100.2505    28.6892    29.4846
  392.0000    97.8272    28.0925    29.4846
  392.5000    97.5319    27.7010    29.4846
  393.0000    99.9823    27.5063    29.2791
  393.5000   101.2120    27.5044    28.8724
  394.0000   101.2241    27.3111    28.6712
  394.5000   100.9315    27.3092    28.4714
  395.0000   101.2482    27.1173    28.2730
  395.5000   102.1745    26.5533    27.6860
  396.0000   102.7945    26.1833    27.1112
  396.5000   102.8067    25.6387    26.1796
  397.0000   102.8188    25.1054    25.1038
  397.5000   102.7854    24.4122    24.5826
  398.0000   102.5383    23.9045    23.9044
  398.5000   102.2459    23.4073    23.5724
  399.0000   102.2610    23.0811    23.0830
  399.5000   102.2731    22.6010    22.7624
  400.0000   101.9678    22.2361    22.3829
  400.5000   101.8474    21.9321    22.4299
  401.0000   101.7271    21.6281    22.4769
  401.5000   101.6068    21.2138    22.3897
  402.0000   101.4864    21.0633    22.0366
  402.5000   102.0396    20.7683    21.5750
  403.0000   109.4142    20.6209    21.1230
  403.5000   113.7318    20.4746    20.8256
  404.0000   114.8610    20.1879    20.3893
  404.5000   112.7451    20.0447    19.9622
  405.0000   108.4952    19.7640    19.5440
  405.5000   103.9410    19.4872    19.1346
  406.0000    99.6912    19.3363    18.8528
  406.5000    99.0914    19.0571    18.4497
  407.0000    99.7152    18.6793    18.2089
  407.5000   100.3360    18.2895    17.9525
  408.0000   100.9568    18.0334    17.6997
  408.5000   101.5776    17.6571    17.4504
  409.0000   102.5029    17.2887    17.2047
  409.5000   102.8193    16.6932    16.9624
  410.0000   102.8513    16.4594    16.7235
  410.5000   102.2344    16.2289    16.4880
  411.0000   101.6376    16.1138    16.1426
  411.5000   102.6007    15.9994    16.0269
  412.0000   105.0676    15.8859    15.8009
  412.5000   106.8516    15.5545    15.6879
  413.0000   103.5150    15.1239    15.5755
  413.5000   102.6107    15.1219    15.4591
  414.0000   104.1478    15.1197    15.2459
  414.5000   105.6819    15.1176    15.2247
  415.0000   107.2159    15.1151    15.0275
  415.5000   108.1411    15.1130    15.0244
  416.0000   108.1531    15.1110    15.0213
  416.5000   108.1651    15.1089    14.9136
  417.0000   108.4815    15.1068    14.8067
  417.5000   109.1023    15.1047    14.8036
  418.0000   110.3320    14.9976    14.6975
  418.5000   112.1763    14.9955    14.6944
  419.0000   114.6625    14.8891    14.5891
  419.5000   116.1522    14.8871    14.5861
  420.0000   116.1668    14.8850    14.4815
  420.5000   116.1788    14.8830    14.3777
  421.0000   116.4952    14.7774    14.3748
  421.5000   117.1160    14.5646    14.2717
  422.0000   117.7368    14.2663    14.1693
  422.5000   118.9664    14.1470    14.0677
  423.0000   120.1961    13.9663    13.9663
  423.5000   121.4257    13.8672    13.9634
  424.0000   121.1333    13.8653    13.8633
  424.5000   120.2320    13.6712    13.7639
  425.0000   118.7220    13.5742    13.7611
  425.5000   118.1248    13.5723    13.6624
  426.0000   118.7459    13.5704    13.6596
  426.5000   119.9828    13.6636    13.6568
  427.0000   121.5363    13.6618    13.6539
  427.5000   122.7393    13.7556    13.6511
  428.0000   120.0145    13.8501    13.6483
  428.5000   117.8956    13.8482    13.6455
  429.0000   117.2958    14.0410    13.6427
  429.5000   119.1373    14.1444    13.6399
  430.0000   120.3669    14.2346    13.6243
  430.5000   120.3789    13.5532    13.5386
  431.0000   120.0865    13.4570    13.5358
  431.5000   119.4866    13.5499    13.4388
  432.0000   118.8928    13.6430    13.3424
  432.5000   118.9048    13.6407    13.3397
  433.0000   121.0476    13.6388    13.2440
  433.5000   124.1038    13.5420    13.1491
  434.0000   123.8113    13.3524    12.9639
  434.5000   121.6592    12.9828    12.7814
  435.0000   117.9909    12.7119    12.6014
  435.5000   116.8458    12.5339    12.4239
  436.0000   121.4270    12.3584    12.2490
  436.5000   125.0919    12.1853    12.0765
  437.0000   122.9730    12.0130    11.9048
  437.5000   117.8100    11.6821    11.6501
  438.0000   116.6013    11.4266    11.4127
  438.5000   117.5295    11.0440    11.1731
  439.0000   119.6724    10.6636    10.9391
  439.5000   122.7285    10.1535    10.7850
  440.0000   125.1758     9.6005    10.4856
  440.5000   127.6231     9.0777    10.0529
  441.0000   128.5484     8.3469     9.6381
  441.5000   128.2559     7.7287     9.1122
  442.0000   127.9635     7.2569     8.3192
  442.5000   128.5998     6.7665     7.3344
  443.0000   133.0647     6.3535     6.6494
  443.5000   140.2494     6.3084     5.9865
  444.0000   150.2367     6.3518     5.4274
  444.5000   158.4678     6.4402     5.3885
  445.0000   160.6077     6.5787     5.6207
  445.5000   152.0991     6.8222     5.9979
  446.0000   141.7610     7.2652     6.6325
  446.5000   133.8582     7.8263     7.5823
  447.0000   128.0864     8.3912     8.3016
  447.5000   125.0542     9.1234     9.2171
  448.0000   122.3265     9.9194     9.7451
  448.5000   121.1178    10.4149    10.1603
  449.0000   122.9593    10.7835    10.4467
  449.5000   125.4047    11.0103    10.8912
  450.0000   130.5949    11.1265    11.1196
  450.5000   130.9106    11.3715    11.3529
  451.0000   128.7985    11.6165    11.5103
  451.5000   129.1180    11.8615    11.7517
  452.0000   131.5684    12.1065    12.0823
  452.5000   133.1056    12.2973    12.3358
  453.0000   129.4677    12.6429    12.5986
  453.5000   125.5254    12.9983    13.0877
  454.0000   124.0184    13.1808    13.1777
  454.5000   124.0335    13.6492    13.4552
  455.0000   124.9720    13.9395    13.8345
  455.5000   126.1949    14.2359    14.1264
