~VERSION INFORMATION
 VERS.                2.0:   CWLS LOG ASCII STANDARD - VERSION 2.0
 WRAP.                 NO:   ONE LINE PER DEPTH STEP
~WELL INFORMATION
#MNEM.UNIT      DATA TYPE    INFORMATION
#----------   ------------   ------------------------------
 STRT.F           20.0000:   START DEPTH
 STOP.F          964.0000:   STOP DEPTH
 STEP.F            0.5000:   STEP LENGTH
 NULL.          -999.2500:   NO VALUE
 COMP. FENIX & SCISSON INC:   COMPANY
 WELL.    NPR-3 SX #58-11:   WELL
 FLD .             TEAPOT:   FIELD
 LOC .      S11 T38N R78W:   LOCATION
 CNTY.            NATRONA:   COUNTY
 STAT.            WYOMING:   STATE
 CTRY. UNITED STATES OF AMERICA:   COUNTRY
 SRVC.            Unknown:   SERVICE COMPANY
 DATE.        09-MAR-1978:   LOGDATE
 API .       490251060100:   API NUMBER
~CURVE INFORMATION
#MNEM.UNIT       API CODE    CURVE DESCRIPTION
#----------   ------------   ------------------------------
 DEPT.F                  :   
 SPR .MV     05 010 01 00:   SPONTANEOUS POTENTIAL FROM RES.
 SN  .OHMM   05 040 16 00:   SHORT NORMAL 16"
 ILD .OHMM   05 120 46 00:   INDUCTION LOG DEEP
 CALD.IN     45 280 60 00:   CALIPER
 GRD .GAPI   45 310 01 00:   GAMMA RAY FROM DENSITY LOG
 CORR.G/C3   45 356 01 00:   DENSITY CORRECTION
 RHOB.G/C3   45 350 01 00:   BULK DENSITY
 DPHI.DEC    45 890 12 00:   DENSITY POROSITY SANDSTONE
~PARAMETER INFORMATION
#MNEM.UNIT          VALUE    DESCRIPTION
#----------   ------------   ------------------------------
 PD  .                 GL:   PERMANENT DATUM
 EPD .F              5219:   ELEVATION PERMANENT DATUM
 LMF .                 KB:   LOG MEASURED FROM
 DAPD.F                 4:   FEET ABOVE PERMANENT DATUM
 DMF .                 KB:   DRILLING MEASURED FROM
 EKB .F              5223:   KELLING BUSHING
 EGL .F              5219:   GROUND LEVEL
 DATE.           3-9-1978:   RUN DATE
 RUN .                  1:   RUN NUMBER
 DD  .F               963:   DEPTH DRILLER
 DL  .F               966:   DEPTH LOGGER
 BLI .F               960:   BOTTOM LOG INTERVAL
 TLI .F                80:   TOP LOG INTERVAL
 CS  .IN            8.625:   CASING SIZE
 CBD .F                40:   CASING BOTTOM DRILLER
 BS  .IN            7.875:   BIT SIZE
 BSD .F               963:   BIT SIZE AT DEPTH
 DFT .         LIGNO SULF:   DRILLING FLUID TYPE
 DFD .                8.6:   DRILLING FLUID DENSITY
 DFV .                 30:   DRILLING FLUID VISCOSITY
 DFPH.               10.5:   DRILLING FLUID PH
 DFL .                4.8:   DRILLING FLUID LOSS
 MSS .          FLOW LINE:   MUD SAMPLE SOURCE
 RMS .OHMM            1.7:   RESISTIVITY MUD SAMPLE
 MST .F                60:   MUD SAMPLE TEMPERATURE
 RMF .OHMM            1.5:   RESISTIVITY MUD FILTRATE SAMPLE
 MFST.F                74:   MUD FILTRATE SAMPLE TEMPERATURE
 RMC .OHMM            2.8:   RESISTIVITY MUD CAKE
 MCST.F                68:   MUD CAKE SAMPLE TEMPERATURE
 MFSS.               MEAS:   MUD FILTRATE SAMPLE SOURCE
 MCSS.               MEAS:   MUD CAKE SAMPLE SOURCE
 RMB .OHMM           1.38:   RESISTIVITY MUD AT BHT
 BHT .F                74:   BOTTOM HOLE TEMPERATURE
 TCS .HRS               4:   TIME CURCULATED STOPPED
 MRT .F                74:   MAXIMUM RECORDED TEMPERATURE
 LUN .               2958:   LOGGING UNIT NUMBER
 LUL .               CASP:   LOGGING UNIT LOCATION
 ENGI.             MILLER:   RECORDING ENGINEER
 WITN.         HARRINGTON:   WITNESSED BY
 CLNT.            A2DTECH:   CLIENT CODE
 ORIG.      2" , 5" PRINT:   ORIGIN OF DATA
 UWI .       490251060100:   UNIQUE WELL ID
 DICO. A2D Technologies, Inc.:   DIGITIZING COMPANY
~OTHER INFORMATION
~A   DEPT      SPR         SN        ILD       CALD         GRD      CORR       RHOB       DPHI   
# ...
  384.5000   -25.6434     5.2881     5.1435     7.4845    81.9373     0.0891     2.3286     0.1911
  385.0000   -25.6712     5.3540     5.1641     7.5706    74.5281     0.0720     2.3790     0.1676
  385.5000   -26.5418     5.4985     5.2084     7.6554    66.5618     0.0532     2.4178     0.1537
  386.0000   -27.4541     5.6413     5.2532     7.7408    63.1354     0.0362     2.4270     0.1554
  386.5000   -27.7710     6.5898     5.3431     7.8250    63.4599     0.0219     2.3960     0.1596
  387.0000   -27.8150     7.6559     5.5940     7.8962    63.4006     0.0210     2.3953     0.1604
  387.5000   -27.7637     8.6285     5.8589     7.8796    63.7084     0.0207     2.3918     0.1626
  388.0000   -27.7109     8.7941     6.8628     7.8642    64.2516     0.0232     2.3868     0.1661
  388.5000   -27.6403     8.9629     8.3372     7.8457    64.7214     0.0258     2.3828     0.1684
  389.0000   -28.3183     9.2370     8.9533     7.8288    65.4446     0.0286     2.3841     0.1672
  389.5000   -29.2347     9.5616     9.1313     7.8093    66.4553     0.0268     2.3856     0.1656
  390.0000   -30.1928     9.8976     9.3705     7.7973    67.4846     0.0248     2.3865     0.1650
  390.5000   -30.2163    10.2454     9.6160     7.7477    67.3170     0.0227     2.3828     0.1647
  391.0000   -29.9189    10.6054     9.8679     7.7402    65.1331     0.0207     2.3837     0.1644
  391.5000   -29.6101    10.9779    10.1264     7.7388    63.0343     0.0187     2.3844     0.1666
  392.0000   -29.4426    11.3632    10.3917     7.7407    60.9057     0.0166     2.3819     0.1691
  392.5000   -29.4427    11.7624    10.7840     7.7397    58.6200     0.0146     2.3796     0.1688
  393.0000   -29.4372    12.0829    11.2480     7.7400    57.1926     0.0125     2.3812     0.1683
  393.5000   -29.3386    12.4941    11.7039     7.7400    58.5486     0.0105     2.3855     0.1713
  394.0000   -29.2448    12.9193    11.7240     7.7399    60.8767     0.0084     2.3733     0.1773
  394.5000   -29.3343    13.0760    11.7686     7.7400    63.2426     0.0063     2.3552     0.1832
  395.0000   -29.5641    12.5602    11.8126     7.7400    64.7147     0.0067     2.3533     0.1851
  395.5000   -29.7919    12.3710    11.8923     7.7400    63.3194     0.0131     2.3547     0.1851
  396.0000   -30.0202    12.4852    12.0877     7.7400    61.6680     0.0194     2.3495     0.1830
  396.5000   -30.2472    12.6285    12.2864     7.7400    59.8667     0.0254     2.3595     0.1751
  397.0000   -30.4951    12.7734    12.3710     7.7400    60.0562     0.0323     2.3722     0.1708
  397.5000   -30.8013    12.9199    12.3948     7.7400    61.3437     0.0327     2.3801     0.1684
  398.0000   -31.1135    13.0682    12.4195     7.7400    62.6158     0.0329     2.3808     0.1684
  398.5000   -31.4245    13.2181    12.4441     7.7400    64.1595     0.0328     2.3826     0.1684
  399.0000   -31.6529    13.3540    12.4689     7.7400    65.7711     0.0328     2.3811     0.1684
  399.5000   -31.6912    13.6286    12.5219     7.7400    67.3626     0.0328     2.3790     0.1649
  400.0000   -31.7323    13.9089    12.8450     7.7400    68.4004     0.0329     2.3833     0.1564
  400.5000   -31.7745    14.1950    13.1764     7.7400    67.5973     0.0330     2.4043     0.1479
  401.0000   -31.8165    14.4869    13.5164     7.7400    66.7942     0.0383     2.4196     0.1450
  401.5000   -32.0179    14.7848    13.8652     7.7400    65.9945     0.0388     2.4153     0.1459
  402.0000   -32.3901    15.1245    14.2230     7.7400    65.0715     0.0318     2.4138     0.1469
  402.5000   -32.7593    15.6449    14.4552     7.7400    65.0203     0.0300     2.4177     0.1533
  403.0000   -33.0405    16.1833    14.6986     7.7400    64.9809     0.0349     2.4166     0.1612
  403.5000   -32.6751    16.7401    14.9461     7.7400    65.0035     0.0358     2.3888     0.1692
  404.0000   -32.6010    16.9361    15.1977     7.7400    65.2833     0.0324     2.3845     0.1772
  404.5000   -33.3026    16.9354    15.4538     7.7400    66.4836     0.0295     2.3694     0.1748
  405.0000   -33.7656    17.1380    15.7143     7.7400    67.5189     0.0264     2.3740     0.1698
  405.5000   -33.3703    17.4558    16.0229     7.7400    65.9138     0.0233     2.3798     0.1678
  406.0000   -32.9957    17.5746    16.0035     7.7400    62.3206     0.0210     2.3829     0.1704
  406.5000   -32.6428    17.6492    15.9713     7.7400    59.1232     0.0224     2.3832     0.1729
  407.0000   -32.6316    17.7367    15.9394     7.7400    59.3161     0.0236     2.3769     0.1752
  407.5000   -32.6353    17.4886    15.9076     7.7401    59.4943     0.0248     2.3687     0.1771
  408.0000   -32.7143    17.0917    15.8760     7.7400    61.2220     0.0261     2.3666     0.1823
  408.5000   -33.1334    16.7038    15.6021     7.7398    63.8482     0.0273     2.3556     0.1855
  409.0000   -33.5497    16.3845    15.1575     7.7358    64.5728     0.0288     2.3554     0.1825
  409.5000   -33.8165    16.0864    14.7252     7.7321    64.3464     0.0329     2.3609     0.1795
  410.0000   -33.4806    15.7936    14.3058     7.7281    64.2278     0.0374     2.3627     0.1803
  410.5000   -33.1208    15.5062    13.8982     7.7243    64.6584     0.0431     2.3587     0.1811
  411.0000   -32.7047    15.2241    13.5683     7.7204    64.9911     0.0461     2.3597     0.1795
  411.5000   -32.2803    14.9470    13.4929     7.7166    65.0042     0.0620     2.3611     0.1779
  412.0000   -31.8564    14.7128    13.3199     7.7127    64.9782     0.0769     2.3630     0.1755
  412.5000   -31.4305    14.5115    13.2015     7.7088    65.0052     0.0821     2.3815     0.1644
  413.0000   -31.3314    14.3130    13.2521     7.7050    64.8671     0.0728     2.3929     0.1533
  413.5000   -31.4949    14.1172    13.2928     7.7011    64.1667     0.0652     2.4095     0.1526
  414.0000   -31.6621    13.9496    13.3199     7.6998    64.5970     0.0668     2.4148     0.1506
  414.5000   -31.8263    13.6769    12.5927     7.6998    67.5479     0.0678     2.4049     0.1470
  415.0000   -31.4433    13.3901    11.8563     7.7003    69.5261     0.0551     2.4155     0.1410
  415.5000   -30.3338    13.0439    11.1629     7.6993    75.7607     0.0506     2.4336     0.1350
  416.0000   -29.1313    11.7787     9.9749     7.7003    85.8426     0.0483     2.4469     0.1290
  416.5000   -27.9287    10.7254     8.7283     7.7036    94.3639     0.0387     2.4573     0.1230
  417.0000   -26.8556     9.4115     8.0032     7.7516    92.1152     0.0295     2.4637     0.1211
  417.5000   -26.8410     8.2586     7.4872     7.7939    87.1172     0.0235     2.4606     0.1219
  418.0000   -26.8469     7.5243     7.0045     7.8415    79.4297     0.0211     2.4586     0.1226
  418.5000   -26.8767     7.1729     6.5509     7.8617    75.5389     0.0183     2.4655     0.1234
  419.0000   -26.9054     7.2065     6.0740     7.8600    76.8928     0.0156     2.4656     0.1241
  419.5000   -26.9337     7.2777     6.0815     7.8607    81.4411     0.0132     2.4603     0.1249
  420.0000   -26.9621     7.3497     6.0922     7.8611    85.8700     0.0155     2.4550     0.1255
  420.5000   -26.9905     7.3745     6.1037     7.8612    88.7126     0.0177     2.4520     0.1255
  421.0000   -27.0188     7.0964     6.1151     7.8616    88.8845     0.0207     2.4531     0.1255
  421.5000   -27.0449     6.8825     6.1298     7.8618    88.7357     0.0208     2.4536     0.1255
  422.0000   -26.9941     6.7833     6.1279     7.8621    88.7558     0.0208     2.4542     0.1269
  422.5000   -26.8744     6.7059     6.1242     7.8624    89.9054     0.0212     2.4517     0.1278
  423.0000   -26.7552     6.6294     6.1204     7.8627    91.1555     0.0181     2.4478     0.1258
  423.5000   -26.6371     6.5537     6.1166     7.8630    87.4583     0.0129     2.4488     0.1239
  424.0000   -26.5207     6.4798     6.1128     7.8633    86.6121     0.0092     2.4556     0.1215
  424.5000   -26.5878     6.5186     6.1090     7.8636    86.5914     0.0121     2.4616     0.1235
