~VERSION INFORMATION
 VERS.                2.0:   CWLS LOG ASCII STANDARD - VERSION 2.0
 WRAP.                 NO:   ONE LINE PER DEPTH STEP
~WELL INFORMATION
#MNEM.UNIT      DATA TYPE    INFORMATION
#----------   ------------   ------------------------------
 STRT.F           34.0000:   START DEPTH
 STOP.F          638.0000:   STOP DEPTH
 STEP.F            0.5000:   STEP LENGTH
 NULL.          -999.2500:   NO VALUE
 COMP. FENIX & SCISSON INC:   COMPANY
 WELL. S N.P.R. #3 #33-34:   WELL
 FLD .             TEAPOT:   FIELD
 LOC .      S34 T39N R78W:   LOCATION
 CNTY.            NATRONA:   COUNTY
 STAT.            WYOMING:   STATE
 CTRY. UNITED STATES OF AMERICA:   COUNTRY
 SRVC.       Schlumberger:   SERVICE COMPANY
 DATE.        18-MAR-1977:   LOGDATE
 API .       490251030400:   API NUMBER
~CURVE INFORMATION
#MNEM.UNIT       API CODE    CURVE DESCRIPTION
#----------   ------------   ------------------------------
 DEPT.F                  :   
 LL8 .OHMM   07 220 08 00:   LATEROLOG-8 RES.
 ILD .OHMM   07 120 46 00:   INDUCTION LOG DEEP
 ILM .OHMM   07 120 44 00:   INDUCTION LOG MEDIUM
 SPR .MV     07 010 01 00:   SPONTANEOUS POTENTIAL
 GRD .GAPI   45 310 01 00:   GAMMA RAY FROM DENSITY LOG
 CALD.IN     45 280 60 00:   CALIPER FROM DENSITY LOG
 RHOB.G/C3   45 350 01 00:   BULK DENSITY
 CORR.G/C3   45 356 01 00:   DENSITY CORRECTION
 DPHI.DEC    45 890 12 00:   DENSITY POROSITY SANDSTONE
~PARAMETER INFORMATION
#MNEM.UNIT          VALUE    DESCRIPTION
#----------   ------------   ------------------------------
 PD  .                 GL:   PERMANENT DATUM
 EPD .F              5081:   ELEVATION PERMANENT DATUM
 LMF .                 KB:   LOG MEASURED FROM
 DAPD.F                 5:   FEET ABOVE PERMANENT DATUM
 DMF .                 KB:   DRILLING MEASURED FROM
 EKB .F              5086:   KELLING BUSHING
 EGL .F              5081:   GROUND LEVEL
 DATE.            3-18-77:   RUN DATE
 RUN .                  1:   RUN NUMBER
 DD  .F               631:   DEPTH DRILLER
 DL  .F               637:   DEPTH LOGGER
 BLI .F               631:   BOTTOM LOG INTERVAL
 TLI .F                45:   TOP LOG INTERVAL
 CS  .IN            8.625:   CASING SIZE
 CBD .F                40:   CASING BOTTOM DRILLER
 CBL .F                45:   CASING BOTTOM LOGGER
 BS  .IN            7.875:   BIT SIZE
 BSD .F               631:   BIT SIZE AT DEPTH
 DFT .            KCL MUD:   DRILLING FLUID TYPE
 DFD .                8.7:   DRILLING FLUID DENSITY
 DFV .                 31:   DRILLING FLUID VISCOSITY
 DFPH.                  8:   DRILLING FLUID PH
 DFL .                8.2:   DRILLING FLUID LOSS
 MSS .                PIT:   MUD SAMPLE SOURCE
 RMS .OHMM            .27:   RESISTIVITY MUD SAMPLE
 MST .F                60:   MUD SAMPLE TEMPERATURE
 RMF .OHMM            .25:   RESISTIVITY MUD FILTRATE SAMPLE
 MFST.F                60:   MUD FILTRATE SAMPLE TEMPERATURE
 MFSS.                  M:   MUD FILTRATE SAMPLE SOURCE
 TCS .HRS            0400:   TIME CURCULATED STOPPED
 TLAB.HRS            0530:   TIME LOGGER AT BOTTOM
 LUN .               7711:   LOGGING UNIT NUMBER
 LUL .               CSPR:   LOGGING UNIT LOCATION
 ENGI.             SAYLER:   RECORDING ENGINEER
 WITN.         STUEBINGER:   WITNESSED BY
 CLNT.            A2DTECH:   CLIENT CODE
 ORIG.        2" 5" PRINT:   ORIGIN OF DATA
 UWI .       490251030400:   UNIQUE WELL ID
 DICO. A2D Technologies, Inc.:   DIGITIZING COMPANY
~OTHER INFORMATION
~A   DEPT      LL8        ILD        ILM        SPR         GRD      CALD       RHOB       CORR       DPHI   
# ...
  216.5000     8.2239     8.6157     8.3814   -47.1235    91.3042     8.2167     2.4815     0.0234     0.1022
  217.0000     8.3108     8.6744     8.4386   -46.9608    91.6326     8.2167     2.4767     0.0221     0.1046
  217.5000     8.3986     8.7335     8.4961   -46.7980    92.6603     8.2167     2.4778     0.0192     0.1036
  218.0000     8.4873     8.7930     8.5540   -46.6353    92.5283     8.2167     2.4795     0.0164     0.1042
  218.5000     8.5769     8.8530     8.6123   -46.4725    92.6175     8.2167     2.4782     0.0135     0.1082
  219.0000     8.6322     8.9133     8.6710   -46.3097    93.1909     8.2167     2.4766     0.0106     0.1038
  219.5000     8.6667     8.9740     8.7301   -46.1469    93.7527     8.2167     2.4735     0.0058     0.1074
  220.0000     8.7014     9.0352     8.7897   -45.9841    94.1590     8.2167     2.4673     0.0052     0.1130
  220.5000     8.7361     9.0968     8.8497   -45.8215    93.4798     8.2167     2.4722     0.0102     0.1080
  221.0000     8.7704     9.1743     8.9253   -45.6573    92.8103     8.2167     2.4809     0.0146     0.1018
  221.5000     8.6942     9.1108     8.8631   -45.5967    92.1442     8.2167     2.4786     0.0134     0.1041
  222.0000     8.6198     8.9949     8.7504   -45.5958    91.3756     8.2167     2.4797     0.0121     0.1057
  222.5000     8.5460     8.8806     8.6391   -45.5922    90.0109     8.2167     2.4809     0.0109     0.1027
  223.0000     8.4231     8.7677     8.5293   -45.6999    87.7468     8.2167     2.4827     0.0097     0.1010
  223.5000     8.2905     8.6562     8.4209   -45.8270    88.3758     8.2167     2.4797     0.0085     0.1024
  224.0000     8.1599     8.5462     8.3138   -45.9553    90.1536     8.2167     2.4693     0.0081     0.1082
  224.5000     8.0314     8.4375     8.2081   -46.0832    91.9323     8.2167     2.4679     0.0133     0.1106
  225.0000     7.9050     8.3302     8.1038   -46.2118    93.4119     8.2167     2.4803     0.0192     0.1068
  225.5000     7.8549     8.2241     8.0005   -46.3408    94.7055     8.2167     2.4943     0.0304     0.0993
  226.0000     7.8643     8.1489     7.9274   -46.5115    96.0061     8.2167     2.4916     0.0314     0.0930
  226.5000     7.8799     8.1526     7.9309   -46.7079    97.6431     8.2167     2.4845     0.0253     0.0981
  227.0000     7.8956     8.1713     7.9492   -46.9056   100.8390     8.2167     2.4773     0.0192     0.1025
  227.5000     7.9114     8.1905     7.9678   -47.1041   102.5220     8.2167     2.4702     0.0132     0.1067
  228.0000     7.9272     8.2096     7.9864   -47.3023   103.1778     8.2167     2.4630     0.0072     0.1109
  228.5000     7.9430     8.2286     8.0049   -47.5010   102.0501     8.2167     2.4584     0.0016     0.1151
  229.0000     7.9588     8.2478     8.0235   -47.5813   100.7462     8.2167     2.4598     0.0012     0.1158
  229.5000     7.9747     8.2669     8.0422   -47.4844    98.6988     8.2167     2.4660     0.0028     0.1095
  230.0000     7.9906     8.2861     8.0609   -47.3211    96.6949     8.2167     2.4722     0.0062     0.1022
  230.5000     8.0066     8.3054     8.0796   -47.1563    94.8319     8.2167     2.4785     0.0096     0.1077
  231.0000     8.0225     8.3247     8.0984   -46.9908    94.2428     8.2167     2.4835     0.0126     0.1105
  231.5000     8.0386     8.3441     8.1172   -46.8255    93.7077     8.2167     2.4876     0.0156     0.1033
  232.0000     8.0546     8.3635     8.1361   -46.6603    93.4611     8.2167     2.4918     0.0185     0.0975
  232.5000     8.0707     8.3829     8.1550   -46.4950    93.2584     8.2167     2.4950     0.0214     0.0934
  233.0000     8.3890     8.4024     8.1739   -46.3298    93.0531     8.2167     2.4846     0.0235     0.1001
  233.5000     8.8162     8.4219     8.1929   -46.1646    93.3831     8.2167     2.4740     0.0222     0.1042
  234.0000     9.0988     8.4415     8.2118   -45.9992    94.6539     8.2167     2.4693     0.0173     0.1097
  234.5000     8.7584     8.4924     8.2613   -45.8317    95.9239     8.2167     2.4648     0.0126     0.1135
  235.0000     8.4762     8.5992     8.3653   -45.7660    96.6014     8.2167     2.4602     0.0077     0.1151
  235.5000     8.3002     8.7074     8.4705   -45.7272    95.8077     8.2167     2.4556     0.0080     0.1166
  236.0000     8.2990     8.8170     8.5768   -45.6894    95.0362     8.2167     2.4534     0.0123     0.1162
  236.5000     8.3683     8.9340     8.6911   -45.6511    94.2825     8.2167     2.4599     0.0166     0.1135
  237.0000     8.4610     8.9324     8.6902   -45.6127    95.0768     8.2167     2.4686     0.0196     0.1107
  237.5000     8.5546     8.9326     8.7043   -45.5428    95.9827     8.2167     2.4776     0.0173     0.1080
  238.0000     8.6489     9.0445     8.7987   -45.4480    95.9852     8.2167     2.4795     0.0133     0.1059
  238.5000     8.7443     9.1427     8.8942   -45.3529    95.9323     8.2167     2.4785     0.0092     0.1042
  239.0000     8.8407     9.2419     8.9906   -45.2575    95.8818     8.2167     2.4720     0.0075     0.1076
  239.5000     8.9382     9.3421     9.0882   -45.1622    95.8212     8.2167     2.4658     0.0094     0.1122
  240.0000     9.0366     9.4435     9.1867   -45.0669    96.3672     8.2167     2.4685     0.0119     0.1100
  240.5000     9.1827     9.5459     9.2864   -44.9715    97.0604     8.2167     2.4716     0.0145     0.1082
  241.0000     9.1733     9.6144     9.3531   -44.8761    98.1111     8.2167     2.4736     0.0155     0.1092
  241.5000     9.1558     9.5306     9.2715   -44.7805    99.2472     8.2167     2.4668     0.0122     0.1118
  242.0000     9.1383     9.4684     9.2110   -44.6853   100.3843     8.2167     2.4537     0.0067     0.1144
  242.5000     9.1209     9.4066     9.1509   -44.6105   101.5180     8.2167     2.4539     0.0071     0.1137
  243.0000     9.0988     9.3531     9.0988   -44.6700   102.4096     8.2167     2.4782     0.0135     0.1049
  243.5000     9.1926     9.5016     9.2433   -44.7306   102.9375     8.2170     2.4897     0.0186     0.0982
  244.0000     9.3232     9.6643     9.4016   -44.7907   103.4766     8.2179     2.4852     0.0180     0.1017
  244.5000     9.4557     9.8297     9.5626   -44.8509   103.9176     8.2187     2.4784     0.0174     0.1059
  245.0000     9.5900     9.9981     9.7263   -44.9107   102.6685     8.2195     2.4715     0.0169     0.1077
  245.5000     9.7263    10.1694     9.8929   -44.9706   101.3577     8.2204     2.4682     0.0163     0.1081
  246.0000     9.8644    10.3435    10.0623   -44.9663    99.4325     8.2212     2.4775     0.0134     0.1052
  246.5000    10.0046    10.5207    10.2346   -44.9028    95.0288     8.2220     2.4828     0.0109     0.1013
  247.0000    10.1593    10.7008    10.4099   -44.8391    91.6322     8.2228     2.4880     0.0083     0.0993
  247.5000    10.1999    10.8840    10.5881   -44.7751    91.7733     8.2236     2.4890     0.0056     0.0978
  248.0000    10.2445    11.0704    10.7694   -44.7112    93.8346     8.2245     2.4788     0.0016     0.1025
  248.5000    10.2893    11.2723    10.9658   -44.6469    94.6103     8.2253     2.4703    -0.0006     0.1086
  249.0000    10.3344    11.5824    11.2675   -44.5805    94.4503     8.2261     2.4709     0.0023     0.1068
  249.5000    10.6436    11.9012    11.5776   -44.5017    93.9035     8.2269     2.4776     0.0062     0.1054
  250.0000    11.0789    12.2287    11.8962   -44.4244    93.0487     8.2278     2.4842     0.0102     0.1032
  250.5000    11.5319    12.5652    12.2235   -44.3471    91.8553     8.2286     2.4907     0.0142     0.0985
  251.0000    11.7682    13.0197    12.6658   -44.2697    90.6694     8.2294     2.4973     0.0182     0.0927
  251.5000    11.8768    12.6147    12.2717   -44.1924    89.4845     8.2303     2.5001     0.0222     0.0900
  252.0000    11.6825    12.2123    11.8803   -44.1150    88.4990     8.2311     2.4947     0.0236     0.0948
  252.5000    11.4673    11.9909    11.6660   -44.0377    89.1244     8.2319     2.4853     0.0211     0.1007
