~VERSION INFORMATION
 VERS.                2.0:   CWLS LOG ASCII STANDARD - VERSION 2.0
 WRAP.                 NO:   ONE LINE PER DEPTH STEP
~WELL INFORMATION
#MNEM.UNIT      DATA TYPE    INFORMATION
#----------   ------------   ------------------------------
 STRT.F          149.5000:   START DEPTH
 STOP.F          864.5000:   STOP DEPTH
 STEP.F            0.5000:   STEP LENGTH
 NULL.          -999.2500:   NO VALUE
 COMP. U S NAVY/INTEX OIL CO:   COMPANY
 WELL.    NPR #3 #78-S-27:   WELL
 FLD .             TEAPOT:   FIELD
 LOC .      S27 T39N R78W:   LOCATION
 CNTY.            NATRONA:   COUNTY
 STAT.            WYOMING:   STATE
 CTRY. UNITED STATES OF AMERICA:   COUNTRY
 SRVC. Schlumberger Well Surveying Corp:   SERVICE COMPANY
 DATE.        25-FEB-1961:   LOGDATE
 API .       490250657800:   API NUMBER
~CURVE INFORMATION
#MNEM.UNIT       API CODE    CURVE DESCRIPTION
#----------   ------------   ------------------------------
 DEPT.F                  :   
 SPR .MV     05 010 01 00:   SPONTANEOUS POTENTIAL FROM RES.
 CILD.MMHO   05 110 46 00:   CONDUCTIVITY INDUCTION LOG DEEP
 ASN .OHMM   05 041 16 00:   AMPLIFIED SHORT NORMAL 16"
 ILD .OHMM   05 120 46 00:   INDUCTION LOG DEEP
 GR  .GAPI   81 310 01 00:   GAMMA RAY
~PARAMETER INFORMATION
#MNEM.UNIT          VALUE    DESCRIPTION
#----------   ------------   ------------------------------
 PD  .                 GL:   PERMANENT DATUM
 EPD .F              5038:   ELEVATION PERMANENT DATUM
 LMF .                 KB:   LOG MEASURED FROM
 DAPD.F                 4:   FEET ABOVE PERMANENT DATUM
 DMF .                 KB:   DRILLING MEASURED FROM
 EKB .F              5042:   KELLING BUSHING
 EGL .F              5038:   GROUND LEVEL
 DATE.            2-25-61:   RUN DATE
 RUN .                  1:   RUN NUMBER
 DD  .F               865:   DEPTH DRILLER
 DL  .F               869:   DEPTH LOGGER
 BLI .F               864:   BOTTOM LOG INTERVAL
 TLI .F               150:   TOP LOG INTERVAL
 CBD .F                12:   CASING BOTTOM DRILLER
 BS  .IN            7.875:   BIT SIZE
 BSD .F               865:   BIT SIZE AT DEPTH
 DFT .       OIL EMULSION:   DRILLING FLUID TYPE
 DFD .               10.2:   DRILLING FLUID DENSITY
 DFV .                 48:   DRILLING FLUID VISCOSITY
 DFPH.                8.5:   DRILLING FLUID PH
 DFL .               10.2:   DRILLING FLUID LOSS
 RMS .OHMM            1.7:   RESISTIVITY MUD SAMPLE
 MST .F                57:   MUD SAMPLE TEMPERATURE
 MFSS.                  C:   MUD FILTRATE SAMPLE SOURCE
 MCSS.                  C:   MUD CAKE SAMPLE SOURCE
 RMB .OHMM            1.3:   RESISTIVITY MUD AT BHT
 BHT .F                75:   BOTTOM HOLE TEMPERATURE
 TCS .HRS               1:   TIME CURCULATED STOPPED
 MRT .F                75:   MAXIMUM RECORDED TEMPERATURE
 LUN .               2572:   LOGGING UNIT NUMBER
 LUL .                 NC:   LOGGING UNIT LOCATION
 ENGI.             ROUSER:   RECORDING ENGINEER
 WITN.          JORGENSEN:   WITNESSED BY
 CLNT.            A2DTECH:   CLIENT CODE
 ORIG.       2", 5" PRINT:   ORIGIN OF DATA
 UWI .       490250657800:   UNIQUE WELL ID
 DICO. A2D Technologies, Inc.:   DIGITIZING COMPANY
~OTHER INFORMATION
~A   DEPT      SPR       CILD        ASN        ILD         GR   
# ...
  271.5000   -60.0574   185.8292     6.2626     5.6397  -999.2500
  272.0000   -59.9696   179.4355     6.5623     5.7503  -999.2500
  272.5000   -59.8916   173.0419     6.8707     5.9033  -999.2500
  273.0000   -59.8111   167.3781     7.2171     6.0363  -999.2500
  273.5000   -59.7295   163.1157     7.3057     6.1800  -999.2500
  274.0000   -59.6965   158.8533     7.3433     6.3187  -999.2500
  274.5000   -59.7011   154.5909     7.3775     6.4615  -999.2500
  275.0000   -59.6989   149.7996     7.4262     6.4800  -999.2500
  275.5000   -59.7001   151.2615     7.4675     6.4751  -999.2500
  276.0000   -59.6996   152.4729     7.5105     6.4785  -999.2500
  276.5000   -59.7000   153.8076     7.5563     6.4645  -999.2500
  277.0000   -59.6999   153.8076     7.5927     6.4327  -999.2500
  277.5000   -59.7003   153.8076     7.6173     6.4016  -999.2500
  278.0000   -59.7001   153.7825     7.6470     6.3701  -999.2500
  278.5000   -59.7006   154.2816     7.6617     6.3383  -999.2500
  279.0000   -59.6997   155.4486     7.6594     6.3079  -999.2500
  279.5000   -59.7018   156.6128     7.6608     6.2756  -999.2500
  280.0000   -59.6925   157.8358     7.6584     6.2766  -999.2500
  280.5000   -59.6234   157.8442     7.6693     6.2677  -999.2500
  281.0000   -59.5566   156.7819     7.7831     6.3395  -999.2500
  281.5000   -59.4891   154.4676     7.9249     6.5017  -999.2500
  282.0000   -59.4232   152.1501     8.1098     6.6512  -999.2500
  282.5000   -59.3541   149.8047     8.3090     6.8076  -999.2500
  283.0000   -59.3023   146.0104     8.4959     6.9602  -999.2500
  283.5000   -59.2996   142.1752     8.6050     7.1149  -999.2500
  284.0000   -59.2996   138.3419     8.7034     7.2685  -999.2500
  284.5000   -59.2998   134.5078     8.8040     7.4236  -999.2500
  285.0000   -59.2998   130.7600     8.9043     7.5771  -999.2500
  285.5000   -59.3000   128.8896     9.0036     7.7336  -999.2500
  286.0000   -59.3000   127.0822     9.1060     7.8843  -999.2500
  286.5000   -59.3004   125.2650     9.1594     8.0465  -999.2500
  287.0000   -59.3000   123.4479     9.1165     8.1720  -999.2500
  287.5000   -59.3011   121.7435     8.7756     8.2023  -999.2500
  288.0000   -59.2994   121.7435     8.4199     8.1154  -999.2500
  288.5000   -59.3032   126.9514     8.0416     7.4246  -999.2500
  289.0000   -59.2869   136.0371     7.3645     6.6812  -999.2500
  289.5000   -59.1726   145.1228     6.6855     5.9937  -999.2500
  290.0000   -59.0659   173.2966     6.0162     5.2290  -999.2500
  290.5000   -58.9581   214.4345     5.3465     4.4063  -999.2500
  291.0000   -58.8516   255.5724     4.6759     3.6241  -999.2500
  291.5000   -58.7434   296.7103     4.0041     2.8330  -999.2500
  292.0000   -58.6379   342.4248     3.4180     2.0451  -999.2500
  292.5000   -58.5300   390.8818     3.2543     1.5820  -999.2500
  293.0000   -58.4966   439.3387     3.1218     1.3413  -999.2500
  293.5000   -58.4980   470.3607     3.2278     1.2291  -999.2500
  294.0000   -58.5107   488.4770     3.3853     1.2872  -999.2500
  294.5000   -58.6128   472.8791     3.5453     1.6420  -999.2500
  295.0000   -58.7046   445.4409     4.2202     1.9556  -999.2500
  295.5000   -58.7978   411.1172     5.1630     2.3909  -999.2500
  296.0000   -58.8908   376.7936     5.9265     3.6897  -999.2500
  296.5000   -58.9829   300.5361     7.5594     4.9025  -999.2500
  297.0000   -59.0748   224.9499     8.8843     6.1252  -999.2500
  297.5000   -59.1033   177.3026     9.9699     7.3341  -999.2500
  298.0000   -59.0995   137.1344    10.2912     8.5638  -999.2500
  298.5000   -59.1011   106.2407    10.6928     9.5770  -999.2500
  299.0000   -59.1003    97.4449    11.0412    10.3731  -999.2500
  299.5000   -59.1005    90.3406    11.2952    10.7352  -999.2500
  300.0000   -59.0995    88.5859    10.8830    10.3413  -999.2500
  300.5000   -59.0664   100.9565    10.3292     9.7086  -999.2500
  301.0000   -59.0172   110.7867    10.1313     9.1736  -999.2500
  301.5000   -58.9710   120.5845    10.0007     8.6021  -999.2500
  302.0000   -58.9230   130.4078     9.3343     7.9985  -999.2500
  302.5000   -58.8767   140.2310     8.4619     7.2258  -999.2500
  303.0000   -58.8282   150.0542     7.5466     6.5801  -999.2500
  303.5000   -58.7833   159.8774     6.8991     6.1655  -999.2500
  304.0000   -58.7313   169.7006     7.0682     5.7810  -999.2500
  304.5000   -58.7184   176.8537     7.5313     5.6330  -999.2500
  305.0000   -58.7856   170.8417     7.9893     5.8733  -999.2500
  305.5000   -58.8533   157.2638     9.0357     6.6142  -999.2500
  306.0000   -58.9226   139.7567    10.0719     7.3718  -999.2500
  306.5000   -58.9910   122.2495    10.4378     8.1302  -999.2500
  307.0000   -59.0598   108.0060    10.6407     8.8913  -999.2500
  307.5000   -59.1284   100.7014    10.8437     9.6450  -999.2500
  308.0000   -59.1971    99.3618    11.0453    10.3919  -999.2500
  308.5000   -59.2657    97.6619    11.2459    10.6278  -999.2500
  309.0000   -59.3343    95.9271    11.4482    10.6365  -999.2500
  309.5000   -59.4029    94.2204    11.6475    10.6966  -999.2500
  310.0000   -59.4715    92.5072    11.8490    10.8927  -999.2500
  310.5000   -59.5402    90.8078    12.0478    11.1994  -999.2500
  311.0000   -59.6090    89.6290    12.2468    11.3894  -999.2500
  311.5000   -59.6774    89.6459    12.3046    11.3973  -999.2500
  312.0000   -59.7466    89.6606    12.2987    11.3942  -999.2500
  312.5000   -59.8145    89.6739    12.2970    11.4049  -999.2500
  313.0000   -59.8827    89.6794    12.3333    11.4888  -999.2500
  313.5000   -59.9024    89.3799    12.4631    11.5739  -999.2500
  314.0000   -59.8987    88.4345    12.5920    11.6815  -999.2500
  314.5000   -59.8502    87.4891    12.7236    11.7862  -999.2500
  315.0000   -59.7758    86.5437    12.8535    11.8923  -999.2500
  315.5000   -59.7068    85.5983    12.9848    11.9982  -999.2500
  316.0000   -59.6349    84.6528    13.1147    12.1037  -999.2500
  316.5000   -59.5647    83.7074    13.2469    12.2105  -999.2500
  317.0000   -59.4934    82.7620    13.3750    12.3144  -999.2500
  317.5000   -59.4230    81.6633    13.5110    12.4243  -999.2500
  318.0000   -59.3512    81.6633    13.6029    12.4985  -999.2500
  318.5000   -59.2974    81.7491    13.6043    12.4857  -999.2500
  319.0000   -59.3260    82.0003    13.6053    12.4655  -999.2500
  319.5000   -59.4243    82.2514    13.6038    12.4447  -999.2500
  320.0000   -59.5240    82.5025    13.6050    12.4247  -999.2500
  320.5000   -59.6245    82.6653    13.6026    12.4043  -999.2500
  321.0000   -59.7245    82.6653    13.6058    12.3987  -999.2500
  321.5000   -59.8248    82.6653    13.5977    12.3980  -999.2500
  322.0000   -59.9249    82.6653    13.6515    12.3990  -999.2500
  322.5000   -60.0257    82.6653    13.8310    12.4012  -999.2500
  323.0000   -60.1251    82.6653    14.0130    12.5433  -999.2500
  323.5000   -60.2270    82.6653    14.1945    12.7509  -999.2500
  324.0000   -60.3242    81.1709    14.3791    12.9506  -999.2500
  324.5000   -60.4306    79.4489    14.5671    13.1477  -999.2500
  325.0000   -60.4971    77.7269    15.0008    13.3904  -999.2500
  325.5000   -60.5066    76.0049    15.5377    13.7341  -999.2500
  326.0000   -60.4474    74.2829    16.0678    14.0784  -999.2500
  326.5000   -60.2499    72.5608    16.5929    14.4241  -999.2500
  327.0000   -60.0495    70.8388    17.1344    14.7693  -999.2500
  327.5000   -59.8508    69.1168    17.6432    15.1135  -999.2500
  328.0000   -59.6439    67.3948    18.1912    15.4624  -999.2500
  328.5000   -59.5043    65.6728    17.8069    15.7268  -999.2500
  329.0000   -59.6041    64.6293    17.1128    15.5756  -999.2500
  329.5000   -59.7541    64.6293    16.4148    15.0593  -999.2500
  330.0000   -59.8980    67.7856    15.7156    14.5349  -999.2500
  330.5000   -60.0448    71.3014    15.0182    14.0075  -999.2500
  331.0000   -60.1901    74.8171    14.3237    13.4808  -999.2500
  331.5000   -60.3362    78.3329    13.8051    12.9559  -999.2500
  332.0000   -60.4822    81.8487    13.7076    12.4342  -999.2500
