~VERSION INFORMATION
 VERS.                2.0:   CWLS LOG ASCII STANDARD - VERSION 2.0
 WRAP.                 NO:   ONE LINE PER DEPTH STEP
~WELL INFORMATION
#MNEM.UNIT      DATA TYPE    INFORMATION
#----------   ------------   ------------------------------
 STRT.F          714.0000:   START DEPTH
 STOP.F         1640.0000:   STOP DEPTH
 STEP.F            0.5000:   STEP LENGTH
 NULL.          -999.2500:   NO VALUE
 COMP. BROWN JOHN E&C INC:   COMPANY
 WELL. NPR 3 STX-15 #83-15:   WELL
 FLD .             TEAPOT:   FIELD
 LOC .      S15 T38N R78W:   LOCATION
 CNTY.            NATRONA:   COUNTY
 STAT.            WYOMING:   STATE
 CTRY. UNITED STATES OF AMERICA:   COUNTRY
 SRVC.            Unknown:   SERVICE COMPANY
 DATE.        30-AUG-1991:   LOGDATE
 API .       490251111300:   API NUMBER
~CURVE INFORMATION
#MNEM.UNIT       API CODE    CURVE DESCRIPTION
#----------   ------------   ------------------------------
 DEPT.F                  :   
 TGAS.UNITS  91 830 01 00:   TOTAL GAS FROM HOTWIRE
 C1  .VF     91 831 01 00:   METHANE
 C2  .VF     91 832 01 00:   ETHANE
 C3  .VF     91 833 01 00:   PROPANE
 C4  .VF     91 834 01 00:   BUTANE
 ROP .MIN/FT 91 810 01 00:   RAT OF DRILLING PENETRATION
~PARAMETER INFORMATION
#MNEM.UNIT          VALUE    DESCRIPTION
#----------   ------------   ------------------------------
 EKB .F              5265:   KELLING BUSHING
 EGL .F              5255:   GROUND LEVEL
 DATE.            5-30-91:   RUN DATE
 DD  .F              1626:   DEPTH DRILLER
 TCS .HRS            1200:   TIME CURCULATED STOPPED
 TLAB.HRS            1815:   TIME LOGGER AT BOTTOM
 ENGI.               HUSK:   RECORDING ENGINEER
 WITN.              TOWER:   WITNESSED BY
 CLNT.            A2DTECH:   CLIENT CODE
 ORIG.           5" PRINT:   ORIGIN OF DATA
 UWI .       490251111300:   UNIQUE WELL ID
 DICO. A2D Technologies, Inc.:   DIGITIZING COMPANY
~OTHER INFORMATION
~A   DEPT     TGAS         C1         C2         C3         C4          ROP 
# ...
 1234.0000   805.6815   433.1705  -999.2500     7.5544     3.2211     1.0432
 1234.5000   805.7687   433.3413  -999.2500     7.5751     3.2334     1.0771
 1235.0000   805.8558   433.5121  -999.2500     7.5958     3.2457     1.1109
 1235.5000   805.9430   433.6830  -999.2500     7.6165     3.2581     1.1452
 1236.0000   806.0302   433.8538  -999.2500     7.6372     3.2704     1.1383
 1236.5000   806.1173   434.0246  -999.2500     7.6579     3.2827     1.1006
 1237.0000   806.2045   434.1954  -999.2500     7.6787     3.2950     1.0625
 1237.5000   806.2916   434.3662  -999.2500     7.6994     3.3074     1.0241
 1238.0000   806.3788   434.5370  -999.2500     7.7201     3.3197     0.9859
 1238.5000   806.4659   434.7078  -999.2500     7.7408     3.3320     0.9830
 1239.0000   806.5532   434.8786  -999.2500     7.7615     3.3444     0.9821
 1239.5000   806.6403   435.0494  -999.2500     7.7822     3.3566     0.9810
 1240.0000   806.7275   435.2202  -999.2500     7.8029     3.3691     0.9798
 1240.5000   806.8146   435.3910  -999.2500     7.8237     3.3424     0.9787
 1241.0000   806.9018   435.5618  -999.2500     7.8444     3.2787     0.9776
 1241.5000   806.9890   435.7326  -999.2500     7.8651     3.2150     0.9764
 1242.0000   807.0759   435.9034  -999.2500     7.8857     3.1512     0.9753
 1242.5000   807.1622   436.0742  -999.2500     7.9062     3.0875     0.9742
 1243.0000   807.2507   436.2451  -999.2500     7.9286     3.0238     0.9730
 1243.5000   807.4160   436.4159  -999.2500     7.9932     2.9600     0.9718
 1244.0000   807.8998   436.5867  -999.2500     8.0590     2.8963     0.9697
 1244.5000   808.3729   436.7575  -999.2500     8.1245     2.8325     0.9675
 1245.0000   808.8452   436.9280  -999.2500     8.1900     2.7687     0.9652
 1245.5000   809.3175   437.0991  -999.2500     8.2555     2.7050     0.9629
 1246.0000   809.7899   437.2751  -999.2500     8.3209     2.6412     0.9610
 1246.5000   810.2621   437.4592  -999.2500     8.3865     2.5775     0.9741
 1247.0000   810.7345   437.6421  -999.2500     8.4351     2.5137     1.0242
 1247.5000   811.2068   437.8250  -999.2500     8.4720     2.4496     1.0735
 1248.0000   811.6791   438.0079  -999.2500     8.5086     2.3837     1.1229
 1248.5000   812.1515   438.1908  -999.2500     8.5452     2.4349     1.1347
 1249.0000   812.6238   438.3737  -999.2500     8.5818     2.5075     1.0904
 1249.5000   813.0961   438.5566  -999.2500     8.6184     2.5807     1.0368
 1250.0000   813.5684   438.7395  -999.2500     8.6550     2.6536     1.0091
 1250.5000   814.0408   438.9224  -999.2500     8.6915     2.7265     1.0068
 1251.0000   814.5131   439.1053  -999.2500     8.7281     2.7998     1.0051
 1251.5000   814.9854   439.2881  -999.2500     8.7647     2.8721     1.0034
 1252.0000   815.4578   439.4710  -999.2500     8.8013     2.8755     1.0017
 1252.5000   815.9301   439.6539  -999.2500     8.8379     2.8751     0.9999
 1253.0000   816.4024   439.8368  -999.2500     8.8745     2.8750     0.9983
 1253.5000   816.8748   440.0197  -999.2500     8.9110     2.8750     1.0016
 1254.0000   817.3470   440.2026  -999.2500     8.9476     2.8750     1.0324
 1254.5000   817.8194   440.3855  -999.2500     8.9842     2.8750     1.0630
 1255.0000   818.2917   440.5684  -999.2500     9.0208     2.8750     1.0935
 1255.5000   818.7640   440.7513  -999.2500     9.0575     2.8750     1.1242
 1256.0000   819.2364   440.9342  -999.2500     9.0937     2.8750     1.1557
 1256.5000   819.7087   441.1171  -999.2500     9.1320     2.8750     1.1313
 1257.0000   820.1810   441.3000  -999.2500     8.9972     2.8750     1.0966
 1257.5000   820.6533   441.4829  -999.2500     8.7388     2.8750     1.0615
 1258.0000   821.1257   441.6658  -999.2500     8.4789     2.8752     1.0263
 1258.5000   821.5980   441.8527  -999.2500     8.2188     2.8758     1.0318
 1259.0000   822.0703   442.0316  -999.2500     7.9585     2.8704     1.0433
 1259.5000   822.5427   442.1740  -999.2500     7.6973     2.7655     1.0402
 1260.0000   823.0150   440.0873  -999.2500     7.4467     2.6606     1.0261
 1260.5000   823.4873   435.5244  -999.2500  -999.2500     2.5563     1.0121
 1261.0000   823.9597   430.9947  -999.2500  -999.2500     2.4520     0.9978
 1261.5000   824.4319   426.9644  -999.2500  -999.2500     2.3479     0.9838
 1262.0000   824.9043   427.1190  -999.2500  -999.2500     2.2436     0.9788
 1262.5000   825.3766   427.3337  -999.2500  -999.2500     2.1394     1.0341
 1263.0000   825.8489   427.5345  -999.2500  -999.2500     2.0352     1.0892
 1263.5000   826.3213   427.7318  -999.2500  -999.2500     1.9312     1.1389
 1264.0000   826.7936   427.9290  -999.2500  -999.2500     1.8747     1.1569
 1264.5000   827.2659   428.1262  -999.2500  -999.2500     1.8750     1.1420
 1265.0000   827.7382   428.3235  -999.2500  -999.2500     1.8749     1.1193
 1265.5000   828.2106   428.5207  -999.2500  -999.2500     1.8750     1.0965
 1266.0000   828.6829   428.7180  -999.2500  -999.2500     1.8748     1.0736
 1266.5000   829.1552   428.9152  -999.2500  -999.2500     1.8764     1.0506
 1267.0000   829.6276   429.1124  -999.2500  -999.2500     1.9126     1.0469
 1267.5000   830.0999   429.3097  -999.2500  -999.2500     1.9494     1.0503
 1268.0000   830.5722   429.5069  -999.2500  -999.2500     1.9860     1.0543
 1268.5000   831.0445   429.7041  -999.2500  -999.2500     2.0226     1.0583
 1269.0000   831.5168   429.9014  -999.2500  -999.2500     2.0594     1.0623
 1269.5000   831.9892   430.0986  -999.2500  -999.2500     2.0958     1.0662
 1270.0000   832.4615   430.2959  -999.2500  -999.2500     2.1166     1.0702
 1270.5000   832.9338   430.4931  -999.2500  -999.2500     2.0642     1.0401
 1271.0000   833.4061   430.6903  -999.2500  -999.2500     2.0133     0.9768
 1271.5000   833.8785   430.8876  -999.2500  -999.2500     1.9625     0.9134
 1272.0000   834.3508   431.0848  -999.2500  -999.2500     1.9117     0.8488
 1272.5000   834.8231   431.2820  -999.2500  -999.2500     1.8610     0.8232
 1273.0000   834.0702   431.4793  -999.2500  -999.2500     1.8102     0.8298
 1273.5000   830.3265   431.6769  -999.2500  -999.2500     1.7569     0.8362
 1274.0000   808.2365   431.7486  -999.2500  -999.2500     1.7002     0.8422
 1274.5000   781.4041   431.3036  -999.2500  -999.2500     1.6564     0.8296
 1275.0000  1620.4249   429.7432  -999.2500  -999.2500     2.9788     0.7852
 1275.5000  1659.6074   583.6276  -999.2500  -999.2500     9.3606     0.7609
 1276.0000  1675.6097   752.2433  -999.2500  -999.2500    21.1340     0.7667
 1276.5000  1675.6097   908.0724  -999.2500  -999.2500    27.5712     0.7542
 1277.0000  1675.6097   919.5834  -999.2500  -999.2500    31.9589     0.6672
 1277.5000  1675.6097   919.3691  -999.2500  -999.2500    31.8647     0.5831
 1278.0000  1675.6097   919.2429  -999.2500  -999.2500    31.8775     0.5717
 1278.5000  1675.6097   919.2308  -999.2500  -999.2500    31.8750     0.6376
 1279.0000  1675.6097   919.2308  -999.2500  -999.2500    31.8750     0.7005
 1279.5000  1675.6097   919.2308  -999.2500  -999.2500    31.8750     0.7241
 1280.0000  1675.6097   919.2308  -999.2500  -999.2500    31.8750     0.7097
 1280.5000  -999.2500  -999.2500  -999.2500  -999.2500  -999.2500     0.6607
 1281.0000  -999.2500  -999.2500  -999.2500  -999.2500  -999.2500     0.6576
 1281.5000  -999.2500  -999.2500  -999.2500  -999.2500  -999.2500     0.6414
 1282.0000  -999.2500  -999.2500  -999.2500  -999.2500  -999.2500     0.5977
 1282.5000  -999.2500  -999.2500  -999.2500  -999.2500  -999.2500     0.6242
 1283.0000  -999.2500  -999.2500  -999.2500  -999.2500  -999.2500     0.6498
 1283.5000  -999.2500  -999.2500  -999.2500  -999.2500  -999.2500     0.6752
 1284.0000  -999.2500  -999.2500  -999.2500  -999.2500  -999.2500     0.7005
 1284.5000  -999.2500  -999.2500  -999.2500  -999.2500  -999.2500     0.7215
 1285.0000  -999.2500  -999.2500  -999.2500  -999.2500  -999.2500     0.7226
 1285.5000  -999.2500  -999.2500  -999.2500  -999.2500  -999.2500     0.7250
