~VERSION INFORMATION
 VERS.                2.0:   CWLS LOG ASCII STANDARD - VERSION 2.0
 WRAP.                 NO:   ONE LINE PER DEPTH STEP
~WELL INFORMATION
#MNEM.UNIT      DATA TYPE    INFORMATION
#----------   ------------   ------------------------------
 STRT.F         1470.0000:   START DEPTH
 STOP.F         2310.0000:   STOP DEPTH
 STEP.F            0.5000:   STEP LENGTH
 NULL.          -999.2500:   NO VALUE
 COMP. BROWN JOHN E&C INC:   COMPANY
 WELL. NAVAL PETROLEUM RESERVE 3 STX- #22-10:   WELL
 FLD .             TEAPOT:   FIELD
 LOC .      S10 T38N R78W:   LOCATION
 CNTY.            NATRONA:   COUNTY
 STAT.            WYOMING:   STATE
 CTRY. UNITED STATES OF AMERICA:   COUNTRY
 SRVC.            Unknown:   SERVICE COMPANY
 DATE.        26-AUG-1991:   LOGDATE
 API .       490251111700:   API NUMBER
~CURVE INFORMATION
#MNEM.UNIT       API CODE    CURVE DESCRIPTION
#----------   ------------   ------------------------------
 DEPT.F                  :   
 ROP .MIN/FT 91 810 01 00:   RAT OF DRILLING PENETRATION
 TGAS.UNITS  91 830 01 00:   TOTAL GAS FROM HOTWIRE
~PARAMETER INFORMATION
#MNEM.UNIT          VALUE    DESCRIPTION
#----------   ------------   ------------------------------
 EKB .F              5277:   KELLING BUSHING
 EGL .F              5267:   GROUND LEVEL
 DATE.            8-26-91:   RUN DATE
 DD  .F              2311:   DEPTH DRILLER
 TCS .HRS            0200:   TIME CURCULATED STOPPED
 TLAB.HRS            2335:   TIME LOGGER AT BOTTOM
 ENGI.              TOWER:   RECORDING ENGINEER
 WITN.               HUSK:   WITNESSED BY
 CLNT.            A2DTECH:   CLIENT CODE
 ORIG.           5" PRINT:   ORIGIN OF DATA
 UWI .       490251111700:   UNIQUE WELL ID
 DICO. A2D Technologies, Inc.:   DIGITIZING COMPANY
~OTHER INFORMATION
~A  DEPT         ROP      TGAS  
# ...
 1834.5000     0.8228    97.1148
 1835.0000     0.8315    97.0693
 1835.5000     0.8274    97.0239
 1836.0000     0.8116    96.9785
 1836.5000     0.7988    96.9331
 1837.0000     0.8205    96.8876
 1837.5000     0.8425    96.8419
 1838.0000     0.8435    96.7964
 1838.5000     0.8373    96.7945
 1839.0000     0.8309    96.7948
 1839.5000     0.8249    96.7949
 1840.0000     0.8387    96.7949
 1840.5000     0.9000    96.7949
 1841.0000     0.9595    96.7949
 1841.5000     1.0184    96.7949
 1842.0000     1.0665    96.7949
 1842.5000     1.0402    96.7949
 1843.0000     0.9942    96.7949
 1843.5000     0.9473    96.7949
 1844.0000     0.9299    96.7949
 1844.5000     0.9426    96.7949
 1845.0000     0.9550    96.7949
 1845.5000     0.9745    96.7949
 1846.0000     0.9171    96.7949
 1846.5000     0.8500    96.7949
 1847.0000     0.7536    96.7949
 1847.5000     0.6494    96.7949
 1848.0000     0.5974    96.7949
 1848.5000     0.6302    96.7949
 1849.0000     0.6671    96.7949
 1849.5000     0.7043    96.7949
 1850.0000     0.7415    96.7949
 1850.5000     0.7587    96.7949
 1851.0000     0.7326    96.7949
 1851.5000     0.7107    96.7949
 1852.0000     0.7265    96.7949
 1852.5000     0.7425    96.7949
 1853.0000     0.7583    96.7949
 1853.5000     0.7720    96.7949
 1854.0000     0.7610    96.7949
 1854.5000     0.7498    96.7949
 1855.0000     0.7382    96.7949
 1855.5000     0.7347    96.7949
 1856.0000     0.7360    96.7949
 1856.5000     0.7675    96.7949
 1857.0000     0.7991    96.7949
 1857.5000     0.8303    96.7949
 1858.0000     0.8615    96.7949
 1858.5000     0.8860    96.7949
 1859.0000     0.8722    96.7949
 1859.5000     0.8589    96.7949
 1860.0000     0.8457    96.7949
 1860.5000     0.8355    96.7949
 1861.0000     0.8512    96.7949
 1861.5000     0.8672    96.7949
 1862.0000     0.8640    96.7949
 1862.5000     0.8494    96.7949
 1863.0000     0.8348    96.7949
 1863.5000     0.8246    96.7949
 1864.0000     0.8372    96.7949
 1864.5000     0.8493    96.7949
 1865.0000     0.8613    96.7948
 1865.5000     0.8736    96.7950
 1866.0000     0.8847    96.7984
 1866.5000     0.8544    96.6982
 1867.0000     0.8218    96.5838
 1867.5000     0.7892    96.4681
 1868.0000     0.7569    96.3527
 1868.5000     0.7245    96.2375
 1869.0000     0.7078    96.1222
 1869.5000     0.7097    96.0069
 1870.0000     0.7391    95.8917
 1870.5000     0.8258    95.7764
 1871.0000     0.9309    95.6611
 1871.5000     1.0368    95.5459
 1872.0000     1.1244    95.4306
 1872.5000     1.1971    95.3153
 1873.0000     1.2148    95.2001
 1873.5000     1.2298    95.0848
 1874.0000     1.2601    94.9695
 1874.5000     1.3147    94.8542
 1875.0000     1.4469    94.7390
 1875.5000     1.5813    94.6237
 1876.0000     1.7141    94.5064
 1876.5000     1.7312    94.3740
 1877.0000     1.3560    94.2018
 1877.5000     0.9958    94.1232
 1878.0000     0.6256   102.8505
 1878.5000     0.4805   136.3025
 1879.0000     0.5117   169.2478
 1879.5000     0.5593   181.2587
 1880.0000     0.5890   187.7878
 1880.5000     0.6182   188.2296
 1881.0000     0.6254   185.8050
 1881.5000     0.6058   183.8590
 1882.0000     0.5865   181.8714
 1882.5000     0.5715   179.8671
 1883.0000     0.5818   177.8686
 1883.5000     0.5918   175.8610
 1884.0000     0.6016   174.6197
 1884.5000     0.6090   173.9460
 1885.0000     0.6058   173.2697
 1885.5000     0.6030   172.5830
 1886.0000     0.6001   172.1691
 1886.5000     0.5968   171.6951
 1887.0000     0.6106   171.2242
 1887.5000     0.6275   170.7504
 1888.0000     0.6446   170.2764
 1888.5000     0.6617   169.8025
 1889.0000     0.6820   169.3286
 1889.5000     0.7077   168.8552
 1890.0000     0.7334   168.3829
 1890.5000     0.7593   167.9035
 1891.0000     0.7832   167.4148
 1891.5000     0.7384   166.4415
 1892.0000     0.6964   164.8483
 1892.5000     0.7173   163.2549
 1893.0000     0.7351   161.6543
 1893.5000     0.7071   160.0536
 1894.0000     0.6775   158.4545
 1894.5000     0.6482   156.8573
 1895.0000     0.6556   155.5631
 1895.5000     0.6652   154.9273
 1896.0000     0.6749   154.2911
 1896.5000     0.6840   153.5937
 1897.0000     0.6558   152.1539
 1897.5000     0.6244   151.8895
 1898.0000     0.5932   151.9139
 1898.5000     0.5620   151.9241
 1899.0000     0.5627   151.9231
 1899.5000     0.5939   151.9234
 1900.0000     0.6254   151.9241
 1900.5000     0.6585   151.9300
 1901.0000     0.6421   151.9148
 1901.5000     0.6167   150.5383
 1902.0000     0.6001   148.9862
 1902.5000     0.6807   147.4327
 1903.0000     0.7601   145.8801
 1903.5000     0.8511   144.3281
 1904.0000     0.9402   142.7820
 1904.5000     1.0292   141.5021
 1905.0000     1.0854   140.9822
 1905.5000     1.1087   140.4497
 1906.0000     1.1321   139.9163
 1906.5000     1.1561   139.3834
 1907.0000     1.1538   138.8495
 1907.5000     1.1426   138.3154
 1908.0000     1.1077   137.8270
 1908.5000     1.0496   137.7131
 1909.0000     0.9916   137.5948
 1909.5000     0.9333   137.4743
 1910.0000     0.8748   137.3537
 1910.5000     0.8171   137.2330
 1911.0000     0.8175   137.1122
 1911.5000     0.8451   136.9915
 1912.0000     0.8719   136.8713
 1912.5000     0.8555   136.7515
 1913.0000     0.7960   136.6281
 1913.5000     0.7367   136.4072
 1914.0000     0.6771   135.8268
 1914.5000     0.6510   135.2551
 1915.0000     0.6581   134.6842
 1915.5000     0.6652   134.1129
 1916.0000     0.6728   133.5417
 1916.5000     0.6909   132.9705
 1917.0000     0.7091   132.3993
 1917.5000     0.7166   131.8281
 1918.0000     0.7238   131.2569
 1918.5000     0.7311   130.6857
 1919.0000     0.7270   130.1145
 1919.5000     0.7113   129.5433
 1920.0000     0.6957   128.9721
 1920.5000     0.6799   128.4009
 1921.0000     0.6641   127.8297
 1921.5000     0.6484   127.2585
 1922.0000     0.6357   126.6873
 1922.5000     0.6883   126.1161
 1923.0000     0.7711   125.5447
 1923.5000     0.8539   124.9737
 1924.0000     0.9378   124.4013
 1924.5000     0.9736   123.8242
 1925.0000     0.8922   123.7185
 1925.5000     0.8162   123.7165
 1926.0000     0.7381   123.7176
 1926.5000     0.7102   123.7176
 1927.0000     0.7070   123.7175
 1927.5000     0.7268   123.6489
 1928.0000     0.7462   123.5359
 1928.5000     0.6956   123.4221
 1929.0000     0.6381   123.3077
 1929.5000     0.5938   123.1935
 1930.0000     0.5487   123.0792
 1930.5000     0.5095   122.9650
 1931.0000     0.5157   122.8506
 1931.5000     0.5193   122.7356
 1932.0000     0.4706   122.6215
 1932.5000     0.4772   122.5108
 1933.0000     0.5446   122.6724
 1933.5000     0.6381   123.3420
 1934.0000     0.7432   124.0037
 1934.5000     0.7860   124.6660
 1935.0000     0.8271   125.3256
 1935.5000     0.8689   125.9887
 1936.0000     0.9127   126.0723
 1936.5000     0.8982   125.7119
 1937.0000     0.8636   125.3485
 1937.5000     0.8282   124.9819
 1938.0000     0.8122   124.6128
 1938.5000     0.8190   124.2427
 1939.0000     0.8254   123.9006
 1939.5000     0.8320   124.4040
 1940.0000     0.8249   126.7539
 1940.5000     0.8042   129.0094
 1941.0000     0.7631   131.2651
 1941.5000     0.7136   133.5261
 1942.0000     0.6641   135.7799
 1942.5000     0.6146   138.0348
 1943.0000     0.5650   138.9899
 1943.5000     0.5153   138.6278
 1944.0000     0.4724   138.2775
 1944.5000     0.4963   137.9113
 1945.0000     0.4970   137.8996
 1945.5000     0.4747   138.0435
 1946.0000     0.4677   138.1910
 1946.5000     0.5045   138.3387
 1947.0000     0.5398   138.4859
 1947.5000     0.5728   138.6331
 1948.0000     0.5954   138.7803
 1948.5000     0.5405   138.9275
 1949.0000     0.4766   139.0747
 1949.5000     0.4109   139.2219
 1950.0000     0.4212   139.3690
 1950.5000     0.5042   139.5162
 1951.0000     0.5700   139.6634
 1951.5000     0.6054   139.8106
 1952.0000     0.6702   139.9579
 1952.5000     0.7350   140.1054
 1953.0000     0.7619   140.2531
 1953.5000     0.7902   140.3817
 1954.0000     0.7973   140.3347
 1954.5000     0.7827   140.2872
 1955.0000     0.7181   140.2406
 1955.5000     0.6617   140.1942
