~VERSION INFORMATION
 VERS.                2.0:   CWLS LOG ASCII STANDARD - VERSION 2.0
 WRAP.                 NO:   ONE LINE PER DEPTH STEP
~WELL INFORMATION
#MNEM.UNIT      DATA TYPE    INFORMATION
#----------   ------------   ------------------------------
 STRT.F            9.5000:   START DEPTH
 STOP.F          640.5000:   STOP DEPTH
 STEP.F            0.5000:   STEP LENGTH
 NULL.          -999.2500:   NO VALUE
 COMP. FENIX & SCISSON INC:   COMPANY
 WELL. 27-32 SX 11 WI #27-32 SX:   WELL
 FLD .            WILDCAT:   FIELD
 LOC .      S11 T38N R78W:   LOCATION
 CNTY.            NATRONA:   COUNTY
 STAT.            WYOMING:   STATE
 CTRY. UNITED STATES OF AMERICA:   COUNTRY
 SRVC.      Dresser Atlas:   SERVICE COMPANY
 DATE.        01-AUG-1980:   LOGDATE
 API .       490251083700:   API NUMBER
~CURVE INFORMATION
#MNEM.UNIT       API CODE    CURVE DESCRIPTION
#----------   ------------   ------------------------------
 DEPT.F                  :   
 SPR .MV     07 010 01 00:   SPONTANEOUS POTENTIAL
 SFL .OHMM   07 220 01 00:   SHALLOW FOCUSED LOG RESISTIVITY
 ILD .OHMM   07 120 46 00:   INDUCTION LOG DEEP
 ILM .OHMM   07 120 44 00:   INDUCTION LOG MEDIUM
 GRD .GAPI   45 310 01 00:   GAMMA RAY FROM DENSITY LOG
 CALD.IN     45 280 60 00:   CALIPER
 RHOB.G/C3   45 350 01 00:   BULK DENSITY
 CORR.G/C3   45 356 01 00:   DENSITY CORRECTION
 DPHI.DEC    45 890 12 00:   DENSITY POROSITY SANDSTONE
 NPHI.DEC    42 890 03 00:   NEUTRON POROSITY SANDSTONE
~PARAMETER INFORMATION
#MNEM.UNIT          VALUE    DESCRIPTION
#----------   ------------   ------------------------------
 PD  .                 GL:   PERMANENT DATUM
 EPD .F              5189:   ELEVATION PERMANENT DATUM
 LMF .                 KB:   LOG MEASURED FROM
 DAPD.F                 5:   FEET ABOVE PERMANENT DATUM
 DMF .                 KB:   DRILLING MEASURED FROM
 EKB .F              5194:   KELLING BUSHING
 EGL .F              5189:   GROUND LEVEL
 DATE.             8-1-80:   RUN DATE
 RUN .                  1:   RUN NUMBER
 DD  .F               625:   DEPTH DRILLER
 DL  .F               634:   DEPTH LOGGER
 BLI .F               632:   BOTTOM LOG INTERVAL
 TLI .F                12:   TOP LOG INTERVAL
 BS  .IN            7.875:   BIT SIZE
 BSD .F               625:   BIT SIZE AT DEPTH
 DFT .           CHEM GEL:   DRILLING FLUID TYPE
 DFD .                9.1:   DRILLING FLUID DENSITY
 DFV .                 44:   DRILLING FLUID VISCOSITY
 DFPH.                9.5:   DRILLING FLUID PH
 DFL .                7.6:   DRILLING FLUID LOSS
 MSS .           FLOWLINE:   MUD SAMPLE SOURCE
 RMS .OHMM            .27:   RESISTIVITY MUD SAMPLE
 MST .F                70:   MUD SAMPLE TEMPERATURE
 RMF .OHMM            .16:   RESISTIVITY MUD FILTRATE SAMPLE
 MFST.F                65:   MUD FILTRATE SAMPLE TEMPERATURE
 MFSS.               MEAS:   MUD FILTRATE SAMPLE SOURCE
 MCSS.               MEAS:   MUD CAKE SAMPLE SOURCE
 RMB .OHMM            .21:   RESISTIVITY MUD AT BHT
 BHT .F                94:   BOTTOM HOLE TEMPERATURE
 TCS .HRS            0040:   TIME CURCULATED STOPPED
 MRT .F                94:   MAXIMUM RECORDED TEMPERATURE
 LUN .               6145:   LOGGING UNIT NUMBER
 LUL .              GLTTE:   LOGGING UNIT LOCATION
 ENGI.              HENRY:   RECORDING ENGINEER
 WITN.              AMEND:   WITNESSED BY
 CLNT.            A2DTECH:   CLIENT CODE
 ORIG.     1", 2.5" PRINT:   ORIGIN OF DATA
 UWI .       490251083700:   UNIQUE WELL ID
 DICO. A2D Technologies, Inc.:   DIGITIZING COMPANY
~OTHER INFORMATION
~A    DEPT     SPR         SFL         ILD        ILM      GRD       CALD       RHOB       CORR       DPHI       NPHI   
# ...
   76.5000   -49.8902    10.7786     9.1971    10.0541    72.5509     8.2425     2.4316     0.0267     0.1485     0.2387
   77.0000   -50.1793    11.1981     9.5038    10.2354    71.7331     8.2457     2.4233     0.0214     0.1539     0.2403
   77.5000   -49.9992    11.7306     9.8208    10.3998    73.3969     8.2490     2.4149     0.0163     0.1593     0.2435
   78.0000   -49.7844    11.6748    10.1480    10.5671    75.0096     8.2521     2.4064     0.0121     0.1649     0.2485
   78.5000   -49.5508    11.5639    10.4855    10.7371    76.1073     8.2554     2.3986     0.0120     0.1688     0.2545
   79.0000   -49.3280    11.4540    10.8337    10.9112    76.0093     8.2585     2.3893     0.0120     0.1729     0.2605
   79.5000   -49.1030    11.3452    11.1165    11.1153    73.5839     8.2618     2.3934     0.0121     0.1708     0.2664
   80.0000   -48.8765    11.2374    11.1165    11.3248    71.2263     8.2649     2.3989     0.0117     0.1672     0.2694
   80.5000   -48.6516    11.1165    11.1165    11.5383    70.5124     8.2682     2.4050     0.0154     0.1636     0.2715
   81.0000   -48.4256    11.1165    11.1165    11.7558    71.4031     8.2714     2.4051     0.0229     0.1625     0.2715
   81.5000   -48.2004    11.1165    11.1672    11.9775    72.3688     8.2745     2.4025     0.0299     0.1641     0.2693
   82.0000   -47.9758    11.3865    11.3350    12.2033    73.2747     8.2780     2.4001     0.0378     0.1657     0.2660
   82.5000   -47.7482    11.6894    11.5053    12.4333    74.0292     8.2782     2.3979     0.0363     0.1673     0.2628
   83.0000   -47.5259    12.0003    11.6782    12.6694    73.2468     8.2783     2.3951     0.0275     0.1689     0.2595
   83.5000   -47.3013    12.3195    11.8537    12.9068    72.7007     8.2782     2.3965     0.0202     0.1705     0.2563
   84.0000   -47.0592    12.6472    12.0318    13.4136    74.4183     8.2782     2.4006     0.0132     0.1625     0.2563
   84.5000   -46.9836    12.9836    12.2126    13.9362    75.9698     8.2782     2.4018     0.0238     0.1651     0.2563
   85.0000   -47.1079    13.3289    12.3962    14.4793    77.5834     8.2782     2.3981     0.0323     0.1682     0.2563
   85.5000   -47.2138    13.6835    12.5824    15.0439    79.2743     8.2782     2.3951     0.0365     0.1713     0.2563
   86.0000   -47.3194    14.0474    12.7715    15.6311    79.2793     8.2782     2.3928     0.0322     0.1721     0.2563
   86.5000   -47.4298    14.4211    12.9634    16.1499    77.8687     8.2782     2.4018     0.0339     0.1656     0.2566
   87.0000   -47.5369    14.8047    13.1582    17.0688    76.5145     8.2782     2.4125     0.0380     0.1586     0.2571
   87.5000   -47.6457    15.1985    13.3949    17.0688    75.0642     8.2782     2.4286     0.0424     0.1529     0.2576
   88.0000   -47.7538    15.6057    13.6470    16.7535    74.5115     8.2782     2.4497     0.0463     0.1401     0.2568
   88.5000   -47.8601    16.0226    13.6633    16.6974    74.5880     8.2782     2.4608     0.0475     0.1329     0.2540
   89.0000   -47.9724    16.6574    13.6792    16.6091    74.2092     8.2782     2.4447     0.0344     0.1390     0.2515
   89.5000   -48.0743    16.6074    13.6952    16.5213    72.8403     8.2782     2.4260     0.0235     0.1524     0.2574
   90.0000   -48.1566    16.0858    13.7111    16.4441    72.0517     8.2782     2.4078     0.0124     0.1658     0.2660
   90.5000   -47.9706    15.5521    13.7271    15.7421    72.1769     8.2782     2.3884     0.0136     0.1747     0.2684
   91.0000   -47.8079    15.9762    13.7435    15.1392    72.1161     8.2782     2.3876     0.0183     0.1702     0.2687
   91.5000   -47.6301    16.4441    13.7591    14.5594    73.3511     8.2782     2.4090     0.0236     0.1609     0.2689
   92.0000   -47.4410    15.7579    13.7751    13.9039    74.9113     8.2782     2.4020     0.0203     0.1654     0.2692
   92.5000   -47.3853    15.0954    13.7917    13.8263    75.7939     8.2781     2.3893     0.0165     0.1730     0.2695
   93.0000   -47.4955    14.4607    13.8079    13.7324    75.4224     8.2792     2.3765     0.0124     0.1805     0.2697
   93.5000   -47.5752    13.9039    13.8244    13.6390    75.7441     8.2813     2.3648     0.0086     0.1874     0.2699
   94.0000   -47.6860    13.9310    13.8434    13.5463    76.9056     8.2833     2.3624     0.0043     0.1872     0.2738
   94.5000   -47.8053    13.9702    13.8555    13.4543    78.0030     8.2853     2.3604     0.0047     0.1870     0.2774
   95.0000   -48.4969    14.0095    13.8716    13.3949    79.0954     8.2873     2.3621     0.0061     0.1869     0.2812
   95.5000   -49.1059    14.0489    13.8878    12.9916    80.2041     8.2893     2.3632     0.0077     0.1867     0.2812
   96.0000   -49.7569    14.0884    13.9039    12.6639    81.4041     8.2913     2.3680     0.0091     0.1866     0.2766
   96.5000   -50.3937    14.1280    13.0840    12.3653    81.2311     8.2933     2.3786     0.0106     0.1793     0.2728
   97.0000   -51.0156    14.1655    12.3182    12.0737    79.9863     8.2953     2.3888     0.0121     0.1722     0.2691
   97.5000   -51.6786    14.0767    11.5973    10.9775    78.5921     8.2973     2.4041     0.0136     0.1640     0.2724
   98.0000   -52.2718    13.9929    10.9186     9.6272    79.5035     8.2993     2.4190     0.0151     0.1554     0.2755
   98.5000   -53.2307    13.9039    10.2796     8.4430    81.5708     8.3013     2.4340     0.0165     0.1468     0.2759
   99.0000   -54.1426    13.9039     9.6780     7.8261    83.9545     8.3033     2.4491     0.0180     0.1382     0.2743
   99.5000   -54.9673    11.5885     9.1116     7.6061    86.6889     8.3052     2.4595     0.0195     0.1317     0.2768
  100.0000   -55.6295     9.8887     8.5783     7.3923    89.2980     8.3072     2.4681     0.0202     0.1258     0.2823
  100.5000   -56.2925     8.4383     8.0763     7.1845    91.7108     8.3095     2.4783     0.0201     0.1200     0.2879
  101.0000   -57.0700     7.8005     7.6036     6.9826    91.2522     8.3109     2.4911     0.0193     0.1142     0.2934
  101.5000   -57.4029     8.0319     7.1586     6.7196    90.8969     8.3132     2.4977     0.0163     0.1088     0.3020
  102.0000   -57.4824     8.8880     6.7762     6.7242    92.7677     8.3168     2.4885     0.0134     0.1171     0.3092
  102.5000   -57.3495     8.8173     6.5140     6.7420    94.5817     8.3131     2.4756     0.0104     0.1247     0.3132
  103.0000   -57.2475     8.6694     6.2367     6.7597    94.0648     8.3515     2.4638     0.0076     0.1323     0.3132
  103.5000   -57.1487     8.5240     6.2554     6.7775    92.7533     8.3509     2.4498     0.0043     0.1385     0.3104
  104.0000   -57.0408     8.3810     6.2925     6.7954    93.3964     8.3451     2.4489     0.0060     0.1393     0.3054
  104.5000   -56.9381     8.2405     6.3299     6.8133    91.6840     8.3355     2.4486     0.0083     0.1380     0.3051
  105.0000   -56.8327     8.0969     6.3630     6.8312    90.0614     8.3286     2.4489     0.0108     0.1359     0.3075
  105.5000   -56.7293     8.0969     6.3882     6.8492    88.2830     8.3209     2.4534     0.0132     0.1338     0.3092
  106.0000   -56.5591     7.9473     6.4134     6.8673    86.4272     8.3130     2.4584     0.0156     0.1329     0.3092
  106.5000   -56.3737     8.1758     6.4388     6.8855    85.3503     8.3055     2.4562     0.0180     0.1337     0.3092
  107.0000   -56.1858     8.5644     6.4642     6.9040    85.4617     8.2977     2.4616     0.0204     0.1299     0.3091
  107.5000   -55.9798     9.0488     6.4898     6.9227    86.1897     8.2900     2.4705     0.0228     0.1235     0.3011
  108.0000   -55.9667     9.2298     6.5155     6.9402    87.1292     8.2823     2.4797     0.0251     0.1160     0.2963
  108.5000   -56.1833     9.0984     6.5412     6.9563    88.0941     8.2747     2.4791     0.0276     0.1203     0.2929
  109.0000   -56.3797     8.9132     6.5671     6.9717    89.0657     8.2670     2.4707     0.0257     0.1253     0.2894
  109.5000   -56.5763     8.7307     6.5955     6.8737    89.9107     8.2593     2.4616     0.0166     0.1297     0.2860
