~VERSION INFORMATION
 VERS.                2.0:   CWLS LOG ASCII STANDARD - VERSION 2.0
 WRAP.                 NO:   ONE LINE PER DEPTH STEP
~WELL INFORMATION
#MNEM.UNIT      DATA TYPE    INFORMATION
#----------   ------------   ------------------------------
 STRT.F           38.0000:   START DEPTH
 STOP.F          846.0000:   STOP DEPTH
 STEP.F            0.5000:   STEP LENGTH
 NULL.          -999.2500:   NO VALUE
 COMP. FENIX & SCISSON INC:   COMPANY
 WELL.    NPR 3 #34-SX-14:   WELL
 FLD .        TEAPOT DOME:   FIELD
 LOC .      S14 T38N R78W:   LOCATION
 CNTY.            NATRONA:   COUNTY
 STAT.            WYOMING:   STATE
 CTRY. UNITED STATES OF AMERICA:   COUNTRY
 SRVC.           BIRDWELL:   SERVICE COMPANY
 DATE.        26-APR-1978:   LOGDATE
 API .       490251063500:   API NUMBER
~CURVE INFORMATION
#MNEM.UNIT       API CODE    CURVE DESCRIPTION
#----------   ------------   ------------------------------
 DEPT.F                  :   
 NEUT.CPS    81 330 30 00:   NEUTRON
 TT  .US/F   81 520 00 00:   TRANSIT TIME
 GRD .GAPI   45 310 01 00:   GAMMA RAY FROM DENSITY LOG
 RHOB.G/C3   45 350 01 00:   BULK DENSITY
 DPOR.DEC    45 890 10 00:   DENSITY POROSITY
 CALD.IN     45 280 60 00:   CALIPER FROM DENSITY LOG
 CORR.G/C3   45 356 01 00:   DENSITY CORRECTION
~PARAMETER INFORMATION
#MNEM.UNIT          VALUE    DESCRIPTION
#----------   ------------   ------------------------------
 PD  .                 GL:   PERMANENT DATUM
 EPD .F              5232:   ELEVATION PERMANENT DATUM
 LMF .                 KB:   LOG MEASURED FROM
 DMF .                 KB:   DRILLING MEASURED FROM
 EKB .F              5236:   KELLING BUSHING
 EGL .F              5232:   GROUND LEVEL
 DATE.          4-26-1978:   RUN DATE
 RUN .                  1:   RUN NUMBER
 DD  .F               855:   DEPTH DRILLER
 DL  .F               853:   DEPTH LOGGER
 BLI .F               846:   BOTTOM LOG INTERVAL
 TLI .F                40:   TOP LOG INTERVAL
 CS  .IN            8.625:   CASING SIZE
 CBD .F                40:   CASING BOTTOM DRILLER
 CBL .F                40:   CASING BOTTOM LOGGER
 BS  .IN            7.875:   BIT SIZE
 BSD .F               855:   BIT SIZE AT DEPTH
 DFT .                KCL:   DRILLING FLUID TYPE
 DFD .                8.5:   DRILLING FLUID DENSITY
 DFV .                 31:   DRILLING FLUID VISCOSITY
 DFPH.                 10:   DRILLING FLUID PH
 DFL .               10.4:   DRILLING FLUID LOSS
 MSS .          FLUID PIT:   MUD SAMPLE SOURCE
 RMS .OHMM            .36:   RESISTIVITY MUD SAMPLE
 MST .F                68:   MUD SAMPLE TEMPERATURE
 RMF .OHMM            .28:   RESISTIVITY MUD FILTRATE SAMPLE
 MFST.F                74:   MUD FILTRATE SAMPLE TEMPERATURE
 RMC .OHMM            .48:   RESISTIVITY MUD CAKE
 MCST.F                79:   MUD CAKE SAMPLE TEMPERATURE
 MFSS.               MEAS:   MUD FILTRATE SAMPLE SOURCE
 RMB .OHMM            .33:   RESISTIVITY MUD AT BHT
 BHT .F                75:   BOTTOM HOLE TEMPERATURE
 TCS .HRS               1:   TIME CURCULATED STOPPED
 MRT .F                75:   MAXIMUM RECORDED TEMPERATURE
 LUN .               3006:   LOGGING UNIT NUMBER
 LUL .              CASP.:   LOGGING UNIT LOCATION
 ENGI.             MILLER:   RECORDING ENGINEER
 WITN.           MCGINLEY:   WITNESSED BY
 CLNT.            A2DTECH:   CLIENT CODE
 ORIG.      2" , 5" PRINT:   ORIGIN OF DATA
 UWI .       490251063500:   UNIQUE WELL ID
 DICO. A2D Technologies, Inc.:   DIGITIZING COMPANY
~OTHER INFORMATION
~A   DEPT     NEUT         TT         GRD      RHOB       DPOR       CALD       CORR   
# ...
  311.0000  -999.2500  -999.2500    87.5142     2.4723     0.0983     8.4900     0.0299
  311.5000  -999.2500  -999.2500    86.1376     2.4758     0.0972     8.4537     0.0290
  312.0000  -999.2500  -999.2500    84.7712     2.4793     0.0963     8.4174     0.0282
  312.5000  -999.2500  -999.2500    83.4015     2.4829     0.0878     8.3813     0.0273
  313.0000  -999.2500  -999.2500    82.0318     2.4865     0.0898     8.3452     0.0265
  313.5000  -999.2500  -999.2500    80.6625     2.4839     0.0930     8.3149     0.0253
  314.0000  -999.2500  -999.2500    79.3006     2.4790     0.0961     8.2699     0.0246
  314.5000  -999.2500  -999.2500    78.9029     2.4739     0.0990     8.2254     0.0279
  315.0000  -999.2500  -999.2500    78.8970     2.4689     0.1032     8.1812     0.0262
  315.5000  -999.2500  -999.2500    79.0846     2.4638     0.1066     8.1427     0.0242
  316.0000  -999.2500  -999.2500    79.4290     2.4586     0.1066     8.1435     0.0253
  316.5000  -999.2500  -999.2500    79.7737     2.4568     0.1072     8.1430     0.0268
  317.0000  -999.2500  -999.2500    80.1179     2.4551     0.1088     8.1222     0.0283
  317.5000  -999.2500  -999.2500    80.4630     2.4533     0.1103     8.1228     0.0298
  318.0000  -999.2500  -999.2500    80.7992     2.4515     0.1110     8.1025     0.0313
  318.5000  -999.2500  -999.2500    82.0857     2.4556     0.1069     8.0680     0.0328
  319.0000  -999.2500  -999.2500    83.0631     2.4605     0.1030     8.0028     0.0343
  319.5000  -999.2500  -999.2500    82.6764     2.4655     0.1002     7.9369     0.0358
  320.0000  -999.2500  -999.2500    82.3070     2.4666     0.1016     7.8713     0.0372
  320.5000  -999.2500  -999.2500    81.9244     2.4670     0.1028     7.8235     0.0387
  321.0000  -999.2500  -999.2500    82.2022     2.4672     0.0988     7.8449     0.0404
  321.5000  -999.2500  -999.2500    82.9503     2.4768     0.0948     7.8646     0.0463
  322.0000  -999.2500  -999.2500    83.7198     2.4802     0.0938     7.8513     0.0519
  322.5000  -999.2500  -999.2500    84.4908     2.4780     0.0991     7.8164     0.0499
  323.0000  -999.2500  -999.2500    85.1661     2.4636     0.1046     7.7849     0.0461
  323.5000  -999.2500  -999.2500    83.2114     2.4494     0.1086     7.7938     0.0366
  324.0000  -999.2500  -999.2500    81.2510     2.4446     0.0985     7.8343     0.0347
  324.5000  -999.2500  -999.2500    81.7591     2.4707     0.0918     7.8730     0.0563
  325.0000  -999.2500  -999.2500    82.5941     2.4874     0.0919     7.9117     0.0784
  325.5000  -999.2500  -999.2500    83.4337     2.4875     0.0922     7.9508     0.0822
  326.0000  -999.2500  -999.2500    84.2722     2.4893     0.0846     7.9650     0.0822
  326.5000  -999.2500  -999.2500    84.6208     2.4933     0.0893     7.9676     0.0822
  327.0000  -999.2500  -999.2500    83.8468     2.4911     0.0930     7.9699     0.0816
  327.5000  -999.2500  -999.2500    83.0767     2.4885     0.0930     7.9722     0.0802
  328.0000  -999.2500  -999.2500    82.7517     2.4859     0.0923     7.9745     0.0806
  328.5000  -999.2500  -999.2500    84.2351     2.4836     0.0907     7.9769     0.0810
  329.0000  -999.2500  -999.2500    85.6862     2.4868     0.0890     7.9792     0.0815
  329.5000  -999.2500  -999.2500    86.7620     2.4895     0.0900     7.9815     0.0818
  330.0000  -999.2500  -999.2500    85.7710     2.4890     0.0910     7.9834     0.0812
  330.5000  -999.2500  -999.2500    84.7455     2.4886     0.0908     8.0078     0.0752
  331.0000  -999.2500  -999.2500    83.9062     2.4895     0.0893     8.0395     0.0718
  331.5000  -999.2500  -999.2500    83.8817     2.4910     0.0878     8.0713     0.0690
  332.0000  -999.2500  -999.2500    82.7498     2.4925     0.0883     8.1031     0.0662
  332.5000  -999.2500  -999.2500    80.1961     2.4933     0.0897     8.1348     0.0634
  333.0000  -999.2500  -999.2500    79.7628     2.4921     0.0906     8.1666     0.0606
  333.5000  -999.2500  -999.2500    82.4064     2.4930     0.0886     8.1983     0.0606
  334.0000  -999.2500  -999.2500    81.6317     2.5004     0.0820     8.2301     0.0612
  334.5000  -999.2500  -999.2500    80.4861     2.5076     0.0750     8.2618     0.0617
  335.0000  -999.2500  -999.2500    80.1926     2.5150     0.0749     8.2936     0.0604
  335.5000  -999.2500  -999.2500    83.4195     2.5176     0.0766     8.3254     0.0541
  336.0000  -999.2500  -999.2500    87.0899     2.5054     0.0857     8.3572     0.0429
  336.5000  -999.2500  -999.2500    86.1454     2.4878     0.0904     8.3840     0.0318
  337.0000  -999.2500  -999.2500    85.2751     2.4876     0.0903     8.3833     0.0244
  337.5000  -999.2500  -999.2500    85.6932     2.4876     0.0916     8.3824     0.0264
  338.0000  -999.2500  -999.2500    87.1041     2.4865     0.0918     8.3783     0.0282
  338.5000  -999.2500  -999.2500    86.9909     2.4874     0.0912     8.3743     0.0300
  339.0000  -999.2500  -999.2500    86.2923     2.4883     0.0905     8.3704     0.0318
  339.5000  -999.2500  -999.2500    85.5717     2.4892     0.0904     8.3664     0.0336
  340.0000  -999.2500  -999.2500    84.8522     2.4901     0.0909     8.3624     0.0333
  340.5000  -999.2500  -999.2500    84.1316     2.4879     0.0938     8.3585     0.0322
  341.0000  -999.2500  -999.2500    84.1312     2.4806     0.0962     8.3545     0.0310
  341.5000  -999.2500  -999.2500    85.0767     2.4769     0.0960     8.3505     0.0299
  342.0000  -999.2500  -999.2500    80.7024     2.4792     0.0958     8.3465     0.0288
  342.5000  -999.2500  -999.2500    82.6569     2.4782     0.0969     8.3426     0.0277
  343.0000  -999.2500  -999.2500    84.0669     2.4765     0.0981     8.3386     0.0266
  343.5000  -999.2500  -999.2500    85.5242     2.4748     0.0986     8.3347     0.0254
  344.0000  -999.2500  -999.2500    87.0111     2.4747     0.0973     8.3308     0.0243
  344.5000  -999.2500  -999.2500    84.9694     2.4752     0.0958     8.3261     0.0232
  345.0000  -999.2500  -999.2500    82.6029     2.4739     0.0990     8.3084     0.0221
  345.5000  -999.2500  -999.2500    82.9788     2.4687     0.1018     8.3186     0.0209
  346.0000  -999.2500  -999.2500    84.3349     2.4669     0.0999     8.3356     0.0202
  346.5000  -999.2500  -999.2500    85.6684     2.4710     0.0966     8.3521     0.0212
  347.0000  -999.2500  -999.2500    86.9793     2.4751     0.0952     8.3686     0.0222
  347.5000  -999.2500  -999.2500    87.9247     2.4793     0.0947     8.3850     0.0232
  348.0000  -999.2500  -999.2500    87.6029     2.4792     0.0949     8.4015     0.0239
  348.5000  -999.2500  -999.2500    87.3745     2.4780     0.0958     8.4180     0.0231
  349.0000  -999.2500  -999.2500    87.1275     2.4770     0.0952     8.4344     0.0220
  349.5000  -999.2500  -999.2500    86.8839     2.4788     0.0938     8.4509     0.0269
  350.0000  -999.2500  -999.2500    86.6398     2.4899     0.0853     8.4674     0.0327
  350.5000  -999.2500  -999.2500    86.3977     2.5008     0.0773     8.4838     0.0388
  351.0000  -999.2500  -999.2500    86.1400     2.5055     0.0840     8.5003     0.0373
  351.5000  -999.2500  -999.2500    86.6180     2.5010     0.0898     8.5170     0.0336
  352.0000  -999.2500  -999.2500    87.4037     2.4931     0.0883     8.5223     0.0307
  352.5000  -999.2500  -999.2500    88.2027     2.4906     0.0848     8.5077     0.0327
  353.0000  -999.2500  -999.2500    88.9148     2.4956     0.0810     8.4928     0.0345
  353.5000  -999.2500  -999.2500    89.4860     2.5004     0.0810     8.4780     0.0359
  354.0000  -999.2500  -999.2500    87.4584     2.5024     0.0874     8.4632     0.0344
  354.5000  -999.2500  -999.2500    85.3052     2.4997     0.0857     8.4485     0.0329
  355.0000  -999.2500  -999.2500    83.7037     2.4967     0.0858     8.4337     0.0321
  355.5000  -999.2500  -999.2500    84.6427     2.4937     0.0902     8.4189     0.0321
  356.0000  -999.2500  -999.2500    84.1317     2.4906     0.0903     8.4036     0.0321
