~VERSION INFORMATION
 VERS.                2.0:   CWLS LOG ASCII STANDARD - VERSION 2.0
 WRAP.                 NO:   ONE LINE PER DEPTH STEP
~WELL INFORMATION
#MNEM.UNIT      DATA TYPE    INFORMATION
#----------   ------------   ------------------------------
 STRT.F           20.0000:   START DEPTH
 STOP.F          500.0000:   STOP DEPTH
 STEP.F            0.5000:   STEP LENGTH
 NULL.          -999.2500:   NO VALUE
 COMP.    FENIX & SCISSON:   COMPANY
 WELL. RES 3 TEAPOT DOM #81SX10-10:   WELL
 FLD .             TEAPOT:   FIELD
 LOC .      S10 T38N R78W:   LOCATION
 CNTY.            NATRONA:   COUNTY
 STAT.            WYOMING:   STATE
 CTRY. UNITED STATES OF AMERICA:   COUNTRY
 SRVC.           BIRDWELL:   SERVICE COMPANY
 DATE.        22-NOV-1978:   LOGDATE
 API .       490251075100:   API NUMBER
~CURVE INFORMATION
#MNEM.UNIT       API CODE    CURVE DESCRIPTION
#----------   ------------   ------------------------------
 DEPT.F                  :   
 ILD .OHMM   05 120 46 00:   INDUCTION LOG DEEP
 SN  .OHMM   05 040 16 00:   SHORT NORMAL 16"
 SPR .MV     05 010 01 00:   SPONTANEOUS POTENTIAL FROM RES.
 CALD.IN     45 280 60 00:   CALIPER FROM DENSITY LOG
 CORR.G/C3   45 356 01 00:   DENSITY CORRECTION
 DPHI.DEC    45 890 10 00:   DENSITY POROSITY LIMESTONE
 GRD .GAPI   45 310 01 00:   GAMMA RAY FROM DENSITY LOG
 RHOB.G/C3   45 350 01 00:   BULK DENSITY
~PARAMETER INFORMATION
#MNEM.UNIT          VALUE    DESCRIPTION
#----------   ------------   ------------------------------
 PD  .                 GL:   PERMANENT DATUM
 EPD .F              5129:   ELEVATION PERMANENT DATUM
 LMF .                 KB:   LOG MEASURED FROM
 DAPD.F                 4:   FEET ABOVE PERMANENT DATUM
 DMF .                 KB:   DRILLING MEASURED FROM
 EKB .F              5133:   KELLING BUSHING
 EGL .F              5129:   GROUND LEVEL
 DATE.        22-NOV-1978:   RUN DATE
 RUN .                  1:   RUN NUMBER
 DD  .F               500:   DEPTH DRILLER
 DL  .F               500:   DEPTH LOGGER
 BLI .F               500:   BOTTOM LOG INTERVAL
 TLI .F                20:   TOP LOG INTERVAL
 CS  .IN            8.625:   CASING SIZE
 CBD .F                40:   CASING BOTTOM DRILLER
 CBL .F                40:   CASING BOTTOM LOGGER
 BS  .IN            7.875:   BIT SIZE
 BSD .F               500:   BIT SIZE AT DEPTH
 DFT .                KCL:   DRILLING FLUID TYPE
 DFD .                8.7:   DRILLING FLUID DENSITY
 DFV .                 36:   DRILLING FLUID VISCOSITY
 DFPH.               11.2:   DRILLING FLUID PH
 DFL .                 94:   DRILLING FLUID LOSS
 MSS .            MUD PIT:   MUD SAMPLE SOURCE
 RMS .OHMM           0.28:   RESISTIVITY MUD SAMPLE
 MST .F                62:   MUD SAMPLE TEMPERATURE
 RMF .OHMM           0.24:   RESISTIVITY MUD FILTRATE SAMPLE
 MFST.F                66:   MUD FILTRATE SAMPLE TEMPERATURE
 RMC .OHMM           0.31:   RESISTIVITY MUD CAKE
 MCST.F                66:   MUD CAKE SAMPLE TEMPERATURE
 MFSS.               MEAS:   MUD FILTRATE SAMPLE SOURCE
 MCSS.               MEAS:   MUD CAKE SAMPLE SOURCE
 RMB .OHMM            0.3:   RESISTIVITY MUD AT BHT
 BHT .F                58:   BOTTOM HOLE TEMPERATURE
 TCS .HRS               1:   TIME CURCULATED STOPPED
 MRT .F                58:   MAXIMUM RECORDED TEMPERATURE
 LUN .               3029:   LOGGING UNIT NUMBER
 LUL .               CASP:   LOGGING UNIT LOCATION
 ENGI.           REYNOLDS:   RECORDING ENGINEER
 WITN.              AMEND:   WITNESSED BY
 CLNT.            A2DTECH:   CLIENT CODE
 ORIG.           5" PRINT:   ORIGIN OF DATA
 UWI .       490251075100:   UNIQUE WELL ID
 DICO. A2D Technologies, Inc.:   DIGITIZING COMPANY
~OTHER INFORMATION
~A   DEPT      ILD         SN        SPR       CALD       CORR       DPHI         GRD      RHOB   
# ...
  384.5000    11.9140    11.7171   -40.5832     7.6377     0.0684     0.1591    93.9268     2.4409
  385.0000    11.9132    11.5873   -41.0345     7.6377     0.0759     0.1335    90.9297     2.4559
  385.5000    11.8299    11.5064   -41.4860     7.6228     0.0789     0.1323    87.7827     2.4627
  386.0000    11.8293    11.5056   -41.7351     7.6263     0.0580     0.1407    84.6357     2.4417
  386.5000    11.8284    11.5047   -41.9386     7.6377     0.0445     0.1559    82.8384     2.4244
  387.0000    11.8276    11.5039   -42.0900     7.6377     0.0445     0.1584    85.3885     2.4296
  387.5000    11.8268    11.5032   -42.0508     7.6377     0.0565     0.1389    86.5893     2.4469
  388.0000    11.8260    11.5024   -41.9430     7.6377     0.0625     0.1316    87.0405     2.4581
  388.5000    11.8250    11.4221   -41.7946     7.6377     0.0670     0.1289    88.0075     2.4649
  389.0000    11.9067    11.4212   -41.6460     7.6377     0.0685     0.1274    90.9417     2.4641
  389.5000    11.9888    11.4204   -41.1980     7.6228     0.0685     0.1274    92.4424     2.4634
  390.0000    12.1552    11.4197   -41.1344     7.6228     0.0654     0.1286    93.1935     2.4604
  390.5000    12.4100    11.4984   -40.5245     7.6078     0.0626     0.1359    93.0449     2.4589
  391.0000    12.7689    11.7393   -40.0033     7.5928     0.0566     0.1394    93.0467     2.4573
  391.5000    13.4850    12.0693   -39.7049     7.5778     0.0506     0.1403    91.6988     2.4558
  392.0000    14.1548    12.6965   -39.2566     7.5778     0.0447     0.1520    87.2025     2.4318
  392.5000    14.9614    13.8624   -38.8082     7.5629     0.0462     0.1610    78.8088     2.3898
  393.0000    15.8139    15.2749   -38.3599     7.5479     0.0477     0.1798    65.7664     2.3289
  393.5000    16.8314    17.0664   -37.6117     7.5180     0.0492     0.2293    59.6205     2.2906
  394.0000    18.3114    18.5463   -36.6777     7.5180     0.0462     0.2569    65.3194     2.2676
  394.5000    20.7212    19.4676   -35.8155     7.4880     0.0447     0.2593    67.4318     2.2523
  395.0000    22.6748    20.4632   -35.2176     7.4731     0.0537     0.2458    69.2206     2.2666
  395.5000    25.1591    21.5987   -34.6193     7.4731     0.0642     0.2293    68.6224     2.2846
  396.0000    25.5092    21.7480   -33.8712     7.5030     0.0765     0.2218    68.0237     2.3029
  396.5000    25.3308    22.0499   -32.8231     7.5180     0.0927     0.2173    69.6747     2.3169
  397.0000    24.8042    22.2022   -32.0659     7.5030     0.1047     0.2133    69.5265     2.3236
  397.5000    24.1268    22.2004   -31.0273     7.4880     0.1167     0.2124    68.7783     2.3266
  398.0000    23.7929    22.3534   -30.2787     7.4581     0.1104     0.2169    69.0796     2.3266
  398.5000    23.6269    22.6637   -29.8304     7.4581     0.0344     0.2232    72.8291     2.3221
  399.0000    23.6253    22.6622   -30.1320     7.4731     0.0254     0.2241    78.6779     2.3183
  399.5000    23.6237    22.5041   -30.7332     7.4880     0.0224     0.2148    77.3300     2.3168
  400.0000    23.7865    22.6596   -30.5847     7.5030     0.0210     0.2016    72.7024     2.3198
  400.5000    23.1328    22.6071   -30.6506     7.4883     0.0150     0.1724    63.2350     2.3726
  401.0000    23.2913    22.5075   -31.6392     7.4722     0.0119     0.1325    56.3356     2.4229
  401.5000    23.7785    23.1438   -32.5416     7.4567     0.0045     0.1133    55.9381     2.4731
  402.0000    23.9414    23.7980   -33.1436     7.4713     0.0030     0.0990    59.9680     2.5380
  402.5000    23.9382    24.1330   -33.4458     7.5158     0.0030     0.0968    65.1719     2.5660
  403.0000    23.7696    24.1356   -33.2987     7.5213     0.0030     0.0980    70.1165     2.5450
  403.5000    23.4396    24.1388   -33.0510     7.5298     0.0030     0.0982    76.5604     2.5157
  404.0000    23.4371    23.4808   -32.5537     7.5443     0.0045     0.1792    80.4556     2.4436
  404.5000    22.7928    22.8408   -32.1068     7.5589     0.0090     0.2221    80.3028     2.3190
  405.0000    22.1668    21.9128   -31.7591     7.5583     0.0150     0.2287    78.8906     2.3092
  405.5000    21.4090    21.1682   -31.6617     7.5729     0.0165     0.2251    77.1479     2.3190
  406.0000    20.8209    20.5912   -31.9890     7.5725     0.0165     0.2185    76.5454     2.3265
  406.5000    20.5314    20.1699   -32.2666     7.5800     0.0135     0.2161    76.9923     2.3212
  407.0000    20.2464    20.0321   -32.8686     7.6015     0.0090     0.2233    77.7390     2.3152
  407.5000    20.2442    20.0348   -33.7710     7.6309     0.0045     0.2203    79.7052     2.3220
  408.0000    20.2416    20.0375   -34.2229     7.6358     0.0051     0.2106    82.0804     2.3302
  408.5000    20.2394    19.9011   -34.6752     7.6601     0.0076     0.2142    83.2769     2.3332
  409.0000    20.2372    19.9031   -34.9775     7.6749     0.0105     0.2118    80.8753     2.3294
  409.5000    20.0947    19.9054   -35.1301     7.6891     0.0135     0.2193    78.1737     2.3182
  410.0000    19.8157    19.7704   -35.1324     7.6886     0.0150     0.2244    77.6912     2.3144
  410.5000    19.6767    19.5838   -34.9850     7.6882     0.0120     0.2157    80.7846     2.3279
  411.0000    19.2689    19.3675   -34.6873     7.7027     0.0090     0.2147    83.1119     2.3347
  411.5000    19.1337    19.2086   -34.4903     7.7022     0.0060     0.2126    82.5094     2.3309
  412.0000    18.7377    18.9727   -34.3678     7.7246     0.0045     0.2195    76.0597     2.3234
  412.5000    18.3494    18.7067   -34.0956     7.7384     0.0045     0.2240    71.4092     2.3264
  413.0000    18.0595    18.4422   -34.0979     7.7458     0.0075     0.2096    73.5212     2.3414
  413.5000    17.5977    18.3328   -34.1008     7.7304     0.0106     0.2006    78.4492     2.3466
  414.0000    17.2330    17.9574   -34.1862     7.7000     0.0150     0.2003    80.2454     2.3504
  414.5000    17.1121    17.7124   -34.4053     7.6695     0.0165     0.2014    78.8932     2.3534
  415.0000    16.8504    17.3495   -34.5577     7.6392     0.0150     0.1927    77.6910     2.3556
  415.5000    16.6399    16.9941   -34.4769     7.6238     0.0150     0.1924    77.6752     2.3586
  416.0000    16.6381    16.5313   -34.4128     7.6233     0.0150     0.1933    80.7536     2.3616
  416.5000    16.6363    16.3569   -34.5840     7.6379     0.0165     0.1894    83.9785     2.3654
  417.0000    16.2807    16.0824   -34.7176     7.6543     0.0165     0.1870    84.4261     2.3684
  417.5000    16.0654    15.8630   -35.0200     7.6670     0.0150     0.1905    84.4225     2.3714
  418.0000    15.8424    15.6136   -35.3223     7.6665     0.0075     0.1971    84.2697     2.3578
  418.5000    15.6225    15.4323   -35.9247     7.6811     0.0030     0.2013    82.3178     2.3503
  419.0000    15.4053    15.1165   -36.3768     7.6805     0.0030     0.2061    79.9155     2.3450
  419.5000    15.2972    15.0634   -36.8295     7.6797     0.0060     0.2085    79.6127     2.3533
  420.0000    15.1898    14.9115   -36.9817     7.6487     0.0105     0.1989    79.7605     2.3683
  420.5000    14.9786    14.7081   -36.6842     7.6309     0.0106     0.1884    76.6085     2.3721
  421.0000    14.8736    14.7096   -36.3618     7.6189     0.0090     0.1853    72.4077     2.3736
  421.5000    14.8718    14.6095   -36.0891     7.6034     0.0075     0.1862    70.1230     2.3720
  422.0000    14.6650    14.5105   -36.0920     7.5880     0.0060     0.1868    68.6531     2.3713
  422.5000    14.4615    14.4492   -36.2448     7.5726     0.0030     0.1868    69.8497     2.3713
  423.0000    14.1622    14.4129   -36.3970     7.5721     0.0045     0.1871    72.0957     2.3713
  423.5000    14.0627    14.3152   -36.8491     7.5567     0.0091     0.1874    72.8431     2.3750
  424.0000    14.0609    14.3171   -37.7515     7.5563     0.0254     0.1834    72.3898     2.3829
  424.5000    13.9622    14.1214   -38.2036     7.5558     0.0389     0.1735    71.6372     2.3983
