~VERSION INFORMATION
 VERS.                2.0:   CWLS LOG ASCII STANDARD - VERSION 2.0
 WRAP.                 NO:   ONE LINE PER DEPTH STEP
~WELL INFORMATION
#MNEM.UNIT      DATA TYPE    INFORMATION
#----------   ------------   ------------------------------
 STRT.F           32.0000:   START DEPTH
 STOP.F          501.0000:   STOP DEPTH
 STEP.F            0.5000:   STEP LENGTH
 NULL.          -999.2500:   NO VALUE
 COMP.    FENIX & SCISSON:   COMPANY
 WELL.    NPR "SX" #75-10:   WELL
 FLD .             TEAPOT:   FIELD
 LOC .      S10 T38N R78W:   LOCATION
 CNTY.            NATRONA:   COUNTY
 STAT.            WYOMING:   STATE
 CTRY. UNITED STATES OF AMERICA:   COUNTRY
 SRVC.              Welex:   SERVICE COMPANY
 DATE.        08-MAR-1977:   LOGDATE
 API .       490251029200:   API NUMBER
~CURVE INFORMATION
#MNEM.UNIT       API CODE    CURVE DESCRIPTION
#----------   ------------   ------------------------------
 DEPT.F                  :   
 SPR .MV     07 010 01 00:   SPONTANEOUS POTENTIAL
 ILD .OHMM   07 120 46 00:   INDUCTION LOG DEEP
 ILM .OHMM   07 120 44 00:   INDUCTION LOG MEDIUM
 SGRD.OHMM   07 221 05 00:   SHALLOW SHORT GUARD RESISTIVITY
 GRD .GAPI   45 310 01 00:   GAMMA RAY FROM DENSITY LOG
 CALD.IN     45 280 60 00:   CALIPER FROM DENSITY LOG
 CORR.G/C3   45 356 01 00:   DENSITY CORRECTION
 RHOB.G/C3   45 350 01 00:   BULK DENSITY
 DPHI.DEC    45 890 12 00:   DENSITY POROSITY SANDSTONE
~PARAMETER INFORMATION
#MNEM.UNIT          VALUE    DESCRIPTION
#----------   ------------   ------------------------------
 PD  .                 GL:   PERMANENT DATUM
 EPD .F              5184:   ELEVATION PERMANENT DATUM
 LMF .                 GL:   LOG MEASURED FROM
 DAPD.F                GL:   FEET ABOVE PERMANENT DATUM
 EGL .F              5184:   GROUND LEVEL
 DATE.          03-8-1977:   RUN DATE
 RUN .                  1:   RUN NUMBER
 DD  .F               510:   DEPTH DRILLER
 DL  .F               505:   DEPTH LOGGER
 BLI .F               503:   BOTTOM LOG INTERVAL
 TLI .F                35:   TOP LOG INTERVAL
 CS  .IN            8.625:   CASING SIZE
 CBD .F                42:   CASING BOTTOM DRILLER
 CBL .F                43:   CASING BOTTOM LOGGER
 BS  .IN            7.875:   BIT SIZE
 BSD .F               510:   BIT SIZE AT DEPTH
 DFT .            KCL MUD:   DRILLING FLUID TYPE
 DFD .                8.6:   DRILLING FLUID DENSITY
 DFV .                 36:   DRILLING FLUID VISCOSITY
 DFPH.                9.5:   DRILLING FLUID PH
 DFL .                  2:   DRILLING FLUID LOSS
 MSS .           FLOWLINE:   MUD SAMPLE SOURCE
 RMS .OHMM            .49:   RESISTIVITY MUD SAMPLE
 MST .F                56:   MUD SAMPLE TEMPERATURE
 RMF .OHMM            .42:   RESISTIVITY MUD FILTRATE SAMPLE
 MFST.F                56:   MUD FILTRATE SAMPLE TEMPERATURE
 RMC .OHMM            .62:   RESISTIVITY MUD CAKE
 MCST.F                56:   MUD CAKE SAMPLE TEMPERATURE
 MFSS.               MEAS:   MUD FILTRATE SAMPLE SOURCE
 MCSS.               MEAS:   MUD CAKE SAMPLE SOURCE
 RMB .OHMM            .44:   RESISTIVITY MUD AT BHT
 BHT .F                62:   BOTTOM HOLE TEMPERATURE
 TCS .HRS               2:   TIME CURCULATED STOPPED
 MRT .F                62:   MAXIMUM RECORDED TEMPERATURE
 LUN .               8611:   LOGGING UNIT NUMBER
 LUL .           GILLETTE:   LOGGING UNIT LOCATION
 ENGI.            C. DOAK:   RECORDING ENGINEER
 WITN.           S. BURNE:   WITNESSED BY
 CLNT.            A2DTECH:   CLIENT CODE
 ORIG.        2" 5" PRINT:   ORIGIN OF DATA
 UWI .       490251029200:   UNIQUE WELL ID
 DICO. A2D Technologies, Inc.:   DIGITIZING COMPANY
~OTHER INFORMATION
~A   DEPT      SPR        ILD        ILM       SGRD         GRD        CALD      CORR        RHOB     DPHI   
# ...
  324.0000   -33.2668    17.3093    25.3748    27.6814    93.1187     7.9256     0.0728     2.3919     0.1485
  324.5000   -33.2756    17.0674    24.8633    23.7741    90.3003     7.9278     0.0654     2.3724     0.1581
  325.0000   -33.2843    16.8288    24.5127    22.5948    92.9961     7.9300     0.0565     2.3672     0.1647
  325.5000   -33.4423    16.7085    24.0008    24.7663    93.4564     7.9621     0.0505     2.3658     0.1673
  326.0000   -33.6003    16.5891    23.3381    24.4111    95.4070     7.9941     0.0491     2.3756     0.1637
  326.5000   -33.6090    16.3572    23.1683    23.2353   100.4873     8.0559     0.0538     2.3869     0.1592
  327.0000   -33.6279    16.3528    23.3217    23.5772    97.9226     8.0879     0.0584     2.3922     0.1541
  327.5000   -33.7761    16.2265    23.9625    24.2326    96.0428     8.1200     0.0630     2.3945     0.1519
  328.0000   -33.7867    16.0079    23.9525    24.7331    97.7538     8.1222     0.0661     2.3991     0.1480
  328.5000   -33.7954    15.8935    23.0805    23.2352   100.3912     8.0784     0.0693     2.4029     0.1465
  329.0000   -33.8041    15.6714    20.9908    21.5301    96.5329     8.0521     0.0664     2.4026     0.1465
  329.5000   -33.6614    15.4523    22.3264    23.0629    97.7384     8.0394     0.0618     2.3895     0.1508
  330.0000   -33.6724    15.4481    22.0116    24.3661    98.4968     8.0720     0.0605     2.3805     0.1581
  330.5000   -33.6811    15.3377    19.2996    23.3503   100.7455     8.0742     0.0682     2.3873     0.1563
  331.0000   -33.5413    15.3336    18.8985    21.4391   100.3116     8.1062     0.0698     2.3941     0.1521
  331.5000   -33.2508    15.3295    20.0990    21.0590    97.4932     8.1233     0.0714     2.3942     0.1497
  332.0000   -33.1103    15.3253    20.7964    21.7928    95.8671     8.1255     0.0700     2.3995     0.1502
  332.5000   -33.1194    15.4264    20.6448    22.5522    93.6449     8.1278     0.0686     2.4033     0.1472
  333.0000   -32.9785    15.4223    19.5229    23.0180    96.4897     8.0853     0.0642     2.3958     0.1499
  333.5000   -32.8380    15.6325    19.2529    23.3333    97.3971     8.0130     0.0658     2.3876     0.1538
  334.0000   -32.6975    15.7376    20.7605    22.2250    99.0497     7.9258     0.0674     2.3929     0.1501
  334.5000   -32.7084    15.8424    21.3349    22.6840   100.8513     7.8535     0.0690     2.4027     0.1450
  335.0000   -32.5657    15.9470    21.3242    23.6371    97.7348     7.8706     0.0661     2.4080     0.1423
  335.5000   -32.5766    15.9425    21.0235    23.4219    98.8054     7.9473     0.0632     2.3961     0.1465
  336.0000   -32.5854    15.8285    18.4332    21.2988   100.9031     7.9793     0.0588     2.3984     0.1491
  336.5000   -32.5941    15.7144    15.7221    20.4290   100.0781     8.0114     0.0529     2.3962     0.1527
  337.0000   -32.6030    15.4948    17.5500    20.8509    97.9401     8.0434     0.0500     2.3850     0.1578
  337.5000   -32.6119    15.3840    19.1890    20.9912    97.6519     8.0754     0.0470     2.3819     0.1560
  338.0000   -32.6225    15.2741    19.7180    20.9841   100.7981     8.0622     0.0457     2.3813     0.1584
  338.5000   -32.7805    15.0606    19.1735    20.1272    99.6191     8.0947     0.0473     2.3761     0.1592
  339.0000   -32.9385    14.9529    19.5666    19.5737    98.1420     8.0969     0.0489     2.3899     0.1547
  339.5000   -33.0965    14.7439    19.2888    19.9844    97.2577     8.0992     0.0535     2.3980     0.1478
  340.0000   -33.1052    14.5378    18.4992    20.2503   100.5530     8.1014     0.0566     2.4006     0.1420
  340.5000   -33.2632    14.4338    17.1403    19.2884   102.5036     8.0589     0.0567     2.4131     0.1363
  341.0000   -33.4212    14.1333    14.9251    18.7579   100.7284     8.0461     0.0568     2.4214     0.1321
  341.5000   -33.5792    14.0323    14.5843    19.1454    98.6552     8.0335     0.0554     2.4087     0.1339
  342.0000   -33.7373    13.7409    15.7593    19.2741    98.0723     8.0208     0.0525     2.3998     0.1386
  342.5000   -33.8955    13.3630    16.8858    18.7428    95.9991     8.0380     0.0511     2.4081     0.1407
  343.0000   -33.9061    13.1763    17.3434    18.3537    95.2479     8.0552     0.0482     2.4104     0.1371
  343.5000   -34.0641    12.9921    16.4039    18.4758    97.3668     8.0574     0.0453     2.4014     0.1428
  344.0000   -34.0728    12.8105    14.3828    18.7277    97.5329     8.0600     0.0379     2.3865     0.1526
  344.5000   -34.2308    12.6314    13.9856    18.9990    95.4432     8.0772     0.0350     2.3783     0.1598
  345.0000   -34.3888    12.6279    15.6116    19.3738    95.3201     8.0794     0.0366     2.3746     0.1619
  345.5000   -34.5468    12.6238    16.8357    19.3686    96.5256     8.0959     0.0444     2.3874     0.1571
  346.0000   -34.5555    12.6204    17.2998    19.2301    94.3066     8.0833     0.0473     2.3964     0.1499
  346.5000   -34.5643    12.6170    17.8997    18.8309    94.1675     8.0860     0.0475     2.4055     0.1426
  347.0000   -34.5731    12.6136    18.2667    19.3530    93.2866     8.0584     0.0460     2.4078     0.1420
  347.5000   -34.5821    12.4373    17.9924    19.2146    95.6876     7.9712     0.0462     2.4063     0.1404
  348.0000   -34.5926    12.2634    16.9164    18.1772    97.7872     7.7797     0.0508     2.4176     0.1343
  348.5000   -34.4499    12.2601    15.8915    17.0767   100.4830     7.6770     0.0539     2.4267     0.1295
  349.0000   -34.3094    12.1641    15.5597    16.3800   101.2414     7.6644     0.0540     2.4276     0.1308
  349.5000   -34.1689    12.0016    15.9887    16.6023    99.1682     7.7267     0.0541     2.4283     0.1266
  350.0000   -34.2375    11.9026    16.4115    17.3823   100.0899     7.7883     0.0525     2.4359     0.1263
  350.5000   -34.6055    11.7296    16.9866    18.3841   102.0091     7.7903     0.0544     2.4450     0.1221
  351.0000   -34.6507    11.5566    17.3509    18.0083   103.5330     7.7923     0.0590     2.4542     0.1184
  351.5000   -34.6649    11.2642    17.2245    17.1627   104.2930     7.8092     0.0561     2.4631     0.1127
  352.0000   -34.3778    10.9537    16.6350    16.2351   102.9665     7.8410     0.0532     2.4553     0.1097
  352.5000   -34.2371    10.9492    15.7365    15.7877   102.8562     7.8727     0.0519     2.4650     0.1144
  353.0000   -34.1021    10.9456    15.2861    15.5660   103.0352     7.9193     0.0490     2.4677     0.1168
  353.5000   -34.1135    10.9420    15.6168    15.8866   100.0302     7.9511     0.0461     2.4445     0.1240
  354.0000   -34.1254    11.0142    16.4975    16.7818    98.4056     7.9828     0.0447     2.4303     0.1306
  354.5000   -34.2884    11.1636    16.8384    17.2475    97.9732     7.9996     0.0449     2.4183     0.1320
  355.0000   -34.2998    11.3142    16.6008    17.0039    98.1371     8.0016     0.0450     2.4086     0.1344
  355.5000   -34.4605    11.4687    16.4812    16.6499    98.9020     7.9885     0.0452     2.4064     0.1377
  356.0000   -34.6212    11.6233    17.0527    18.0821   100.4423     7.9458     0.0468     2.4057     0.1416
  356.5000   -34.6328    11.7811    17.1665    19.5208   102.3845     7.8881     0.0485     2.4073     0.1436
  357.0000   -34.7961    11.7772    16.2380    19.6311   103.9194     7.8155     0.0501     2.4073     0.1439
  357.5000   -34.8075    11.8549    15.4674    17.5708   105.0670     7.6982     0.0502     2.4051     0.1436
  358.0000   -34.8189    11.7684    15.9050    16.8536   104.9322     7.8045     0.0489     2.3992     0.1453
  358.5000   -34.9796    11.5234    16.9062    18.3019   106.1429     8.0153     0.0475     2.4060     0.1447
  359.0000   -34.9910    11.3616    17.9833    19.3348   106.3030     8.0766     0.0461     2.4106     0.1408
  359.5000   -35.1545    11.1250    18.2286    18.0375   104.2351     8.0785     0.0432     2.4151     0.1339
  360.0000   -35.1659    10.8934    16.7734    17.1808   102.7558     8.0645     0.0419     2.4204     0.1318
