~VERSION INFORMATION
 VERS.                2.0:   CWLS LOG ASCII STANDARD - VERSION 2.0
 WRAP.                 NO:   ONE LINE PER DEPTH STEP
~WELL INFORMATION
#MNEM.UNIT      DATA TYPE    INFORMATION
#----------   ------------   ------------------------------
 STRT.F           23.0000:   START DEPTH
 STOP.F         1106.0000:   STOP DEPTH
 STEP.F            0.5000:   STEP LENGTH
 NULL.          -999.2500:   NO VALUE
 COMP. FENIX & SCISSON INC:   COMPANY
 WELL.       NPR-3 #67-11:   WELL
 FLD . TEAPOT DOME NPR #3:   FIELD
 LOC .      S11 T38N R78W:   LOCATION
 CNTY.            NATRONA:   COUNTY
 STAT.            WYOMING:   STATE
 CTRY. UNITED STATES OF AMERICA:   COUNTRY
 SRVC.            Unknown:   SERVICE COMPANY
 DATE.        06-MAR-1978:   LOGDATE
 API .       490251059100:   API NUMBER
~CURVE INFORMATION
#MNEM.UNIT       API CODE    CURVE DESCRIPTION
#----------   ------------   ------------------------------
 DEPT.F                  :   
 ILD .OHMM   05 120 46 00:   INDUCTION LOG DEEP
 SN  .OHMM   05 040 16 00:   SHORT NORMAL 16"
 SPR .MV     05 010 01 00:   SPONTANEOUS POTENTIAL FROM RES.
 CALD.IN     45 280 60 00:   CALIPER
 GRD .GAPI   45 310 01 00:   GAMMA RAY FROM DENSITY LOG
 CORR.G/C3   45 356 01 00:   DENSITY CORRECTION
 DPHI.DEC    45 890 12 00:   DENSITY POROSITY SANDSTONE
 RHOB.G/C3   45 350 01 00:   BULK DENSITY
~PARAMETER INFORMATION
#MNEM.UNIT          VALUE    DESCRIPTION
#----------   ------------   ------------------------------
 PD  .                 GL:   PERMANENT DATUM
 EPD .F              5243:   ELEVATION PERMANENT DATUM
 LMF .                 KB:   LOG MEASURED FROM
 DAPD.F                 4:   FEET ABOVE PERMANENT DATUM
 DMF .                 KB:   DRILLING MEASURED FROM
 EKB .F              5247:   KELLING BUSHING
 EGL .F              5243:   GROUND LEVEL
 DATE.           3-6-1978:   RUN DATE
 RUN .                  1:   RUN NUMBER
 DD  .F              1104:   DEPTH DRILLER
 DL  .F              1108:   DEPTH LOGGER
 BLI .F              1102:   BOTTOM LOG INTERVAL
 TLI .F                40:   TOP LOG INTERVAL
 CS  .IN            8.625:   CASING SIZE
 CBD .F                40:   CASING BOTTOM DRILLER
 CBL .F                40:   CASING BOTTOM LOGGER
 BS  .IN            7.875:   BIT SIZE
 BSD .F              1104:   BIT SIZE AT DEPTH
 DFT .         LIGNO/SULF:   DRILLING FLUID TYPE
 DFD .                8.6:   DRILLING FLUID DENSITY
 DFV .                 31:   DRILLING FLUID VISCOSITY
 DFL .                  8:   DRILLING FLUID LOSS
 MSS .            MUD PIT:   MUD SAMPLE SOURCE
 RMS .OHMM              2:   RESISTIVITY MUD SAMPLE
 MST .F                58:   MUD SAMPLE TEMPERATURE
 RMF .OHMM            1.2:   RESISTIVITY MUD FILTRATE SAMPLE
 MFST.F                64:   MUD FILTRATE SAMPLE TEMPERATURE
 RMC .OHMM              3:   RESISTIVITY MUD CAKE
 MCST.F                64:   MUD CAKE SAMPLE TEMPERATURE
 MFSS.               MEAS:   MUD FILTRATE SAMPLE SOURCE
 RMB .OHMM            1.5:   RESISTIVITY MUD AT BHT
 BHT .F                78:   BOTTOM HOLE TEMPERATURE
 TCS .HRS               4:   TIME CURCULATED STOPPED
 MRT .F                78:   MAXIMUM RECORDED TEMPERATURE
 LUN .               2959:   LOGGING UNIT NUMBER
 LUL .               CASP:   LOGGING UNIT LOCATION
 ENGI.             MILLER:   RECORDING ENGINEER
 WITN.           MCGINLEY:   WITNESSED BY
 CLNT.            A2DTECH:   CLIENT CODE
 ORIG.       2", 5" PRINT:   ORIGIN OF DATA
 UWI .       490251059100:   UNIQUE WELL ID
 DICO. A2D Technologies, Inc.:   DIGITIZING COMPANY
~OTHER INFORMATION
~A   DEPT      ILD         SN        SPR       CALD         GRD      CORR       DPHI       RHOB   
# ...
  954.5000    10.7702    12.7946   -32.4846     7.5674    74.9771     0.0235     0.1750     2.3705
  955.0000    10.7702    12.6438   -32.5179     7.5678    76.3979     0.0239     0.1742     2.3712
  955.5000    10.7716    12.4952   -32.2615     7.5682    75.9544     0.0243     0.1734     2.3732
  956.0000    10.6389    12.3483   -31.9995     7.5686    75.4709     0.0247     0.1718     2.3803
  956.5000    10.4771    12.2031   -32.3560     7.5690    75.3632     0.0239     0.1674     2.3788
  957.0000    10.3693    12.1239   -32.8150     7.5694    75.3713     0.0192     0.1678     2.3753
  957.5000    10.3144    12.0892   -33.2861     7.5698    74.1102     0.0170     0.1683     2.3716
  958.0000    10.2600    12.0547   -33.2648     7.5702    71.4925     0.0170     0.1688     2.3710
  958.5000    10.2059    12.0382   -33.1038     7.5706    71.1709     0.0170     0.1693     2.3732
  959.0000    10.1521    12.0958   -32.7751     7.5710    71.4280     0.0170     0.1742     2.3754
  959.5000    10.0958    12.1421   -32.6429     7.5713    71.7112     0.0170     0.1745     2.3737
  960.0000    10.0853    12.1885   -32.8429     7.5717    71.9861     0.0173     0.1782     2.3681
  960.5000    10.0743    12.2352   -32.8329     7.5721    72.1434     0.0237     0.1817     2.3625
  961.0000    10.0633    12.2696   -32.4506     7.5725    72.0346     0.0298     0.1773     2.3577
  961.5000    10.0524    12.2930   -32.3424     7.5729    71.5918     0.0360     0.1721     2.3648
  962.0000    10.0414    12.3164   -32.3026     7.5733    69.6464     0.0394     0.1625     2.3713
  962.5000    10.0307    12.3398   -32.2649     7.5737    69.3385     0.0404     0.1538     2.3865
  963.0000    10.0199    12.3630   -32.2271     7.5741    72.2911     0.0409     0.1536     2.4018
  963.5000    10.0086    12.4760   -32.1890     7.5745    74.2956     0.0360     0.1534     2.4049
  964.0000    10.0029    12.6301   -32.1716     7.5749    73.3988     0.0267     0.1505     2.4042
  964.5000    10.1848    12.8367   -32.1712     7.5753    72.5463     0.0270     0.1418     2.4171
  965.0000    10.3294    12.9391   -32.1713     7.5757    71.1646     0.0270     0.1198     2.4311
  965.5000    10.6882    13.4821   -32.1808     7.5761    69.7831     0.0270     0.0998     2.4450
  966.0000    11.1697    14.6635   -31.7872     7.5764    70.6607     0.0270     0.0863     2.4717
  966.5000    11.6728    15.9486   -31.2540     7.5768    72.0010     0.0270     0.0878     2.4995
  967.0000    12.1986    17.2800   -30.7169     7.5772    69.9362     0.0269     0.0894     2.5230
  967.5000    12.7471    18.7084   -30.1771     7.5776    67.3223     0.0301     0.0909     2.5166
  968.0000    13.3172    20.5620   -29.6478     7.5780    66.7933     0.0344     0.0890     2.5089
  968.5000    13.5776    20.4099   -29.8636     7.5784    67.1098     0.0388     0.0867     2.5094
  969.0000    13.5786    20.0000   -30.1767     7.5788    67.4434     0.0413     0.0971     2.5110
  969.5000    12.8316    19.4533   -30.4914     7.5792    67.9891     0.0420     0.1088     2.5102
  970.0000    12.0481    17.7695   -30.7530     7.5796    69.5790     0.0427     0.1204     2.4867
  970.5000    11.3125    15.7575   -30.2086     7.5802    72.7721     0.0441     0.1321     2.4639
  971.0000    10.7097    13.8602   -29.6433     7.5808    74.7935     0.0462     0.1426     2.4420
  971.5000    10.2860    13.0221   -30.1414     7.5814    74.5059     0.0485     0.1412     2.4273
  972.0000     9.8811    12.2270   -30.7894     7.5820    72.6467     0.0466     0.1398     2.4264
  972.5000     9.4688    11.4804   -31.1718     7.5826    72.1035     0.0433     0.1482     2.4262
  973.0000     9.2049    10.8701   -31.1746     7.5833    72.9451     0.0400     0.1464     2.4132
  973.5000     9.2049    10.6899   -31.1694     7.5839    73.7239     0.0369     0.1454     2.4128
  974.0000     9.2049    10.3777   -30.9292     7.5845    72.8670     0.0374     0.1472     2.4132
  974.5000     9.2049    10.3802   -30.8284     7.5851    70.5011     0.0378     0.1498     2.4136
  975.0000     9.2049    10.3784   -30.9555     7.5857    69.3034     0.0382     0.1487     2.4140
  975.5000     9.2049    10.3793   -30.9093     7.5864    72.6742     0.0386     0.1477     2.4144
  976.0000     9.2049    10.3795   -30.8304     7.5870    76.8042     0.0392     0.1532     2.4146
  976.5000     9.2049    10.3795   -30.9190     7.5876    77.4593     0.0327     0.1594     2.4086
  977.0000     9.2049    10.3795   -31.3046     7.5882    75.7437     0.0254     0.1552     2.4004
  977.5000     9.2049    10.3795   -31.7109     7.5888    73.4479     0.0249     0.1510     2.3940
  978.0000     9.2049    10.3795   -31.0105     7.5895    72.3851     0.0250     0.1510     2.4095
  978.5000     9.2049    10.3795   -30.1354     7.5901    72.4804     0.0250     0.1507     2.4119
  979.0000     9.2025    10.3793   -30.0518     7.5907    73.2590     0.0250     0.1497     2.4104
  979.5000     9.1912    10.3787   -29.9434     7.5913    74.0434     0.0250     0.1487     2.4131
  980.0000     9.1801    10.3786   -29.8322     7.5919    74.2404     0.0250     0.1477     2.4144
  980.5000     9.1690    10.3730   -29.8489     7.5926    70.6644     0.0250     0.1470     2.4128
  981.0000     9.1580    10.4823   -29.9717     7.5932    69.8023     0.0250     0.1468     2.4114
  981.5000     9.1469    10.4794   -30.0944     7.5938    69.3730     0.0250     0.1466     2.4131
  982.0000     9.1359    10.4628   -30.1817     7.5944    69.4474     0.0255     0.1398     2.4236
  982.5000     9.1249    10.4540   -30.1777     7.5950    72.3430     0.0275     0.1354     2.4339
  983.0000     9.1139    10.4455   -30.1758     7.5957    77.8923     0.0293     0.1359     2.4361
  983.5000     9.1029    10.4371   -29.8011     7.5963    78.8800     0.0309     0.1368     2.4407
  984.0000     9.0920    10.4288   -29.0671     7.5969    77.5950     0.0285     0.1376     2.4474
  984.5000     9.0810    10.4204   -28.9832     7.5975    77.7031     0.0262     0.1371     2.4377
  985.0000     9.0701    10.4120   -28.9830     7.5981    77.8995     0.0275     0.1331     2.4357
  985.5000     9.0591    10.4036   -28.9822     7.5988    78.0770     0.0325     0.1328     2.4355
  986.0000     9.0483    10.3952   -29.0606     7.5994    77.4738     0.0375     0.1326     2.4299
  986.5000     9.0366    10.3869   -29.1731     7.5989    74.2531     0.0413     0.1350     2.4404
  987.0000     9.0388    10.3804   -29.2863     7.5978    72.6975     0.0339     0.1366     2.4422
  987.5000     9.0437    10.3877   -29.3996     7.5967    71.4611     0.0216     0.1314     2.4358
  988.0000     9.0485    10.3952   -29.5127     7.5956    71.1264     0.0225     0.1374     2.4369
  988.5000     9.0533    10.4026   -29.6257     7.5945    73.8023     0.0190     0.1434     2.4327
  989.0000     9.0581    10.4101   -29.7412     7.5934    74.0853     0.0133     0.1409     2.4228
  989.5000     9.0630    10.4175   -29.6986     7.5923    75.3359     0.0130     0.1386     2.4199
  990.0000     9.0678    10.4250   -29.5705     7.5912    77.1272     0.0130     0.1370     2.4290
  990.5000     9.0726    10.4324   -29.4412     7.5901    75.8988     0.0130     0.1377     2.4343
  991.0000     9.0775    10.4399   -29.3105     7.5890    74.7176     0.0130     0.1377     2.4324
  991.5000     9.0823    10.4474   -29.1898     7.5879    74.8672     0.0130     0.1361     2.4285
  992.0000     9.0871    10.4545   -29.2986     7.5868    77.2314     0.0130     0.1361     2.4281
  992.5000     9.0920    10.4633   -29.4152     7.5857    79.5179     0.0130     0.1394     2.4391
  993.0000     9.0968    10.4676   -29.5324     7.5846    81.7820     0.0130     0.1374     2.4310
  993.5000     9.1017    10.3795   -29.4451     7.5835    82.9689     0.0131     0.1358     2.4297
  994.0000     9.1065    10.4258   -29.2171     7.5825    80.8832     0.0155     0.1398     2.4303
  994.5000     9.1113    10.4839   -28.9943     7.5813    76.5413     0.0178     0.1462     2.4255
