~VERSION INFORMATION
 VERS.                2.0:   CWLS LOG ASCII STANDARD - VERSION 2.0
 WRAP.                 NO:   ONE LINE PER DEPTH STEP
~WELL INFORMATION
#MNEM.UNIT      DATA TYPE    INFORMATION
#----------   ------------   ------------------------------
 STRT.F            0.0000:   START DEPTH
 STOP.F         4112.0000:   STOP DEPTH
 STEP.F            0.5000:   STEP LENGTH
 NULL.          -999.2500:   NO VALUE
 COMP. LAWRENCE-ALLISON &AS:   COMPANY
 WELL. N P R 3-76-1-SX #3-3:   WELL
 FLD .          N.P.R. #3:   FIELD
 LOC .       S3 T38N R78W:   LOCATION
 CNTY.            NATRONA:   COUNTY
 STAT.            WYOMING:   STATE
 CTRY. UNITED STATES OF AMERICA:   COUNTRY
 SRVC.      Dresser Atlas:   SERVICE COMPANY
 DATE.        04-SEP-1983:   LOGDATE
 API .       490251093100:   API NUMBER
~CURVE INFORMATION
#MNEM.UNIT       API CODE    CURVE DESCRIPTION
#----------   ------------   ------------------------------
 DEPT.F                  :   
 DEN .G/C3   45 350 01 00:   COMPENSATED BULK DENSTIY
 CORR.G/C3   45 356 01 00:   DENSITY CORRECTION
 PORD.DEC    45 890 12 00:   POROSITY DENSITY SANDSTONE
 CNC .DEC    42 890 03 00:   NEUTRON POROSITY SANDSTONE
 SPR .MV     07 010 01 00:   SPONTANEOUS POTENTIAL
 GRR .GAPI   07 310 01 00:   GAMMA RAY FROM RES. LOG.
 RFOC.OHMM   07 220 04 00:   RESISTIVITY FOCUSED LOG
 CALD.IN     45 280 60 00:   CALIPER
 AC  .US/F   60 520 00 00:   ACOUSTIC SONIC
 RILD.OHMM   07 120 46 00:   INDUCTION LOG DEEP RESISTIVITY
 RILM.OHMM   07 120 44 00:   INDUCTION LOG MEDIUM RESISTIVITY
~PARAMETER INFORMATION
#MNEM.UNIT          VALUE    DESCRIPTION
#----------   ------------   ------------------------------
 PD  .                 GL:   PERMANENT DATUM
 EPD .F              5147:   ELEVATION PERMANENT DATUM
 LMF .                 KB:   LOG MEASURED FROM
 DAPD.F                10:   FEET ABOVE PERMANENT DATUM
 DMF .                 KB:   DRILLING MEASURED FROM
 EKB .F              5157:   KELLING BUSHING
 EGL .F              5147:   GROUND LEVEL
 DATE.             9-4-83:   RUN DATE
 RUN .                  1:   RUN NUMBER
 DD  .F              4119:   DEPTH DRILLER
 DL  .F              4115:   DEPTH LOGGER
 BLI .F              4112:   BOTTOM LOG INTERVAL
 CS  .IN            9.625:   CASING SIZE
 CBD .F               491:   CASING BOTTOM DRILLER
 CBL .F               494:   CASING BOTTOM LOGGER
 BS  .IN             8.75:   BIT SIZE
 BSD .F              4119:   BIT SIZE AT DEPTH
 DFT .            KCL GEL:   DRILLING FLUID TYPE
 DFD .                8.9:   DRILLING FLUID DENSITY
 DFV .                 46:   DRILLING FLUID VISCOSITY
 DFPH.                  9:   DRILLING FLUID PH
 DFL .               13.6:   DRILLING FLUID LOSS
 MSS .            MUDTANK:   MUD SAMPLE SOURCE
 RMS .OHMM           .315:   RESISTIVITY MUD SAMPLE
 MST .F                92:   MUD SAMPLE TEMPERATURE
 RMF .OHMM            .25:   RESISTIVITY MUD FILTRATE SAMPLE
 MFST.F                84:   MUD FILTRATE SAMPLE TEMPERATURE
 RMC .OHMM             .4:   RESISTIVITY MUD CAKE
 MCST.F                92:   MUD CAKE SAMPLE TEMPERATURE
 MFSS.                  M:   MUD FILTRATE SAMPLE SOURCE
 MCSS.                  C:   MUD CAKE SAMPLE SOURCE
 RMB .OHMM            .22:   RESISTIVITY MUD AT BHT
 BHT .F               132:   BOTTOM HOLE TEMPERATURE
 TCS .HRS               4:   TIME CURCULATED STOPPED
 MRT .F               132:   MAXIMUM RECORDED TEMPERATURE
 LUN .               6274:   LOGGING UNIT NUMBER
 LUL .               GLTE:   LOGGING UNIT LOCATION
 ENGI.             RAUTIO:   RECORDING ENGINEER
 WITN.             STRONG:   WITNESSED BY
 CLNT.            A2DTECH:   CLIENT CODE
 ORIG. 1", 2", 2.5", 5" PRINT:   ORIGIN OF DATA
 UWI .       490251093100:   UNIQUE WELL ID
 DICO. A2D Technologies, Inc.:   DIGITIZING COMPANY
~OTHER INFORMATION
~A    DEPT     DEN       CORR       PORD        CNC        SPR          GRR     RFOC       CALD         AC       RILD       RILM   
# ...
 3141.5000     2.5295     0.0197     0.0748     0.2377   -38.0409   101.8888     5.0653     9.9345    83.9621     4.5327     4.9181
 3142.0000     2.5331     0.0215     0.0719     0.2410   -38.0908   103.7469     5.1094     9.9343    84.0204     4.4152     4.8554
 3142.5000     2.5346     0.1001     0.0708     0.2351   -38.1403   108.2311     5.1921     9.9341    83.3533     4.3007     4.7946
 3143.0000     2.5360     0.0903     0.0699     0.2262   -38.1906   106.9757     5.2761     9.9339    82.4765     4.2178     4.6696
 3143.5000     2.5377     0.0864     0.0686     0.2212   -38.2405   104.3425     5.3615     9.9337    81.8962     4.2178     4.5500
 3144.0000     2.5362     0.0856     0.0678     0.2232   -38.2905   105.0357     5.4503     9.9334    82.0878     4.2178     4.4319
 3144.5000     2.5336     0.0873     0.0683     0.2291   -38.3404   107.4594     5.2304     9.9332    83.0070     4.0145     4.3182
 3145.0000     2.5297     0.0905     0.0715     0.2304   -38.3903   109.7757     5.0146     9.9330    83.9373     3.8165     4.2158
 3145.5000     2.5244     0.0939     0.0755     0.2279   -38.4403   112.2399     4.7946     9.9328    84.8645     3.6283     3.9753
 3146.0000     2.5202     0.0829     0.0769     0.2257   -38.4902   115.5283     4.6681     9.9326    85.8802     3.4494     3.7643
 3146.5000     2.5169     0.0637     0.0786     0.2360   -38.5401   119.1613     4.4486     9.9324    86.9978     3.2793     3.5646
 3147.0000     2.5138     0.0452     0.0803     0.2546   -38.5900   122.0679     4.2417     9.9321    88.1155     3.1176     3.3755
 3147.5000     2.5079     0.0566     0.0836     0.2612   -38.6399   122.9444     4.0413     9.9319    89.5678     2.9639     3.1965
 3148.0000     2.4990     0.0869     0.0892     0.2679   -38.6898   123.7432     3.8507     9.9317    90.6469     2.8698     3.0335
 3148.5000     2.4901     0.0696     0.0943     0.2707   -38.7398   126.2122     3.6696     9.9315    91.7259     2.8895     3.0676
 3149.0000     2.4857     0.0470     0.0962     0.2645   -38.7897   129.6116     3.4769     9.9313    92.4695     2.9748     3.2192
 3149.5000     2.4922     0.0539     0.0941     0.2570   -38.8399   127.3543     3.5526     9.9311    92.4451     3.0943     3.3784
 3150.0000     2.5048     0.0702     0.0878     0.2493   -38.8895   122.6398     3.7034     9.9309    91.7473     3.2863     3.5453
 3150.5000     2.5175     0.0842     0.0782     0.2418   -38.9395   117.8191     3.8510     9.9306    90.5468     3.4900     3.7104
 3151.0000     2.5255     0.1012     0.0707     0.2312   -38.9906   116.2223     4.3004     9.9304    87.5853     3.7061     4.0414
 3151.5000     2.5232     0.0925     0.0746     0.2191   -39.0383   118.3003     4.7732     9.9302    84.6237     3.9354     4.3818
 3152.0000     2.5202     0.0748     0.0779     0.2121   -39.0835   119.7707     5.2976     9.9300    82.0370     4.1792     4.7553
 3152.5000     2.5214     0.0575     0.0768     0.2092   -39.0424   117.3308     5.8797     9.9298    79.8148     4.4381     5.1564
 3153.0000     2.5205     0.0407     0.0771     0.2072   -39.0028   113.4959     6.4241     9.9296    78.2834     4.7131     5.5910
 3153.5000     2.5174     0.0276     0.0786     0.2052   -38.9599   110.6377     6.3144     9.9293    77.1377     5.0050     5.8705
 3154.0000     2.5144     0.0162     0.0803     0.2033   -38.9175   110.8191     6.2215     9.9291    77.0339     5.3514     5.8596
 3154.5000     2.5186     0.0048     0.0798     0.2023   -38.8758   109.7287     6.1314     9.9289    77.5339     5.5510     5.8607
 3155.0000     2.5266    -0.0086     0.0739     0.2061   -38.8348   105.9233     5.9956     9.9287    77.8763     5.5293     5.8620
 3155.5000     2.5423     0.0020     0.0636     0.2160   -38.7906   101.6740     6.0238     9.9285    77.8458     5.4721     5.8630
 3156.0000     2.5563     0.0265     0.0533     0.2242   -38.7487    98.2312     6.2362     9.9283    77.5193     5.4155     5.8644
 3156.5000     2.5706     0.0493     0.0482     0.2223   -38.7167    98.3743     6.5455     9.9281    77.3748     5.3594     5.7607
 3157.0000     2.5534     0.0682     0.0605     0.2189   -38.5801   104.9029     6.2509     9.9278    77.7154     5.3040     5.6226
 3157.5000     2.5366     0.0683     0.0716     0.2155   -38.3694   111.8103     5.7920     9.9276    78.8421     5.2543     5.4878
 3158.0000     2.5261     0.0653     0.0757     0.2121   -38.1675   113.9779     5.3514     9.9274    79.9686     5.2080     5.3514
 3158.5000     2.5234     0.0602     0.0772     0.2080   -37.9699   112.2239     5.4279     9.9272    81.1677     5.1660     5.4200
 3159.0000     2.5209     0.0424     0.0764     0.2085   -37.7677   110.5591     5.5612     9.9270    81.2044     5.1244     5.4922
 3159.5000     2.5239     0.0261     0.0730     0.2080   -37.5673   107.7702     5.7871     9.9268    79.9975     5.0831     5.5653
 3160.0000     2.5294     0.0137     0.0715     0.2053   -37.3689   104.3293     6.2240     9.9265    78.7475     4.9394     5.6536
 3160.5000     2.5244     0.0197     0.0763     0.2027   -37.1658   106.0475     6.9420     9.9263    77.4975     4.7245     5.3880
 3161.0000     2.5191     0.0343     0.0839     0.2030   -37.0887   110.0561     6.7670     9.9261    76.4771     4.5190     5.0777
 3161.5000     2.5082     0.0492     0.0912     0.2145   -37.0579   114.0835     5.9282     9.9259    77.2399     4.3224     4.7853
 3162.0000     2.4942     0.0624     0.0984     0.2122   -37.0255   118.0876     5.1934     9.9257    79.0426     4.1413     4.6222
 3162.5000     2.4811     0.0757     0.1052     0.2112   -36.9905   119.5454     4.5539     9.9255    81.1790     4.0224     4.3952
 3163.0000     2.4724     0.0619     0.1052     0.2137   -36.9569   119.4879     4.0703     9.9253    82.6527     3.8488     4.1870
 3163.5000     2.4736     0.0475     0.1033     0.2250   -36.9230   119.1851     4.1691     9.9250    82.9027     3.6827     3.9887
 3164.0000     2.4752     0.0320     0.1020     0.2522   -36.8891   121.8855     4.2921     9.9248    83.1527     3.5238     3.7790
 3164.5000     2.4770     0.0241     0.1039     0.2581   -36.8553   126.4163     4.2124     9.9246    83.6786     3.3717     3.6318
 3165.0000     2.4780     0.0358     0.1118     0.2648   -36.8198   130.4739     4.0468     9.9244    85.4679     3.2262     3.4727
 3165.5000     2.4678     0.0471     0.1229     0.2721   -36.7890   134.9664     3.8878     9.9242    87.2555     3.0870     3.3206
 3166.0000     2.4538     0.0600     0.1270     0.2729   -36.7547   135.5064     3.7370     9.9240    88.3619     2.9538     3.1751
 3166.5000     2.4397     0.0599     0.1309     0.2671   -36.7098   136.2496     3.6431     9.9237    89.5509     2.8218     3.0335
 3167.0000     2.4335     0.0459     0.1330     0.2610   -36.8128   138.6678     3.5668     9.9235    89.8528     2.6882     2.8925
 3167.5000     2.4299     0.0335     0.1351     0.2610   -37.0099   141.1908     3.4907     9.9233    90.0499     2.5609     2.7555
 3168.0000     2.4238     0.0208     0.1397     0.2665   -37.2048   143.6554     3.4162     9.9231    90.0499     2.4396     2.6249
 3168.5000     2.4127     0.0163     0.1493     0.2802   -37.4151   147.2818     3.3283     9.9229    90.6748     2.3240     2.5006
 3169.0000     2.3983     0.0230     0.1605     0.2980   -37.2921   151.9342     3.0648     9.9227    91.7146     2.2279     2.3909
 3169.5000     2.3809     0.0338     0.1717     0.2964   -36.7335   156.4794     2.8221     9.9225    93.7238     2.1520     2.3399
 3170.0000     2.3595     0.0446     0.1807     0.2912   -36.1604   158.3235     2.4801     9.9222    96.2390     2.0787     2.2688
 3170.5000     2.3529     0.0571     0.1749     0.2892   -36.1342   155.7152     2.5868     9.9220    97.9341     2.0079     2.1998
 3171.0000     2.3683     0.0462     0.1614     0.2954   -36.7789   153.5972     2.8504     9.9218    96.7605     1.9395     2.1329
 3171.5000     2.3859     0.0089     0.1502     0.2996   -37.3795   152.3419     3.3243     9.9216    95.2605     1.8844     2.1025
