~VERSION INFORMATION
 VERS.                2.0:   CWLS LOG ASCII STANDARD - VERSION 2.0
 WRAP.                 NO:   ONE LINE PER DEPTH STEP
~WELL INFORMATION
#MNEM.UNIT      DATA TYPE    INFORMATION
#----------   ------------   ------------------------------
 STRT.F           37.5000:   START DEPTH
 STOP.F          525.5000:   STOP DEPTH
 STEP.F            0.5000:   STEP LENGTH
 NULL.          -999.2500:   NO VALUE
 COMP. LAWRENCE/ALLISON INC:   COMPANY
 WELL.    74-11 SX #10-10:   WELL
 FLD .             TEAPOT:   FIELD
 LOC .      S10 T38N R78W:   LOCATION
 CNTY.            NATRONA:   COUNTY
 STAT.            WYOMING:   STATE
 CTRY. UNITED STATES OF AMERICA:   COUNTRY
 SRVC.            Unknown:   SERVICE COMPANY
 DATE.        08-AUG-1984:   LOGDATE
 API .       490251097800:   API NUMBER
~CURVE INFORMATION
#MNEM.UNIT       API CODE    CURVE DESCRIPTION
#----------   ------------   ------------------------------
 DEPT.F                  :   
 CNC .DEC    42 890 03 00:   NEUTRON POROSITY SANDSTONE
 AC  .US/F   60 520 00 00:   ACCOUSTIC
 GRD .GAPI   45 310 01 00:   GAMMA RAY FROM DENSITY LOG
 CALD.IN     45 280 60 00:   CALIPER FROM DENSITY LOG
 CORR.G/C3   45 356 01 00:   DENSITY CORRECTION
 DPHI.DEC    45 890 12 00:   DENSITY POROSITY SANDSTONE
 DEN .G/C3   45 350 01 00:   COMPENSATED BULK DENSTIY
 RILD.OHMM   07 120 46 00:   RESISTIVITY INDUCTION LOG DEEP
 RILM.OHMM   07 120 44 00:   RESISTIVITY INDUCTION LOG MEDIUM
 RFOC.OHMM   07 220 04 00:   RESISTIVITY FOCUSED LOG
 SPR .MV     07 010 01 00:   SPONTANEOUS POTENTIAL FROM RES.
~PARAMETER INFORMATION
#MNEM.UNIT          VALUE    DESCRIPTION
#----------   ------------   ------------------------------
 PD  .                 GL:   PERMANENT DATUM
 EPD .F              5180:   ELEVATION PERMANENT DATUM
 LMF .                 GL:   LOG MEASURED FROM
 DMF .                 GL:   DRILLING MEASURED FROM
 EGL .F              5180:   GROUND LEVEL
 DATE.             8-8-84:   RUN DATE
 RUN .                  1:   RUN NUMBER
 DD  .F               525:   DEPTH DRILLER
 DL  .F               526:   DEPTH LOGGER
 BLI .F               525:   BOTTOM LOG INTERVAL
 TLI .F                42:   TOP LOG INTERVAL
 CS  .IN            9.625:   CASING SIZE
 CBD .F                42:   CASING BOTTOM DRILLER
 CBL .F                42:   CASING BOTTOM LOGGER
 BS  .IN            7.875:   BIT SIZE
 BSD .F               525:   BIT SIZE AT DEPTH
 DFT .          KCL WATER:   DRILLING FLUID TYPE
 MSS .           FLOWLINE:   MUD SAMPLE SOURCE
 RMS .OHMM           .141:   RESISTIVITY MUD SAMPLE
 MST .F                78:   MUD SAMPLE TEMPERATURE
 RMF .OHMM            .12:   RESISTIVITY MUD FILTRATE SAMPLE
 MFST.F                78:   MUD FILTRATE SAMPLE TEMPERATURE
 RMC .OHMM             .2:   RESISTIVITY MUD CAKE
 MCST.F                78:   MUD CAKE SAMPLE TEMPERATURE
 MFSS.               MEAS:   MUD FILTRATE SAMPLE SOURCE
 MCSS.               MEAS:   MUD CAKE SAMPLE SOURCE
 RMB .OHMM            .13:   RESISTIVITY MUD AT BHT
 BHT .F                89:   BOTTOM HOLE TEMPERATURE
 MRT .F                89:   MAXIMUM RECORDED TEMPERATURE
 LUN .               6307:   LOGGING UNIT NUMBER
 LUL .               GLTE:   LOGGING UNIT LOCATION
 ENGI.            JOHNSON:   RECORDING ENGINEER
 WITN.              FIVAS:   WITNESSED BY
 CLNT.            A2DTECH:   CLIENT CODE
 ORIG.           5" PRINT:   ORIGIN OF DATA
 UWI .       490251097800:   UNIQUE WELL ID
 DICO. A2D Technologies, Inc.:   DIGITIZING COMPANY
~OTHER INFORMATION
~A   DEPT      CNC         AC        GRD       CALD       CORR       DPHI        DEN       RILD       RILM       RFOC        SPR   
# ...
   98.5000     0.0459  -999.2500   155.9510     8.1370     0.0600     0.1600     2.4140     9.5626     9.5290  9846.1943  -120.3770
   99.0000     0.0493  -999.2500   161.4560     8.1370     0.0530     0.1580     2.4150     9.5721     9.5290  9846.2080  -121.9770
   99.5000     0.0523  -999.2500   166.9810     8.1370     0.0490     0.1570     2.4140     9.5833     9.4500  9846.2207  -125.9920
  100.0000     0.0569  -999.2500   166.5510     8.1370     0.0510     0.1610     2.4090     9.6619     9.3380  9846.2344  -123.4660
  100.5000     0.0594  -999.2500   164.1010     8.1370     0.0520     0.1670     2.4030     9.4720     9.2250  9849.4395  -117.8010
  101.0000     0.0596  -999.2500   161.5150     8.1370     0.0460     0.1660     2.4030     9.2236     9.1130  9852.9229  -112.0680
  101.5000     0.0593  -999.2500   160.9380     8.1370     0.0310     0.1650     2.4040     8.9230     8.9240  9856.4062  -107.7240
  102.0000     0.0558  -999.2500   168.9630     8.1370     0.0150     0.1630     2.4060     8.7492     8.6660  9859.8896  -104.6770
  102.5000     0.0520  -999.2500   178.1350     8.1370     0.0170     0.1620     2.4080     8.6967     8.4090  9863.3721  -105.1300
  103.0000     0.0504  -999.2500   182.9370     8.1370     0.0290     0.1620     2.4080     8.4686     8.1510  9866.8555  -106.9120
  103.5000     0.0491  -999.2500   179.9140     8.1370     0.0400     0.1640     2.4040     8.2464     7.8930  9870.3389  -108.6490
  104.0000     0.0510  -999.2500   175.1800     8.1370     0.0510     0.1690     2.4000     8.0301     7.7810  9873.8223  -109.7410
  104.5000     0.0515  -999.2500   171.5010     8.1370     0.0460     0.1670     2.3990     7.9312     7.8070  9877.3057  -108.2370
  105.0000     0.0515  -999.2500   169.9550     8.1370     0.0370     0.1640     2.4050     8.1420     7.8480  9880.7891  -107.0090
  105.5000     0.0511  -999.2500   167.2320     8.1370     0.0440     0.1620     2.4110     8.1910     7.8880  9884.2725  -110.1100
  106.0000     0.0492  -999.2500   166.1860     8.1370     0.0500     0.1630     2.4090     8.2400     7.9290  9887.7549  -114.0130
  106.5000     0.0476  -999.2500   168.9300     8.1370     0.0340     0.1630     2.4060     8.2880     7.9700  9891.2383  -114.4340
  107.0000     0.0476  -999.2500   171.5790     8.1370     0.0140     0.1630     2.4080     8.3370     8.0110  9894.7217  -112.8100
  107.5000     0.0503  -999.2500   172.0990     8.1370     0.0150     0.1620     2.4120     8.3850     8.0520  9898.2051  -109.9140
  108.0000     0.0518  -999.2500   172.2750     8.1370     0.0280     0.1600     2.4170     8.4340     8.0920  9901.6885  -107.4350
  108.5000     0.0521  -999.2500   173.2100     8.1370     0.0410     0.1570     2.4230     8.4830     8.1330  9905.1719  -109.5370
  109.0000     0.0505  -999.2500   175.3580     8.1370     0.0540     0.1540     2.4290     8.5310     8.1740  9908.6553  -109.0250
  109.5000     0.0482  -999.2500   177.4180     8.1370     0.0570     0.1500     2.4340     8.5800     8.2150  9912.1377  -108.2260
  110.0000     0.0476   136.8620   177.9620     8.1370     0.0530     0.1490     2.4310     8.6280     8.2550  9915.6211  -108.8270
  110.5000     0.0485   110.5160   175.5170     8.1370     0.0440     0.1500     2.4270     8.6770     8.2990  9919.1045  -110.2330
  111.0000     0.0487    83.4210   170.8150     8.1370     0.0500     0.1510     2.4320     8.7430     8.3590  9922.5879  -112.2470
  111.5000     0.0493    73.8630   164.7770     8.1370     0.0560     0.1470     2.4370     8.8140     8.4420  9926.0713  -114.4820
  112.0000     0.0499    60.3440   160.9690     8.1370     0.0620     0.1440     2.4420     8.8860     8.5250  9929.5547  -116.9760
  112.5000     0.0505    74.4830   160.6310     8.1370     0.0670     0.1420     2.4470     8.9580     8.6080  9933.0381  -115.7380
  113.0000     0.0525    80.1891   166.2760     8.1370     0.0570     0.1410     2.4470     9.0300     8.6900  4874.5815  -113.5470
  113.5000     0.0544    86.7393   170.7180     8.1370     0.0440     0.1400     2.4390     9.1010     8.7730  1037.1656  -111.3530
  114.0000     0.0559    95.1710   174.7370     8.1370     0.0300     0.1450     2.4310     9.1730     8.8560   902.3812  -109.1000
  114.5000     0.0564   102.8280   174.9360     8.1370     0.0190     0.1510     2.4290     9.2450     8.9390  1285.9349  -103.8790
  115.0000     0.0542   102.8140   174.5430     8.1370     0.0180     0.1480     2.4360     9.2730     9.0160  9776.4346   -98.3630
  115.5000     0.0517   102.0520   173.8450     8.1370     0.0240     0.1450     2.4390     9.2790     8.9730  9922.2832   -93.8520
  116.0000     0.0504   102.4150   181.2100     8.1370     0.0300     0.1440     2.4350     9.2850     8.9220 10000.8613   -92.5790
  116.5000     0.0491   103.2060   189.6060     8.1370     0.0370     0.1470     2.4300     9.2910     8.8710 10012.1670   -99.6910
  117.0000     0.0494   103.9960   194.3340     8.1370     0.0330     0.1500     2.4260     9.2970     8.8200 10021.8672  -102.6040
  117.5000     0.0506   104.6760   190.0560     8.1370     0.0290     0.1520     2.4240     9.3020     8.7710  9296.3262  -105.3900
  118.0000     0.0502   104.5800   183.6750     8.1370     0.0290     0.1530     2.4220     9.3080     8.7790  4887.6782  -108.3790
  118.5000     0.0492   104.4950   178.4410     8.1370     0.0770     0.1550     2.4190     9.3140     8.7880  9844.5195  -109.5040
  119.0000     0.0488   104.2450   176.6010     8.1370     0.0640     0.1580     2.4140     9.3200     8.7960  9854.0566  -107.1370
  119.5000     0.0500   103.9400   177.1000     8.1370     0.0360     0.1610     2.4080     9.3260     8.8050  9863.6045  -104.7420
  120.0000     0.0515   103.6360   177.4750     8.1370     0.0120     0.1650     2.4050     9.3320     8.8140  5188.4448  -105.0110
  120.5000     0.0521   103.3310   176.1990     8.1370     0.0250     0.1610     2.4140     9.3380     8.8220   847.3832  -105.4580
  121.0000     0.0505   103.4530   174.8880     8.1370     0.0420     0.1550     2.4240     9.3440     8.8310   713.2861  -105.4520
  121.5000     0.0502   103.7070   176.5620     8.1370     0.0530     0.1510     2.4330     9.3500     8.8390  1119.6862  -104.8400
  122.0000     0.0492   103.9620   178.6290     8.1370     0.0580     0.1460     2.4420     9.3570     8.8470  9777.6182  -103.2250
  122.5000     0.0488   104.0690   180.7460     8.1370     0.0610     0.1400     2.4490     9.2780     8.8520  9855.0508  -101.5140
  123.0000     0.0488   103.8530   181.0700     8.1370     0.0600     0.1360     2.4520     9.1740     8.7930  9864.5986   -99.7860
  123.5000     0.0494   103.2880   179.5460     8.1370     0.0590     0.1340     2.4560     9.0710     8.7480  9874.1562   -99.6980
  124.0000     0.0506   102.7240   176.7410     8.1370     0.0600     0.1330     2.4590     8.9670     8.7040  9883.7227   -99.7260
  124.5000     0.0520   102.0450   173.9640     8.1370     0.0840     0.1320     2.4620     8.8640     8.6600   661.1802   -97.6510
  125.0000     0.0523   101.9640   173.9180     8.1370     0.0760     0.1310     2.4640     8.7710     8.6160   560.4593   -97.9990
  125.5000     0.0510   101.8420   175.5220     8.1370     0.0660     0.1300     2.4660     8.7520     8.5720  1209.5352   -98.5700
  126.0000     0.0500   102.1310   177.0890     8.1370     0.0560     0.1300     2.4650     8.7340     8.5320  8203.2285   -97.9570
  126.5000     0.0493   102.4890   177.1530     8.1370     0.0450     0.1310     2.4600     8.7170     8.4120  9461.3145   -96.8980
  127.0000     0.0502   102.8480   177.9420     8.1370     0.0410     0.1330     2.4560     8.7000     8.3020   737.1767   -95.7620
  127.5000     0.0508   103.2070   180.1080     8.1370     0.0440     0.1350     2.4550     8.6900     8.1920   563.3613   -94.3350
  128.0000     0.0507   103.5650   180.9670     8.1370     0.0520     0.1380     2.4490     8.4580     8.0820   533.3660   -92.9190
  128.5000     0.0504   103.9240   174.8080     8.1370     0.0610     0.1450     2.4420     8.2400     7.9300   596.5821   -91.5050
