~VERSION INFORMATION
 VERS.                2.0:   CWLS LOG ASCII STANDARD - VERSION 2.0
 WRAP.                 NO:   ONE LINE PER DEPTH STEP
~WELL INFORMATION
#MNEM.UNIT      DATA TYPE    INFORMATION
#----------   ------------   ------------------------------
 STRT.F           14.0000:   START DEPTH
 STOP.F          632.0000:   STOP DEPTH
 STEP.F            0.5000:   STEP LENGTH
 NULL.          -999.2500:   NO VALUE
 COMP. LAWRENCE/ALLISON INC:   COMPANY
 WELL.    17-61 SX #11-11:   WELL
 FLD .             TEAPOT:   FIELD
 LOC .      S11 T38N R78W:   LOCATION
 CNTY.            NATRONA:   COUNTY
 STAT.            WYOMING:   STATE
 CTRY. UNITED STATES OF AMERICA:   COUNTRY
 SRVC.           Gearhart:   SERVICE COMPANY
 DATE.        12-JUN-1986:   LOGDATE
 API .       490251109800:   API NUMBER
~CURVE INFORMATION
#MNEM.UNIT       API CODE    CURVE DESCRIPTION
#----------   ------------   ------------------------------
 DEPT.F                  :   
 GRR .GAPI   07 310 01 00:   GAMMA RAY FROM RES. LOG.
 ILM .OHMM   07 120 44 00:   INDUCTION LOG MEDIUM
 ILD .OHMM   07 120 46 00:   INDUCTION LOG DEEP
~PARAMETER INFORMATION
#MNEM.UNIT          VALUE    DESCRIPTION
#----------   ------------   ------------------------------
 PD  .                 GL:   PERMANENT DATUM
 EPD .F              5193:   ELEVATION PERMANENT DATUM
 LMF .                 KB:   LOG MEASURED FROM
 DAPD.F                 5:   FEET ABOVE PERMANENT DATUM
 DMF .                 KB:   DRILLING MEASURED FROM
 EKB .F              5198:   KELLING BUSHING
 EGL .F              5193:   GROUND LEVEL
 DATE.            6-12-86:   RUN DATE
 RUN .                  1:   RUN NUMBER
 DD  .F               648:   DEPTH DRILLER
 DL  .F               639:   DEPTH LOGGER
 BLI .F               632:   BOTTOM LOG INTERVAL
 TLI .F                15:   TOP LOG INTERVAL
 CS  .IN            8.625:   CASING SIZE
 CBD .F                42:   CASING BOTTOM DRILLER
 CBL .F                42:   CASING BOTTOM LOGGER
 BS  .IN             7.87:   BIT SIZE
 BSD .F               648:   BIT SIZE AT DEPTH
 DFT .               FOAM:   DRILLING FLUID TYPE
 MSS .               TANK:   MUD SAMPLE SOURCE
 RMS .OHMM           2.02:   RESISTIVITY MUD SAMPLE
 MST .F                65:   MUD SAMPLE TEMPERATURE
 RMB .OHMM           1.84:   RESISTIVITY MUD AT BHT
 BHT .F                72:   BOTTOM HOLE TEMPERATURE
 TCS .HRS            0830:   TIME CURCULATED STOPPED
 TLAB.HRS            1000:   TIME LOGGER AT BOTTOM
 MRT .F                72:   MAXIMUM RECORDED TEMPERATURE
 LUN .               7609:   LOGGING UNIT NUMBER
 LUL .           GILLETTE:   LOGGING UNIT LOCATION
 ENGI.              BAUER:   RECORDING ENGINEER
 WITN.             STRONG:   WITNESSED BY
 CLNT.            A2DTECH:   CLIENT CODE
 ORIG.       2", 5" PRINT:   ORIGIN OF DATA
 UWI .       490251109800:   UNIQUE WELL ID
 DICO. A2D Technologies, Inc.:   DIGITIZING COMPANY
~OTHER INFORMATION
~A   DEPT       GRR       ILM        ILD   
# ...
  560.0000   105.5202     9.8874    10.0752
  560.5000   105.7929    10.0484    10.2492
  561.0000   105.2115    10.1968    10.4262
  561.5000   102.9071    10.3431    10.6063
  562.0000   100.5226    10.4916    10.7895
  562.5000   100.9099    10.6424    10.9488
  563.0000   101.5225    10.7953    11.0723
  563.5000   101.3642    10.9504    11.2048
  564.0000   101.0397    11.1077    11.3382
  564.5000   100.7119    11.2673    11.4732
  565.0000   100.3853    11.4291    11.6098
  565.5000   100.0323    11.5934    11.7481
  566.0000   100.8682    11.7008    11.8880
  566.5000   100.8962    11.7527    11.9091
  567.0000   100.4390    11.8048    11.9091
  567.5000    99.9650    11.8571    11.9091
  568.0000    99.6361    11.9097    11.9091
  568.5000   100.0805    11.9625    11.9088
  569.0000   102.2555    12.0208    11.8924
  569.5000   105.0957    11.9699    11.8588
  570.0000   105.6821    11.8985    11.8249
  570.5000   101.7956    11.8274    11.7912
  571.0000    97.3498    11.7568    11.7574
  571.5000    93.5750    11.6866    11.7238
  572.0000    90.5223    11.6168    11.6903
  572.5000    93.2264    11.5474    11.6569
  573.0000    96.6225    11.4784    11.6236
  573.5000    99.9962    11.4099    11.5904
  574.0000    99.6572    11.3418    11.5573
  574.5000    96.8049    11.2741    11.5245
  575.0000    95.0267    11.2064    11.4926
  575.5000    94.7082    11.1200    11.3545
  576.0000    95.3259    10.9695    11.0815
  576.5000    95.7969    10.8211    10.8151
  577.0000    97.6549    10.6746    10.5551
  577.5000    99.9195    10.5301    10.3014
  578.0000   104.1645    10.3876    10.0538
  578.5000   107.5993    10.2470     9.9724
  579.0000   110.4865    10.1083     9.8258
  579.5000   113.2797     9.9715     9.7500
  580.0000   112.6265     9.8366     9.6748
  580.5000   111.3730     9.7034     9.6002
  581.0000   109.5517     9.5721     9.5261
  581.5000   107.6831     9.4425     9.4527
  582.0000   107.4477     9.3146     9.3797
  582.5000   107.6209     9.1883     9.3073
  583.0000   108.8108     9.1403     9.2467
  583.5000   110.4866     9.1070     9.2177
  584.0000   112.2162     9.0738     9.1889
  584.5000   113.3896     9.0408     9.1601
  585.0000   113.8977     9.0078     9.1313
  585.5000   112.2439     8.9750     9.1027
  586.0000   110.9929     8.9426     9.0653
  586.5000   109.9018     8.9155     9.0086
  587.0000   108.8022     8.8714     8.9522
  587.5000   107.6991     8.7962     8.8961
  588.0000   106.6151     8.7221     8.8405
  588.5000   106.2081     8.6486     8.7851
  589.0000   106.6246     8.5880     8.7140
  589.5000   109.9118     8.4317     8.6146
  590.0000   113.7979     8.1745     8.5165
  590.5000   115.7555     8.0112     8.4196
  591.0000   114.1818     7.9426     8.3237
  591.5000   112.9218     7.8747     8.2289
  592.0000   112.7882     7.8074     8.1352
  592.5000   112.6490     7.7406     8.0427
  593.0000   112.7787     7.6744     7.9514
  593.5000   114.4830     7.6059     7.8605
  594.0000   117.2997     7.4785     7.6710
  594.5000   119.9659     7.3148     7.4123
  595.0000   121.8643     7.1548     7.1626
  595.5000   121.1196     6.9982     6.9214
  596.0000   118.7231     6.8447     6.6884
  596.5000   116.1561     6.6965     6.5309
  597.0000   114.1500     6.5500     6.4815
  597.5000   114.1719     6.6339     6.4277
  598.0000   114.9187     6.7151     6.5005
  598.5000   115.7415     6.9222     6.6507
  599.0000   116.8796     7.1815     6.9360
  599.5000   118.5419     7.4506     7.2353
  600.0000   119.4243     7.7295     7.5473
  600.5000   119.9490     8.0444     7.8725
  601.0000   120.1655     8.2857     8.2118
  601.5000   119.8214     8.5582     8.5880
  602.0000   119.4868     8.8396     8.7058
  602.5000   119.1596     9.0945     8.8673
  603.0000   118.1378     9.1665     9.0319
  603.5000   116.9149     9.2390     9.1683
  604.0000   115.6875     9.3121     9.1683
  604.5000   114.4361     9.3412     9.1455
  605.0000   114.0996     9.3494     9.1227
  605.5000   113.9736     9.3629     9.1001
  606.0000   113.8524     9.3763     9.0829
  606.5000   113.5187     9.3897     9.0830
  607.0000   113.0008     9.4033     9.0460
  607.5000   112.4825     9.4177     9.0033
  608.0000   111.9633     9.4378     8.9608
  608.5000   111.4416     9.3322     8.9186
  609.0000   111.2802     9.3432     8.8765
  609.5000   111.1870     9.3396     8.8320
  610.0000   111.0945     9.3404     8.9149
  610.5000   110.9978     9.6053     8.7777
  611.0000   110.7942    10.3521     8.6509
  611.5000   110.4702    11.1881     8.5492
  612.0000   110.1571    11.9979     8.4487
  612.5000   110.3116    12.4258     8.1442
  613.0000   110.4941    12.7138     7.8141
  613.5000   110.6742    11.4339     7.4974
  614.0000   110.8538     9.8050     7.0254
  614.5000   111.0334     8.4081     6.3914
  615.0000   111.2132     7.2103     5.8555
  615.5000   111.3938     6.1831     5.2738
  616.0000   111.5673     5.3022     4.6805
  616.5000  -999.2500     4.5469     4.1540
  617.0000  -999.2500     4.0369     3.6830
  617.5000  -999.2500     3.7017     3.3979
  618.0000  -999.2500     3.4094     3.2117
  618.5000  -999.2500     3.2213     3.0992
  619.0000  -999.2500     3.0450     2.9886
  619.5000  -999.2500     2.9886     2.9886
  620.0000  -999.2500     3.0859     3.1646
  620.5000  -999.2500     3.3001     3.4888
  621.0000  -999.2500     3.6484     3.8463
  621.5000  -999.2500     4.0601     4.2647
  622.0000  -999.2500     4.5193     4.8178
  622.5000  -999.2500     5.0302     5.4427
  623.0000  -999.2500     5.5988     6.1487
  623.5000  -999.2500     6.2317     6.7446
  624.0000  -999.2500     6.8818     7.1328
  624.5000  -999.2500     7.0728     7.2176
  625.0000  -999.2500     7.2691     7.3035
  625.5000  -999.2500     7.4709     7.3270
  626.0000  -999.2500     7.6199     7.3270
  626.5000  -999.2500     7.7154     7.3270
  627.0000  -999.2500     7.8120     7.2813
  627.5000  -999.2500     7.9098     7.1593
  628.0000  -999.2500     7.9696     7.0394
  628.5000  -999.2500     7.9521     6.9926
  629.0000  -999.2500     7.9395     6.9926
  629.5000  -999.2500     7.9271     6.9926
  630.0000  -999.2500     7.9146     6.9926
  630.5000  -999.2500     7.9015     6.9926
  631.0000  -999.2500     7.8930     6.9926
  631.5000  -999.2500     8.1678     6.9926
  632.0000  -999.2500     8.5861     6.9926
