~VERSION INFORMATION
 VERS.                2.0:   CWLS LOG ASCII STANDARD - VERSION 2.0
 WRAP.                 NO:   ONE LINE PER DEPTH STEP
~WELL INFORMATION
#MNEM.UNIT      DATA TYPE    INFORMATION
#----------   ------------   ------------------------------
 STRT.F           28.0000:   START DEPTH
 STOP.F          551.0000:   STOP DEPTH
 STEP.F            0.5000:   STEP LENGTH
 NULL.          -999.2500:   NO VALUE
 COMP. FENIX & SCISSON, INC.:   COMPANY
 WELL.        NPR #85-S-3:   WELL
 FLD .             TEAPOT:   FIELD
 LOC .       S3 T38N R78W:   LOCATION
 CNTY.            NATRONA:   COUNTY
 STAT.            WYOMING:   STATE
 CTRY. UNITED STATES OF AMERICA:   COUNTRY
 SRVC.            Unknown:   SERVICE COMPANY
 DATE.        22-JAN-1977:   LOGDATE
 API .       490251055800:   API NUMBER
~CURVE INFORMATION
#MNEM.UNIT       API CODE    CURVE DESCRIPTION
#----------   ------------   ------------------------------
 DEPT.F                  :   
 ILD .OHMM   05 120 46 00:   INDUCTION LOG DEEP
 SN  .OHMM   05 040 16 00:   SHORT NORMAL 16"
 SPR .MV     05 010 01 00:   SPONTANEOUS POTENTIAL FROM RES.
 CALD.IN     45 280 60 00:   CALIPER FROM DENSITY LOG
 CORR.G/C3   45 356 01 00:   DENSITY CORRECTION
 DPHI.DEC    45 890 12 00:   DENSITY POROSITY SANDSTONE
 GRD .GAPI   45 310 01 00:   GAMMA RAY FROM DENSITY LOG
 RHOB.G/C3   45 350 01 00:   BULK DENSITY
~PARAMETER INFORMATION
#MNEM.UNIT          VALUE    DESCRIPTION
#----------   ------------   ------------------------------
 PD  .                 GL:   PERMANENT DATUM
 EPD .F              5132:   ELEVATION PERMANENT DATUM
 LMF .                 KB:   LOG MEASURED FROM
 DAPD.F                 4:   FEET ABOVE PERMANENT DATUM
 DMF .                 KB:   DRILLING MEASURED FROM
 EKB .F              5136:   KELLING BUSHING
 EGL .F              5132:   GROUND LEVEL
 DATE.          1-22-1977:   RUN DATE
 RUN .                  1:   RUN NUMBER
 DD  .F               550:   DEPTH DRILLER
 DL  .F               550:   DEPTH LOGGER
 BLI .F               545:   BOTTOM LOG INTERVAL
 TLI .F                50:   TOP LOG INTERVAL
 CS  .IN            8.625:   CASING SIZE
 CBD .F                40:   CASING BOTTOM DRILLER
 CBL .F                40:   CASING BOTTOM LOGGER
 BS  .IN            7.875:   BIT SIZE
 BSD .F               550:   BIT SIZE AT DEPTH
 DFT .                KCL:   DRILLING FLUID TYPE
 DFD .                8.6:   DRILLING FLUID DENSITY
 DFV .                 36:   DRILLING FLUID VISCOSITY
 DFPH.                 10:   DRILLING FLUID PH
 DFL .                7.2:   DRILLING FLUID LOSS
 MSS .           FLOWLINE:   MUD SAMPLE SOURCE
 RMS .OHMM             .3:   RESISTIVITY MUD SAMPLE
 MST .F                56:   MUD SAMPLE TEMPERATURE
 RMF .OHMM             .3:   RESISTIVITY MUD FILTRATE SAMPLE
 MFST.F                58:   MUD FILTRATE SAMPLE TEMPERATURE
 RMC .OHMM             .3:   RESISTIVITY MUD CAKE
 MCST.F                58:   MUD CAKE SAMPLE TEMPERATURE
 MFSS.           MEASURED:   MUD FILTRATE SAMPLE SOURCE
 MCSS.           MEASURED:   MUD CAKE SAMPLE SOURCE
 RMB .OHMM            .25:   RESISTIVITY MUD AT BHT
 BHT .F                68:   BOTTOM HOLE TEMPERATURE
 TCS .HRS               3:   TIME CURCULATED STOPPED
 MRT .F                68:   MAXIMUM RECORDED TEMPERATURE
 LUN .               2958:   LOGGING UNIT NUMBER
 LUL .             CASPER:   LOGGING UNIT LOCATION
 ENGI.           REYNOLDS:   RECORDING ENGINEER
 WITN.             GINLEY:   WITNESSED BY
 CLNT.            A2DTECH:   CLIENT CODE
 ORIG.           5" PRINT:   ORIGIN OF DATA
 UWI .       490251055800:   UNIQUE WELL ID
 DICO. A2D Technologies, Inc.:   DIGITIZING COMPANY
~OTHER INFORMATION
~A   DEPT      ILD         SN        SPR       CALD       CORR       DPHI         GRD      RHOB   
# ...
  433.0000    14.3815    11.9530   -34.4137     7.8170     0.1376     0.1438    89.0434     2.4289
  433.5000    14.3864    11.9470   -34.4170     7.8177     0.1301     0.1450    88.8540     2.4229
  434.0000    14.2910    11.9471   -34.4202     7.8185     0.1301     0.1417    91.4367     2.4244
  434.5000    14.1973    11.8671   -34.4235     7.8192     0.1287     0.1402    92.9315     2.4251
  435.0000    14.0083    11.7877   -34.4268     7.8199     0.1287     0.1432    93.6811     2.4244
  435.5000    13.9154    11.7088   -34.4301     7.8207     0.1318     0.1479    90.8240     2.4236
  436.0000    13.7301    11.7112   -34.4334     7.8214     0.1378     0.1515    88.6031     2.4169
  436.5000    13.6400    11.7137   -34.4316     7.8222     0.1484     0.1446    87.8674     2.4132
  437.0000    13.4574    11.7161   -34.4245     7.8229     0.1605     0.1389    87.2707     2.4207
  437.5000    13.3692    11.7185   -34.4167     7.8237     0.1620     0.1350    86.9968     2.4327
  438.0000    13.2817    11.7215   -34.4093     7.8244     0.1621     0.1368    88.6417     2.4387
  438.5000    13.2862    11.8053   -34.4021     7.8251     0.1651     0.1383    89.9874     2.4409
  439.0000    13.1992    11.8077   -34.3946     7.8259     0.1682     0.1500    90.2899     2.4349
  439.5000    13.1127    11.8921   -34.3865     7.8268     0.1742     0.1476    90.7415     2.4252
  440.0000    13.2206    12.0603   -34.1804     7.8275     0.2029     0.1401    91.4911     2.4080
  440.5000    13.5064    12.1466   -33.9232     7.8281     0.2074     0.1467    91.3465     2.4192
  441.0000    14.0671    12.3184   -33.6168     7.8290     0.2090     0.1461    91.0528     2.4215
  441.5000    14.6681    12.4926   -33.4600     7.8297     0.2090     0.1461    90.9082     2.4147
  442.0000    15.7236    12.5819   -33.0041     7.8305     0.2136     0.1485    89.4223     2.4162
  442.5000    16.8550    12.8485   -32.5483     7.8312     0.2076     0.1548    85.6999     2.4192
  443.0000    18.5746    13.3035   -32.0924     7.8318     0.2046     0.1650    85.2583     2.4155
  443.5000    20.0494    13.9667   -31.3376     7.8326     0.2077     0.1662    84.3686     2.3817
  444.0000    21.9427    14.5618   -30.4334     7.8334     0.2062     0.1802    83.9248     2.3773
  444.5000    24.3491    15.7167   -29.5291     7.8191     0.1988     0.1980    86.3149     2.3758
  445.0000    26.0648    17.6823   -28.9238     7.8200     0.1883     0.1914    88.5548     2.3668
  445.5000    31.9069    19.7566   -28.4629     7.8208     0.1853     0.2010    89.6013     2.3381
  446.0000    35.8992    21.1765   -28.3109     7.8215     0.1854     0.2202    86.1791     2.3136
  446.5000    37.1826    21.7753   -28.1540     7.8072     0.1839     0.2259    79.0301     2.2720
  447.0000    36.1368    21.7798   -27.9771     7.7782     0.1794     0.2313    71.7320     2.2677
  447.5000    34.4482    21.7844   -27.6906     7.7343     0.1720     0.2361    70.7675     2.2504
  448.0000    33.7426    21.7889   -27.5322     7.7201     0.1645     0.2387    71.7408     2.2573
  448.5000    33.1000    21.7943   -27.5247     7.7210     0.1584     0.2363    71.5961     2.2663
  449.0000    32.6566    21.7988   -27.5173     7.7217     0.1661     0.2382    71.6007     2.2378
  449.5000    31.3402    21.8033   -27.3604     7.7225     0.1797     0.2358    71.6051     2.2543
  450.0000    29.6637    21.5080   -27.3515     7.7232     0.2158     0.2256    71.9076     2.2633
  450.5000    28.0770    21.2167   -27.3108     7.7240     0.2399     0.1995    71.9121     2.2821
  451.0000    27.5076    20.9294   -27.2702     7.7247     0.2398     0.1868    72.9896     2.3121
  451.5000    27.9026    20.5036   -27.2295     7.7254     0.2156     0.1857    74.0372     2.3504
  452.0000    28.3008    20.2419   -27.1888     7.7262     0.1902     0.1977    75.5818     2.3346
  452.5000    28.7047    19.9510   -27.4888     7.7269     0.1859     0.2049    73.6687     2.3264
  453.0000    28.5167    19.6809   -27.9165     7.7277     0.2103     0.2022    73.1266     2.3016
  453.5000    28.1347    19.5492   -28.2302     7.7284     0.2193     0.1977    74.2439     2.3181
  454.0000    27.7554    19.4183   -28.6520     7.7292     0.2222     0.1898    76.4541     2.3294
  454.5000    27.3835    19.1554   -28.7955     7.7299     0.2200     0.1760    77.6557     2.3414
  455.0000    26.7761    19.0381   -28.7880     7.7307     0.1924     0.1778    78.8326     2.3564
  455.5000    26.7807    19.0647   -28.9331     7.7314     0.1739     0.2000    77.6597     2.3572
  456.0000    26.7844    19.0914   -29.0751     7.7322     0.1833     0.2133    77.0281     2.3070
  456.5000    26.7881    19.1181   -29.2186     7.7329     0.2044     0.2138    78.6730     2.2905
  457.0000    26.7918    19.1447   -29.2127     7.7329     0.2465     0.2180    79.2725     2.2905
  457.5000    26.0645    19.1714   -29.3577     7.7327     0.2811     0.2111    77.7877     2.2898
  458.0000    25.1822    19.1981   -29.3503     7.7325     0.2857     0.1971    77.4930     2.3152
  458.5000    24.3298    18.8163   -29.3443     7.7323     0.2857     0.1763    80.1811     2.3405
  459.0000    24.3331    18.5615   -29.3384     7.7321     0.2828     0.1764    77.9490     2.3530
  459.5000    24.3365    18.3114   -29.4834     7.7319     0.2212     0.1781    79.2958     2.4011
  460.0000    24.3398    18.1901   -29.6269     7.7470     0.2047     0.1784    80.0443     2.3641
  460.5000    24.0087    18.0709   -29.6195     7.7624     0.2002     0.1787    77.9635     2.3582
  461.0000    24.0121    18.0759   -29.7645     7.7628     0.1987     0.1772    77.2228     2.3589
  461.5000    24.0154    17.8324   -29.9080     7.7633     0.1973     0.1694    77.2272     2.3709
  462.0000    24.0187    17.7140   -29.9006     7.7488     0.1973     0.1733    79.0200     2.3755
  462.5000    24.0220    17.5970   -30.0441     7.7493     0.1989     0.1712    83.0483     2.3672
  463.0000    23.8598    17.3599   -30.3371     7.7497     0.1989     0.1615    83.7968     2.3725
  463.5000    23.6986    17.2448   -30.4821     7.7502     0.2005     0.1637    81.8639     2.3905
  464.0000    23.3763    17.1306   -30.6256     7.7506     0.2035     0.1700    82.1675     2.3793
  464.5000    23.2184    17.0172   -31.2161     7.7510     0.2051     0.1634    80.0855     2.3763
  465.0000    22.8818    17.0220   -31.6586     7.7515     0.2036     0.1472    80.5371     2.4078
  465.5000    22.2565    16.7926   -31.6526     7.7519     0.1931     0.1493    78.4551     2.4213
  466.0000    21.6484    16.3387   -31.7977     7.7524     0.1886     0.1610    75.0318     2.4108
  466.5000    20.9431    15.8970   -31.7902     7.7528     0.1932     0.1727    75.7814     2.3793
  467.0000    20.5160    15.4673   -31.9352     7.7533     0.1978     0.1790    77.4252     2.3621
  467.5000    20.2363    15.2589   -32.0788     7.7537     0.1993     0.1916    78.6219     2.3569
  468.0000    19.9618    15.0533   -32.0713     7.7542     0.2009     0.1952    79.0735     2.3419
  468.5000    19.8263    14.9536   -31.9347     7.7696     0.2103     0.1874    78.6297     2.3329
  469.0000    19.8297    14.8546   -31.9711     7.7700     0.2160     0.1814    78.9333     2.3509
  469.5000    19.8324    14.7562   -32.0075     7.7704     0.2160     0.1775    80.1301     2.3584
  470.0000    19.8351    14.6585   -32.0440     7.7708     0.2176     0.1780    81.3267     2.3607
  470.5000    19.8379    14.4459   -32.0804     7.7714     0.2101     0.1765    83.7157     2.3742
  471.0000    19.7039    14.1678   -32.1168     7.7718     0.1876     0.1741    85.5085     2.4072
  471.5000    19.3020    13.9585   -32.1533     7.7871     0.1846     0.1714    84.9169     2.3690
  472.0000    18.9083    13.6945   -32.1742     7.7876     0.1845     0.1681    83.2820     2.3713
  472.5000    18.1424    13.5091   -32.3177     7.7880     0.1845     0.1642    82.5413     2.3765
  473.0000    17.4075    13.3270   -32.6092     7.8033     0.1844     0.1618    81.3535     2.3780
