~VERSION INFORMATION
 VERS.                2.0:   CWLS LOG ASCII STANDARD - VERSION 2.0
 WRAP.                 NO:   ONE LINE PER DEPTH STEP
~WELL INFORMATION
#MNEM.UNIT      DATA TYPE    INFORMATION
#----------   ------------   ------------------------------
 STRT.F            0.0000:   START DEPTH
 STOP.F         2694.5000:   STOP DEPTH
 STEP.F            0.5000:   STEP LENGTH
 NULL.          -999.2500:   NO VALUE
 COMP. FENIX & SCISSON INC:   COMPANY
 WELL.       102 A #20-20:   WELL
 FLD .        TEAPOT DOME:   FIELD
 LOC .      S20 T39N R78W:   LOCATION
 CNTY.            NATRONA:   COUNTY
 STAT.            WYOMING:   STATE
 CTRY. UNITED STATES OF AMERICA:   COUNTRY
 SRVC.            Unknown:   SERVICE COMPANY
 DATE.        17-AUG-1965:   LOGDATE
 API .       490251022200:   API NUMBER
~CURVE INFORMATION
#MNEM.UNIT       API CODE    CURVE DESCRIPTION
#----------   ------------   ------------------------------
 DEPT.F                  :   
 CALI.IN     30 280 01 00:   CALIPER FROM GAMMA RAY LOG
 GR  .GAPI   30 310 01 00:   GAMMA RAY
~PARAMETER INFORMATION
#MNEM.UNIT          VALUE    DESCRIPTION
#----------   ------------   ------------------------------
 PD  .                 GL:   PERMANENT DATUM
 LMF .                 GL:   LOG MEASURED FROM
 DMF .                 GL:   DRILLING MEASURED FROM
 DATE.            8-17-65:   RUN DATE
 RUN .                  1:   RUN NUMBER
 DD  .F            2696.5:   DEPTH DRILLER
 DL  .F              2697:   DEPTH LOGGER
 BLI .F              2695:   BOTTOM LOG INTERVAL
 TLI .F              2000:   TOP LOG INTERVAL
 CS  .IN                7:   CASING SIZE
 CBD .F              2678:   CASING BOTTOM DRILLER
 DFT .                OIL:   DRILLING FLUID TYPE
 TCS .HRS               1:   TIME CURCULATED STOPPED
 ENGI.            JACKSON:   RECORDING ENGINEER
 WITN.          JORGENSEN:   WITNESSED BY
 CLNT.            A2DTECH:   CLIENT CODE
 ORIG.           5" PRINT:   ORIGIN OF DATA
 UWI .       490251022200:   UNIQUE WELL ID
 DICO. A2D Technologies, Inc.:   DIGITIZING COMPANY
~OTHER INFORMATION
~A    DEPT      CALI       GR   
# ...
  972.0000     6.4844  -999.2500
  972.5000     6.4816  -999.2500
  973.0000     6.4787  -999.2500
  973.5000     6.4759  -999.2500
  974.0000     6.4736  -999.2500
  974.5000     6.4751  -999.2500
  975.0000     6.4767  -999.2500
  975.5000     6.4782  -999.2500
  976.0000     6.4797  -999.2500
  976.5000     6.4812  -999.2500
  977.0000     6.4827  -999.2500
  977.5000     6.4833  -999.2500
  978.0000     6.4833  -999.2500
  978.5000     6.4833  -999.2500
  979.0000     6.4832  -999.2500
  979.5000     6.4832  -999.2500
  980.0000     6.4835  -999.2500
  980.5000     6.4909  -999.2500
  981.0000     6.5188  -999.2500
  981.5000     6.5035  -999.2500
  982.0000     6.4752  -999.2500
  982.5000     6.4791  -999.2500
  983.0000     6.4844  -999.2500
  983.5000     6.4524  -999.2500
  984.0000     6.4539  -999.2500
  984.5000     6.4538  -999.2500
  985.0000     6.4523  -999.2500
  985.5000     6.4440  -999.2500
  986.0000     6.4355  -999.2500
  986.5000     6.4505  -999.2500
  987.0000     6.4722  -999.2500
  987.5000     6.4558  -999.2500
  988.0000     6.4365  -999.2500
  988.5000     6.4425  -999.2500
  989.0000     6.4674  -999.2500
  989.5000     6.4707  -999.2500
  990.0000     6.4439  -999.2500
  990.5000     6.4576  -999.2500
  991.0000     6.4721  -999.2500
  991.5000     6.4408  -999.2500
  992.0000     6.4466  -999.2500
  992.5000     6.4463  -999.2500
  993.0000     6.4337  -999.2500
  993.5000     6.4210  -999.2500
  994.0000     6.4234  -999.2500
  994.5000     6.4407  -999.2500
  995.0000     6.4521  -999.2500
  995.5000     6.4442  -999.2500
  996.0000     6.4480  -999.2500
  996.5000     6.4523  -999.2500
  997.0000     6.4440  -999.2500
  997.5000     6.4363  -999.2500
  998.0000     6.4426  -999.2500
  998.5000     6.4426  -999.2500
  999.0000     6.4344  -999.2500
  999.5000     6.4340  -999.2500
 1000.0000     6.4335  -999.2500
 1000.5000     6.4600  -999.2500
 1001.0000     6.5022  -999.2500
 1001.5000     6.4981  -999.2500
 1002.0000     6.4931  -999.2500
 1002.5000     6.4884  -999.2500
 1003.0000     6.4837  -999.2500
 1003.5000     6.4789  -999.2500
 1004.0000     6.4736  -999.2500
 1004.5000     6.4900  -999.2500
 1005.0000     6.4923  -999.2500
 1005.5000     6.4915  -999.2500
 1006.0000     6.4906  -999.2500
 1006.5000     6.4897  -999.2500
 1007.0000     6.4888  -999.2500
 1007.5000     6.4879  -999.2500
 1008.0000     6.4871  -999.2500
 1008.5000     6.4862  -999.2500
 1009.0000     6.4853  -999.2500
 1009.5000     6.4844  -999.2500
 1010.0000     6.4835  -999.2500
 1010.5000     6.4833  -999.2500
 1011.0000     6.4833  -999.2500
 1011.5000     6.4833  -999.2500
 1012.0000     6.4833  -999.2500
 1012.5000     6.4868  -999.2500
 1013.0000     6.4938  -999.2500
 1013.5000     6.5010  -999.2500
 1014.0000     6.5017  -999.2500
 1014.5000     6.5001  -999.2500
 1015.0000     6.4983  -999.2500
 1015.5000     6.4965  -999.2500
 1016.0000     6.4948  -999.2500
 1016.5000     6.4931  -999.2500
 1017.0000     6.4873  -999.2500
 1017.5000     6.4741  -999.2500
 1018.0000     6.4635  -999.2500
 1018.5000     6.4840  -999.2500
 1019.0000     6.4832  -999.2500
 1019.5000     6.4836  -999.2500
 1020.0000     6.4840  -999.2500
 1020.5000     6.5754  -999.2500
 1021.0000     6.5335  -999.2500
 1021.5000     6.4943  -999.2500
 1022.0000     6.4866  -999.2500
 1022.5000     6.4979  -999.2500
 1023.0000     6.5004  -999.2500
 1023.5000     6.4959  -999.2500
 1024.0000     6.4914  -999.2500
 1024.5000     6.4868  -999.2500
 1025.0000     6.4822  -999.2500
 1025.5000     6.4776  -999.2500
 1026.0000     6.4736  -999.2500
 1026.5000     6.4769  -999.2500
 1027.0000     6.4801  -999.2500
 1027.5000     6.4836  -999.2500
 1028.0000     6.4926  -999.2500
 1028.5000     6.5011  -999.2500
 1029.0000     6.5184  -999.2500
 1029.5000     6.5320  -999.2500
 1030.0000     6.5273  -999.2500
 1030.5000     6.5230  -999.2500
 1031.0000     6.5188  -999.2500
 1031.5000     6.5145  -999.2500
 1032.0000     6.5149  -999.2500
 1032.5000     6.5184  -999.2500
 1033.0000     6.5219  -999.2500
 1033.5000     6.5205  -999.2500
 1034.0000     6.5179  -999.2500
 1034.5000     6.5152  -999.2500
 1035.0000     6.5127  -999.2500
 1035.5000     6.5052  -999.2500
 1036.0000     6.4970  -999.2500
 1036.5000     6.4911  -999.2500
 1037.0000     6.4872  -999.2500
 1037.5000     6.4833  -999.2500
 1038.0000     6.4794  -999.2500
 1038.5000     6.4755  -999.2500
 1039.0000     6.4760  -999.2500
 1039.5000     6.4814  -999.2500
 1040.0000     6.4854  -999.2500
 1040.5000     6.5340  -999.2500
 1041.0000     6.5525  -999.2500
 1041.5000     6.4634  -999.2500
 1042.0000     6.4614  -999.2500
 1042.5000     6.4730  -999.2500
 1043.0000     6.4734  -999.2500
 1043.5000     6.4734  -999.2500
 1044.0000     6.4735  -999.2500
 1044.5000     6.4695  -999.2500
 1045.0000     6.4647  -999.2500
 1045.5000     6.4598  -999.2500
 1046.0000     6.4544  -999.2500
 1046.5000     6.4678  -999.2500
 1047.0000     6.4840  -999.2500
 1047.5000     6.4889  -999.2500
 1048.0000     6.4931  -999.2500
 1048.5000     6.4931  -999.2500
 1049.0000     6.4931  -999.2500
 1049.5000     6.4931  -999.2500
 1050.0000     6.4931  -999.2500
 1050.5000     6.4931  -999.2500
 1051.0000     6.4931  -999.2500
 1051.5000     6.4931  -999.2500
 1052.0000     6.4931  -999.2500
 1052.5000     6.4931  -999.2500
 1053.0000     6.4931  -999.2500
 1053.5000     6.4931  -999.2500
 1054.0000     6.4931  -999.2500
 1054.5000     6.4930  -999.2500
 1055.0000     6.4978  -999.2500
 1055.5000     6.5053  -999.2500
 1056.0000     6.5131  -999.2500
 1056.5000     6.5290  -999.2500
 1057.0000     6.5454  -999.2500
 1057.5000     6.5410  -999.2500
 1058.0000     6.5232  -999.2500
 1058.5000     6.5281  -999.2500
 1059.0000     6.5418  -999.2500
 1059.5000     6.5100  -999.2500
 1060.0000     6.5006  -999.2500
 1060.5000     6.4972  -999.2500
 1061.0000     6.4938  -999.2500
 1061.5000     6.4995  -999.2500
 1062.0000     6.5083  -999.2500
 1062.5000     6.5107  -999.2500
 1063.0000     6.5071  -999.2500
 1063.5000     6.5043  -999.2500
 1064.0000     6.4750  -999.2500
 1064.5000     6.4526  -999.2500
 1065.0000     6.4487  -999.2500
 1065.5000     6.4445  -999.2500
 1066.0000     6.4437  -999.2500
 1066.5000     6.4629  -999.2500
 1067.0000     6.4592  -999.2500
 1067.5000     6.4545  -999.2500
 1068.0000     6.4530  -999.2500
 1068.5000     6.4738  -999.2500
 1069.0000     6.4732  -999.2500
 1069.5000     6.4573  -999.2500
 1070.0000     6.4435  -999.2500
 1070.5000     6.4477  -999.2500
 1071.0000     6.4583  -999.2500
 1071.5000     6.4688  -999.2500
 1072.0000     6.4768  -999.2500
 1072.5000     6.4832  -999.2500
 1073.0000     6.4899  -999.2500
 1073.5000     6.4968  -999.2500
 1074.0000     6.5038  -999.2500
 1074.5000     6.5109  -999.2500
 1075.0000     6.5113  -999.2500
 1075.5000     6.5084  -999.2500
 1076.0000     6.5054  -999.2500
 1076.5000     6.5024  -999.2500
 1077.0000     6.4995  -999.2500
 1077.5000     6.4965  -999.2500
 1078.0000     6.4934  -999.2500
 1078.5000     6.4841  -999.2500
 1079.0000     6.5000  -999.2500
 1079.5000     6.5166  -999.2500
 1080.0000     6.4987  -999.2500
 1080.5000     6.4615  -999.2500
 1081.0000     6.4562  -999.2500
 1081.5000     6.4538  -999.2500
 1082.0000     6.4626  -999.2500
 1082.5000     6.4772  -999.2500
 1083.0000     6.4832  -999.2500
 1083.5000     6.4833  -999.2500
 1084.0000     6.4833  -999.2500
 1084.5000     6.4833  -999.2500
 1085.0000     6.4832  -999.2500
 1085.5000     6.4833  -999.2500
 1086.0000     6.4858  -999.2500
 1086.5000     6.5017  -999.2500
 1087.0000     6.4931  -999.2500
 1087.5000     6.4843  -999.2500
 1088.0000     6.4866  -999.2500
 1088.5000     6.4903  -999.2500
 1089.0000     6.4922  -999.2500
 1089.5000     6.4883  -999.2500
 1090.0000     6.4844  -999.2500
 1090.5000     6.4856  -999.2500
 1091.0000     6.4890  -999.2500
 1091.5000     6.4928  -999.2500
 1092.0000     6.4873  -999.2500
 1092.5000     6.4852  -999.2500
 1093.0000     6.4900  -999.2500
