~VERSION INFORMATION
 VERS.                2.0:   CWLS LOG ASCII STANDARD - VERSION 2.0
 WRAP.                 NO:   ONE LINE PER DEPTH STEP
~WELL INFORMATION
#MNEM.UNIT      DATA TYPE    INFORMATION
#----------   ------------   ------------------------------
 STRT.F          779.5000:   START DEPTH
 STOP.F         2194.0000:   STOP DEPTH
 STEP.F            0.5000:   STEP LENGTH
 NULL.          -999.2500:   NO VALUE
 COMP. LAWRENCE/ALLISON INC:   COMPANY
 WELL.        27 X #10-10:   WELL
 FLD .             TEAPOT:   FIELD
 LOC .      S10 T38N R78W:   LOCATION
 CNTY.            NATRONA:   COUNTY
 STAT.            WYOMING:   STATE
 CTRY. UNITED STATES OF AMERICA:   COUNTRY
 SRVC.            Unknown:   SERVICE COMPANY
 DATE.        21-AUG-1987:   LOGDATE
 API .       490251118900:   API NUMBER
~CURVE INFORMATION
#MNEM.UNIT       API CODE    CURVE DESCRIPTION
#----------   ------------   ------------------------------
 DEPT.F                  :   
 ROP .MIN/FT 91 810 01 00:   RATE OF DRILLING PENETRATION
 TGAS.UNITS  91 830 01 00:   TOTAL GAS FROM HOTWIRE
~PARAMETER INFORMATION
#MNEM.UNIT          VALUE    DESCRIPTION
#----------   ------------   ------------------------------
 EKB .F              5237:   KELLING BUSHING
 EGL .F              5236:   GROUND LEVEL
 DATE.        21-AUG-1987:   RUN DATE
 BLI .F              2180:   BOTTOM LOG INTERVAL
 TLI .F               780:   TOP LOG INTERVAL
 LUN .              T-148:   LOGGING UNIT NUMBER
 ENGI.            R. HUSK:   RECORDING ENGINEER
 WITN.           C. TOWER:   WITNESSED BY
 CLNT.            A2DTECH:   CLIENT CODE
 ORIG.           5" PRINT:   ORIGIN OF DATA
 UWI .       490251118900:   UNIQUE WELL ID
 DICO. A2D Technologies, Inc.:   DIGITIZING COMPANY
~OTHER INFORMATION
~A   DEPT      ROP         TGAS 
# ...
  901.0000     0.6818    54.8094
  901.5000     0.6818    54.8423
  902.0000     0.6818    54.8752
  902.5000     0.6807    54.9081
  903.0000     0.6710    54.9410
  903.5000     0.6818    54.9738
  904.0000     0.6836    55.0067
  904.5000     0.6926    55.0396
  905.0000     0.6926    55.0725
  905.5000     0.6926    55.1054
  906.0000     0.6899    55.1383
  906.5000     0.6789    55.1712
  907.0000     0.6710    55.2040
  907.5000     0.6676    55.2369
  908.0000     0.6566    55.2698
  908.5000     0.6417    55.3027
  909.0000     0.6236    55.3356
  909.5000     0.6126    55.3685
  910.0000     0.6061    55.4013
  910.5000     0.5966    55.4342
  911.0000     0.5844    55.4671
  911.5000     0.5792    55.0648
  912.0000     0.5736    54.2135
  912.5000     0.5736    54.2546
  913.0000     0.5736    54.2874
  913.5000     0.5736    54.7582
  914.0000     0.5736    55.6670
  914.5000     0.5736    55.6998
  915.0000     0.5736    56.1706
  915.5000     0.5736    57.0794
  916.0000     0.5736    56.6743
  916.5000     0.5736    55.8230
  917.0000     0.5736    54.5502
  917.5000     0.5736    54.5830
  918.0000     0.5736    54.6159
  918.5000     0.5736    54.6487
  919.0000     0.5650    54.6816
  919.5000     0.5628    54.7144
  920.0000     0.5735    54.7445
  920.5000     0.5622    54.7117
  921.0000     0.5617    54.6724
  921.5000     0.5611    54.6404
  922.0000     0.5606    55.0543
  922.5000     0.5601    55.0142
  923.0000     0.5595    55.4282
  923.5000     0.5590    55.3881
  924.0000     0.5584    55.3561
  924.5000     0.5560    55.3240
  925.0000     0.5465    55.2920
  925.5000     0.5460    55.2591
  926.0000     0.5455    55.2199
  926.5000     0.5449    55.1878
  927.0000     0.5444    55.1558
  927.5000     0.5400    55.1237
  928.0000     0.5325    55.0917
  928.5000     0.5319    55.0596
  929.0000     0.5314    55.0276
  929.5000     0.5308    54.9955
  930.0000     0.5303    54.5255
  930.5000     0.5298    54.4927
  931.0000     0.5353    54.8994
  931.5000     0.5395    54.8594
  932.0000     0.5390    54.8273
  932.5000     0.5384    54.7953
  933.0000     0.5379    54.7632
  933.5000     0.5373    54.7312
  934.0000     0.5368    54.6991
  934.5000     0.5363    54.6671
  935.0000     0.5443    54.6350
  935.5000     0.5460    54.6022
  936.0000     0.5454    53.6870
  936.5000     0.5448    53.6550
  937.0000     0.5551    53.1850
  937.5000     0.5654    53.1529
  938.0000     0.5974    53.1209
  938.5000     0.6726    53.0888
  939.0000     0.7936    52.6188
  939.5000     0.8903    52.5868
  940.0000     0.9308    52.5547
  940.5000     0.7636    52.5876
  941.0000     0.6539    52.1805
  941.5000     0.5859    51.3364
  942.0000     0.5264    50.9303
  942.5000     0.5168    51.4081
  943.0000     0.5162    51.8779
  943.5000     0.5157    52.7857
  944.0000     0.5152    52.8175
  944.5000     0.5146    51.9735
  945.0000     0.5141    51.5674
  945.5000     0.5135    51.6072
  946.0000     0.5130    52.0770
  946.5000     0.5124    53.4227
  947.0000     0.5119    55.2064
  947.5000     0.5114    56.9900
  948.0000     0.5108    60.9635
  948.5000     0.5103    62.7419
  949.0000     0.5097    59.2780
  949.5000     0.5173    54.8945
  950.0000     0.5195    53.6483
  950.5000     0.5189    57.1918
  951.0000     0.5183    62.4791
  951.5000     0.5286    67.3285
  952.0000     0.5281    74.8056
  952.5000     0.5276    67.5550
  953.0000     0.5162    58.2323
  953.5000     0.5157    53.8845
  954.0000     0.5152    52.5946
  954.5000     0.5146    52.1885
  955.0000     0.5120    52.2283
  955.5000     0.5027    52.2601
  956.0000     0.5022    52.7299
  956.5000     0.5016    52.7628
  957.0000     0.5011    52.8016
  957.5000     0.5005    52.8334
  958.0000     0.5000    53.3032
  958.5000     0.4944    53.3351
  959.0000     0.4936    53.3670
  959.5000     0.4984    53.8368
  960.0000     0.5087    53.8713
  960.5000     0.5078    53.7974
  961.0000     0.5065    53.7170
  961.5000     0.4954    53.6367
  962.0000     0.4946    53.5563
  962.5000     0.4938    53.4759
  963.0000     0.4930    53.3956
  963.5000     0.4922    53.3152
  964.0000     0.4933    53.2348
  964.5000     0.5014    53.1545
  965.0000     0.5005    53.0741
  965.5000     0.4997    53.0281
  966.0000     0.4989    53.0476
  966.5000     0.4949    53.0672
  967.0000     0.4865    53.0867
  967.5000     0.4857    53.1062
  968.0000     0.4848    53.1257
  968.5000     0.4840    53.1452
  969.0000     0.4788    53.1647
  969.5000     0.4622    53.1842
  970.0000     0.4442    53.2037
  970.5000     0.4427    53.2232
  971.0000     0.4530    53.2427
  971.5000     0.4689    53.2622
  972.0000     0.4962    53.2817
  972.5000     0.5286    53.3013
  973.0000     0.5739    53.3208
  973.5000     0.6351    53.3403
  974.0000     0.6869    53.3598
  974.5000     0.6656    53.3948
  975.0000     0.6094    52.9999
  975.5000     0.5225    52.6050
  976.0000     0.4776    52.6481
  976.5000     0.5693    52.2424
  977.0000     0.7097    52.2963
  977.5000     0.8372    52.7773
  978.0000     0.7715    55.0102
  978.5000     0.6733    58.1189
  979.0000     0.5535    62.9795
  979.5000     0.4661    70.0299
  980.0000     0.4221    77.5218
  980.5000     0.4218    74.4274
  981.0000     0.4324    70.0263
  981.5000     0.4321    64.3114
  982.0000     0.4318    61.6639
  982.5000     0.4315    68.2117
  983.0000     0.4313    81.4458
  983.5000     0.4295    87.0583
  984.0000     0.4145    84.3461
  984.5000     0.3829    72.0617
  985.0000     0.3628    63.2811
  985.5000     0.3513    58.0041
  986.0000     0.3431    56.2307
  986.5000     0.3428    56.2092
  987.0000     0.3425    57.0689
  987.5000     0.3423    56.1661
  988.0000     0.3420    56.1446
  988.5000     0.3417    56.1230
  989.0000     0.3415    56.0437
  989.5000     0.3412    56.0803
  990.0000     0.3409    56.9343
  990.5000     0.3406    58.2846
  991.0000     0.3404    60.8906
  991.5000     0.3470    63.8716
  992.0000     0.3723    66.0398
  992.5000     0.4055    63.8285
  993.0000     0.4229    60.3033
  993.5000     0.4256    58.9679
  994.0000     0.4253    58.9464
  994.5000     0.4250    59.3682
  995.0000     0.4247    61.0931
  995.5000     0.4245    64.1373
  996.0000     0.4242    66.3109
  996.5000     0.4240    62.3423
  997.0000     0.4237    59.2551
  997.5000     0.4126    58.3577
  998.0000     0.4123    57.4599
  998.5000     0.4121    57.0000
  999.0000     0.4118    56.9738
  999.5000     0.4115    56.9523
 1000.0000     0.4004    58.2482
 1000.5000     0.3896    57.7993
 1001.0000     0.4004    56.9107
 1001.5000     0.4329    56.9001
 1002.0000     0.4870    56.8896
 1002.5000     0.5772    56.8791
 1003.0000     0.6683    57.3066
 1003.5000     0.7589    57.7340
 1004.0000     0.7684    58.1606
 1004.5000     0.7071    83.1109
 1005.0000     0.6088   180.0000
 1005.5000     0.4816   180.0000
 1006.0000     0.3716   180.0000
 1006.5000     0.3396   180.0000
 1007.0000     0.3689   180.0000
 1007.5000     0.4252   180.0000
 1008.0000     0.4708   180.0000
 1008.5000     0.4987   180.0000
 1009.0000     0.5087   180.0000
 1009.5000     0.5087   180.0000
 1010.0000     0.5087   180.0000
 1010.5000     0.5087   180.0000
 1011.0000     0.5087   180.0000
 1011.5000     0.5087   180.0000
 1012.0000     0.5087   180.0000
 1012.5000     0.5195   180.0000
 1013.0000     0.5195   180.0000
 1013.5000     0.5195   180.0000
 1014.0000     0.5195   180.0000
 1014.5000     0.5087   180.0000
 1015.0000     0.5087   180.0000
 1015.5000     0.5087   180.0000
 1016.0000     0.5087   180.0000
 1016.5000     0.5087   180.0000
 1017.0000     0.5087   180.0000
 1017.5000     0.5087   180.0000
 1018.0000     0.5087   180.0000
 1018.5000     0.5087   180.0000
 1019.0000     0.5087   180.0000
 1019.5000     0.5087   180.0000
 1020.0000     0.5086   180.0000
 1020.5000     0.5081   179.5751
 1021.0000     0.5076   171.7024
 1021.5000     0.5070   159.8880
 1022.0000     0.5065   145.0080
