~VERSION INFORMATION
 VERS.                2.0:   CWLS LOG ASCII STANDARD - VERSION 2.0
 WRAP.                 NO:   ONE LINE PER DEPTH STEP
~WELL INFORMATION
#MNEM.UNIT      DATA TYPE    INFORMATION
#----------   ------------   ------------------------------
 STRT.F            0.0000:   START DEPTH
 STOP.F         1002.0000:   STOP DEPTH
 STEP.F            0.5000:   STEP LENGTH
 NULL.          -999.2500:   NO VALUE
 COMP. U S NAVY-INTEX OIL:   COMPANY
 WELL.     NPR ##3 28-S-2:   WELL
 FLD .             TEAPOT:   FIELD
 LOC .       S2 T38N R78W:   LOCATION
 CNTY.            NATRONA:   COUNTY
 STAT.            WYOMING:   STATE
 CTRY. UNITED STATES OF AMERICA:   COUNTRY
 SRVC.      NL McCullough:   SERVICE COMPANY
 DATE.        13-JUN-1963:   LOGDATE
 API .       490250639400:   API NUMBER
~CURVE INFORMATION
#MNEM.UNIT       API CODE    CURVE DESCRIPTION
#----------   ------------   ------------------------------
 DEPT.F                  :   
 ASN .OHMM   05 041 16 00:   AMPLIFIED SHORT NORMAL 16"
 ILD .OHMM   05 120 46 00:   INDUCTION LOG DEEP
 CILD.MMHO   05 110 46 00:   CONDUCTIVITY INDUCTION LOG DEEP
 SPR .MV     05 010 01 00:   SPONTANEOUS POTENTIAL FROM RES.
 GR  .GAPI   30 310 01 00:   GAMMA RAY
~PARAMETER INFORMATION
#MNEM.UNIT          VALUE    DESCRIPTION
#----------   ------------   ------------------------------
 PD  .                 GL:   PERMANENT DATUM
 EPD .F              5147:   ELEVATION PERMANENT DATUM
 LMF .                 KB:   LOG MEASURED FROM
 DAPD.F                 5:   FEET ABOVE PERMANENT DATUM
 DMF .                 KB:   DRILLING MEASURED FROM
 EKB .F              5152:   KELLING BUSHING
 EGL .F              5147:   GROUND LEVEL
 DATE.        13-SEP-1963:   RUN DATE
 RUN .                  1:   RUN NUMBER
 BLI .F               600:   BOTTOM LOG INTERVAL
 CS  .IN                7:   CASING SIZE
 DFT .                OIL:   DRILLING FLUID TYPE
 ENGI.            JACKSON:   RECORDING ENGINEER
 WITN.             HUDSON:   WITNESSED BY
 CLNT.            A2DTECH:   CLIENT CODE
 ORIG.           5" PRINT:   ORIGIN OF DATA
 UWI .       490250639400:   UNIQUE WELL ID
 DICO. A2D Technologies, Inc.:   DIGITIZING COMPANY
~OTHER INFORMATION
~A    DEPT     ASN        ILD       CILD        SPR          GR  
# ...
  488.0000    33.9881    35.5352    27.6084   -52.3528    62.3222
  488.5000    32.4193    33.8891    28.3383   -52.7997    61.1373
  489.0000    30.6264    32.0930    29.0677   -53.0971    63.9740
  489.5000    30.2534    31.4213    30.5498   -52.9462    74.5469
  490.0000    29.4320    31.0495    31.2790   -51.4499    74.9989
  490.5000    28.3865    30.3779    32.0081   -49.5052    75.4546
  491.0000    27.7832    29.1065    34.2411   -49.8027    74.7180
  491.5000    26.9663    27.6103    35.7696   -50.2496    77.1064
  492.0000    25.7728    26.1890    37.2032   -50.6965    76.5186
  492.5000    24.6525    25.2175    38.6968   -51.2929    74.1432
  493.0000    23.9806    24.3209    40.9173   -51.1419    76.6823
  493.5000    23.1592    23.6493    42.3983   -49.9446    74.9040
  494.0000    22.7115    22.9776    44.6313   -48.8968    71.4888
  494.5000    22.0396    22.3060    45.3609   -47.9984    65.5438
  495.0000    21.2930    21.7093    46.0903   -46.9506    58.2596
  495.5000    20.7706    21.1126    46.8196   -46.3512    57.8188
  496.0000    20.5471    20.7408    47.5488   -46.3497    61.3995
  496.5000    20.3984    20.5182    48.2782   -46.3482    68.4010
  497.0000    20.3991    20.4462    48.2545   -46.4965    70.3429
  497.5000    20.3250    20.3743    48.2319   -46.4947    70.0509
  498.0000    20.3259    20.4530    48.2092   -46.1942    73.7804
  498.5000    20.3267    20.4560    48.1865   -46.3426    72.0003
  499.0000    20.3274    20.3840    48.1638   -46.7891    75.2834
  499.5000    20.3282    20.3870    48.1411   -46.9375    78.4158
  500.0000    20.3176    20.3796    48.8760   -47.2461    76.3380
  500.5000    20.2515    20.3214    48.8414   -47.3128    79.1771
  501.0000    20.1854    20.2632    48.8117   -47.3782    78.1444
  501.5000    20.1194    20.1712    49.5303   -47.0567    71.0105
  502.0000    20.0533    20.0241    50.2600   -46.7483    70.5708
  502.5000    20.0410    19.9512    50.2230   -46.4718    74.4510
  503.0000    19.9685    19.8786    50.1934   -46.3193    73.4183
  503.5000    19.8212    19.7309    50.1638   -46.1669    74.0225
  504.0000    19.7487    19.6582    50.1342   -46.1639    68.0791
  504.5000    19.6762    19.5854    50.1045   -45.8620    65.5583
  505.0000    19.4548    19.5077    50.0749   -45.5601    61.8448
  505.5000    19.3817    19.3650    50.7972   -45.5572    67.2193
  506.0000    19.2344    19.2923    51.5195   -45.5542    76.6790
  506.5000    19.0877    19.2195    51.6066   -45.5512    74.8535
  507.0000    19.0147    18.9974    52.9640   -45.5483    71.8509
  507.5000    18.8680    18.8492    52.9270   -45.5453    72.4554
  508.0000    18.7954    18.7764    52.8974   -45.6926    70.4941
  508.5000    18.5729    18.7037    52.8678   -45.9878    71.0328
  509.0000    18.4262    18.6310    52.8382   -45.9849    72.6587
  509.5000    18.3531    18.5582    52.8086   -45.9819    73.8423
  510.0000    18.2806    18.4111    53.5383   -45.9790    72.9559
  510.5000    18.2086    18.4133    53.5013   -45.9760    69.3759
  511.0000    18.0608    18.3400    54.2309   -45.9731    70.6486
  511.5000    17.9140    18.1179    54.1939   -45.9701    72.6755
  512.0000    17.6920    17.8953    54.1643   -45.9671    76.8527
  512.5000    17.6196    17.8220    54.1347   -45.8022    79.6868
  513.0000    17.5471    17.8248    53.3532   -45.6622    74.6362
  513.5000    17.4746    17.9769    53.3233   -45.6592    75.2404
  514.0000    17.4768    18.2040    53.2932   -45.8051    71.3825
  514.5000    17.4790    18.5061    53.2631   -45.9524    71.2404
  515.0000    17.4813    18.6582    53.2274   -46.0989    72.1445
  515.5000    17.4836    18.8854    53.1978   -46.0952    74.5344
  516.0000    17.4110    18.9625    53.1682   -46.2424    76.9243
  516.5000    17.4137    18.8148    53.1386   -46.2387    72.6178
  517.0000    17.3407    18.5922    53.1090   -46.2358    68.0114
  517.5000    17.1192    18.3646    53.8313   -46.0833    73.8840
  518.0000    16.9720    17.9810    54.5535   -46.0804    75.4046
  518.5000    16.8242    17.5385    55.2832   -45.9280    77.9117
  519.0000    16.5280    16.8491    56.0055   -45.6260    74.6490
  519.5000    16.4549    16.4294    56.7278   -45.4736    75.5881
  520.0000    16.2329    16.2067    58.1945   -45.1717    80.4164
  520.5000    15.9367    15.9846    58.9173   -45.0193    75.7825
  521.0000    15.8637    15.9114    60.3909   -44.7174    74.6307
  521.5000    15.6417    15.6892    61.8651   -44.4154    75.8301
  522.0000    15.4202    15.5415    61.8346   -44.3987    79.9759
  522.5000    15.3472    15.3938    61.9425   -44.7085    78.7047
  523.0000    15.1257    15.2462    63.2726   -44.8550    76.6011
  523.5000    14.9779    15.0979    64.7468   -44.6970    77.8005
  524.0000    14.7565    14.8758    65.4764   -44.2511    75.4083
  524.5000    14.6092    14.6531    66.1987   -43.7997    72.9021
  525.0000    14.4620    14.5049    66.9210   -43.6473    71.7262
  525.5000    14.3895    14.4321    67.6433   -43.3447    74.4137
  526.0000    14.2421    14.2850    68.3655   -43.3417    75.9108
  526.5000    14.1697    14.2117    68.3285   -43.6385    79.7888
  527.0000    14.1719    14.2145    67.5471   -44.0832    82.4763
  527.5000    14.0994    14.2167    67.5174   -44.2305    84.4198
  528.0000    14.1016    14.2189    67.4878   -44.2268    85.2201
  528.5000    14.0291    14.1462    67.4582   -44.3740    82.3544
  529.0000    13.9566    14.0735    68.1805   -44.2209    80.7264
  529.5000    13.9589    14.0007    68.1504   -44.2179    81.0330
  530.0000    13.9616    14.0030    68.8732   -44.2150    81.5476
  530.5000    13.8885    13.9302    70.3399   -44.2120    80.4557
  531.0000    13.8160    13.8575    70.3103   -44.2090    77.9349
  531.5000    13.6693    13.7709    71.7919   -43.9071    76.1581
  532.0000    13.5220    13.5626    72.5141   -43.7547    71.9722
  532.5000    13.3742    13.4144    73.2364   -43.6023    75.8784
  533.0000    13.3017    13.2667    73.1994   -43.3003    80.6493
  533.5000    13.2292    13.2695    74.6736   -43.1479    85.5690
  534.0000    13.0819    13.1962    75.4032   -42.9955    84.6851
  534.5000    13.0847    13.1235    76.1255   -42.9925    89.3071
  535.0000    13.0116    13.0507    76.0885   -43.1439    92.2923
  535.5000    13.0144    12.9780    76.0589   -43.4350    87.8369
  536.0000    13.0166    12.9808    76.0293   -43.5816    85.1673
  536.5000    12.8694    12.9075    76.7519   -43.5785    77.2894
  537.0000    12.8716    12.9103    76.7218   -43.4254    74.1733
  537.5000    12.7985    12.9125    75.9399   -43.4225    73.7336
  538.0000    12.8761    12.9147    75.9098   -43.2700    76.8698
  538.5000    12.8783    12.9169    75.8738   -43.2671    73.6050
  539.0000    13.0300    12.9192    75.8442   -43.1146    72.7188
  539.5000    13.1069    12.9963    75.0628   -43.1117    78.2360
  540.0000    13.1092    12.9986    75.0332   -43.1087    76.9057
  540.5000    13.1861    13.0008    74.2517   -43.2560    74.5337
  541.0000    13.1883    13.0030    73.4702   -43.1028    74.6914
  541.5000    13.1906    13.0053    72.6887   -43.0999    76.7837
  542.0000    13.1928    13.0075    72.6591   -43.0969    79.0248
  542.5000    13.1203    12.9347    73.3888   -43.0939    81.1171
  543.0000    13.0477    12.8620    74.8629   -42.9415    82.0189
  543.5000    12.8258    12.7893    75.5790   -42.9385    82.3255
  544.0000    12.6791    12.7026    77.8038   -42.7861    77.5726
  544.5000    12.6060    12.4189    78.5261   -42.6337    73.4126
  545.0000    12.4587    12.1218    80.0002   -42.4812    76.9952
  545.5000    12.3862    11.8992    81.4744   -42.3288    81.4685
  546.0000    12.3137    11.6765    83.0678   -42.3259    83.7096
  546.5000    12.2412    11.5283    84.4227   -42.3229    83.5697
  547.0000    12.2440    11.4555    85.1450   -42.3199    80.6025
  547.5000    12.2462    11.3828    85.1080   -42.3169    79.4187
  548.0000    12.2484    11.3101    85.8302   -42.1644    80.0229
  548.5000    12.3254    11.3128    85.8006   -42.1608    73.4865
