~VERSION INFORMATION
 VERS.                2.0:   CWLS LOG ASCII STANDARD - VERSION 2.0
 WRAP.                 NO:   ONE LINE PER DEPTH STEP
~WELL INFORMATION
#MNEM.UNIT      DATA TYPE    INFORMATION
#----------   ------------   ------------------------------
 STRT.F           40.0000:   START DEPTH
 STOP.F          462.0000:   STOP DEPTH
 STEP.F            0.5000:   STEP LENGTH
 NULL.          -999.2500:   NO VALUE
 COMP.    FENIX & SCISSON:   COMPANY
 WELL.        NPR #68-S-3:   WELL
 FLD .             TEAPOT:   FIELD
 LOC .       S3 T38N R78W:   LOCATION
 CNTY.            NATRONA:   COUNTY
 STAT.            WYOMING:   STATE
 CTRY. UNITED STATES OF AMERICA:   COUNTRY
 SRVC.      Dresser Atlas:   SERVICE COMPANY
 DATE.        28-MAR-1977:   LOGDATE
 API .       490251031900:   API NUMBER
~CURVE INFORMATION
#MNEM.UNIT       API CODE    CURVE DESCRIPTION
#----------   ------------   ------------------------------
 DEPT.F                  :   
 SPR .MV     07 010 01 00:   SPONTANEOUS POTENTIAL
 ILD .OHMM   07 120 46 00:   INDUCTION LOG DEEP
 ILM .OHMM   07 120 44 00:   INDUCTION LOG MEDIUM
 SFL .OHMM   07 220 01 00:   SHALLOW FOCUSED LOG RESISTIVITY
 CALD.IN     45 280 60 00:   CALIPER FROM DENSITY LOG
 GRD .GAPI   45 310 01 00:   GAMMA RAY FROM DENSITY LOG
 CORR.G/C3   45 356 01 00:   DENSITY CORRECTION
 RHOB.G/C3   45 350 01 00:   BULK DENSITY
 DPHI.DEC    45 890 12 00:   DENSITY POROSITY SANDSTONE
~PARAMETER INFORMATION
#MNEM.UNIT          VALUE    DESCRIPTION
#----------   ------------   ------------------------------
 PD  .                 GL:   PERMANENT DATUM
 EPD .F              5162:   ELEVATION PERMANENT DATUM
 LMF .                 KB:   LOG MEASURED FROM
 DAPD.F                 5:   FEET ABOVE PERMANENT DATUM
 DMF .                 KB:   DRILLING MEASURED FROM
 EKB .F              5167:   KELLING BUSHING
 EGL .F              5162:   GROUND LEVEL
 DATE.        28-MAR-1977:   RUN DATE
 RUN .                  1:   RUN NUMBER
 DD  .F               452:   DEPTH DRILLER
 DL  .F               464:   DEPTH LOGGER
 BLI .F               462:   BOTTOM LOG INTERVAL
 TLI .F                40:   TOP LOG INTERVAL
 CS  .IN               10:   CASING SIZE
 CBD .F                40:   CASING BOTTOM DRILLER
 CBL .F                40:   CASING BOTTOM LOGGER
 BS  .IN            7.875:   BIT SIZE
 BSD .F               452:   BIT SIZE AT DEPTH
 DFT .           CHEM GEL:   DRILLING FLUID TYPE
 DFD .                8.9:   DRILLING FLUID DENSITY
 DFV .                 34:   DRILLING FLUID VISCOSITY
 DFPH.                8.0:   DRILLING FLUID PH
 DFL .                8.2:   DRILLING FLUID LOSS
 MSS .         CIRCULATED:   MUD SAMPLE SOURCE
 RMS .OHMM           .223:   RESISTIVITY MUD SAMPLE
 MST .F                51:   MUD SAMPLE TEMPERATURE
 RMF .OHMM           .161:   RESISTIVITY MUD FILTRATE SAMPLE
 MFST.F                51:   MUD FILTRATE SAMPLE TEMPERATURE
 RMC .OHMM           .285:   RESISTIVITY MUD CAKE
 MCST.F                51:   MUD CAKE SAMPLE TEMPERATURE
 MFSS.               MEAS:   MUD FILTRATE SAMPLE SOURCE
 MCSS.               MEAS:   MUD CAKE SAMPLE SOURCE
 RMB .OHMM           .186:   RESISTIVITY MUD AT BHT
 BHT .F                61:   BOTTOM HOLE TEMPERATURE
 TCS .HRS            0500:   TIME CURCULATED STOPPED
 MRT .F                61:   MAXIMUM RECORDED TEMPERATURE
 LUN .               6145:   LOGGING UNIT NUMBER
 LUL .              GLTTE:   LOGGING UNIT LOCATION
 ENGI.              GOULD:   RECORDING ENGINEER
 WITN.               LYON:   WITNESSED BY
 CLNT.            A2DTECH:   CLIENT CODE
 ORIG.           5" PRINT:   ORIGIN OF DATA
 UWI .       490251031900:   UNIQUE WELL ID
 DICO. A2D Technologies, Inc.:   DIGITIZING COMPANY
~OTHER INFORMATION
~A   DEPT      SPR        ILD        ILM        SFL       CALD        GRD       CORR       RHOB       DPHI   
# ...
  405.0000   -22.0091     8.9180     9.9137    10.7387     7.7581    87.9469     0.0296     2.5056     0.0917
  405.5000   -22.1417     8.8980     9.9171    10.6684     7.7605    87.2196     0.0313     2.5073     0.0904
  406.0000   -22.2742     8.8780     9.9205    10.4531     7.7629    90.3791     0.0360     2.5179     0.0848
  406.5000   -22.4068     8.8619     9.8554    10.3141     7.7653    90.6950     0.0422     2.5263     0.0757
  407.0000   -22.6882     8.6853     9.6564    10.1060     7.7676    90.4207     0.0441     2.5361     0.0695
  407.5000   -22.6680     8.6296     9.5271     9.8338     7.7700    91.3387     0.0411     2.5302     0.0726
  408.0000   -22.8046     8.4566     9.2704     9.5691     7.7724    92.4117     0.0322     2.5183     0.0798
  408.5000   -23.0819     8.2871     9.0206     9.3752     7.7748    95.1180     0.0249     2.5079     0.0894
  409.0000   -23.2186     8.0092     8.7171     9.1235     7.7772    93.5025     0.0266     2.5095     0.0864
  409.5000   -23.3512     7.7406     8.4237     9.0014     7.7795    93.2223     0.0328     2.5142     0.0821
  410.0000   -23.6326     7.4294     8.1930     8.8801     7.7819    93.8482     0.0359     2.5173     0.0845
  410.5000   -23.7652     7.1265     7.9097     8.7620     7.7843    96.4055     0.0376     2.5144     0.0874
  411.0000   -24.0425     6.5577     7.5420     8.6440     7.7867    97.7647     0.0363     2.5137     0.0856
  411.5000   -24.3239     6.0343     7.1776     8.4120     7.7891    93.9196     0.0365     2.5131     0.0841
  412.0000   -24.4565     5.6001     6.6249     8.2422     7.7914    91.2608     0.0367     2.5117     0.0852
  412.5000   -24.8867     5.2529     6.0574     8.0203     7.7938    95.4575     0.0368     2.5133     0.0855
  413.0000   -25.3169     4.9128     5.4625     7.6972     7.7962   100.6974     0.0416     2.5164     0.0821
  413.5000   -25.4536     4.7537     5.1347     7.1363     7.7986   105.7883     0.0477     2.5158     0.0812
  414.0000   -25.4333     4.7233     5.1721     6.3916     7.8010   110.7301     0.0433     2.4994     0.0980
  414.5000   -24.8218     4.7592     5.3559     5.2691     7.8033   111.6481     0.0375     2.4702     0.1100
  415.0000   -24.2104     4.8617     5.6234     4.6545     7.8057   114.6525     0.0332     2.4575     0.1169
  415.5000   -23.7477     5.0355     6.1544     5.4205     7.8081   118.2531     0.0349     2.4486     0.1210
  416.0000   -23.5827     5.3251     6.5973     8.1514     7.8105   120.0653     0.0381     2.4870     0.1132
  416.5000   -23.4177     5.7496     6.9269    10.4571     7.8129   118.8968     0.0415     2.5209     0.0918
  417.0000   -23.4014     6.2510     7.2729    10.3143     7.8152   115.6420     0.0430     2.5390     0.0752
  417.5000   -23.2364     6.7493     7.5836     9.6918     7.8176   110.3006     0.0384     2.5474     0.0625
  418.0000   -23.2202     7.1870     7.9624     9.1800     7.8200   105.5555     0.0311     2.5362     0.0661
  418.5000   -23.0551     7.4441     8.2453     8.9328     7.8074   103.0457     0.0237     2.5303     0.0727
  419.0000   -23.1877     7.8178     8.4794     8.8743     7.8099   102.3244     0.0164     2.5251     0.0772
  419.5000   -23.1711     8.0416     8.6601     8.9391     7.7972   101.1559     0.0123     2.5215     0.0792
  420.0000   -23.0060     8.2146     8.7232     9.3213     7.7847    99.5404     0.0155     2.5216     0.0801
  420.5000   -22.9896     8.4497     8.8477     9.5198     7.7871    96.8816     0.0202     2.5247     0.0782
  421.0000   -22.9700     8.5720     8.8508     9.5891     7.7895    99.4390     0.0234     2.5308     0.0749
  421.5000   -22.8050     8.6360     8.8538     9.8612     7.7948   103.9337     0.0266     2.5354     0.0709
  422.0000   -22.7887     8.7609     8.9183    10.2113     7.7942   107.5343     0.0283     2.5392     0.0679
  422.5000   -22.7725     8.8264     8.9832    10.5011     7.7972   106.5149     0.0300     2.5431     0.0664
  423.0000   -22.7563     8.8923     8.9863    10.7247     7.7995   101.9187     0.0331     2.5462     0.0651
  423.5000   -22.4425     9.0210     9.0518    10.8777     7.8019   100.7443     0.0348     2.5485     0.0627
  424.0000   -22.4262     9.0883     9.1810    10.8814     7.8043    99.2837     0.0395     2.5554     0.0554
  424.5000   -22.4100     9.2198     9.2479    10.8851     7.8067    92.7442     0.0427     2.5675     0.0497
  425.0000   -22.3938     9.2887     9.3908    11.2716     7.8091    97.3939     0.0444     2.5766     0.0457
  425.5000   -22.3776     9.3581     9.5145    11.5915     7.7965    96.2255     0.0461     2.5835     0.0421
  426.0000   -22.5142     9.3629     9.7173    11.5146     7.7989    94.9080     0.0478     2.5896     0.0390
  426.5000   -22.4940     9.3677     9.7881    11.5195     7.8162    98.9557     0.0479     2.5819     0.0453
  427.0000   -22.6306     9.3725     9.7914    11.5235     7.8030   100.9169     0.0436     2.5687     0.0504
  427.5000   -22.6103     9.3774     9.8627    11.7689     7.8060   101.8349     0.0422     2.5643     0.0536
  428.0000   -22.5941     9.3823     9.9346    11.8546     7.8084   101.5606     0.0440     2.5629     0.0548
  428.5000   -22.7307     9.3871    10.0069    11.8586     7.8108    99.9451     0.0472     2.5638     0.0551
  429.0000   -22.5617     9.3991    10.0104    11.6999     7.8132    97.5844     0.0488     2.5654     0.0535
  429.5000   -22.5454     9.4622    10.0138    11.3849     7.8000    98.0553     0.0460     2.5677     0.0508
  430.0000   -22.3804     9.5329    10.0172    11.2315     7.7880    99.2713     0.0402     2.5535     0.0586
  430.5000   -22.2154     9.5389    10.0206    11.5512     7.7749   100.6364     0.0373     2.5507     0.0624
  431.0000   -21.9015     9.6101    10.0241    11.9613     7.7778    99.6170     0.0345     2.5490     0.0645
  431.5000   -21.8853     9.6150     9.9576    12.2160     7.7802    97.7034     0.0332     2.5455     0.0669
  432.0000   -21.8690     9.6200     9.9618    12.2202     7.7826    95.3427     0.0304     2.5409     0.0698
  432.5000   -21.8527     9.5573     9.9652    11.8912     7.7850    99.9865     0.0260     2.5345     0.0734
  433.0000   -21.8363     9.5635     9.8991    11.5710     7.7874    97.9239     0.0217     2.5241     0.0770
  433.5000   -21.8204     9.5684     9.9034    11.1804     7.7897    96.7495     0.0174     2.5204     0.0793
  434.0000   -21.9530     9.5061     9.9068    10.8059     7.7921    96.3321     0.0191     2.5258     0.0787
  434.5000   -21.9328     9.5122     9.8417    10.8149     7.7945    93.5243     0.0268     2.5304     0.0762
  435.0000   -21.9165     9.4502     9.8452    11.2091     7.7969    92.8030     0.0314     2.5350     0.0738
  435.5000   -22.0532     9.4563     9.8486    11.7523     7.7992    92.6777     0.0331     2.5381     0.0717
  436.0000   -22.0329     9.3947     9.8520    11.5025     7.8016    92.4035     0.0333     2.5360     0.0707
  436.5000   -22.0167     9.4007     9.7874    11.2826     7.8040    92.5763     0.0335     2.5308     0.0755
  437.0000   -21.8517     9.2762     9.6563    11.2875     7.7914    95.2827     0.0307     2.5226     0.0806
  437.5000   -21.8354     9.2157     9.5931    11.5278     7.7938    95.6782     0.0233     2.5115     0.0865
  438.0000   -21.6704     9.1569     9.5885    11.4524     7.7812    95.7774     0.0189     2.5055     0.0889
  438.5000   -21.6542     8.9744     9.4026    11.0673     7.7986    98.0367     0.0207     2.5103     0.0864
  439.0000   -21.6380     8.9159     9.2774    10.6951     7.8010    98.3586     0.0299     2.5284     0.0813
  439.5000   -21.7746     8.7382     9.1523    10.1937     7.7884    97.9353     0.0436     2.5436     0.0718
  440.0000   -21.9072     8.6812     9.0305     9.7831     7.7908    97.6610     0.0513     2.5663     0.0600
  440.5000   -22.0398     8.5082     8.8481     9.6513     7.7932    95.8957     0.0575     2.5783     0.0477
  441.0000   -22.1724     8.3955     8.7894     9.9260     7.7955   102.6266     0.0592     2.5844     0.0435
