~VERSION INFORMATION
 VERS.                2.0:   CWLS LOG ASCII STANDARD - VERSION 2.0
 WRAP.                 NO:   ONE LINE PER DEPTH STEP
~WELL INFORMATION
#MNEM.UNIT      DATA TYPE    INFORMATION
#----------   ------------   ------------------------------
 STRT.F            3.0000:   START DEPTH
 STOP.F          600.0000:   STOP DEPTH
 STEP.F            0.5000:   STEP LENGTH
 NULL.          -999.2500:   NO VALUE
 COMP. FENIX & SCISSON INC:   COMPANY
 WELL.     NPR-3 #83SX4-4:   WELL
 FLD .             TEAPOT:   FIELD
 LOC .       S4 T38N R78W:   LOCATION
 CNTY.            NATRONA:   COUNTY
 STAT.            WYOMING:   STATE
 CTRY. UNITED STATES OF AMERICA:   COUNTRY
 SRVC.           BIRDWELL:   SERVICE COMPANY
 DATE.        02-AUG-1978:   LOGDATE
 API .       490251067700:   API NUMBER
~CURVE INFORMATION
#MNEM.UNIT       API CODE    CURVE DESCRIPTION
#----------   ------------   ------------------------------
 DEPT.F                  :   
 GRD .GAPI   45 310 01 00:   GAMMA RAY FROM DENSITY LOG
 CORR.G/C3   45 356 01 00:   DENSITY CORRECTION
 RHOB.G/C3   45 350 01 00:   BULK DENSITY
 DPHI.DEC    45 890 12 00:   DENSITY POROSITY SANDSTONE
 SPR .MV     05 010 01 00:   SPONTANEOUS POTENTIAL
 ILD .OHMM   05 120 46 00:   INDUCTION LOG DEEP
 SN  .OHMM   05 040 00 00:   SHORT NORMAL
~PARAMETER INFORMATION
#MNEM.UNIT          VALUE    DESCRIPTION
#----------   ------------   ------------------------------
 PD  .                 GL:   PERMANENT DATUM
 EPD .F              5204:   ELEVATION PERMANENT DATUM
 LMF .                 KB:   LOG MEASURED FROM
 DAPD.F                 4:   FEET ABOVE PERMANENT DATUM
 DMF .                 KB:   DRILLING MEASURED FROM
 EKB .F              5204:   KELLING BUSHING
 EGL .F              5200:   GROUND LEVEL
 DATE.        02-AUG-1978:   RUN DATE
 RUN .                  1:   RUN NUMBER
 DD  .F               590:   DEPTH DRILLER
 DL  .F               606:   DEPTH LOGGER
 BLI .F               590:   BOTTOM LOG INTERVAL
 TLI .F                30:   TOP LOG INTERVAL
 CS  .IN            8.625:   CASING SIZE
 CBD .F                40:   CASING BOTTOM DRILLER
 BS  .IN            7.875:   BIT SIZE
 BSD .F               590:   BIT SIZE AT DEPTH
 DFT .                KCL:   DRILLING FLUID TYPE
 DFD .                8.7:   DRILLING FLUID DENSITY
 DFV .                 32:   DRILLING FLUID VISCOSITY
 DFPH.                  9:   DRILLING FLUID PH
 DFL .                 12:   DRILLING FLUID LOSS
 MSS .           FLOWLINE:   MUD SAMPLE SOURCE
 RMS .OHMM             .4:   RESISTIVITY MUD SAMPLE
 MST .F                61:   MUD SAMPLE TEMPERATURE
 RMF .OHMM             .5:   RESISTIVITY MUD FILTRATE SAMPLE
 MFST.F                50:   MUD FILTRATE SAMPLE TEMPERATURE
 RMC .OHMM            .65:   RESISTIVITY MUD CAKE
 MCST.F                66:   MUD CAKE SAMPLE TEMPERATURE
 MFSS.               MEAS:   MUD FILTRATE SAMPLE SOURCE
 BHT .F                78:   BOTTOM HOLE TEMPERATURE
 TCS .HRS            0300:   TIME CURCULATED STOPPED
 MRT .F                78:   MAXIMUM RECORDED TEMPERATURE
 LUN .               3006:   LOGGING UNIT NUMBER
 LUL .               CASP:   LOGGING UNIT LOCATION
 ENGI.             MILLER:   RECORDING ENGINEER
 WITN.              AMEND:   WITNESSED BY
 CLNT.            A2DTECH:   CLIENT CODE
 ORIG.           5" PRINT:   ORIGIN OF DATA
 UWI .       490251067700:   UNIQUE WELL ID
 DICO. A2D Technologies, Inc.:   DIGITIZING COMPANY
~OTHER INFORMATION
~A    DEPT     GRD       CORR       RHOB       DPHI        SPR        ILD         SN   
# ...
  276.0000    65.2047     0.0450     2.4865     0.1198   -16.6914     8.6158     8.8599
  276.5000    72.8452     0.0450     2.4902     0.1174   -16.6797     8.7920     8.8679
  277.0000    74.0388     0.0449     2.4940     0.1135   -16.6679     8.7956     8.9358
  277.5000    73.2459     0.0433     2.4999     0.1101   -16.8060     8.8600     9.0664
  278.0000    68.9285     0.0418     2.5053     0.1054   -16.7937     8.9248     9.1359
  278.5000    65.0247     0.0402     2.5021     0.1081   -16.7819     8.9902     9.2058
  279.0000    62.4702     0.0387     2.4976     0.1126   -16.6209     8.9938     9.2127
  279.5000    61.2651     0.0386     2.4969     0.1141   -16.5985     9.0597     9.2195
  280.0000    61.4093     0.0371     2.4931     0.1165   -16.4478     9.0634     9.2264
  280.5000    62.6015     0.0355     2.4879     0.1180   -16.4335     9.0671     9.2333
  281.0000    61.9961     0.0369     2.4846     0.1207   -16.5710     9.1335     9.4330
  281.5000    60.3412     0.0369     2.4796     0.1222   -16.5592     9.1372     9.5052
  282.0000    60.7852     0.0383     2.4781     0.1240   -17.1445     9.2677     9.6442
  282.5000    61.9789     0.0383     2.4856     0.1216   -17.8790     9.2715     9.7851
  283.0000    62.2730     0.0397     2.4983     0.1148   -17.8672     9.2753     9.8602
  283.5000    61.6661     0.0411     2.4899     0.1175   -18.0077     9.2153     9.7910
  284.0000    62.5600     0.0426     2.4855     0.1169   -17.9930     9.1558     9.6729
  284.5000    62.8555     0.0440     2.4855     0.1211   -17.9812     9.1604     9.4840
  285.0000    61.3491     0.0439     2.4855     0.1226   -17.9695     9.1003     9.2971
  285.5000    56.8157     0.0454     2.4877     0.1208   -17.9577     8.9803     9.1768
  286.0000    52.3407     0.0468     2.4907     0.1169   -18.0955     8.8611     9.1207
  286.5000    52.3349     0.0468     2.4938     0.1142   -18.0835     8.6833     9.0010
  287.0000    55.3277     0.0482     2.4966     0.1130   -17.9224     8.6264     8.9459
  287.5000    59.5199     0.0466     2.4981     0.1160   -17.9104     8.5706     8.7712
  288.0000    61.3133     0.0466     2.4981     0.1163   -17.8985     8.5152     8.7778
  288.5000    60.3903     0.0450     2.4966     0.1154   -18.0364     8.4602     8.7240
  289.0000    60.2509     0.0435     2.4951     0.1148   -18.1739     8.4645     8.7305
  289.5000    59.7954     0.0434     2.4936     0.1163   -18.3085     8.4680     8.6770
  290.0000    53.3428     0.0418     2.4936     0.1181   -18.7445     8.4714     8.6836
  290.5000    52.7374     0.0418     2.4950     0.1158   -18.8820     8.4788     8.6304
  291.0000    53.9509     0.0432     2.4958     0.1128   -18.8703     8.5370     8.6371
  291.5000    56.4726     0.0417     2.4973     0.1143   -18.8585     8.5413     8.7046
  292.0000    58.5659     0.0416     2.4972     0.1134   -18.8467     8.5447     8.7713
  292.5000    63.0579     0.0384     2.4972     0.1125   -18.8350     8.4887     8.8384
  293.0000    64.2515     0.0340     2.4957     0.1128   -18.8232     8.4930     8.9061
  293.5000    64.2458     0.0309     2.4935     0.1140   -18.8115     8.3226     8.9128
  294.0000    62.9206     0.0309     2.4904     0.1166   -18.7997     8.2680     8.9194
  294.5000    55.8371     0.0293     2.4882     0.1191   -18.7880     8.2146     8.9877
  295.0000    54.4835     0.0293     2.4889     0.1167   -18.7762     8.1615     8.9944
  295.5000    55.2259     0.0292     2.4912     0.1140   -18.9137     8.1088     8.9377
  296.0000    56.8694     0.0291     2.4934     0.1188   -18.9015     8.1129     8.9460
  296.5000    62.4933     0.0291     2.4829     0.1200   -18.8873     8.0604     8.8910
  297.0000    64.9539     0.0290     2.4844     0.1200   -18.8755     8.0638     8.8979
  297.5000    62.9977     0.0290     2.4844     0.1194   -18.8638     8.0117     8.6627
  298.0000    62.0938     0.0304     2.4836     0.1182   -18.8520     7.9053     8.4337
  298.5000    62.9876     0.0304     2.4843     0.1179   -18.8403     7.7932     8.2675
  299.0000    62.8305     0.0303     2.4843     0.1191   -18.8285     7.4882     8.2169
  299.5000    62.8471     0.0287     2.4798     0.1223   -18.8167     7.1386     8.1681
  300.0000    62.9690     0.0286     2.4633     0.1392   -18.8606     7.0918     8.1624
  300.5000    60.1153     0.0280     2.4584     0.1401   -19.0942     7.0944     8.0378
  301.0000    56.6627     0.0274     2.4521     0.1386   -18.7632     7.1459     7.9566
  301.5000    51.7068     0.0269     2.4648     0.1352   -18.3249     7.2480     7.9599
  302.0000    49.4576     0.0268     2.4745     0.1288   -18.6157     7.2505     7.9073
  302.5000    50.9515     0.0252     2.4775     0.1219   -18.7547     7.4044     7.9107
  303.0000    58.2934     0.0236     2.4812     0.1225   -18.8937     7.4581     7.9680
  303.5000    62.6370     0.0236     2.4834     0.1213   -19.1819     7.5641     8.1370
  304.0000    66.8305     0.0250     2.4849     0.1183   -19.1691     7.6716     8.1398
  304.5000    69.0909     0.0264     2.4856     0.1196   -19.0096     7.7807     8.0860
  305.0000    69.0697     0.0294     2.4826     0.1237   -18.8501     7.8913     8.0894
  305.5000    68.3157     0.0352     2.4789     0.1264   -18.8398     7.9485     8.0921
  306.0000    65.4628     0.0366     2.4796     0.1238   -18.9791     8.0061     8.1508
  306.5000    61.1107     0.0365     2.4841     0.1184   -19.1179     8.0643     8.1535
  307.0000    59.6071     0.0349     2.4887     0.1190   -19.2568     8.0670     8.1003
  307.5000    59.9125     0.0348     2.4856     0.1223   -19.2465     8.0703     8.1031
  308.0000    61.6963     0.0347     2.4788     0.1241   -19.4109     7.9626     7.9856
  308.5000    66.1897     0.0363     2.4803     0.1247   -19.6738     7.8563     7.7811
  309.0000    68.5842     0.0405     2.4803     0.1229   -19.2132     7.6982     7.6247
  309.5000    67.9802     0.0449     2.4885     0.1142   -18.7552     7.4401     7.5230
  310.0000    60.4796     0.0448     2.4982     0.1122   -18.5956     6.9471     7.3211
  310.5000    58.3723     0.0388     2.4914     0.1143   -18.5854     6.5317     7.1733
  311.0000    58.3709     0.0282     2.4750     0.1225   -18.5751     6.0571     7.0296
  311.5000    60.3156     0.0266     2.4570     0.1415   -18.2664     5.8539     6.9359
  312.0000    64.8091     0.0250     2.4398     0.1520   -17.9576     5.7758     6.7035
  312.5000    71.1027     0.0324     2.4255     0.1577   -17.9473     5.7778     6.5236
  313.0000    70.7974     0.0563     2.4248     0.1514   -17.7878     5.7798     6.3050
  313.5000    67.1949     0.0517     2.4527     0.1338   -17.7776     5.8221     6.2639
  314.0000    63.7201     0.0426     2.4696     0.1323   -17.4687     5.8643     6.2684
  314.5000    64.1867     0.0380     2.4853     0.1238   -17.3090     6.0302     6.5440
  315.0000    65.6816     0.0380     2.4898     0.1194   -17.2965     6.3740     7.0980
  315.5000    69.4254     0.0395     2.4891     0.1203   -17.2862     6.9735     7.6063
  316.0000    70.6215     0.0438     2.4883     0.1195   -17.7237     7.4734     7.9298
  316.5000    69.1169     0.0452     2.4884     0.1171   -18.3105     7.8453     8.2669
  317.0000    65.8521     0.0496     2.4995     0.1156   -18.4520     7.9658     8.4423
  317.5000    61.9108     0.0510     2.4972     0.1144   -18.4392     7.9594     8.6809
  318.0000    58.6922     0.0524     2.5025     0.1102   -18.4289     8.0172     8.8042
  318.5000    56.4443     0.0508     2.5077     0.1072   -18.4187     8.0199     8.9293
  319.0000    54.4958     0.0447     2.5114     0.1054   -18.4084     8.0227     8.9940
  319.5000    53.4455     0.0386     2.5099     0.1048   -18.9952     7.9702     8.9970
  320.0000    54.6407     0.0341     2.5038     0.1087   -19.5821     8.0287     9.0622
  320.5000    58.9230     0.0355     2.5031     0.1112   -19.7209     8.1991     9.0657
  321.0000    60.9227     0.0369     2.5061     0.1082   -19.7107     8.3731     9.1311
