~VERSION INFORMATION
 VERS.                2.0:   CWLS LOG ASCII STANDARD - VERSION 2.0
 WRAP.                 NO:   ONE LINE PER DEPTH STEP
~WELL INFORMATION
#MNEM.UNIT      DATA TYPE    INFORMATION
#----------   ------------   ------------------------------
 STRT.F           30.0000:   START DEPTH
 STOP.F         1358.0000:   STOP DEPTH
 STEP.F            0.5000:   STEP LENGTH
 NULL.          -999.2500:   NO VALUE
 COMP. FENIX & SCISSON INC:   COMPANY
 WELL.      3 SX14 #85-14:   WELL
 FLD .             TEAPOT:   FIELD
 LOC .      S14 T38N R78W:   LOCATION
 CNTY.            NATRONA:   COUNTY
 STAT.            WYOMING:   STATE
 CTRY. UNITED STATES OF AMERICA:   COUNTRY
 SRVC.              Welex:   SERVICE COMPANY
 DATE.        10-FEB-1977:   LOGDATE
 API .       490251027500:   API NUMBER
~CURVE INFORMATION
#MNEM.UNIT       API CODE    CURVE DESCRIPTION
#----------   ------------   ------------------------------
 DEPT.F                  :   
 ILM .OHMM   07 120 44 00:   INDUCTION LOG MEDIUM
 ILD .OHMM   07 120 46 00:   INDUCTION LOG DEEP
 CALD.IN     45 280 60 00:   CALIPER
 GRD .GAPI   45 310 01 00:   GAMMA RAY FROM DENSITY LOG
 RHOB.G/C3   45 350 01 00:   BULK DENSITY
 DPHI.DEC    45 890 12 00:   DENSITY POROSITY SANDSTONE
 CORR.G/C3   45 356 01 00:   DENSITY CORRECTION
~PARAMETER INFORMATION
#MNEM.UNIT          VALUE    DESCRIPTION
#----------   ------------   ------------------------------
 PD  .                 GL:   PERMANENT DATUM
 EPD .F              5345:   ELEVATION PERMANENT DATUM
 LMF .                 GL:   LOG MEASURED FROM
 DMF .                 GL:   DRILLING MEASURED FROM
 EGL .F              5345:   GROUND LEVEL
 DATE.          2-10-1977:   RUN DATE
 RUN .                  1:   RUN NUMBER
 DD  .F              1362:   DEPTH DRILLER
 DL  .F              1361:   DEPTH LOGGER
 BLI .F              1359:   BOTTOM LOG INTERVAL
 TLI .F                43:   TOP LOG INTERVAL
 CS  .IN            8.625:   CASING SIZE
 CBD .F                43:   CASING BOTTOM DRILLER
 CBL .F                43:   CASING BOTTOM LOGGER
 BS  .IN            7.875:   BIT SIZE
 BSD .F              1362:   BIT SIZE AT DEPTH
 DFT .           AIR MIST:   DRILLING FLUID TYPE
 TCS .HRS               4:   TIME CURCULATED STOPPED
 MRT .F               104:   MAXIMUM RECORDED TEMPERATURE
 LUN .               8611:   LOGGING UNIT NUMBER
 LUL .           GILLETTE:   LOGGING UNIT LOCATION
 ENGI.               DOAK:   RECORDING ENGINEER
 WITN. PETTINGILL/STUEBINGER:   WITNESSED BY
 CLNT.            A2DTECH:   CLIENT CODE
 ORIG.       2", 5" PRINT:   ORIGIN OF DATA
 UWI .       490251027500:   UNIQUE WELL ID
 DICO. A2D Technologies, Inc.:   DIGITIZING COMPANY
~OTHER INFORMATION
~A   DEPT      ILM        ILD         CALD      GRD         RHOB     DPHI        CORR  
# ...
  803.5000    16.3320    13.0362     8.0581    99.6569     2.4090     0.1553     0.0304
  804.0000    15.5032    12.8631     8.0576   101.5577     2.4023     0.1595     0.0281
  804.5000    14.9210    12.6923     8.0610   100.4273     2.4043     0.1591     0.0257
  805.0000    14.3606    12.5237     8.0645    99.0674     2.4070     0.1567     0.0234
  805.5000    13.9697    12.3574     8.0679    98.3808     2.4095     0.1544     0.0219
  806.0000    13.9697    12.1933     8.0714   100.4677     2.4142     0.1525     0.0224
  806.5000    13.6875    12.0315     8.0748   102.6551     2.4194     0.1505     0.0228
  807.0000    13.4326    11.8716     8.0764   104.8378     2.4247     0.1479     0.0233
  807.5000    13.1825    11.7290     8.0721   107.0275     2.4300     0.1453     0.0238
  808.0000    12.9370    11.4255     8.0674   109.4839     2.4354     0.1426     0.0223
  808.5000    12.6957    11.1554     8.0627   110.2387     2.4408     0.1382     0.0202
  809.0000    12.5063    10.5878     8.0580   110.4464     2.4462     0.1341     0.0181
  809.5000    11.6587     9.9732     8.0560   110.6508     2.4516     0.1303     0.0160
  810.0000    10.7115     9.3942     8.0496   110.8533     2.4570     0.1266     0.0139
  810.5000     9.8394     8.8183     8.0412   112.9523     2.4624     0.1228     0.0119
  811.0000     9.0383     8.1842     8.0328   116.6210     2.4678     0.1203     0.0097
  811.5000     8.3024     7.5611     8.0244   120.3348     2.4733     0.1189     0.0102
  812.0000     7.6264     6.9854     8.0160   122.7750     2.4787     0.1174     0.0113
  812.5000     7.0054     6.4535     8.0076   124.9225     2.4814     0.1160     0.0124
  813.0000     6.4812     5.9622     7.9993   124.5025     2.4836     0.1145     0.0135
  813.5000     6.2777     5.6452     7.9970   123.3869     2.4849     0.1127     0.0147
  814.0000     6.1312     5.5781     8.0070   121.6623     2.4897     0.1110     0.0160
  814.5000     6.0617     5.5118     8.0168   119.4902     2.4946     0.1093     0.0172
  815.0000     5.9931     5.4462     8.0265   117.2969     2.4950     0.1097     0.0185
  815.5000     5.9252     5.3815     8.0363   115.0899     2.4888     0.1106     0.0196
  816.0000     5.8825     5.3162     8.0461   116.0878     2.4849     0.1114     0.0185
  816.5000     5.9600     5.3162     8.0558   117.4762     2.4893     0.1110     0.0173
  817.0000     5.9990     5.3162     8.0656   118.8809     2.4935     0.1101     0.0160
  817.5000     6.0383     5.3558     8.0754   119.3999     2.4891     0.1098     0.0148
  818.0000     6.0778     5.3934     8.0852   119.3956     2.4843     0.1125     0.0136
  818.5000     6.1176     5.4313     8.0951   119.1143     2.4794     0.1151     0.0124
  819.0000     6.1576     5.4695     8.0966   118.7717     2.4765     0.1176     0.0112
  819.5000     6.1979     5.5079     8.0935   118.4261     2.4766     0.1168     0.0100
  820.0000     6.2385     5.5466     8.0903   118.0813     2.4803     0.1151     0.0098
  820.5000     6.2793     5.5844     8.0871   118.0289     2.4841     0.1135     0.0109
  821.0000     6.3205     5.6699     8.0840   118.5495     2.4878     0.1119     0.0120
  821.5000     6.3618     5.6512     8.0809   119.0721     2.4915     0.1103     0.0131
  822.0000     6.4035     5.6275     8.0777   119.0759     2.4953     0.1086     0.0142
  822.5000     6.4494     5.6041     8.0769   118.5204     2.4990     0.1070     0.0153
  823.0000     6.3948     5.5805     8.0780   117.9747     2.4978     0.1072     0.0164
  823.5000     6.3187     5.5571     8.0792   117.5318     2.4953     0.1080     0.0175
  824.0000     6.2436     5.5338     8.0803   117.2654     2.4972     0.1087     0.0185
  824.5000     6.1694     5.5107     8.0814   116.9706     2.5006     0.1086     0.0196
  825.0000     6.0960     5.4876     8.0826   116.6710     2.4968     0.1081     0.0207
  825.5000     6.0235     5.4646     8.0837   116.3734     2.4914     0.1091     0.0218
  826.0000     5.9358     5.4416     8.0849   116.0568     2.4929     0.1102     0.0229
  826.5000     5.9644     5.4146     8.0860   117.4971     2.4948     0.1114     0.0240
  827.0000     6.0320     5.4145     8.0871   119.4563     2.4949     0.1103     0.0251
  827.5000     6.1010     5.4874     8.0883   121.1130     2.4916     0.1089     0.0262
  828.0000     6.1708     5.5461     8.0894   120.0822     2.4882     0.1104     0.0273
  828.5000     6.2413     5.6054     8.0905   118.9097     2.4861     0.1114     0.0276
  829.0000     6.3125     5.6653     8.0917   117.6756     2.4963     0.1093     0.0258
  829.5000     6.3846     5.7259     8.0928   118.9158     2.5004     0.1071     0.0242
  830.0000     6.4575     5.7870     8.0940   120.4758     2.4929     0.1079     0.0225
  830.5000     6.5312     5.8489     8.0951   122.0671     2.4853     0.1113     0.0209
  831.0000     6.6058     5.9114     8.0962   123.6646     2.4787     0.1147     0.0192
  831.5000     6.6812     5.9746     8.0970   123.8972     2.4820     0.1152     0.0176
  832.0000     6.7583     6.0385     8.0939   123.2427     2.4885     0.1121     0.0160
  832.5000     6.8666     6.1030     8.0908   121.8960     2.4950     0.1089     0.0143
  833.0000     7.0168     6.1683     8.0876   120.5739     2.4973     0.1068     0.0127
  833.5000     7.0710     6.2347     8.0845   119.2600     2.5015     0.1068     0.0110
  834.0000     7.0386     6.2737     8.0814   117.9609     2.5026     0.1050     0.0094
  834.5000     7.0149     6.2549     8.0782   117.5368     2.5050     0.1033     0.0102
  835.0000     6.9913     6.2411     8.0765   117.2253     2.5087     0.1016     0.0111
  835.5000     6.9678     6.2276     8.0755   116.0546     2.5116     0.0999     0.0146
  836.0000     6.9443     6.2140     8.0709   114.4514     2.5150     0.0982     0.0186
  836.5000     6.9210     6.2005     8.0664   112.7326     2.5185     0.0965     0.0227
  837.0000     6.8977     6.1871     8.0619   111.5922     2.5180     0.0963     0.0261
  837.5000     6.8745     6.1736     8.0574   112.8266     2.5161     0.0976     0.0265
  838.0000     6.8514     6.1602     8.0529   114.4056     2.5178     0.0974     0.0269
  838.5000     6.8283     6.1468     8.0484   115.9729     2.5208     0.0961     0.0273
  839.0000     6.8053     6.1335     8.0439   117.4844     2.5237     0.0949     0.0278
  839.5000     6.7825     6.1202     8.0394   115.8905     2.5261     0.0940     0.0282
  840.0000     6.7596     6.1026     8.0349   113.7374     2.5275     0.0936     0.0287
  840.5000     6.7531     6.1033     8.0303   111.5704     2.5285     0.0927     0.0291
  841.0000     6.8305     6.0842     8.0258   109.4162     2.5297     0.0923     0.0296
  841.5000     6.9354     6.0508     8.0214   107.6482     2.5309     0.0918     0.0300
  842.0000     7.0423     6.0174     8.0171   107.5760     2.5321     0.0913     0.0319
  842.5000     7.1498     5.9841     8.0338   109.1986     2.5333     0.0908     0.0348
  843.0000     7.2023     5.9530     8.0754   111.5778     2.5330     0.0903     0.0377
  843.5000     7.0165     5.9340     8.0970   114.3953     2.5319     0.0907     0.0403
  844.0000     6.8796     5.9892     8.1198   117.2162     2.5308     0.0914     0.0382
  844.5000     6.7531     6.0111     8.1158   119.7393     2.5298     0.0922     0.0359
  845.0000     6.7531     6.0249     8.1130   119.1730     2.5287     0.0929     0.0337
  845.5000     6.7743     6.0387     8.1107   118.5775     2.5238     0.0948     0.0315
  846.0000     6.7908     6.0526     8.1082   118.4278     2.5182     0.0975     0.0293
  846.5000     6.8074     6.0665     8.1058   119.6231     2.5127     0.1002     0.0271
  847.0000     6.8240     6.0804     8.1033   120.7766     2.5134     0.1007     0.0259
  847.5000     6.8406     6.0944     8.1010   121.9328     2.5150     0.1000     0.0259
  848.0000     6.8573     6.1084     8.0989   123.1004     2.5167     0.0993     0.0259
  848.5000     6.8740     6.1224     8.0932   124.0392     2.5180     0.0986     0.0259
