~VERSION INFORMATION
 VERS.                2.0:   CWLS LOG ASCII STANDARD - VERSION 2.0
 WRAP.                 NO:   ONE LINE PER DEPTH STEP
~WELL INFORMATION
#MNEM.UNIT      DATA TYPE    INFORMATION
#----------   ------------   ------------------------------
 STRT.F          420.0000:   START DEPTH
 STOP.F         1937.0000:   STOP DEPTH
 STEP.F            0.5000:   STEP LENGTH
 NULL.          -999.2500:   NO VALUE
 COMP. LAWRENCE/ALLISON INC:   COMPANY
 WELL.      85 "X" #85-29:   WELL
 FLD .             TEAPOT:   FIELD
 LOC .      S29 T39N R78W:   LOCATION
 CNTY.            NATRONA:   COUNTY
 STAT.            WYOMING:   STATE
 CTRY. UNITED STATES OF AMERICA:   COUNTRY
 SRVC.            Unknown:   SERVICE COMPANY
 DATE.        28-SEP-1987:   LOGDATE
 API .       490251119100:   API NUMBER
~CURVE INFORMATION
#MNEM.UNIT       API CODE    CURVE DESCRIPTION
#----------   ------------   ------------------------------
 DEPT.F                  :   
 ROP .FT/HR  91 810 01 00:   RAT OF DRILLING PENETRATION
 TGAS.TC/CC  91 830 01 00:   TOTAL GAS UNIT
~PARAMETER INFORMATION
#MNEM.UNIT          VALUE    DESCRIPTION
#----------   ------------   ------------------------------
 DATE.        28-SEP-1987:   RUN DATE
 BLI .F              1937:   BOTTOM LOG INTERVAL
 TLI .F               420:   TOP LOG INTERVAL
 LUN .              T-146:   LOGGING UNIT NUMBER
 CLNT.            A2DTECH:   CLIENT CODE
 ORIG.           5" PRINT:   ORIGIN OF DATA
 UWI .       490251119100:   UNIQUE WELL ID
 DICO. A2D Technologies, Inc.:   DIGITIZING COMPANY
~OTHER INFORMATION
~A   DEPT        ROP       TGAS 
# ...
  784.5000     0.4029     2.6316
  785.0000     0.4031     2.6203
  785.5000     0.4033     2.6089
  786.0000     0.4035     2.5975
  786.5000     0.4037     2.5861
  787.0000     0.4039     2.5747
  787.5000     0.4041     2.5633
  788.0000     0.4043     2.5519
  788.5000     0.4045     2.5405
  789.0000     0.4047     2.5291
  789.5000     0.4049     2.5177
  790.0000     0.4051     2.5063
  790.5000     0.4053     2.4949
  791.0000     0.4055     2.4835
  791.5000     0.4057     2.4722
  792.0000     0.4059     2.4608
  792.5000     0.4061     2.4494
  793.0000     0.4063     2.4380
  793.5000     0.4064     2.4266
  794.0000     0.4061     2.4152
  794.5000     0.4058     2.4038
  795.0000     0.4055     2.3924
  795.5000     0.4052     2.3810
  796.0000     0.4049     2.3696
  796.5000     0.4047     2.3582
  797.0000     0.4044     2.3468
  797.5000     0.4041     2.3354
  798.0000     0.4038     2.3241
  798.5000     0.4035     2.3127
  799.0000     0.4033     2.3013
  799.5000     0.4030     2.2899
  800.0000     0.4027     2.2785
  800.5000     0.4024     2.2671
  801.0000     0.4021     2.2557
  801.5000     0.4019     2.2443
  802.0000     0.4016     2.2329
  802.5000     0.4013     2.2215
  803.0000     0.4010     2.2101
  803.5000     0.4007     2.1987
  804.0000     0.4004     2.1873
  804.5000     0.4002     2.1759
  805.0000     0.3999     2.1646
  805.5000     0.3996     2.1532
  806.0000     0.3993     2.1418
  806.5000     0.3990     2.1304
  807.0000     0.3988     2.1190
  807.5000     0.3985     2.1068
  808.0000     0.3982     2.1071
  808.5000     0.3979     2.1075
  809.0000     0.3976     2.1078
  809.5000     0.3974     2.1082
  810.0000     0.3971     2.1085
  810.5000     0.3972     2.1089
  811.0000     0.3977     2.1092
  811.5000     0.3981     2.1096
  812.0000     0.3985     2.1099
  812.5000     0.3989     2.1103
  813.0000     0.3993     2.1106
  813.5000     0.3997     2.1110
  814.0000     0.4001     2.1113
  814.5000     0.4005     2.1117
  815.0000     0.4009     2.1120
  815.5000     0.4013     2.1124
  816.0000     0.4017     2.1127
  816.5000     0.4021     2.1131
  817.0000     0.4025     2.1134
  817.5000     0.4030     2.1138
  818.0000     0.4034     2.1141
  818.5000     0.4038     2.1145
  819.0000     0.4042     2.1148
  819.5000     0.4046     2.1152
  820.0000     0.4050     2.1155
  820.5000     0.4054     2.1159
  821.0000     0.4058     2.1162
  821.5000     0.4062     2.1166
  822.0000     0.4060     2.1169
  822.5000     0.4051     2.1173
  823.0000     0.4042     2.1176
  823.5000     0.4034     2.1180
  824.0000     0.4025     2.1077
  824.5000     0.4016     2.0855
  825.0000     0.4007     2.0633
  825.5000     0.3998     2.0410
  826.0000     0.3990     2.0188
  826.5000     0.3981     1.9966
  827.0000     0.3972     1.9744
  827.5000     0.3963     1.9522
  828.0000     0.3954     1.9300
  828.5000     0.3946     1.9078
  829.0000     0.3937     1.8855
  829.5000     0.3928     1.8633
  830.0000     0.3919     1.8411
  830.5000     0.3910     1.8189
  831.0000     0.3902     1.7967
  831.5000     0.3893     1.7745
  832.0000     0.3884     1.7522
  832.5000     0.3875     1.7300
  833.0000     0.3970     1.7078
  833.5000     0.3648     1.6856
  834.0000     0.2741     1.6634
  834.5000     0.2741     1.6412
  835.0000     0.2836     1.6189
  835.5000     0.2741     1.5967
  836.0000     0.2836     1.5745
  836.5000     0.2930     1.5523
  837.0000     0.2930     1.5301
  837.5000     0.2930     1.5079
  838.0000     0.3025     1.4857
  838.5000     0.3022     1.4634
  839.0000     0.3020     1.4412
  839.5000     0.3017     1.4190
  840.0000     0.3015     1.3968
  840.5000     0.3013     1.3746
  841.0000     0.3011     1.3524
  841.5000     0.3008     1.3401
  842.0000     0.3006     1.3568
  842.5000     0.3004     1.3736
  843.0000     0.3002     1.3903
  843.5000     0.3000     1.4070
  844.0000     0.2997     1.4238
  844.5000     0.2995     1.4405
  845.0000     0.2993     1.4572
  845.5000     0.2991     1.4739
  846.0000     0.2988     1.4907
  846.5000     0.2986     1.5074
  847.0000     0.2984     1.5241
  847.5000     0.2982     1.5409
  848.0000     0.2979     1.5576
  848.5000     0.2977     1.5743
  849.0000     0.2975     1.5911
  849.5000     0.2973     1.6078
  850.0000     0.2970     1.6245
  850.5000     0.2968     1.6412
  851.0000     0.2966     1.6580
  851.5000     0.2964     1.6747
  852.0000     0.2961     1.6914
  852.5000     0.2959     1.7082
  853.0000     0.2957     1.7249
  853.5000     0.2955     1.7416
  854.0000     0.2953     1.7584
  854.5000     0.2950     1.7751
  855.0000     0.2948     1.7918
  855.5000     0.2946     1.8086
  856.0000     0.2944     1.8253
  856.5000     0.2941     1.8420
  857.0000     0.2939     1.8587
  857.5000     0.2937     1.8755
  858.0000     0.2935     1.8922
  858.5000     0.2932     1.9089
  859.0000     0.2930     1.9257
  859.5000     0.2931     1.9424
  860.0000     0.2932     1.9591
  860.5000     0.2932     1.9759
  861.0000     0.2933     1.9926
  861.5000     0.2934     2.0093
  862.0000     0.2935     1.9957
  862.5000     0.2936     1.9718
  863.0000     0.2936     1.9480
  863.5000     0.2937     1.9241
  864.0000     0.2938     1.9002
  864.5000     0.2939     1.8763
  865.0000     0.2940     1.8524
  865.5000     0.2940     1.8285
  866.0000     0.2941     1.8046
  866.5000     0.2942     1.7807
  867.0000     0.2943     1.7568
  867.5000     0.2944     1.7329
  868.0000     0.2945     1.7090
  868.5000     0.2945     1.6851
  869.0000     0.2946     1.6612
  869.5000     0.2947     1.6373
  870.0000     0.2948     1.6135
  870.5000     0.2949     1.5896
  871.0000     0.2949     1.5657
  871.5000     0.2950     1.5418
  872.0000     0.2951     1.5179
  872.5000     0.2952     1.4940
  873.0000     0.2953     1.4701
  873.5000     0.2953     1.4462
  874.0000     0.2954     1.4223
  874.5000     0.2955     1.3984
  875.0000     0.2956     1.3745
  875.5000     0.2957     1.3506
  876.0000     0.2957     1.3267
  876.5000     0.2958     1.3177
  877.0000     0.2959     1.3139
  877.5000     0.2960     1.3101
  878.0000     0.2961     1.3063
  878.5000     0.2961     1.3025
  879.0000     0.2962     1.2987
  879.5000     0.2963     1.2949
  880.0000     0.2964     1.2911
  880.5000     0.2965     1.2873
  881.0000     0.2965     1.2835
  881.5000     0.2967     1.2797
  882.0000     0.2968     1.2759
  882.5000     0.2969     1.2722
  883.0000     0.2971     1.2684
  883.5000     0.2972     1.2646
  884.0000     0.2974     1.2608
  884.5000     0.2975     1.2570
  885.0000     0.2976     1.2532
  885.5000     0.2978     1.2494
  886.0000     0.2979     1.2456
  886.5000     0.2981     1.2418
  887.0000     0.2982     1.2380
  887.5000     0.2983     1.2342
  888.0000     0.2985     1.2304
  888.5000     0.2986     1.2266
  889.0000     0.2987     1.2228
  889.5000     0.2989     1.2190
  890.0000     0.2990     1.2152
  890.5000     0.2992     1.2114
  891.0000     0.2993     1.2076
  891.5000     0.2994     1.2038
  892.0000     0.2996     1.2000
  892.5000     0.2997     1.1962
  893.0000     0.2999     1.1924
  893.5000     0.3000     1.1886
  894.0000     0.3001     1.1848
  894.5000     0.3003     1.1810
  895.0000     0.3004     1.1856
  895.5000     0.3006     1.2009
  896.0000     0.3007     1.2163
  896.5000     0.3008     1.2317
  897.0000     0.3010     1.2471
  897.5000     0.3011     1.2625
  898.0000     0.3012     1.2778
  898.5000     0.3014     1.2932
  899.0000     0.3015     1.3086
  899.5000     0.3017     1.3240
  900.0000     0.3018     1.3394
  900.5000     0.3019     1.3547
  901.0000     0.3021     1.3701
  901.5000     0.3026     1.3855
  902.0000     0.3046     1.4009
  902.5000     0.3067     1.4163
  903.0000     0.3087     1.4316
  903.5000     0.3107     1.4470
  904.0000     0.3128     1.4624
  904.5000     0.3148     1.4778
  905.0000     0.3062     1.5057
  905.5000     0.2972     1.5409
