~VERSION INFORMATION
 VERS.                2.0:   CWLS LOG ASCII STANDARD - VERSION 2.0
 WRAP.                 NO:   ONE LINE PER DEPTH STEP
~WELL INFORMATION
#MNEM.UNIT      DATA TYPE    INFORMATION
#----------   ------------   ------------------------------
 STRT.F           14.0000:   START DEPTH
 STOP.F          692.5000:   STOP DEPTH
 STEP.F            0.5000:   STEP LENGTH
 NULL.          -999.2500:   NO VALUE
 COMP. FENIX & SCISSON INC:   COMPANY
 WELL. NPR #3 #27-51 SX 11 WP:   WELL
 FLD .        TEAPOT DOME:   FIELD
 LOC .      S11 T38N R78W:   LOCATION
 CNTY.            NATRONA:   COUNTY
 STAT.            WYOMING:   STATE
 CTRY. UNITED STATES OF AMERICA:   COUNTRY
 SRVC.      Dresser Atlas:   SERVICE COMPANY
 DATE.        16-AUG-1980:   LOGDATE
 API .       490251083900:   API NUMBER
~CURVE INFORMATION
#MNEM.UNIT       API CODE    CURVE DESCRIPTION
#----------   ------------   ------------------------------
 DEPT.F                  :   
 RHOB.G/C3   45 350 01 00:   BULK DENSITY
 CORR.G/C3   45 356 01 00:   DENSITY CORRECTION
 GRD .GAPI   45 310 01 00:   GAMMA RAY FROM DENSITY LOG
 CALD.IN     45 280 60 00:   CALIPER
 NPOR.DEC    42 890 03 00:   NEUTRON POROSITY SANDSTONE
 DPOR.DEC    45 890 12 00:   DENSITY POROSITY SANDSTONE
 SPR .MV     07 010 01 00:   SPONTANEOUS POTENTIAL
 SFL .OHMM   07 220 01 00:   SHALLOW FOCUSED LOG RESISTIVITY
 ILM .OHMM   07 120 44 00:   INDUCTION LOG MEDIUM
 ILD .OHMM   07 120 46 00:   INDUCTION LOG DEEP
~PARAMETER INFORMATION
#MNEM.UNIT          VALUE    DESCRIPTION
#----------   ------------   ------------------------------
 PD  .                 GL:   PERMANENT DATUM
 EPD .F              5194:   ELEVATION PERMANENT DATUM
 LMF .                 KB:   LOG MEASURED FROM
 DAPD.F                 5:   FEET ABOVE PERMANENT DATUM
 DMF .                 KB:   DRILLING MEASURED FROM
 EKB .F              5199:   KELLING BUSHING
 EGL .F              5194:   GROUND LEVEL
 DATE.            8-16-80:   RUN DATE
 RUN .                  1:   RUN NUMBER
 DD  .F               685:   DEPTH DRILLER
 DL  .F               693:   DEPTH LOGGER
 BLI .F               692:   BOTTOM LOG INTERVAL
 TLI .F                25:   TOP LOG INTERVAL
 BS  .IN            7.875:   BIT SIZE
 BSD .F               685:   BIT SIZE AT DEPTH
 DFT .                KCL:   DRILLING FLUID TYPE
 DFD .                9.4:   DRILLING FLUID DENSITY
 DFV .                 45:   DRILLING FLUID VISCOSITY
 DFPH.                 11:   DRILLING FLUID PH
 DFL .                7.2:   DRILLING FLUID LOSS
 MSS .           FLOWLINE:   MUD SAMPLE SOURCE
 RMS .OHMM            .74:   RESISTIVITY MUD SAMPLE
 MST .F                60:   MUD SAMPLE TEMPERATURE
 RMF .OHMM            .44:   RESISTIVITY MUD FILTRATE SAMPLE
 MFST.F                60:   MUD FILTRATE SAMPLE TEMPERATURE
 RMC .OHMM           1.35:   RESISTIVITY MUD CAKE
 MCST.F                60:   MUD CAKE SAMPLE TEMPERATURE
 MFSS.               MEAS:   MUD FILTRATE SAMPLE SOURCE
 MCSS.               MEAS:   MUD CAKE SAMPLE SOURCE
 TCS .HRS               1:   TIME CURCULATED STOPPED
 LUN .               6180:   LOGGING UNIT NUMBER
 LUL .               CODY:   LOGGING UNIT LOCATION
 ENGI.              HOYER:   RECORDING ENGINEER
 WITN.           MCINTYRE:   WITNESSED BY
 CLNT.            A2DTECH:   CLIENT CODE
 ORIG.      2" 2.5" PRINT:   ORIGIN OF DATA
 UWI .       490251083900:   UNIQUE WELL ID
 DICO. A2D Technologies, Inc.:   DIGITIZING COMPANY
~OTHER INFORMATION
~A   DEPT     RHOB       CORR        GRD       CALD       NPOR       DPOR        SPR        SFL         ILM       ILD   
# ...
  215.0000     2.4877     0.0256   117.0278     8.1772     0.2712     0.1144   -85.2720     8.2071     8.5687     8.6709
  215.5000     2.4734     0.0191   118.1482     8.1703     0.2747     0.1242   -85.5318     8.2071     8.5036     8.5969
  216.0000     2.4606     0.0117   117.0976     8.1634     0.2691     0.1337   -85.9305     8.2711     8.4387     8.5234
  216.5000     2.4497     0.0075   115.0948     8.1564     0.2720     0.1321   -86.3267     8.3861     8.3742     8.4506
  217.0000     2.4582     0.0102   114.4124     8.1494     0.2763     0.1263   -86.1233     8.4363     8.3103     8.3785
  217.5000     2.4715     0.0147   115.2440     8.1425     0.2812     0.1205   -85.8401     8.4363     8.2468     8.3069
  218.0000     2.4876     0.0151   113.3521     8.1355     0.2796     0.1177   -85.5392     8.4363     8.1838     8.2360
  218.5000     2.4822     0.0124   118.8637     8.1285     0.2812     0.1192   -85.7131     8.4363     8.1212     8.1656
  219.0000     2.4796     0.0149   117.7068     8.1216     0.2812     0.1158   -85.9228     8.5095     8.0579     8.0958
  219.5000     2.4967     0.0205   115.8145     8.1146     0.2771     0.1080   -86.1328     8.7075     7.9976     8.0263
  220.0000     2.5110     0.0256   115.7164     8.1077     0.2736     0.1017   -86.3417     8.8327     7.9366     7.9835
  220.5000     2.5050     0.0305   114.3308     8.1007     0.2700     0.1069   -86.5245     8.6656     7.8760     7.9839
  221.0000     2.4924     0.0320   116.2529     8.0938     0.2659     0.1134   -86.3666     8.5256     7.8388     7.9841
  221.5000     2.4819     0.0266   119.5071     8.0868     0.2667     0.1176   -86.2166     8.3858     7.8388     7.9841
  222.0000     2.4848     0.0205   122.4452     8.0796     0.2676     0.1184   -86.0686     8.3592     7.8388     7.9841
  222.5000     2.4686     0.0145   123.6501     8.0763     0.2684     0.1275   -85.9210     8.7149     7.8389     7.9841
  223.0000     2.4523     0.0085   120.6267     8.0766     0.2722     0.1305   -85.7642     9.0903     7.8391     7.9841
  223.5000     2.4520     0.0081   120.7356     8.0766     0.2777     0.1239   -85.8485     9.2477     7.8200     7.9841
  224.0000     2.4669     0.0135   122.6592     8.0766     0.2824     0.1167   -86.0078     9.1638     7.7735     7.9842
  224.5000     2.4812     0.0207   123.3495     8.0766     0.2857     0.1136   -86.0693     9.0243     7.7270     7.9842
  225.0000     2.4895     0.0276   122.3628     8.0766     0.2921     0.1153   -85.8187     8.8870     7.6808     7.9841
  225.5000     2.4848     0.0246   121.4149     8.0766     0.2964     0.1168   -85.5801     8.7517     7.6349     7.9307
  226.0000     2.4808     0.0215   123.6133     8.0766     0.2916     0.1176   -85.3414     8.6185     7.5977     7.7991
  226.5000     2.4840     0.0178   125.6796     8.0766     0.2857     0.1144   -85.1334     8.5927     7.5636     7.6698
  227.0000     2.4873     0.0157   123.5987     8.0766     0.2798     0.1152   -85.3289     8.6529     7.4515     7.5425
  227.5000     2.4852     0.0186   121.7053     8.0766     0.2793     0.1120   -85.5226     8.7530     7.3240     7.4173
  228.0000     2.4926     0.0231   122.6663     8.0766     0.2838     0.1126   -85.4061     8.8327     7.1991     7.2941
  228.5000     2.4884     0.0274   124.6724     8.0766     0.2868     0.1118   -85.2664     8.8327     7.1519     7.1494
  229.0000     2.4927     0.0314   126.3508     8.0766     0.2841     0.1123   -85.1270     8.1981     7.1487     7.1493
  229.5000     2.4883     0.0359   123.9657     8.0766     0.2792     0.1157   -84.9884     7.6514     7.4845     7.2917
  230.0000     2.4774     0.0361   124.2536     8.0766     0.2772     0.1184   -84.8496     6.9567     7.7295     7.4328
  230.5000     2.4787     0.0362   118.8320     8.0766     0.2860     0.1131   -84.7122     7.5935     7.9824     7.4870
  231.0000     2.4921     0.0361   116.1808     8.0766     0.2843     0.1064   -84.5580     8.7441     8.1321     7.4865
  231.5000     2.5044     0.0362   114.8963     8.0766     0.2771     0.0976   -84.9711    10.6134     8.0739     7.4858
  232.0000     2.5148     0.0362   113.4906     8.0766     0.2700     0.1000   -85.5756     9.6780     7.9815     7.6202
  232.5000     2.5076     0.0361   114.1723     8.0766     0.2635     0.1032   -86.1437     8.3531     7.8903     7.7831
  233.0000     2.5079     0.0361   117.0626     8.0766     0.2649     0.1024   -86.1304     7.9111     7.8000     7.9111
  233.5000     2.5062     0.0330   118.7160     8.0766     0.2690     0.1055   -86.1278     8.2958     7.7108     7.8393
  234.0000     2.4983     0.0288   117.8544     8.0766     0.2725     0.1113   -86.1277     8.5142     7.6226     7.7541
  234.5000     2.4908     0.0249   117.1517     8.0766     0.2705     0.1160   -86.1279     8.1357     7.5353     7.6693
  235.0000     2.4830     0.0204   118.2040     8.0766     0.2670     0.1191   -86.1285     7.8417     7.4493     7.5859
  235.5000     2.4757     0.0206   118.4073     8.0766     0.2628     0.1217   -86.1227     7.6258     7.4161     7.5557
  236.0000     2.4672     0.0216   116.9442     8.0766     0.2628     0.1240   -86.0292     7.7206     7.4075     7.5561
  236.5000     2.4692     0.0229   115.6563     8.0766     0.2654     0.1236   -85.9406     7.8340     7.3985     7.5632
  237.0000     2.4729     0.0240   116.4409     8.0766     0.2693     0.1220   -85.6785     7.9500     7.3896     7.5923
  237.5000     2.4725     0.0251   117.7220     8.0766     0.2747     0.1187   -85.4017     8.0670     7.3806     7.6216
  238.0000     2.4768     0.0262   118.1525     8.0766     0.2795     0.1140   -85.1277     8.1321     7.3717     7.6258
  238.5000     2.4911     0.0275   118.1004     8.0766     0.2795     0.1093   -84.9273     7.9964     7.3626     7.6260
  239.0000     2.5017     0.0279   119.1819     8.0766     0.2792     0.1047   -84.9286     7.8694     7.3538     7.6264
  239.5000     2.5075     0.0269   120.7573     8.0766     0.2787     0.1000   -85.1060     7.7445     7.3340     7.5757
  240.0000     2.5070     0.0260   122.3033     8.0766     0.2812     0.1036   -85.3345     7.6216     7.2991     7.5180
  240.5000     2.5005     0.0251   122.9584     8.0766     0.2856     0.1096   -85.3279     7.4870     7.2638     7.4606
  241.0000     2.4973     0.0239   122.2327     8.0766     0.2899     0.1081   -85.3305     7.4870     7.2287     7.4186
  241.5000     2.5061     0.0280   123.7509     8.0766     0.2940     0.1014   -85.3364     7.6517     7.2169     7.5016
  242.0000     2.5141     0.0355   124.5347     8.0766     0.2916     0.1002   -85.0938     7.7672     7.2170     7.6281
  242.5000     2.5055     0.0309   122.1803     8.0766     0.2936     0.1038   -84.8303     7.7672     7.2170     7.6962
  243.0000     2.5010     0.0260   122.0781     8.0766     0.2980     0.1051   -84.5652     7.9881     7.2170     7.5530
  243.5000     2.5097     0.0209   121.9823     8.0766     0.2980     0.1036   -84.3135     8.3328     7.2170     7.4571
  244.0000     2.5034     0.0161   120.0340     8.0766     0.2980     0.1100   -84.6886     8.5122     7.2171     7.3624
  244.5000     2.4789     0.0178   118.8888     8.0766     0.2980     0.1192   -85.0929     7.9813     7.2170     7.3508
  245.0000     2.4860     0.0240   119.4802     8.0766     0.2980     0.1128   -85.5064     7.9869     7.2133     7.3507
  245.5000     2.4905     0.0272   120.4938     8.0766     0.2975     0.1145   -85.4736     7.9111     7.1973     7.3509
  246.0000     2.4876     0.0237   118.6659     8.0766     0.2916     0.1160   -85.2302     8.0173     7.1819     7.3388
  246.5000     2.4813     0.0204   120.9069     8.0766     0.2857     0.1212   -84.9891     8.2414     7.1666     7.3254
  247.0000     2.4719     0.0170   120.8452     8.0766     0.2803     0.1262   -84.9288     8.4722     7.1512     7.3119
  247.5000     2.4625     0.0136   122.2661     8.0766     0.2819     0.1297   -85.0491     8.5949     7.1360     7.2984
  248.0000     2.4670     0.0102   124.1500     8.0766     0.2820     0.1265   -85.2095     8.3989     7.1207     7.2851
