~VERSION INFORMATION
 VERS.                2.0:   CWLS LOG ASCII STANDARD - VERSION 2.0
 WRAP.                 NO:   ONE LINE PER DEPTH STEP
~WELL INFORMATION
#MNEM.UNIT      DATA TYPE    INFORMATION
#----------   ------------   ------------------------------
 STRT.F            0.0000:   START DEPTH
 STOP.F          504.0000:   STOP DEPTH
 STEP.F            0.5000:   STEP LENGTH
 NULL.          -999.2500:   NO VALUE
 COMP.   FLUOR DANIEL INC:   COMPANY
 WELL. NAVAL PETROLEUM RESERVE 3 SX-1 #3-10:   WELL
 FLD .          N.P.R. #3:   FIELD
 LOC .      S10 T38N R78W:   LOCATION
 CNTY.            NATRONA:   COUNTY
 STAT.            WYOMING:   STATE
 CTRY. UNITED STATES OF AMERICA:   COUNTRY
 SRVC.      Western Atlas:   SERVICE COMPANY
 DATE.        22-SEP-1994:   LOGDATE
 API .       490252265600:   API NUMBER
~CURVE INFORMATION
#MNEM.UNIT       API CODE    CURVE DESCRIPTION
#----------   ------------   ------------------------------
 DEPT.F                  :   
 GRR .GAPI   07 310 01 00:   GAMMA RAY FROM RES. LOG.
 RILD.OHMM   07 120 46 00:   INDUCTION LOG DEEP RESISTIVITY
 RILM.OHMM   07 120 44 00:   INDUCTION LOG MEDIUM RESISTIVITY
~PARAMETER INFORMATION
#MNEM.UNIT          VALUE    DESCRIPTION
#----------   ------------   ------------------------------
 PD  .                 GL:   PERMANENT DATUM
 EPD .F              5168:   ELEVATION PERMANENT DATUM
 LMF .                 KB:   LOG MEASURED FROM
 DAPD.F                10:   FEET ABOVE PERMANENT DATUM
 DMF .                 KB:   DRILLING MEASURED FROM
 EKB .F              5178:   KELLING BUSHING
 EDF .F              5177:   DRILLING FLOOR
 EGL .F              5168:   GROUND LEVEL
 DATE.        22-SEP-1994:   RUN DATE
 RUN .                  1:   RUN NUMBER
 DD  .F               510:   DEPTH DRILLER
 DL  .F               512:   DEPTH LOGGER
 BLI .F               504:   BOTTOM LOG INTERVAL
 CS  .IN            9.625:   CASING SIZE
 CBD .F                55:   CASING BOTTOM DRILLER
 CBL .F                55:   CASING BOTTOM LOGGER
 BS  .IN             8.75:   BIT SIZE
 BSD .F               510:   BIT SIZE AT DEPTH
 DFT .                AIR:   DRILLING FLUID TYPE
 MRT .F                83:   MAXIMUM RECORDED TEMPERATURE
 LUN .            HL 6530:   LOGGING UNIT NUMBER
 LUL .             CASPER:   LOGGING UNIT LOCATION
 ENGI.      PAT RASMUSSEN:   RECORDING ENGINEER
 WITN.        GARY STRONG:   WITNESSED BY
 CLNT.            A2DTECH:   CLIENT CODE
 ORIG.           5" PRINT:   ORIGIN OF DATA
 UWI .       490252265600:   UNIQUE WELL ID
 DICO. A2D Technologies, Inc.:   DIGITIZING COMPANY
~OTHER INFORMATION
~A    DEPT      GRR      RILD       RILM   
# ...
   91.0000   132.2745     9.0135     9.2480
   91.5000   135.3838     9.2039     9.4356
   92.0000   137.7832     9.3983     9.6265
   92.5000   132.5925     9.5514     9.7295
   93.0000   125.5106     9.5514     9.5930
   93.5000   119.1130     9.4115     9.4388
   94.0000   120.6586     9.2537     9.2865
   94.5000   125.1577     9.0985     9.1368
   95.0000   129.6711     8.9460     8.9896
   95.5000   134.2090     8.7960     8.8448
   96.0000   138.7922     8.6485     8.7024
   96.5000   138.4694     8.5035     8.5622
   97.0000   132.7838     8.3609     8.4243
   97.5000   129.3123     8.2206     8.2886
   98.0000   132.9542     8.0828     8.1550
   98.5000   139.1741     7.9667     8.0513
   99.0000   142.1435     7.8719     7.9770
   99.5000   142.1034     7.7783     7.9033
  100.0000   142.0066     7.6858     7.8303
  100.5000   141.9015     7.5944     7.7578
  101.0000   140.7897     7.5040     7.6521
  101.5000   138.7237     7.4416     7.6926
  102.0000   138.2512     7.4875     7.7718
  102.5000   137.7989     7.5754     7.8519
  103.0000   135.4656     7.6641     7.9328
  103.5000   132.9637     7.7536     8.0145
  104.0000   130.4697     7.8442     8.0971
  104.5000   127.9457     7.9359     8.1805
  105.0000   127.8144     8.0286     8.2648
  105.5000   130.5770     8.1224     8.3499
  106.0000   135.5845     8.2173     8.4360
  106.5000   139.7848     8.3133     8.5229
  107.0000   141.0214     8.4106     8.6107
  107.5000   141.1844     8.5088     8.6999
  108.0000   138.9670     8.6082     8.7891
  108.5000   134.4620     8.6285     8.7705
  109.0000   131.7424     8.6254     8.7507
  109.5000   132.6143     8.6106     8.7313
  110.0000   135.0069     8.5958     8.7120
  110.5000   139.8129     8.5810     8.6928
  111.0000   144.4902     8.5662     8.6735
  111.5000   145.5754     8.5515     8.6544
  112.0000   141.0722     8.5368     8.6353
  112.5000   137.7853     8.5221     8.6162
  113.0000   135.3978     8.5074     8.5971
  113.5000   133.2814     8.4929     8.5781
  114.0000   133.7688     8.4782     8.5591
  114.5000   135.9235     8.4705     8.5491
  115.0000   138.0489     8.6079     8.6874
  115.5000   140.1930     8.7025     8.7824
  116.0000   142.2723     8.7894     8.8723
  116.5000   139.4751     8.9668     9.0491
  117.0000   136.2392     9.1324     9.2172
  117.5000   135.0807     9.3011     9.3875
  118.0000   135.6866     9.4729     9.5609
  118.5000   133.1872     9.6480     9.7375
  119.0000   129.3469     9.8250     9.9174
  119.5000   125.9731    10.0891    10.1851
  120.0000   125.8019    10.4318    10.5374
  120.5000   126.4106    10.7867    10.9018
  121.0000   126.8081    11.1537    11.2788
  121.5000   125.3801    11.5331    11.6689
  122.0000   123.8185    11.9255    12.0725
  122.5000   121.6647    12.3313    12.4900
  123.0000   119.5078    12.7508    12.9220
  123.5000   118.2420    13.1846    13.3199
  124.0000   119.1779    13.6332    13.4435
  124.5000   121.0189    13.9496    13.4040
  125.0000   120.5892    13.9281    13.3036
  125.5000   118.7648    13.8207    13.2040
  126.0000   117.8604    13.7141    13.1051
  126.5000   121.0214    13.6082    13.0070
  127.0000   124.1358    13.5033    12.9096
  127.5000   123.0079    13.3991    12.8129
  128.0000   121.1722    13.2957    12.7169
  128.5000   121.2136    13.1931    12.6217
  129.0000   121.5630    13.0913    12.5272
  129.5000   122.4128    12.9904    12.4334
  130.0000   123.8358    12.8901    12.3403
  130.5000   125.2710    12.7905    12.2478
  131.0000   125.4071    12.7109    12.1446
  131.5000   124.2044    12.6828    12.1705
  132.0000   124.4297    12.6548    12.2001
  132.5000   124.7445    12.6269    12.2301
  133.0000   124.5347    12.5990    12.2601
  133.5000   120.1280    12.5712    12.2902
  134.0000   114.9070    12.5434    12.3202
  134.5000   110.9373    12.5156    12.3504
  135.0000   113.3086    12.4858    12.3710
  135.5000   119.6584    12.3060    12.0976
  136.0000   124.6183    12.1132    11.8937
  136.5000   127.0456    11.9234    11.6933
  137.0000   124.8809    11.7367    11.4965
  137.5000   121.6269    11.5529    11.3029
  138.0000   120.4925    11.3721    11.1126
  138.5000   123.5278    11.1940    10.9255
  139.0000   128.0398    11.0187    10.7416
  139.5000   127.5709    10.8462    10.5608
  140.0000   125.0537    10.6764    10.3795
  140.5000   122.3864    10.5372    10.3315
  141.0000   120.7158    10.4443    10.2827
  141.5000   119.2228    10.3523    10.2341
  142.0000   119.4867    10.2611    10.1858
  142.5000   120.2600    10.1785    10.1378
  143.0000   121.2672    10.1261    10.0899
  143.5000   123.4459    10.0740    10.0423
  144.0000   125.6151    10.0222     9.9949
  144.5000   126.9839     9.9706     9.9477
  145.0000   126.5763     9.9192     9.9007
  145.5000   123.9097     9.8682     9.8540
  146.0000   121.2675     9.8174     9.8075
  146.5000   120.3167     9.7669     9.7612
  147.0000   121.7687     9.7166     9.7151
  147.5000   122.8720     9.6666     9.6693
  148.0000   121.8645     9.6169     9.6236
  148.5000   120.1346     9.5674     9.5782
  149.0000   117.6048     9.5181     9.5330
  149.5000   117.8777     9.4691     9.4881
  150.0000   120.3563     9.4205     9.4434
  150.5000   122.8129     9.3722     9.3993
  151.0000   123.4963     9.3238     9.2609
  151.5000   124.1315     9.2198     9.0354
  152.0000   126.1149     8.9893     8.8149
  152.5000   128.2514     8.7652     8.5998
  153.0000   129.4674     8.5466     8.3902
  153.5000   128.2836     8.3334     8.1856
  154.0000   127.1510     8.1261     8.0876
  154.5000   126.1732     7.8649     8.1117
  155.0000   126.8380     7.8682     8.1274
  155.5000   129.0258     7.8671     8.1432
  156.0000   129.7975     7.8671     8.1589
  156.5000   127.1236     7.9111     8.2024
  157.0000   124.4900     7.9957     8.2569
  157.5000   121.8794     8.0812     8.3116
  158.0000   123.8436     8.1675     8.3668
  158.5000   126.1695     8.2549     8.4223
  159.0000   128.4871     8.3431     8.4781
  159.5000   130.8928     8.4323     8.5344
  160.0000   130.4563     8.5224     8.5910
  160.5000   128.8498     8.6135     8.6737
  161.0000   125.2370     8.7056     8.8088
  161.5000   122.0393     8.7986     8.9458
  162.0000   123.6619     8.8927     9.0849
  162.5000   126.4580     8.9877     9.2263
  163.0000   127.2672     9.0838     9.3695
  163.5000   125.9484     9.2049     9.5514
  164.0000   124.0657     9.1620     9.4739
  164.5000   122.1079     9.0852     9.3721
  165.0000   122.1683     9.0091     9.2715
  165.5000   124.6933     8.9336     9.1719
  166.0000   127.4064     8.8588     9.0734
  166.5000   128.9325     8.7845     8.9759
  167.0000   129.6173     8.7109     8.8710
  167.5000   130.9458     8.6379     8.8710
  168.0000   132.4353     8.5491     8.8710
  168.5000   133.0466     8.5627     8.8710
  169.0000   131.9076     8.5804     8.8710
  169.5000   130.2920     8.5980     8.8710
  170.0000   128.6822     8.6157     8.8710
  170.5000   127.5445     8.6335     8.8710
  171.0000   129.6861     8.6513     8.8710
  171.5000   132.3073     8.6691     8.8710
  172.0000   134.9062     8.6869     8.8710
  172.5000   136.9823     8.7078     8.8710
  173.0000   134.0602     8.6969     8.8711
  173.5000   129.8427     8.6818     8.8710
  174.0000   127.8230     8.6671     8.8721
  174.5000   128.0858     8.6522     8.8066
  175.0000   128.4169     8.6379     8.7532
  175.5000   130.4165     8.5868     8.7000
  176.0000   133.4110     8.4837     8.6472
  176.5000   135.5403     8.3819     8.5948
  177.0000   133.6381     8.2813     8.5430
  177.5000   131.8064     8.1819     8.4900
  178.0000   129.9987     7.9949     8.3160
  178.5000   128.7847     7.7920     8.0657
  179.0000   130.1456     7.5942     7.8239
  179.5000   131.2703     7.4014     7.5896
  180.0000   128.8479     7.2135     7.3622
  180.5000   126.2965     7.0304     7.1417
  181.0000   124.5134     6.8519     6.9277
  181.5000   123.1656     6.7861     6.8491
