~VERSION INFORMATION
 VERS.                2.0:   CWLS LOG ASCII STANDARD - VERSION 2.0
 WRAP.                 NO:   ONE LINE PER DEPTH STEP
~WELL INFORMATION
#MNEM.UNIT      DATA TYPE    INFORMATION
#----------   ------------   ------------------------------
 STRT.F         1782.0000:   START DEPTH
 STOP.F         2281.0000:   STOP DEPTH
 STEP.F            0.5000:   STEP LENGTH
 NULL.          -999.2500:   NO VALUE
 COMP. BROWN JOHN E&C INC:   COMPANY
 WELL. NAVAL PETROLEUM RESERVE 3 STX- #64-3:   WELL
 FLD .            NATRONA:   FIELD
 LOC .       S3 T38N R78W:   LOCATION
 CNTY.            NATRONA:   COUNTY
 STAT.            WYOMING:   STATE
 CTRY. UNITED STATES OF AMERICA:   COUNTRY
 SRVC.            Unknown:   SERVICE COMPANY
 DATE.        12-JUN-1983:   LOGDATE
 API .       490251092800:   API NUMBER
~CURVE INFORMATION
#MNEM.UNIT       API CODE    CURVE DESCRIPTION
#----------   ------------   ------------------------------
 DEPT.F                  :   
 ROP .MIN/FT 91 810 01 00:   RATE OF DRILLING PENETRATION
 TGAS.UNITS  91 830 01 00:   TOTAL GAS FROM HOTWIRE
~PARAMETER INFORMATION
#MNEM.UNIT          VALUE    DESCRIPTION
#----------   ------------   ------------------------------
 EKB .F              5165:   KELLING BUSHING
 EGL .F              5155:   GROUND LEVEL
 DATE.            6-12-84:   RUN DATE
 DD  .F              2281:   DEPTH DRILLER
 BLI .F              2281:   BOTTOM LOG INTERVAL
 TLI .F              1780:   TOP LOG INTERVAL
 CS  .IN            9.625:   CASING SIZE
 TLAB.HRS            0202:   TIME LOGGER AT BOTTOM
 ENGI.              TOWER:   RECORDING ENGINEER
 WITN.               HUSK:   WITNESSED BY
 CLNT.            A2DTECH:   CLIENT CODE
 ORIG.     2.5", 5" PRINT:   ORIGIN OF DATA
 UWI .       490251092800:   UNIQUE WELL ID
 DICO. A2D Technologies, Inc.:   DIGITIZING COMPANY
~OTHER INFORMATION
~A  DEPT         ROP      TGAS  
# ...
 1903.5000     0.7408   127.2234
 1904.0000     0.7416   127.2222
 1904.5000     0.7431   127.2210
 1905.0000     0.7720   127.2198
 1905.5000     0.7964   127.2186
 1906.0000     0.8227   127.2174
 1906.5000     0.8488   127.2162
 1907.0000     0.8668   127.2150
 1907.5000     0.8667   127.2138
 1908.0000     0.8670   127.2126
 1908.5000     0.8670   127.2114
 1909.0000     0.8670   127.2103
 1909.5000     0.8671   127.2091
 1910.0000     0.8666   127.2078
 1910.5000     0.8666   127.2066
 1911.0000     0.8335   127.2055
 1911.5000     0.7897   127.2042
 1912.0000     0.7195   127.2030
 1912.5000     0.6203   127.2019
 1913.0000     0.6226   127.2007
 1913.5000     0.6255   127.1995
 1914.0000     0.6322   127.1983
 1914.5000     0.6397   127.1971
 1915.0000     0.6225   127.1959
 1915.5000     0.5807   127.1947
 1916.0000     0.5410   127.1935
 1916.5000     0.5009   127.1923
 1917.0000     0.4893   127.1911
 1917.5000     0.4897   127.1899
 1918.0000     0.4899   127.1887
 1918.5000     0.4896   127.1875
 1919.0000     0.4949   127.1863
 1919.5000     0.5173   127.1851
 1920.0000     0.5393   127.1839
 1920.5000     0.5615   127.1826
 1921.0000     0.5841   127.1808
 1921.5000     0.5908   127.1792
 1922.0000     0.5906   127.1787
 1922.5000     0.5904   127.1744
 1923.0000     0.5905   127.1743
 1923.5000     0.5905   127.1798
 1924.0000     0.5905   127.1670
 1924.5000     0.5905   127.7118
 1925.0000     0.5904   128.5276
 1925.5000     0.5904   129.3271
 1926.0000     0.5904   130.1275
 1926.5000     0.5904   130.9564
 1927.0000     0.5904   131.6103
 1927.5000     0.5904   132.0411
 1928.0000     0.5904   132.4962
 1928.5000     0.5904   132.9638
 1929.0000     0.5904   133.4167
 1929.5000     0.5904   133.7890
 1930.0000     0.5904   133.7926
 1930.5000     0.5905   133.7995
 1931.0000     0.5904   133.7973
 1931.5000     0.5902   133.7960
 1932.0000     0.5950   133.7969
 1932.5000     0.6120   133.7963
 1933.0000     0.6286   133.7960
 1933.5000     0.6427   133.7960
 1934.0000     0.6502   133.7960
 1934.5000     0.6574   133.7960
 1935.0000     0.6653   133.7960
 1935.5000     0.6628   133.7962
 1936.0000     0.6597   133.7961
 1936.5000     0.6562   133.7964
 1937.0000     0.6529   133.7972
 1937.5000     0.6495   133.7954
 1938.0000     0.6462   133.7969
 1938.5000     0.6432   133.8029
 1939.0000     0.6323   133.7023
 1939.5000     0.6083   133.4298
 1940.0000     0.5849   133.1631
 1940.5000     0.5613   132.8972
 1941.0000     0.5373   132.6318
 1941.5000     0.5145   132.3628
 1942.0000     0.4912   132.2868
 1942.5000     0.4944   132.2894
 1943.0000     0.4978   132.2913
 1943.5000     0.5023   132.2901
 1944.0000     0.5065   132.2905
 1944.5000     0.5108   132.2908
 1945.0000     0.5153   132.2908
 1945.5000     0.5269   132.2910
 1946.0000     0.5392   132.2910
 1946.5000     0.5506   132.2910
 1947.0000     0.5642   132.2910
 1947.5000     0.5529   132.2910
 1948.0000     0.5384   132.2910
 1948.5000     0.5233   132.2910
 1949.0000     0.5084   132.2910
 1949.5000     0.4933   132.2910
 1950.0000     0.4790   132.2910
 1950.5000     0.4660   132.2910
 1951.0000     0.4796   132.2910
 1951.5000     0.4923   132.2910
 1952.0000     0.5061   132.2910
 1952.5000     0.5197   132.2910
 1953.0000     0.5329   132.2910
 1953.5000     0.5463   132.2910
 1954.0000     0.5604   132.2910
 1954.5000     0.5656   132.2910
 1955.0000     0.5648   132.2910
 1955.5000     0.5663   132.2910
 1956.0000     0.5669   132.2910
 1956.5000     0.6238   132.2910
 1957.0000     0.6925   132.2910
 1957.5000     0.7133   132.2910
 1958.0000     0.7033   132.2910
 1958.5000     0.6948   132.2910
 1959.0000     0.6876   132.2910
 1959.5000     0.6794   132.2910
 1960.0000     0.6713   132.2910
 1960.5000     0.6658   132.2910
 1961.0000     0.6659   132.2910
 1961.5000     0.6658   132.2910
 1962.0000     0.6658   132.2910
 1962.5000     0.6658   132.2910
 1963.0000     0.6658   132.2910
 1963.5000     0.6658   132.2910
 1964.0000     0.6658   132.2910
 1964.5000     0.6658   132.2910
 1965.0000     0.6658   132.2910
 1965.5000     0.6658   132.2910
 1966.0000     0.6658   132.2910
 1966.5000     0.6658   132.2910
 1967.0000     0.6658   132.2910
 1967.5000     0.6659   132.2910
 1968.0000     0.6659   132.2910
 1968.5000     0.6658   132.2910
 1969.0000     0.6660   132.2910
 1969.5000     0.6660   132.2910
 1970.0000     0.6655   132.2910
 1970.5000     0.6657   132.2910
 1971.0000     0.6365   132.2910
 1971.5000     0.5978   132.2910
 1972.0000     0.5656   132.2910
 1972.5000     0.5597   132.2910
 1973.0000     0.5540   132.2910
 1973.5000     0.5489   132.2910
 1974.0000     0.5440   132.2910
 1974.5000     0.5354   132.2910
 1975.0000     0.5197   132.2910
 1975.5000     0.5045   132.2910
 1976.0000     0.4888   132.2910
 1976.5000     0.4722   132.2910
 1977.0000     0.4677   132.2910
 1977.5000     0.4771   132.2910
 1978.0000     0.4854   132.2910
 1978.5000     0.4938   132.2911
 1979.0000     0.5023   132.2913
 1979.5000     0.5098   132.2910
 1980.0000     0.5297   132.2914
 1980.5000     0.5625   132.2923
 1981.0000     0.5945   132.2894
 1981.5000     0.6265   132.2880
 1982.0000     0.6578   132.1528
 1982.5000     0.6902   131.9910
 1983.0000     0.7247   131.8276
 1983.5000     0.7313   131.6645
 1984.0000     0.6974   131.5003
 1984.5000     0.6667   131.3760
 1985.0000     0.6361   131.3397
 1985.5000     0.6034   131.3007
 1986.0000     0.5914   131.2628
 1986.5000     0.5967   131.2255
 1987.0000     0.6007   131.1876
 1987.5000     0.6042   131.1499
 1988.0000     0.6087   131.1122
 1988.5000     0.6127   131.0744
 1989.0000     0.6067   131.0366
 1989.5000     0.5644   130.9988
 1990.0000     0.5228   130.9611
 1990.5000     0.4904   130.9234
 1991.0000     0.4903   130.8851
 1991.5000     0.4898   130.8477
 1992.0000     0.4898   130.8111
 1992.5000     0.4900   130.7356
 1993.0000     0.4899   130.5991
 1993.5000     0.4899   130.4858
 1994.0000     0.4899   130.4535
 1994.5000     0.4900   130.4242
 1995.0000     0.4899   130.3966
 1995.5000     0.4896   130.3680
 1996.0000     0.4904   130.3402
 1996.5000     0.4913   130.3115
 1997.0000     0.5236   130.2795
 1997.5000     0.5606   130.2508
 1998.0000     0.6011   130.2321
 1998.5000     0.6035   130.1788
 1999.0000     0.5735   130.4512
 1999.5000     0.5477   131.3825
 2000.0000     0.5174   132.2051
 2000.5000     0.5156   135.5175
 2001.0000     0.5146   137.6723
 2001.5000     0.5152   138.6748
 2002.0000     0.5151   139.6460
 2002.5000     0.5150   140.6673
 2003.0000     0.5151   140.8644
 2003.5000     0.5151   141.0740
 2004.0000     0.5150   141.2428
 2004.5000     0.5151   141.3273
 2005.0000     0.5151   141.3239
 2005.5000     0.5148   141.3209
 2006.0000     0.5183   141.3222
 2006.5000     0.5246   141.3212
 2007.0000     0.5308   141.3211
 2007.5000     0.5371   141.3212
 2008.0000     0.5405   141.3211
 2008.5000     0.5402   141.3211
 2009.0000     0.5402   141.3211
 2009.5000     0.5402   141.3211
 2010.0000     0.5401   141.3211
 2010.5000     0.5402   141.3211
 2011.0000     0.5402   141.3212
 2011.5000     0.5396   141.3214
 2012.0000     0.5409   141.3210
 2012.5000     0.5430   141.3214
 2013.0000     0.5903   141.3224
 2013.5000     0.6329   141.3197
 2014.0000     0.6787   141.3176
 2014.5000     0.6865   141.1962
 2015.0000     0.6783   141.0567
 2015.5000     0.6708   140.9140
 2016.0000     0.6553   140.7748
 2016.5000     0.6246   140.6336
 2017.0000     0.5940   140.4866
 2017.5000     0.5634   140.4116
 2018.0000     0.5397   140.4181
 2018.5000     0.5374   140.4228
 2019.0000     0.5345   140.3371
 2019.5000     0.5321   140.1271
 2020.0000     0.5297   140.1196
 2020.5000     0.5271   140.1155
 2021.0000     0.5247   140.1171
 2021.5000     0.5222   140.1180
 2022.0000     0.5197   140.1176
 2022.5000     0.5173   140.1150
 2023.0000     0.5148   140.1159
 2023.5000     0.5123   139.9425
 2024.0000     0.5098   139.7130
 2024.5000     0.5073   139.5148
