~VERSION INFORMATION
 VERS.                2.0:   CWLS LOG ASCII STANDARD - VERSION 2.0
 WRAP.                 NO:   ONE LINE PER DEPTH STEP
~WELL INFORMATION
#MNEM.UNIT      DATA TYPE    INFORMATION
#----------   ------------   ------------------------------
 STRT.F           36.0000:   START DEPTH
 STOP.F          493.0000:   STOP DEPTH
 STEP.F            0.5000:   STEP LENGTH
 NULL.          -999.2500:   NO VALUE
 COMP.    FENIX & SCISSON:   COMPANY
 WELL.       NPR #68-S-10:   WELL
 FLD .             TEAPOT:   FIELD
 LOC .      S10 T38N R78W:   LOCATION
 CNTY.            NATRONA:   COUNTY
 STAT.            WYOMING:   STATE
 CTRY. UNITED STATES OF AMERICA:   COUNTRY
 SRVC.              Welex:   SERVICE COMPANY
 DATE.        18-APR-1977:   LOGDATE
 API .       490251033500:   API NUMBER
~CURVE INFORMATION
#MNEM.UNIT       API CODE    CURVE DESCRIPTION
#----------   ------------   ------------------------------
 DEPT.F                  :   
 SPR .MV     07 010 01 00:   SPONTANEOUS POTENTIAL
 ILD .OHMM   07 120 46 00:   INDUCTION LOG DEEP
 ILM .OHMM   07 120 44 00:   INDUCTION LOG MEDIUM
 SGRD.OHMM   07 221 05 00:   SHALLOW SHORT GUARD RESISTIVITY
 CALD.IN     45 280 60 00:   CALIPER FROM DENSITY LOG
 GRD .GAPI   45 310 01 00:   GAMMA RAY FROM DENSITY LOG
 CORR.G/C3   45 356 01 00:   DENSITY CORRECTION
 RHOB.G/C3   45 350 01 00:   BULK DENSITY
 DPHI.DEC    45 890 12 00:   DENSITY POROSITY SANDSTONE
~PARAMETER INFORMATION
#MNEM.UNIT          VALUE    DESCRIPTION
#----------   ------------   ------------------------------
 PD  .                 GL:   PERMANENT DATUM
 EPD .F              5198:   ELEVATION PERMANENT DATUM
 LMF .                 GL:   LOG MEASURED FROM
 DMF .                 GL:   DRILLING MEASURED FROM
 EGL .F              5198:   GROUND LEVEL
 DATE.        18-APR-1977:   RUN DATE
 RUN .                  1:   RUN NUMBER
 DD  .F               505:   DEPTH DRILLER
 DL  .F               492:   DEPTH LOGGER
 BLI .F               490:   BOTTOM LOG INTERVAL
 TLI .F                32:   TOP LOG INTERVAL
 CS  .IN            8.625:   CASING SIZE
 CBD .F                40:   CASING BOTTOM DRILLER
 CBL .F                42:   CASING BOTTOM LOGGER
 BS  .IN            7.875:   BIT SIZE
 BSD .F               505:   BIT SIZE AT DEPTH
 DFT .            KCL MUD:   DRILLING FLUID TYPE
 DFV .                 36:   DRILLING FLUID VISCOSITY
 MSS .           FLOWLINE:   MUD SAMPLE SOURCE
 RMS .OHMM           2.46:   RESISTIVITY MUD SAMPLE
 MST .F                52:   MUD SAMPLE TEMPERATURE
 RMF .OHMM           2.30:   RESISTIVITY MUD FILTRATE SAMPLE
 MFST.F                52:   MUD FILTRATE SAMPLE TEMPERATURE
 RMC .OHMM           2.66:   RESISTIVITY MUD CAKE
 MCST.F                52:   MUD CAKE SAMPLE TEMPERATURE
 MFSS.               MEAS:   MUD FILTRATE SAMPLE SOURCE
 MCSS.               MEAS:   MUD CAKE SAMPLE SOURCE
 RMB .OHMM           1.97:   RESISTIVITY MUD AT BHT
 BHT .F                65:   BOTTOM HOLE TEMPERATURE
 TCS .HRS            0400:   TIME CURCULATED STOPPED
 MRT .F                65:   MAXIMUM RECORDED TEMPERATURE
 LUN .               8611:   LOGGING UNIT NUMBER
 LUL .             CASPER:   LOGGING UNIT LOCATION
 ENGI.               DOAK:   RECORDING ENGINEER
 WITN.            R. LYON:   WITNESSED BY
 CLNT.            A2DTECH:   CLIENT CODE
 ORIG.           5" PRINT:   ORIGIN OF DATA
 UWI .       490251033500:   UNIQUE WELL ID
 DICO. A2D Technologies, Inc.:   DIGITIZING COMPANY
~OTHER INFORMATION
~A   DEPT      SPR        ILD        ILM       SGRD         CALD       GRD      CORR       RHOB       DPHI   
# ...
  291.5000   -53.2589     6.6919     9.6789     5.2754     7.9542   118.8684     0.0177     2.3738     0.1614
  292.0000   -52.6493     6.8853    10.5945     8.7400     7.9559   122.1615     0.0178     2.3844     0.1569
  292.5000   -51.4479     7.1828    11.9211    17.8086     7.9575   122.0320     0.0179     2.4061     0.1419
  293.0000   -50.5424     7.7561    12.1871    17.2188     7.9591   116.2477     0.0180     2.4308     0.1269
  293.5000   -50.2286     8.4332    12.6150    17.3533     7.9608   110.9099     0.0197     2.4608     0.1166
  294.0000   -49.9148     9.3611    13.3401    17.7491     7.9550   105.5720     0.0213     2.4721     0.1076
  294.5000   -49.7490     9.9698    13.7229    17.8688     7.9641   102.4663     0.0229     2.4736     0.1040
  295.0000   -49.7310    10.3291    14.0196    17.7603     7.9659   101.4439     0.0245     2.4782     0.0998
  295.5000   -49.5652    10.6277    14.4219    17.7752     7.9675   103.9930     0.0276     2.4812     0.1013
  296.0000   -49.5472    10.9349    14.9384    17.7900     7.9692   104.1611     0.0292     2.4723     0.1057
  296.5000   -49.2335    11.1861    14.8460    17.3199     7.9708   100.3113     0.0278     2.4664     0.1093
  297.0000   -48.9197    11.5073    14.5519    17.3344     7.9724    98.6937     0.0249     2.4559     0.1144
  297.5000   -48.5799    11.8377    14.5620    17.3489     7.9741    98.5642     0.0250     2.4493     0.1188
  298.0000   -48.2959    12.3559    14.8768    16.8905     7.9608    98.8811     0.0266     2.4418     0.1239
  298.5000   -47.8167    12.9741    15.3037    16.4407     7.9475    98.7516     0.0282     2.4344     0.1278
  299.0000   -47.2248    13.6335    15.8518    18.3802     7.9492    93.5626     0.0298     2.4188     0.1356
  299.5000   -46.6154    14.9150    17.1135    22.6292     7.9359    90.7545     0.0299     2.4038     0.1412
  300.0000   -46.0175    17.5185    20.0337    30.9005     7.9442    87.3512     0.0315     2.4001     0.1440
  300.5000   -45.5476    20.0821    21.3720    35.7421     7.9795    82.2583     0.0356     2.4070     0.1430
  301.0000   -45.3863    22.5937    21.3868    28.0961     8.0149    77.1655     0.0396     2.4108     0.1400
  301.5000   -45.3730    24.3886    23.0890    30.3361     8.0313    72.0726     0.0440     2.4138     0.1372
  302.0000   -45.2117    26.3261    25.8016    32.0772     8.0327    69.5591     0.0502     2.4169     0.1348
  302.5000   -44.7545    28.0281    27.8552    28.5520     8.0342    68.6826     0.0548     2.4192     0.1321
  303.0000   -44.1494    29.2248    29.2537    32.1323     8.0059    68.5500     0.0580     2.4208     0.1321
  303.5000   -43.5444    17.9595    30.7225    38.2151     7.9776    68.8639     0.0626     2.4201     0.1335
  304.0000   -42.9393    14.8799    31.9067    42.4173     7.9493    69.6242     0.0658     2.4142     0.1374
  304.5000   -42.7780    18.1538    32.7313    42.1576     7.9507    69.9381     0.0689     2.3963     0.1452
  305.0000   -42.7646    23.9256    32.7917    45.8254     7.9522    68.4663     0.0706     2.3814     0.1544
  305.5000   -42.7512    26.2431    33.2318    38.0680     7.9537    68.4826     0.0707     2.3672     0.1646
  306.0000   -42.5899    23.0318    32.7983    37.3089     7.9552    69.6893     0.0693     2.3553     0.1745
  306.5000   -42.4286    24.8744    32.5954    40.5703     7.9567    71.3425     0.0635     2.3472     0.1813
  307.0000   -42.2673    24.5256    33.6013    39.2235     7.9581    72.4005     0.0577     2.3375     0.1876
  307.5000   -42.2540    23.8799    36.2209    36.8885     7.9447    73.3096     0.0516     2.3211     0.1930
  308.0000   -42.2406    28.0231    34.7086    38.7446     7.9315    73.4747     0.0442     2.3062     0.2022
  308.5000   -42.0793    33.9878    35.5197    43.6031     7.9180    72.3005     0.0416     2.2906     0.2133
  309.0000   -41.6221    37.1976    37.0291    44.8582     7.9195    72.9884     0.0418     2.2823     0.2153
  309.5000   -41.3129    39.3302    34.5905    45.5166     7.9061    72.6327     0.0449     2.2922     0.2104
  310.0000   -41.0037    36.2253    33.6723    45.8582     7.9076    70.9376     0.0481     2.3043     0.2057
  310.5000   -40.9903    23.4687    32.5531    44.0392     7.8792    70.9539     0.0527     2.3074     0.2012
  311.0000   -40.9770    24.2287    31.0398    42.5773     7.8510    72.1607     0.0529     2.3186     0.1943
  311.5000   -40.9636    22.5416    29.5969    41.7283     7.8377    70.9865     0.0470     2.3224     0.1952
  312.0000   -40.8023    27.5502    29.2065    43.8363     7.8541    69.1426     0.0382     2.3187     0.1910
  312.5000   -40.7889    29.9448    29.4342    51.4198     7.8556    68.5636     0.0398     2.3291     0.1843
  313.0000   -40.7755    25.3894    30.2787    41.8317     7.8570    69.3260     0.0460     2.3592     0.1735
  313.5000   -40.7622    24.5387    31.1475    44.8562     7.8734    70.6816     0.0551     2.3746     0.1594
  314.0000   -40.7514    27.4216    31.6022    39.9189     7.8898    71.8883     0.0613     2.3834     0.1543
  314.5000   -40.7382    30.4283    31.4066    45.8648     7.9062    70.2677     0.0674     2.3991     0.1495
  315.0000   -40.5523    31.5137    30.5729    42.2421     7.9226    69.5399     0.0721     2.3947     0.1489
  315.5000   -40.2678    29.8380    31.2339    48.5433     7.9390    71.1931     0.0782     2.3888     0.1557
  316.0000   -40.2544    26.5506    35.6333    47.2570     7.9404    72.1022     0.0799     2.3500     0.1698
  316.5000   -40.2411    25.3094    43.2566    52.4535     7.9419    72.4161     0.0680     2.3343     0.1842
  317.0000   -40.0799    33.1464    68.2506    43.2661     7.9285    72.8788     0.0607     2.3336     0.1868
  317.5000   -40.0665    38.0717    72.1609    36.7843     7.9151    72.7463     0.0563     2.3382     0.1829
  318.0000   -40.0434    38.3513    39.0851    40.8075     7.9166    73.2090     0.0549     2.3502     0.1775
  318.5000   -39.7441    37.3281    31.5812    52.9681     7.9031    75.3086     0.0551     2.3555     0.1721
  319.0000   -39.7308    35.3481    29.7005    37.9732     7.8897    73.9856     0.0553     2.3608     0.1682
  319.5000   -39.7150    32.7830    28.9121    36.0026     7.8912    73.1090     0.0539     2.3669     0.1657
  320.0000   -39.5562    31.0398    30.7855    35.5708     7.8778    72.2324     0.0526     2.3707     0.1654
  320.5000   -39.6909    29.7977    32.1088    39.5823     7.8643    71.9511     0.0527     2.3685     0.1660
  321.0000   -39.9734    28.4086    29.9891    41.1844     7.8807    71.9673     0.0529     2.3663     0.1660
  321.5000   -39.9599    27.6507    29.1879    41.2150     7.8822    72.1324     0.0530     2.3701     0.1641
  322.0000   -40.0947    25.2927    30.0306    39.4872     7.8837    73.1904     0.0532     2.3762     0.1614
  322.5000   -40.2290    20.8613    30.6746    33.2943     7.8852    74.9924     0.0533     2.3777     0.1596
  323.0000   -40.3636    23.4703    27.3035    31.9966     7.9016    76.3479     0.0519     2.3688     0.1611
  323.5000   -40.4981    24.8159    29.2740    36.2891     7.9030    77.5547     0.0475     2.3517     0.1739
  324.0000   -40.4848    22.8568    30.7384    37.3020     7.9194    78.9102     0.0416     2.3383     0.1835
  324.5000   -40.6198    21.7913    29.0358    34.5972     7.9209    80.2658     0.0342     2.3279     0.1898
  325.0000   -40.6060    21.3567    28.5315    33.4517     7.9224    80.4309     0.0268     2.3262     0.1915
  325.5000   -40.5926    21.2187    30.8024    33.2468     7.9090    83.1257     0.0212     2.3348     0.1876
  326.0000   -40.5792    21.0845    28.3493    33.2722     7.9104    84.9277     0.0214     2.3431     0.1813
  326.5000   -40.5658    20.8100    27.8126    33.7606     7.9121    86.7297     0.0230     2.3506     0.1750
  327.0000   -40.5525    20.5362    28.8696    33.7984     7.9136    85.8531     0.0262     2.3582     0.1693
  327.5000   -40.5391    20.5476    30.8879    32.4400     7.9076    82.2980     0.0293     2.3672     0.1645
