~VERSION INFORMATION
 VERS.                2.0:   CWLS LOG ASCII STANDARD - VERSION 2.0
 WRAP.                 NO:   ONE LINE PER DEPTH STEP
~WELL INFORMATION
#MNEM.UNIT      DATA TYPE    INFORMATION
#----------   ------------   ------------------------------
 STRT.F           60.0000:   START DEPTH
 STOP.F          945.0000:   STOP DEPTH
 STEP.F            0.5000:   STEP LENGTH
 NULL.          -999.2500:   NO VALUE
 COMP.          U.S. NAVY:   COMPANY
 WELL. RES 3 TEAPOT DOM #48S-35:   WELL
 FLD .           TEAPOT E:   FIELD
 LOC .      S35 T39N R78W:   LOCATION
 CNTY.            NATRONA:   COUNTY
 STAT.            WYOMING:   STATE
 CTRY. UNITED STATES OF AMERICA:   COUNTRY
 SRVC.       Schlumberger:   SERVICE COMPANY
 DATE.        15-JUL-1964:   LOGDATE
 API .       490250649200:   API NUMBER
~CURVE INFORMATION
#MNEM.UNIT       API CODE    CURVE DESCRIPTION
#----------   ------------   ------------------------------
 DEPT.F                  :   
 SPR .MV     05 010 01 00:   SPONTANEOUS POTENTIAL FROM RES.
 ILD .OHMM   05 120 46 00:   INDUCTION LOG DEEP
 ASN .OHMM   05 041 18 00:   AMPLIFIED SHORT NORMAL 18"
 CILD.MMHO   05 110 46 00:   CONDUCTIVITY INDUCTION LOG DEEP
 CALS.IN     60 280 50 00:   CALIPER FROM SONIC LOG
 DT  .US/F   60 520 00 00:   INTERVAL TRANSIT TIME
 GR  .GAPI   30 310 01 00:   GAMMA RAY
~PARAMETER INFORMATION
#MNEM.UNIT          VALUE    DESCRIPTION
#----------   ------------   ------------------------------
 PD  .                 GL:   PERMANENT DATUM
 EPD .F              5123:   ELEVATION PERMANENT DATUM
 LMF .                 KB:   LOG MEASURED FROM
 DAPD.F                 5:   FEET ABOVE PERMANENT DATUM
 DMF .                 KB:   DRILLING MEASURED FROM
 EKB .F              5128:   KELLING BUSHING
 EGL .F              5123:   GROUND LEVEL
 DATE.        15-JUL-1964:   RUN DATE
 RUN .                  1:   RUN NUMBER
 DD  .F               945:   DEPTH DRILLER
 DL  .F               946:   DEPTH LOGGER
 BLI .F               945:   BOTTOM LOG INTERVAL
 TLI .F                94:   TOP LOG INTERVAL
 CS  .IN            8.625:   CASING SIZE
 CBD .F                10:   CASING BOTTOM DRILLER
 BS  .IN             6.75:   BIT SIZE
 BSD .F               945:   BIT SIZE AT DEPTH
 DFT .                GEL:   DRILLING FLUID TYPE
 DFD .                9.5:   DRILLING FLUID DENSITY
 DFV .                 44:   DRILLING FLUID VISCOSITY
 DFPH.                8.0:   DRILLING FLUID PH
 DFL .               10.5:   DRILLING FLUID LOSS
 MSS .           FLOWLINE:   MUD SAMPLE SOURCE
 RMS .OHMM           3.37:   RESISTIVITY MUD SAMPLE
 MST .F                74:   MUD SAMPLE TEMPERATURE
 RMF .OHMM           2.97:   RESISTIVITY MUD FILTRATE SAMPLE
 MFST.F                78:   MUD FILTRATE SAMPLE TEMPERATURE
 MFSS.                 FP:   MUD FILTRATE SAMPLE SOURCE
 TCS .HRS             1.5:   TIME CURCULATED STOPPED
 MRT .F       T. L. T. M.:   MAXIMUM RECORDED TEMPERATURE
 LUN .               3527:   LOGGING UNIT NUMBER
 LUL .               CSPR:   LOGGING UNIT LOCATION
 ENGI.            WINKLER:   RECORDING ENGINEER
 WITN.          JORGENSEN:   WITNESSED BY
 CLNT.            A2DTECH:   CLIENT CODE
 ORIG.           2" PRINT:   ORIGIN OF DATA
 UWI .       490250649200:   UNIQUE WELL ID
 DICO. A2D Technologies, Inc.:   DIGITIZING COMPANY
~OTHER INFORMATION
~A   DEPT      SPR        ILD        ASN       CILD         CALS       DT         GR   
# ...
  378.5000   -52.1739     5.1556     6.0774   182.8430     6.6274   116.0889    73.5565
  379.0000   -52.1739     5.3821     6.3068   172.2617     6.6275   116.0136    74.9027
  379.5000   -52.1739     5.5614     6.6486   168.0769     6.6277   115.4107    75.4969
  380.0000   -52.1739     5.6892     6.8378   166.9683     6.6278   114.1296    79.3986
  380.5000   -52.1739     5.8354     7.0145   166.9603     6.6280   112.3964    77.5859
  381.0000   -52.1739     5.8361     7.1143   166.9532     6.6281   111.0399    78.9320
  381.5000   -52.1739     5.9120     7.1885   166.9457     6.6283   110.0603    77.7218
  382.0000   -52.3238     5.8998     7.2369   166.9379     6.6436   108.9691    75.1582
  382.5000   -52.3426     5.8747     7.2646   167.4082     6.6437   107.9503    73.7975
  383.0000   -52.4738     5.9143     7.2497   167.6786     6.6439   108.7038    75.2180
  383.5000   -52.4738     5.9151     7.2313   169.1780     6.6289   108.3271    75.2850
  384.0000   -52.4738     5.9158     7.1748   169.9232     6.6291   107.7995    74.8266
  384.5000   -52.4738     5.8412     7.1415   170.2035     6.6292   107.9503    74.6690
  385.0000   -52.3238     5.8421     7.1104   172.2223     6.6294   108.9299    75.4137
  385.5000   -52.3238     5.8429     7.0849   175.1799     6.6295   108.7792    78.5643
  386.0000   -52.1739     5.8436     7.0700   175.5052     6.6145   108.3271    80.0608
  386.5000   -52.1739     5.8443     7.0756   175.9206     6.6298   108.1763    79.5264
  387.0000   -52.1739     5.8452     7.0851   175.9117     6.6300   108.4778    78.9919
  387.5000   -52.1739     5.8459     7.0852   175.9049     6.6301   108.7038    79.4358
  388.0000   -52.1739     5.8466     7.0853   175.8975     6.6303   109.0866    81.8346
  388.5000   -52.1739     5.8475     7.0854   175.8893     6.6304   109.6081    82.4288
  389.0000   -52.1739     5.8481     7.1005   175.8824     6.6306   110.0603    82.1208
  389.5000   -52.1739     5.8489     7.1005   174.9347     6.6156   110.2864    78.2781
  390.0000   -52.1739     5.9249     7.1006   172.8504     6.6157   110.4371    73.0820
  390.5000   -52.1739     5.9256     7.1157   170.6861     6.6159   108.8546    73.2251
  391.0000   -52.1739     6.0386     7.1807   167.0939     6.6312   108.3271    72.7668
  391.5000   -52.1739     6.3030     7.3285   163.7782     6.6313   109.3067    69.7520
  392.0000   -52.1739     6.6235     7.5514   159.2444     6.6315   109.5328    69.7448
  392.5000   -52.1739     6.9775     7.7249   154.5629     6.6316   107.7242    70.3390
  393.0000   -52.1739     7.2837     7.8875   146.2092     6.6318   107.0460    69.4286
  393.5000   -52.2251     7.5092     8.0639   139.6142     6.6319   106.9706    68.0671
  394.0000   -52.3238     7.5098     8.1823   136.7019     6.6321   105.6865    71.2177
  394.5000   -52.4738     7.5105     8.2247   133.5671     6.6322   104.1070    70.1579
  395.0000   -52.4738     7.5114     8.2575   133.5587     6.6172   103.7302    69.2484
  395.5000   -52.4738     7.4368     8.2726   133.5520     6.6023   104.1070    68.6396
  396.0000   -52.4738     7.3623     8.2655   133.6753     6.5722   103.6549    68.4811
  396.5000   -52.4738     7.2880     8.1875   136.5529     6.5269   103.0520    70.8790
  397.0000   -52.4738     7.1740     8.0626   140.8693     6.4666   102.6737    72.0747
  397.5000   -52.3238     7.0902     7.9696   150.0132     6.4213   102.3738    72.6690
  398.0000   -52.3238     6.8391     7.8496   167.4506     6.4063   102.1867    73.4136
  398.5000   -52.1739     6.4045     7.7175   185.1354     6.4065   101.9970    71.4515
  399.0000   -52.1739     5.3674     7.5380   213.0412     6.4521   102.1477    71.2939
  399.5000   -52.0240     3.1572     7.2191   303.1749     6.5278   102.5245    76.5489
  400.0000   -51.6195     2.7069     6.4565   387.5201     6.5885   102.8889    78.2452
  400.5000   -51.0886     1.9557     4.5538   436.9971     6.6074   103.2818    73.5267
  401.0000   -50.5867     1.7599     4.1897   457.9537     6.6036   103.7318    75.0225
  401.5000   -50.3702     1.6563     4.0400   463.7779     6.6036   105.0136    76.6686
  402.0000   -50.4537     1.6572     3.9458   456.2544     6.6036   107.0490    76.3608
  402.5000   -50.8483     1.6579     3.8688   440.3817     6.6188   111.7973    75.1506
  403.0000   -51.1153     1.6717     3.8156   407.9480     6.6339   117.5085    73.0383
  403.5000   -51.4875     1.9602     3.8159   326.3370     6.6868   126.0411    63.1046
  404.0000   -51.8821     2.6165     3.8954   276.9139     6.7625   135.9896    55.7290
  404.5000   -52.1602     3.3172     4.9127   200.5344     6.8306   143.9029    45.3460
  405.0000   -52.3713     5.0452     5.5751   163.5728     6.9062   144.3556    45.0381
  405.5000   -52.6160     5.8720     6.8902   109.5821     6.9516   138.3279    47.2106
  406.0000   -52.9053     6.9394     8.4421    97.1932     6.9818   123.4077    52.0898
  406.5000   -53.1052     8.3466     9.2130    93.4163     6.9062   115.4959    54.4887
  407.0000   -53.3523     9.3819     9.6426    93.4087     6.7549   110.6737    55.6846
  407.5000   -53.3508    10.4624    10.0132    94.6268     6.6944   102.6994    55.9022
  408.0000   -53.3494    10.7960    10.0649   104.2022     6.6490    96.5834    55.8190
  408.5000   -53.3477    10.4750    10.1402   122.0433     6.6188    96.7349    58.0675
  409.0000   -53.0315     9.6377    10.1591   141.2285     6.6036    97.1124    58.0604
  409.5000   -52.7164     9.0028    10.2159   159.0333     6.5885    97.3392    55.6473
  410.0000   -52.2937     7.9500     9.5679   175.5648     6.5734    97.4151    59.3978
  410.5000   -51.8501     6.3317     8.8736   178.9329     6.5582    96.7378    61.9471
  411.0000   -51.4886     5.6506     7.9158   181.8482     6.5431    96.1357    63.5941
  411.5000   -51.0897     5.3556     6.7647   183.8386     6.5431    95.6077    63.5870
  412.0000   -51.4483     5.4317     6.7189   179.7588     6.5582    95.4589    59.8196
  412.5000   -51.5430     5.7331     6.7643   173.8939     6.5734    97.1177    53.7965
  413.0000   -51.9847     6.2602     7.3488   165.7150     6.6036   100.8863    57.2481
  413.5000   -52.1821     6.9135     8.4101   156.4704     6.6339   107.8199    62.8049
  414.0000   -52.5817     7.6169     9.6781   135.5353     6.6490   108.7250    63.8495
  414.5000   -52.6714     8.6685     9.7827   114.8075     6.6641   109.1139    63.3904
  415.0000   -52.7661     9.2055     9.9125   104.2234     6.6641   109.9572    64.5863
  415.5000   -52.8771     9.7617    10.0401    98.5591     6.6641   109.7070    66.9852
  416.0000   -53.1054    10.2497    10.3329    95.8375     6.6641   104.8848    68.6322
  416.5000   -53.1741    10.3938    10.5955    93.7556     6.6641    99.6858    66.8188
  417.0000   -53.3222    10.5659    10.8675    90.9946     6.6641    99.4603    65.6087
  417.5000   -53.3208    10.7783    11.0878    90.2338     6.6641   100.5916    62.1429
  418.0000   -53.4843    10.9103    11.3472    89.3967     6.6641   101.3459    62.4366
  418.5000   -53.7674    11.0814    11.6079    87.9551     6.6641   101.7988    64.1579
  419.0000   -53.9735    11.2546    11.8067    87.9487     6.6490   100.2624    64.6762
  419.5000   -54.3680    11.4048    11.8736    87.9412     6.6490   100.8208    62.5639
  420.0000   -54.6127    11.5339    11.9790    87.9336     6.6490   101.3488    61.3537
  420.5000   -55.0534    11.6850    12.0994    87.6936     6.6490   100.5962    62.0976
  421.0000   -55.5592    11.7770    12.1748    87.1642     6.6490   100.3707    63.2926
  421.5000   -55.8850    11.9121    12.1999    87.1569     6.6490   100.9744    63.8870
  422.0000   -56.3409    11.9879    12.2505    86.9734     6.6490   100.7491    63.8799
  422.5000   -56.6041    12.0739    12.2507    85.6329     6.6490   100.3730    63.7224
  423.0000   -56.6027    12.2151    12.2511    84.8718     6.6490   100.2984    63.1120
  423.5000   -56.5774    12.3220    12.3264    84.1101     6.6490   100.6232    61.6012
