~VERSION INFORMATION
 VERS.                2.0:   CWLS LOG ASCII STANDARD - VERSION 2.0
 WRAP.                 NO:   ONE LINE PER DEPTH STEP
~WELL INFORMATION
#MNEM.UNIT      DATA TYPE    INFORMATION
#----------   ------------   ------------------------------
 STRT.F           16.0000:   START DEPTH
 STOP.F         1254.0000:   STOP DEPTH
 STEP.F            0.5000:   STEP LENGTH
 NULL.          -999.2500:   NO VALUE
 COMP. FENIX & SCISSON INC:   COMPANY
 WELL. NAVAL PET RESERVE 3   75-S-14 #75-14:   WELL
 FLD .             TEAPOT:   FIELD
 LOC .      S14 T38N R78W:   LOCATION
 CNTY.            NATRONA:   COUNTY
 STAT.            WYOMING:   STATE
 CTRY. UNITED STATES OF AMERICA:   COUNTRY
 SRVC.              Welex:   SERVICE COMPANY
 DATE.        17-FEB-1977:   LOGDATE
 API .       490251027400:   API NUMBER
~CURVE INFORMATION
#MNEM.UNIT       API CODE    CURVE DESCRIPTION
#----------   ------------   ------------------------------
 DEPT.F                  :   
 SGRD.OHMM   07 220 05 00:   SHALLOW RESISTIVITY
 ILM .OHMM   07 120 44 00:   INDUCTION LOG MEDIUM
 SPR .MV     07 010 01 00:   SPONTANEOUS POTENTIAL
 ILD .OHMM   07 120 46 00:   INDUCTION LOG DEEP
 CALD.IN     45 280 60 00:   CALIPER
 GRD .GAPI   45 310 01 00:   GAMMA RAY FROM DENSITY LOG
 DPHI.DEC    45 890 12 00:   DENSITY POROSITY SANDSTONE
 RHOB.G/C3   45 350 01 00:   BULK DENSITY
 CORR.G/C3   45 356 01 00:   DENSITY CORRECTION
~PARAMETER INFORMATION
#MNEM.UNIT          VALUE    DESCRIPTION
#----------   ------------   ------------------------------
 PD  .                 GL:   PERMANENT DATUM
 EPD .F              5336:   ELEVATION PERMANENT DATUM
 LMF .                 GL:   LOG MEASURED FROM
 DMF .                 GL:   DRILLING MEASURED FROM
 EKB .F              5341:   KELLING BUSHING
 EGL .F              5336:   GROUND LEVEL
 DATE.          2-17-1977:   RUN DATE
 RUN .                  1:   RUN NUMBER
 DD  .F              1260:   DEPTH DRILLER
 DL  .F              1258:   DEPTH LOGGER
 BLI .F              1256:   BOTTOM LOG INTERVAL
 TLI .F                30:   TOP LOG INTERVAL
 CS  .IN            8.625:   CASING SIZE
 CBD .F                42:   CASING BOTTOM DRILLER
 CBL .F                42:   CASING BOTTOM LOGGER
 BS  .IN            7.875:   BIT SIZE
 BSD .F              1260:   BIT SIZE AT DEPTH
 DFT .          KCL WATER:   DRILLING FLUID TYPE
 DFD .                9.5:   DRILLING FLUID DENSITY
 DFV .                 34:   DRILLING FLUID VISCOSITY
 MSS .          FLOW LINE:   MUD SAMPLE SOURCE
 RMS .OHMM            .30:   RESISTIVITY MUD SAMPLE
 MST .F                43:   MUD SAMPLE TEMPERATURE
 RMF .OHMM            .28:   RESISTIVITY MUD FILTRATE SAMPLE
 MFST.F                43:   MUD FILTRATE SAMPLE TEMPERATURE
 RMC .OHMM            .40:   RESISTIVITY MUD CAKE
 MCST.F                43:   MUD CAKE SAMPLE TEMPERATURE
 MFSS.           MEASURED:   MUD FILTRATE SAMPLE SOURCE
 MCSS.           MEASURED:   MUD CAKE SAMPLE SOURCE
 RMB .OHMM            .13:   RESISTIVITY MUD AT BHT
 BHT .F               101:   BOTTOM HOLE TEMPERATURE
 TCS .HRS               5:   TIME CURCULATED STOPPED
 MRT .F               101:   MAXIMUM RECORDED TEMPERATURE
 LUN .               8611:   LOGGING UNIT NUMBER
 LUL .           GILLETTE:   LOGGING UNIT LOCATION
 ENGI.             LAWSON:   RECORDING ENGINEER
 WITN.         STUEBINGER:   WITNESSED BY
 CLNT.            A2DTECH:   CLIENT CODE
 ORIG.       2", 5" PRINT:   ORIGIN OF DATA
 UWI .       490251027400:   UNIQUE WELL ID
 DICO. A2D Technologies, Inc.:   DIGITIZING COMPANY
~OTHER INFORMATION
~A   DEPT     SGRD        ILM        SPR        ILD       CALD         GRD      DPHI       RHOB       CORR   
# ...
  527.0000     8.7375     6.9527   -44.1938     5.0360     8.1214   125.0482     0.1330     2.4270     0.0528
  527.5000     8.0929     6.7972   -44.1802     4.9228     8.1253   122.1111     0.1369     2.4158     0.0446
  528.0000     7.6815     6.6452   -44.1428     4.8121     8.1302   120.0829     0.1408     2.4146     0.0403
  528.5000     7.9540     6.4963   -44.1054     4.7032     8.1350   118.0592     0.1429     2.4240     0.0385
  529.0000     8.2934     6.4490   -44.0683     4.5873     8.1398   116.6120     0.1372     2.4332     0.0427
  529.5000     8.6473     6.4493   -44.0313     4.5878     8.1462   117.8946     0.1323     2.4423     0.0479
  530.0000     8.8183     6.4310   -44.0119     4.6231     8.1594   119.2910     0.1287     2.4493     0.0547
  530.5000     8.2980     6.4115   -44.0120     4.6600     8.1559   120.7047     0.1279     2.4420     0.0582
  531.0000     7.8288     6.3921   -44.0114     4.6973     8.1516   122.3384     0.1269     2.4350     0.0581
  531.5000     8.3137     6.3728   -44.0645     4.7348     8.1474   125.7221     0.1254     2.4496     0.0581
  532.0000     9.1198     6.3535   -44.1513     4.7727     8.1433   129.0467     0.1214     2.4659     0.0611
  532.5000     9.8478     6.3342   -44.2388     4.8109     8.1415   128.5322     0.1174     2.4825     0.0653
  533.0000     8.9529     6.3151   -44.3263     4.8489     8.1414   127.2609     0.1133     2.4844     0.0661
  533.5000     8.2491     6.2959   -44.4137     4.8100     8.1414   125.7165     0.1125     2.4766     0.0662
  534.0000     7.8965     6.2769   -44.5011     4.7626     8.1414   122.5990     0.1160     2.4691     0.0646
  534.5000     7.9907     6.2579   -44.5885     4.7157     8.1414   120.6809     0.1194     2.4618     0.0623
  535.0000     8.1282     6.2389   -44.6759     4.6693     8.1414   124.5036     0.1229     2.4544     0.0600
  535.5000     8.2683     6.2161   -44.7633     4.6233     8.1407   127.0124     0.1263     2.4471     0.0577
  536.0000     8.0442     6.2164   -44.8507     4.5778     8.1363   125.4554     0.1295     2.4396     0.0554
  536.5000     7.7744     6.2033   -44.9381     4.5327     8.1320   123.8952     0.1286     2.4409     0.0541
  537.0000     7.5414     6.1542   -45.0255     4.4881     8.1277   122.7863     0.1265     2.4450     0.0541
  537.5000     7.7512     6.1054   -45.1129     4.4439     8.1234   123.9790     0.1244     2.4491     0.0541
  538.0000     7.9451     6.0570   -45.2003     4.4001     8.1191   126.9159     0.1235     2.4532     0.0537
  538.5000     8.1450     6.0090   -45.2877     4.3568     8.1148   129.1850     0.1252     2.4487     0.0531
  539.0000     8.3497     5.9613   -45.3752     4.3139     8.1105   127.5421     0.1277     2.4436     0.0525
  539.5000     8.5808     5.9141   -45.4627     4.2715     8.1061   125.8988     0.1301     2.4385     0.0520
  540.0000     8.3643     5.8825   -45.5516     4.2294     8.1018   124.2352     0.1325     2.4335     0.0538
  540.5000     8.1126     5.8825   -45.5981     4.1877     8.0975   125.8447     0.1350     2.4284     0.0559
  541.0000     7.8685     5.6378   -45.8199     4.1465     8.0932   127.9512     0.1374     2.4233     0.0550
  541.5000     7.5219     5.3983   -45.8142     4.1057     8.0889   126.0797     0.1398     2.4183     0.0531
  542.0000     7.0675     5.1689   -45.8376     4.0653     8.0846   123.7251     0.1422     2.4132     0.0501
  542.5000     7.0733     4.8916   -45.8583     4.0253     8.0803   121.3735     0.1447     2.4081     0.0472
  543.0000     7.0062     4.9283   -45.8790     3.9857     8.0760   119.0261     0.1421     2.4065     0.0461
  543.5000     7.0360     4.9907   -45.8998     3.9452     8.0717   116.6747     0.1384     2.4179     0.0498
  544.0000     7.1128     5.0551   -45.9206     3.8881     8.0674   114.4880     0.1348     2.4290     0.0553
  544.5000     7.1905     5.1199   -45.9413     3.8881     8.0630   114.2476     0.1312     2.4399     0.0609
  545.0000     7.2689     5.1855   -45.9621     3.9049     8.0618   115.5453     0.1303     2.4375     0.0629
  545.5000     7.3361     5.2519   -45.9828     3.9204     8.0617   117.0863     0.1299     2.4343     0.0639
  546.0000     7.0721     5.2676   -46.0041     3.9361     8.0623   120.0399     0.1302     2.4419     0.0648
  546.5000     6.8155     5.2585   -46.0082     3.9518     8.0653   122.9832     0.1278     2.4515     0.0658
  547.0000     7.0375     5.2438   -46.0167     3.9675     8.0682   124.2415     0.1239     2.4507     0.0659
  547.5000     7.2594     5.2289   -46.0363     3.9834     8.0712   122.5801     0.1240     2.4472     0.0657
  548.0000     7.4883     5.2194   -46.0559     3.9992     8.0741   121.3970     0.1243     2.4491     0.0654
  548.5000     7.6815     5.2193   -46.0755     4.0152     8.0771   122.5776     0.1214     2.4570     0.0652
  549.0000     7.6671     5.2471   -46.0952     4.0312     8.0800   120.5778     0.1221     2.4612     0.0649
  549.5000     7.6006     5.2675   -46.1148     4.0473     8.0817   118.5004     0.1245     2.4533     0.0647
  550.0000     7.5348     5.2880   -46.1344     4.0634     8.0817   116.4928     0.1269     2.4453     0.0644
  550.5000     7.4695     5.3086   -46.1540     4.1088     8.0796   115.3901     0.1293     2.4370     0.0642
  551.0000     7.4047     5.3292   -46.1733     4.1088     8.0772   118.4541     0.1283     2.4383     0.0639
  551.5000     7.3405     5.3499   -46.1932     4.1086     8.0749   120.3852     0.1263     2.4415     0.0637
  552.0000     7.2707     5.3654   -46.2393     4.1227     8.0725   122.3436     0.1286     2.4378     0.0634
  552.5000     7.4776     5.2888   -46.3789     4.1449     8.0702   124.3029     0.1309     2.4334     0.0632
  553.0000     7.8213     5.1974   -46.5135     4.1670     8.0678   126.2026     0.1331     2.4291     0.0629
  553.5000     7.4690     5.1075   -46.6482     4.1893     8.0654   126.2476     0.1355     2.4267     0.0627
  554.0000     6.8844     5.0193   -46.7827     4.2117     8.0631   124.4877     0.1342     2.4294     0.0624
  554.5000     6.6912     4.9325   -46.9174     4.2238     8.0617   122.2771     0.1321     2.4320     0.0622
  555.0000     7.4039     4.8473   -47.1006     4.1744     8.0618   120.0732     0.1301     2.4346     0.0621
  555.5000     7.0423     4.7605   -47.3816     4.0173     8.0651   117.8533     0.1279     2.4373     0.0621
  556.0000     6.5761     4.6737   -47.6614     3.8662     8.0719   117.1416     0.1322     2.4381     0.0645
  556.5000     6.1594     4.6277   -47.9411     3.7206     8.0787   119.3156     0.1379     2.4263     0.0677
  557.0000     6.4163     4.5552   -48.2207     3.5819     8.0855   117.5700     0.1437     2.4138     0.0705
  557.5000     6.7531     4.4643   -48.5003     3.4023     8.0922   115.8581     0.1495     2.4014     0.0717
  558.0000     6.2164     4.2472   -48.7799     3.1953     8.0990   116.2603     0.1552     2.3890     0.0730
  558.5000     6.7531     4.0269   -49.0596     3.0001     8.1058   118.1221     0.1611     2.3765     0.0742
  559.0000     6.2434     3.8180   -49.3394     2.8170     8.1126   120.0215     0.1708     2.3641     0.0754
  559.5000     5.2949     3.5951   -49.6184     2.6450     8.1194   121.9193     0.1779     2.3517     0.0750
  560.0000     4.4026     3.3599   -49.9041     2.4834     8.1262   123.8147     0.1834     2.3391     0.0724
  560.5000     3.6606     3.1400   -50.0131     2.3318     8.1329   125.7102     0.1896     2.3268     0.0698
  561.0000     2.9503     2.9775   -49.7000     2.2585     8.1400   127.6117     0.1866     2.3335     0.0672
  561.5000     3.8734     3.0933   -49.3064     2.2227     8.1417   129.5103     0.1815     2.3435     0.0668
  562.0000     4.3023     3.1756   -48.9235     2.1874     8.1404   131.3169     0.1764     2.3533     0.0679
  562.5000     3.8926     2.8443   -48.5423     2.1777     8.1068   130.0929     0.1719     2.3639     0.0690
  563.0000     3.0328     3.1359   -48.1609     2.3049     8.0723   125.7040     0.1528     2.3924     0.0702
