~VERSION INFORMATION
 VERS.                2.0:   CWLS LOG ASCII STANDARD - VERSION 2.0
 WRAP.                 NO:   ONE LINE PER DEPTH STEP
~WELL INFORMATION
#MNEM.UNIT      DATA TYPE    INFORMATION
#----------   ------------   ------------------------------
 STRT.F           24.5000:   START DEPTH
 STOP.F          750.0000:   STOP DEPTH
 STEP.F            0.5000:   STEP LENGTH
 NULL.          -999.2500:   NO VALUE
 COMP. FENIX & SCISSON INC:   COMPANY
 WELL.    NPR 3 SX #35-11:   WELL
 FLD .          N.P.R. #3:   FIELD
 LOC .      S11 T38N R78W:   LOCATION
 CNTY.            NATRONA:   COUNTY
 STAT.            WYOMING:   STATE
 CTRY. UNITED STATES OF AMERICA:   COUNTRY
 SRVC.            Unknown:   SERVICE COMPANY
 DATE.        23-FEB-1978:   LOGDATE
 API .       490251027200:   API NUMBER
~CURVE INFORMATION
#MNEM.UNIT       API CODE    CURVE DESCRIPTION
#----------   ------------   ------------------------------
 DEPT.F                  :   
 ILM .OHMM   07 120 44 00:   INDUCTION LOG MEDIUM
 ILD .OHMM   07 120 46 00:   INDUCTION LOG DEEP
 LL8 .OHMM   07 220 08 00:   LATEROLOG-8 RES.
 SPR .MV     07 010 01 00:   SPONTANEOUS POTENTIAL
 CALD.IN     45 280 60 00:   CALIPER FROM DENSITY LOG
 CORR.G/C3   45 356 01 00:   DENSITY CORRECTION
 DPHI.DEC    45 890 12 00:   DENSITY POROSITY SANDSTONE
 GRD .GAPI   45 310 01 00:   GAMMA RAY FROM DENSITY LOG
 RHOB.G/C3   45 350 01 00:   BULK DENSITY
 IL  .OHMM   05 120 40 00:   INDUCTION RESISTIVITY
 SN  .OHMM   05 040 16 00:   SHORT NORMAL 16"
 SPR1.MV     05 010 01 00:   SPONTANEOUS POTENTIAL INDUCTION ELECTRICAL LOG
~PARAMETER INFORMATION
#MNEM.UNIT          VALUE    DESCRIPTION
#----------   ------------   ------------------------------
 PD  .                 GL:   PERMANENT DATUM
 EPD .F              5204:   ELEVATION PERMANENT DATUM
 LMF .                 KB:   LOG MEASURED FROM
 DAPD.F                 4:   FEET ABOVE PERMANENT DATUM
 DMF .                 KB:   DRILLING MEASURED FROM
 EKB .F              5208:   KELLING BUSHING
 EGL .F              5204:   GROUND LEVEL
 DATE.        23-FEB-1978:   RUN DATE
 RUN .                  1:   RUN NUMBER
 DD  .F               755:   DEPTH DRILLER
 DL  .F               751:   DEPTH LOGGER
 BLI .F               745:   BOTTOM LOG INTERVAL
 TLI .F                45:   TOP LOG INTERVAL
 CS  .IN            8.625:   CASING SIZE
 CBD .F                40:   CASING BOTTOM DRILLER
 CBL .F                40:   CASING BOTTOM LOGGER
 BS  .IN            7.875:   BIT SIZE
 BSD .F               755:   BIT SIZE AT DEPTH
 DFT .         LIGNO SULF:   DRILLING FLUID TYPE
 DFD .                8.7:   DRILLING FLUID DENSITY
 DFV .                 33:   DRILLING FLUID VISCOSITY
 DFPH.                 10:   DRILLING FLUID PH
 DFL .                  4:   DRILLING FLUID LOSS
 MSS .           FLOWLINE:   MUD SAMPLE SOURCE
 RMS .OHMM            2.0:   RESISTIVITY MUD SAMPLE
 MST .F                60:   MUD SAMPLE TEMPERATURE
 RMF .OHMM            1.9:   RESISTIVITY MUD FILTRATE SAMPLE
 MFST.F                62:   MUD FILTRATE SAMPLE TEMPERATURE
 RMC .OHMM            3.5:   RESISTIVITY MUD CAKE
 MCST.F                60:   MUD CAKE SAMPLE TEMPERATURE
 MFSS.               MEAS:   MUD FILTRATE SAMPLE SOURCE
 RMB .OHMM           1.69:   RESISTIVITY MUD AT BHT
 BHT .F                71:   BOTTOM HOLE TEMPERATURE
 TCS .HRS               3:   TIME CURCULATED STOPPED
 MRT .F                71:   MAXIMUM RECORDED TEMPERATURE
 CLNT.            A2DTECH:   CLIENT CODE
 ORIG.           5" PRINT:   ORIGIN OF DATA
 UWI .       490251027200:   UNIQUE WELL ID
 DICO. A2D Technologies, Inc.:   DIGITIZING COMPANY
~OTHER INFORMATION
~A   DEPT      ILM        ILD        LL8        SPR       CALD       CORR       DPHI         GRD      RHOB         IL         SN       SPR1   
# ...
  276.5000     9.4138     9.3827     9.9144   -28.2471     8.3086     0.0329     0.1070   114.8904     2.4770     8.5854    10.1161   -34.5333
  277.0000     9.4223     9.3918     9.8557   -28.2277     8.2951     0.0276     0.1106   116.7619     2.4726     8.6482    10.1418   -34.3690
  277.5000     9.4308     9.2720     9.7974   -28.3617     8.2971     0.0232     0.1129   116.7857     2.4682     8.7721    10.2622   -34.2046
  278.0000     9.3722     9.2150     9.6060   -28.4909     8.2841     0.0202     0.1098   116.9682     2.4781     8.8362    10.3360   -34.0403
  278.5000     9.2542     9.0371     9.3535   -28.9124     8.2865     0.0310     0.1031   117.5923     2.4876     8.9164    10.4831   -34.0257
  279.0000     9.2625     9.0459     9.2341   -29.3388     8.2885     0.0363     0.1006   118.6528     2.4926     8.9832    10.5585   -33.8613
  279.5000     9.2709     9.0546     9.2432   -29.3194     8.2902     0.0281     0.1145   120.7575     2.4667     9.0943    10.7088   -33.8467
  280.0000     9.2775     9.1262     9.3162   -29.3000     8.2769     0.0229     0.1184   122.4107     2.4594     9.2246    10.8612   -33.8321
  280.5000     9.3622     9.3261     9.5862   -28.8349     8.2791     0.0192     0.1189   124.0715     2.4551     9.4219    11.0157   -33.8164
  281.0000     9.5000     9.5964     9.9323   -28.3697     8.2813     0.0162     0.1126   123.7978     2.4655     9.5822    11.0965   -33.6527
  281.5000     9.6398     9.8746    10.0801   -28.0531     8.2832     0.0285     0.1077   119.6551     2.4813     9.6938    11.1748   -33.6385
  282.0000     9.8394    10.1608    10.1597   -28.0337     8.3001     0.0354     0.1031   111.3456     2.4963     9.8326    11.1772   -33.7736
  282.5000    10.1238    10.4553    10.2400   -27.8657     8.3020     0.0271     0.1043   110.6255     2.4803     9.9045    11.1795   -33.7589
  283.0000    10.3535    10.6109    10.5368   -27.8463     8.3039     0.0242     0.1130   110.5000     2.4648     9.9769    11.1823   -33.9107
  283.5000    10.6518    10.8434    11.1456   -27.8269     8.3059     0.0258     0.1154   107.6971     2.4709     9.9804    11.1750   -34.0291
  284.0000    11.0275    11.0809    10.8527   -27.9610     8.2035     0.0183     0.1078   101.7687     2.4883     9.9838    11.1089   -33.9865
  284.5000    11.2745    11.2458    10.8632   -27.9367     8.0862     0.0078     0.1023   100.4301     2.5013     9.9181    11.0341   -33.8183
  285.0000    11.5143    11.3347    11.8125   -28.0708     8.0578     0.0215     0.0899   105.5367     2.5111     9.8816    10.9602   -33.7151
  285.5000    11.5247    11.3457    14.8478   -27.8979     8.1050     0.0201     0.0841   111.8106     2.4932     9.7889    10.8859   -33.8892
  286.0000    11.5350    11.3567    15.4148   -27.5814     8.2261     0.0111     0.1067   114.5131     2.4526     9.7923    10.8126   -34.1807
  286.5000    11.5454    11.3677    11.6845   -27.4134     8.3026     0.0203     0.1283   114.3822     2.4316     9.5938    10.6658   -34.3862
  287.0000    11.5557    11.4575    11.4557   -27.5474     8.3194     0.0355     0.1198   114.7097     2.4611     9.4640    10.6680   -34.3249
  287.5000    11.4866    11.4686    11.2318   -27.5232     8.3060     0.0334     0.1120   115.3289     2.4703     9.2721    10.5957   -34.1567
  288.0000    11.4178    11.4797    11.2431   -27.8058     8.2930     0.0251     0.1164   114.3111     2.4568     9.0842    10.5984   -33.9885
  288.5000    11.3495    11.3306    11.2540   -27.9301     8.2954     0.0290     0.1182   113.5850     2.4531     9.0244    10.6006   -33.8773
  289.0000    11.2040    11.1861    11.1105   -28.0642     8.2820     0.0314     0.1170   113.7637     2.4563     9.0283    10.6026   -33.9831
  289.5000    11.0604    10.9702    10.8180   -28.0399     8.2839     0.0322     0.1154   113.1924     2.4647     9.0314    10.6049   -34.1467
  290.0000    11.0704    10.8277    10.6800   -28.0205     8.2712     0.0341     0.1151   112.6210     2.4715     9.0974    10.6072   -34.1317
  290.5000    11.0803    10.7637    10.7649   -28.3032     8.2821     0.0392     0.1084   112.3414     2.4754     9.1639    10.6094   -34.1877
  291.0000    11.0903    10.7000    10.9251   -28.2789     8.2902     0.0313     0.1056   113.1153     2.4733     9.1913    10.6115   -34.2515
  291.5000    11.0240    10.6368    10.9356   -29.1511     8.2921     0.0242     0.1128   113.8832     2.4673     9.2341    10.5401   -34.2365
  292.0000    10.9580    10.6497    10.9462   -30.0280     8.2939     0.0298     0.1119   113.6036     2.4644     9.3016    10.5423   -34.2216
  292.5000    10.8175    10.6579    10.7297   -30.0038     8.2958     0.0295     0.1142   114.3775     2.4615     9.2403    10.4707   -34.2066
  293.0000    10.5325    10.5516    10.4502   -29.6872     8.2979     0.0227     0.1151   116.3359     2.4534     9.2436    10.4008   -34.1916
  293.5000    10.4691    10.3874    10.3170   -29.3706     8.2999     0.0153     0.1244   116.8003     2.4429     9.1193    10.3235   -34.1766
  294.0000    10.4065    10.3978    10.2535   -29.0282     8.2864     0.0109     0.1310   116.2290     2.4362     9.1224    10.1901   -34.2235
  294.5000    10.4884    10.4079    10.6999   -28.4170     8.3036     0.0080     0.1333   117.1517     2.4318     9.1255    10.1082   -34.3079
  295.0000    10.4978    10.4179    10.7102   -27.8059     8.3055     0.0067     0.1342   117.4672     2.4312     9.0655    10.0533   -34.3923
  295.5000    10.4327    10.4280    10.5736   -27.3432     8.3076     0.0099     0.1299   115.5626     2.4320     9.0059     9.9856   -34.1363
  296.0000    10.3702    10.4381    10.3670   -27.0490     8.3096     0.0130     0.1249   114.2472     2.4404     8.9467     9.9882   -33.8553
  296.5000    10.2396    10.2275    10.2323   -26.8811     8.3115     0.0185     0.1197   115.0092     2.4564     8.9505     9.9900   -33.7874
  297.0000    10.1083    10.1034    10.2447   -26.5498     8.3134     0.0229     0.1153   111.7653     2.4625     8.8916     9.9920   -33.9801
  297.5000    10.0479    10.1132    10.1141   -26.2481     8.3005     0.0184     0.1184   110.7475     2.4513     8.8942     9.9248   -34.2715
  298.0000     9.9855    10.0534     9.9827   -25.9317     8.2875     0.0186     0.1216   112.2595     2.4461     8.8973     9.8583   -34.3413
  298.5000     9.8597    10.0632     9.9236   -25.7563     8.2894     0.0225     0.1160   113.7656     2.4658     8.9004     9.8603   -34.0978
  299.0000     9.8686    10.0730    10.0045   -25.5958     8.2914     0.0271     0.1124   112.1585     2.4735     8.9038     9.7260   -33.8942
  299.5000     9.8775    10.1525    10.1533   -25.7252     8.2933     0.0257     0.1076   111.5812     2.4811     8.7841     9.5930   -33.9942
  300.0000    10.1631    10.2327    10.4476   -25.7058     8.2948     0.0197     0.1187   116.2539     2.4629     8.6265     9.3966   -34.0207
  300.5000    10.3107    10.4578    10.4570   -26.7231     8.2906     0.0236     0.1156   123.7939     2.4473     8.3745     9.3991   -34.0533
  301.0000    10.1779    10.3930    10.3231   -27.7421     8.2870     0.0230     0.1171   125.2083     2.4562     8.2059     9.3353   -34.0902
  301.5000    10.1886    10.2598    10.2614   -28.0235     8.2727     0.0269     0.1278   125.0714     2.4371     8.0407     9.3377   -34.0710
  302.0000    10.1971    10.1876    10.0602   -27.9972     8.1261     0.0171     0.1341   125.5426     2.4312     7.8787     9.3396   -33.9021
  302.5000    10.0657    10.0678     9.8631   -28.2786     7.9198     0.0110     0.1353   126.9060     2.4268     7.6667     9.1485   -33.8830
  303.0000     9.8677     9.9978     9.8019   -28.2522     7.8626     0.0174     0.1274   125.8884     2.4267     7.5123     8.8991   -33.7141
  303.5000     9.8060     9.7440     9.8130   -28.0826     7.8799     0.0213     0.1219   123.8291     2.4391     7.4123     8.7160   -33.6949
  304.0000     9.7467     9.6192    10.0968   -28.3640     8.0016     0.0267     0.1204   122.2162     2.4460     7.3137     8.5346   -33.8255
