~VERSION INFORMATION
 VERS.                2.0:   CWLS LOG ASCII STANDARD - VERSION 2.0
 WRAP.                 NO:   ONE LINE PER DEPTH STEP
~WELL INFORMATION
#MNEM.UNIT      DATA TYPE    INFORMATION
#----------   ------------   ------------------------------
 STRT.F           24.0000:   START DEPTH
 STOP.F          487.5000:   STOP DEPTH
 STEP.F            0.5000:   STEP LENGTH
 NULL.          -999.2500:   NO VALUE
 COMP. FENIX & SCISSON INC:   COMPANY
 WELL.       NPR #35-SX-3:   WELL
 FLD .        TEAPOT DOME:   FIELD
 LOC .       S3 T38N R78W:   LOCATION
 CNTY.            NATRONA:   COUNTY
 STAT.            WYOMING:   STATE
 CTRY. UNITED STATES OF AMERICA:   COUNTRY
 SRVC.       Schlumberger:   SERVICE COMPANY
 DATE.        26-MAR-1977:   LOGDATE
 API .       490251030700:   API NUMBER
~CURVE INFORMATION
#MNEM.UNIT       API CODE    CURVE DESCRIPTION
#----------   ------------   ------------------------------
 DEPT.F                  :   
 SPR .MV     07 010 01 00:   SPONTANEOUS POTENTIAL
 LL8 .OHMM   07 220 08 00:   LATEROLOG-8 RES.
 ILD .OHMM   07 120 46 00:   INDUCTION LOG DEEP
 ILM .OHMM   07 120 44 00:   INDUCTION LOG MEDIUM
 CALD.IN     45 280 60 00:   CALIPER FROM DENSITY LOG
 RHOB.G/C3   45 350 01 00:   BULK DENSITY
 DPOR.DEC    45 890 12 00:   DENSITY POROSITY SANDSTONE
 CORR.G/C3   45 356 01 00:   DENSITY CORRECTION
 GRD .GAPI   45 310 01 00:   GAMMA RAY FROM DENSITY LOG
~PARAMETER INFORMATION
#MNEM.UNIT          VALUE    DESCRIPTION
#----------   ------------   ------------------------------
 PD  .                 GL:   PERMANENT DATUM
 EPD .F          EST 5200:   ELEVATION PERMANENT DATUM
 LMF .                 GL:   LOG MEASURED FROM
 DMF .                 KB:   DRILLING MEASURED FROM
 EKB .F              5205:   KELLING BUSHING
 EGL .F          EST 5200:   GROUND LEVEL
 DATE.            3-26-77:   RUN DATE
 RUN .                  1:   RUN NUMBER
 DD  .F               524:   DEPTH DRILLER
 DL  .F               489:   DEPTH LOGGER
 BLI .F               483:   BOTTOM LOG INTERVAL
 TLI .F                39:   TOP LOG INTERVAL
 CS  .IN            8.625:   CASING SIZE
 CBD .F                40:   CASING BOTTOM DRILLER
 CBL .F                39:   CASING BOTTOM LOGGER
 BS  .IN            7.875:   BIT SIZE
 BSD .F               524:   BIT SIZE AT DEPTH
 DFT .                KCL:   DRILLING FLUID TYPE
 DFD .                8.8:   DRILLING FLUID DENSITY
 DFV .                 31:   DRILLING FLUID VISCOSITY
 DFPH.                  8:   DRILLING FLUID PH
 DFL .                9.1:   DRILLING FLUID LOSS
 MSS .          FLOW LINE:   MUD SAMPLE SOURCE
 RMS .OHMM            .18:   RESISTIVITY MUD SAMPLE
 MST .F                76:   MUD SAMPLE TEMPERATURE
 RMF .OHMM            .15:   RESISTIVITY MUD FILTRATE SAMPLE
 MFST.F                76:   MUD FILTRATE SAMPLE TEMPERATURE
 RMC .OHMM             .1:   RESISTIVITY MUD CAKE
 MCST.F                76:   MUD CAKE SAMPLE TEMPERATURE
 MFSS.                  M:   MUD FILTRATE SAMPLE SOURCE
 MCSS.                  C:   MUD CAKE SAMPLE SOURCE
 RMB .OHMM            .25:   RESISTIVITY MUD AT BHT
 BHT .F                55:   BOTTOM HOLE TEMPERATURE
 TCS .HRS               6:   TIME CURCULATED STOPPED
 MRT .F            EST 55:   MAXIMUM RECORDED TEMPERATURE
 LUN .               5642:   LOGGING UNIT NUMBER
 LUL .               CSPR:   LOGGING UNIT LOCATION
 ENGI.     LOHBECK/MARTIN:   RECORDING ENGINEER
 WITN.         STUEBINGER:   WITNESSED BY
 CLNT.            A2DTECH:   CLIENT CODE
 ORIG.       2", 5" PRINT:   ORIGIN OF DATA
 UWI .       490251030700:   UNIQUE WELL ID
 DICO. A2D Technologies, Inc.:   DIGITIZING COMPANY
~OTHER INFORMATION
~A   DEPT      SPR        LL8        ILD        ILM       CALD       RHOB       DPOR       CORR        GRD   
# ...
   97.0000   -77.5998    10.5981     8.2668     9.4155     8.7360     2.4524     0.1206     0.0248   124.9423
   97.5000   -77.3441    10.4930     8.3625     9.3544     8.7250     2.4485     0.1278     0.0209   124.6187
   98.0000   -77.0906    10.4236     8.4594     9.2431     8.7142     2.4650     0.1189     0.0326   123.9623
   98.5000   -76.8363    10.4910     8.5846     9.1332     8.7248     2.4599     0.1166     0.0360   123.6390
   99.0000   -76.5822    10.5418     8.5835     9.0246     8.7586     2.4544     0.1193     0.0200   122.2278
   99.5000   -76.3284    10.5928     8.5842     8.9074     8.7897     2.4490     0.1258     0.0144   121.6528
  100.0000   -76.0742    10.6705     8.5840     8.9280     8.7377     2.4435     0.1322     0.0089   121.9038
  100.5000   -75.7843    10.8455     8.5839     8.9507     8.5230     2.4381     0.1285     0.0034   122.0882
  101.0000   -75.2066    11.0233     8.5840     8.9735     8.5152     2.4374     0.1333     0.0017   120.5272
  101.5000   -74.6096    11.2040     8.5934     8.9964     8.5043     2.4406     0.1248     0.0098   118.5630
  102.0000   -74.3277    11.4419     8.6115     9.0194     8.4934     2.4444     0.1246     0.0175   118.0843
  102.5000   -74.1426    11.9745     8.6297     9.0424     8.4824     2.4542     0.1182     0.0250   117.7771
  103.0000   -73.9625    11.8609     8.6480     9.0654     8.4713     2.4940     0.0902     0.0437   116.4806
  103.5000   -73.7824    11.6506     8.6637     9.0885     8.4603     2.5031     0.0786     0.0717   116.1158
  104.0000   -73.6413    11.4334     8.6734     9.1117     8.4504     2.4991     0.0770     0.0611   117.9949
  104.5000   -73.5928    11.5134     8.6838     9.1349     8.4503     2.5099     0.0864     0.0710   120.5653
  105.0000   -73.5436    11.6468     8.6941     9.1582     8.4504     2.5122     0.0817     0.0719   119.1820
  105.5000   -73.4914    11.5365     8.7045     9.1816     8.4502     2.4968     0.0952     0.0525   116.9166
  106.0000   -73.3799    11.3431     8.7148     9.2050     8.4500     2.5090     0.0892     0.0554   118.2943
  106.5000   -73.0971    11.2427     8.7249     9.2402     8.4619     2.5296     0.0792     0.0610   119.5500
  107.0000   -72.8238    11.4334     8.7357     9.2141     8.5706     2.5340     0.0702     0.0355   118.6690
  107.5000   -72.5507    11.3754     8.7441     9.1388     8.6807     2.5058     0.0825     0.0135   117.8091
  108.0000   -72.2772    11.3282     8.6350     9.0640     8.7900     2.4757     0.1002     0.0246   117.2915
  108.5000   -72.0037    11.7550     8.5262     8.9900     8.8686     2.4728     0.1089     0.0364   116.9047
  109.0000   -71.7303    11.3582     8.4453     8.9165     8.8672     2.4698     0.1082     0.0243   116.6522
  109.5000   -71.4567    10.9756     8.3477     8.8436     8.8671     2.4624     0.1125     0.0149   117.6986
  110.0000   -71.1829    10.6058     8.2512     8.7713     8.8671     2.4454     0.1179     0.0262   119.5462
  110.5000   -70.9098    10.3061     8.1558     8.6560     8.8673     2.4625     0.1119     0.0404   120.3050
  111.0000   -70.6725    10.2107     8.0615     8.5162     8.8546     2.4616     0.1087     0.0485   115.7805
  111.5000   -70.6518    10.1161     7.9683     8.3787     8.8370     2.4615     0.1142     0.0361   114.5296
  112.0000   -70.6323    10.0216     7.8762     8.2434     8.8192     2.4685     0.1094     0.0498   113.6882
  112.5000   -70.6120     9.9280     7.7537     8.1750     8.8015     2.4560     0.1139     0.0277   112.9861
  113.0000   -70.5917     9.8621     7.8162     8.1431     8.7837     2.4436     0.1216     0.0164   113.7579
  113.5000   -70.5714    10.1407     7.9131     8.1211     8.7677     2.4619     0.1140     0.0175   113.9572
  114.0000   -70.5511    10.3714     8.0111     8.2685     8.7653     2.4808     0.1029     0.0449   113.5153
  114.5000   -70.5311    10.6067     8.1103     8.3876     8.7631     2.4946     0.0912     0.0494   113.5183
  115.0000   -70.5108    10.8468     8.2108     8.5085     8.7609     2.4857     0.0963     0.0323   114.6590
  115.5000   -70.4887    11.0941     8.3125     8.6312     8.7586     2.4803     0.1027     0.0339   114.7811
  116.0000   -70.3363    10.9500     8.4155     8.7556     8.7564     2.4756     0.1039     0.0319   114.9913
  116.5000   -69.9338    10.8164     8.5197     8.8818     8.7541     2.4710     0.1066     0.0360   116.5916
  117.0000   -69.5355    11.2239     8.6253     9.0098     8.7519     2.4743     0.1091     0.0255   116.5686
  117.5000   -69.1371    11.1905     8.7321     9.1397     8.7496     2.4878     0.0988     0.0421   114.7343
  118.0000   -68.7396    11.1433     8.8403     9.2714     8.7446     2.4920     0.0935     0.0502   113.5841
  118.5000   -68.4252    11.1206     8.9498     9.4051     8.7329     2.4806     0.0995     0.0317   113.4229
  119.0000   -68.2623    11.6585     9.0607     9.5406     8.7215     2.4861     0.0934     0.0427   113.6500
  119.5000   -68.0878    12.1980     9.1579     9.6782     8.7078     2.4893     0.0995     0.0377   115.3728
  120.0000   -67.7175    12.0466     9.1234     9.7703     8.6884     2.4600     0.1091     0.0425   116.8344
  120.5000   -67.3355    11.7697     9.0865     9.6731     8.6868     2.4304     0.1234     0.0141   116.2486
  121.0000   -67.1030    11.4992     9.0499     9.6010     8.6858     2.4165     0.1283     0.0136   116.1381
  121.5000   -67.1296    11.2348     9.0133     9.5295     8.6849     2.4427     0.1188     0.0249   116.4693
  122.0000   -67.1524    10.9766     8.9770     9.4586     8.6839     2.4643     0.1109     0.0360   116.8029
  122.5000   -67.1756    10.8438     8.9407     9.3881     8.6829     2.4775     0.1045     0.0390   117.1242
  123.0000   -67.1990    11.1387     8.9046     9.3182     8.6819     2.4672     0.1110     0.0285   116.3994
  123.5000   -67.2222    11.4372     8.8687     9.2488     8.6809     2.4538     0.1176     0.0180   116.2233
  124.0000   -67.2451    11.0965     8.8329     9.1798     8.6799     2.4404     0.1261     0.0090   116.8598
  124.5000   -67.2687    10.2850     8.7972     9.1113     8.6790     2.4290     0.1352     0.0099   118.1748
  125.0000   -67.2974    10.4226     8.7616     9.0431     8.6780     2.4328     0.1301     0.0165   119.7754
  125.5000   -67.1359    10.9199     8.7260     8.9904     8.6770     2.4362     0.1202     0.0232   119.6576
  126.0000   -66.9383    11.4334     8.6911     9.0317     8.6760     2.4333     0.1242     0.0159   119.0302
  126.5000   -66.7445    11.1070     8.6637     9.0671     8.6750     2.4615     0.1113     0.0287   115.9993
  127.0000   -66.4618    10.7936     8.8068     9.1487     8.6741     2.4708     0.1152     0.0323   112.9314
  127.5000   -66.1689    10.6182     8.9261     9.2711     8.6731     2.4576     0.1190     0.0225   110.7517
  128.0000   -65.8741    11.4586     9.0471     9.3951     8.6721     2.4839     0.1084     0.0347   110.3897
  128.5000   -65.5796    12.3106     9.1698     9.5208     8.6711     2.4750     0.1121     0.0399   110.1368
  129.0000   -65.2854    12.2783     9.2941     9.6482     8.6701     2.4601     0.1191     0.0196   109.6174
  129.5000   -64.9911    12.2361     9.4200     9.7773     8.6691     2.4559     0.1205     0.0200   107.7156
  130.0000   -64.6966    12.1980     9.5477     9.9081     8.6725     2.4530     0.1218     0.0154   106.3717
  130.5000   -64.4020    12.5365     9.7615    10.0406     8.6800     2.4510     0.1246     0.0150   105.0422
  131.0000   -64.1167    13.0656    10.0244    10.2409     8.6878     2.4560     0.1210     0.0156   104.6717
  131.5000   -63.9524    13.1345    10.2944    10.6279     8.7068     2.4609     0.1174     0.0122   104.6794
  132.0000   -63.7944    13.1345    10.5717    11.0319     8.7257     2.4734     0.1101     0.0198   103.6043
  132.5000   -63.6361    13.2341    10.8565    11.4509     8.6554     2.4920     0.1003     0.0316   102.1075
  133.0000   -63.4777    15.5649    11.1489    11.8859     8.5730     2.4838     0.0954     0.0351   102.6772
