~VERSION INFORMATION
 VERS.                2.0:   CWLS LOG ASCII STANDARD - VERSION 2.0
 WRAP.                 NO:   ONE LINE PER DEPTH STEP
~WELL INFORMATION
#MNEM.UNIT      DATA TYPE    INFORMATION
#----------   ------------   ------------------------------
 STRT.F            0.0000:   START DEPTH
 STOP.F         2720.0000:   STOP DEPTH
 STEP.F            0.5000:   STEP LENGTH
 NULL.          -999.2500:   NO VALUE
 COMP. DEPARTMENT OF ENERGY:   COMPANY
 WELL.       NPR-3 #410-A:   WELL
 FLD . TEAPOT NAVAL RESERVE:   FIELD
 LOC .      S20 T39N R78W:   LOCATION
 CNTY.            NATRONA:   COUNTY
 STAT.            WYOMING:   STATE
 CTRY. UNITED STATES OF AMERICA:   COUNTRY
 SRVC.      NL McCullough:   SERVICE COMPANY
 DATE.        26-JUL-1965:   LOGDATE
 API .       490251144500:   API NUMBER
~CURVE INFORMATION
#MNEM.UNIT       API CODE    CURVE DESCRIPTION
#----------   ------------   ------------------------------
 DEPT.F                  :   
 GR  .GAPI   30 310 01 00:   GAMMA RAY
 CALI.IN     30 280 01 00:   CALIPER
~PARAMETER INFORMATION
#MNEM.UNIT          VALUE    DESCRIPTION
#----------   ------------   ------------------------------
 PD  .                 GL:   PERMANENT DATUM
 LMF .                 GL:   LOG MEASURED FROM
 DATE.            7-16-65:   RUN DATE
 RUN .                  1:   RUN NUMBER
 DD  .F              2720:   DEPTH DRILLER
 TLI .F              2100:   TOP LOG INTERVAL
 CS  .IN            6.875:   CASING SIZE
 DFT .              WATER:   DRILLING FLUID TYPE
 ENGI. FITZSIMMONE/COWLTHORPE:   RECORDING ENGINEER
 WITN.             HUDSON:   WITNESSED BY
 CLNT.            A2DTECH:   CLIENT CODE
 ORIG.           5" PRINT:   ORIGIN OF DATA
 UWI .       490251144500:   UNIQUE WELL ID
 DICO. A2D Technologies, Inc.:   DIGITIZING COMPANY
~OTHER INFORMATION
~A    DEPT      GR         CALI 
# ...
 1701.0000  -999.2500     5.9550
 1701.5000  -999.2500     5.9578
 1702.0000  -999.2500     5.9605
 1702.5000  -999.2500     5.9633
 1703.0000  -999.2500     5.9660
 1703.5000  -999.2500     5.9687
 1704.0000  -999.2500     5.9715
 1704.5000  -999.2500     5.9742
 1705.0000  -999.2500     5.9770
 1705.5000  -999.2500     5.9797
 1706.0000  -999.2500     5.9825
 1706.5000  -999.2500     5.9853
 1707.0000  -999.2500     5.9880
 1707.5000  -999.2500     5.9829
 1708.0000  -999.2500     5.9506
 1708.5000  -999.2500     5.9193
 1709.0000  -999.2500     5.8895
 1709.5000  -999.2500     5.9116
 1710.0000  -999.2500     5.9382
 1710.5000  -999.2500     5.9653
 1711.0000  -999.2500     5.9553
 1711.5000  -999.2500     5.9323
 1712.0000  -999.2500     5.9367
 1712.5000  -999.2500     5.9445
 1713.0000  -999.2500     5.9524
 1713.5000  -999.2500     5.9602
 1714.0000  -999.2500     5.9683
 1714.5000  -999.2500     5.9680
 1715.0000  -999.2500     5.9655
 1715.5000  -999.2500     5.9629
 1716.0000  -999.2500     5.9604
 1716.5000  -999.2500     5.9579
 1717.0000  -999.2500     5.9554
 1717.5000  -999.2500     5.9528
 1718.0000  -999.2500     5.9502
 1718.5000  -999.2500     5.9524
 1719.0000  -999.2500     5.9557
 1719.5000  -999.2500     5.9590
 1720.0000  -999.2500     5.9623
 1720.5000  -999.2500     5.9656
 1721.0000  -999.2500     5.9690
 1721.5000  -999.2500     5.9632
 1722.0000  -999.2500     5.9535
 1722.5000  -999.2500     5.9523
 1723.0000  -999.2500     5.9561
 1723.5000  -999.2500     5.9600
 1724.0000  -999.2500     5.9639
 1724.5000  -999.2500     5.9678
 1725.0000  -999.2500     5.9685
 1725.5000  -999.2500     5.9627
 1726.0000  -999.2500     5.9572
 1726.5000  -999.2500     5.9516
 1727.0000  -999.2500     5.9498
 1727.5000  -999.2500     5.9498
 1728.0000  -999.2500     5.9498
 1728.5000  -999.2500     5.9498
 1729.0000  -999.2500     5.9498
 1729.5000  -999.2500     5.9498
 1730.0000  -999.2500     5.9498
 1730.5000  -999.2500     5.9498
 1731.0000  -999.2500     5.9504
 1731.5000  -999.2500     5.9523
 1732.0000  -999.2500     5.9542
 1732.5000  -999.2500     5.9562
 1733.0000  -999.2500     5.9581
 1733.5000  -999.2500     5.9600
 1734.0000  -999.2500     5.9619
 1734.5000  -999.2500     5.9638
 1735.0000  -999.2500     5.9658
 1735.5000  -999.2500     5.9677
 1736.0000  -999.2500     5.9696
 1736.5000  -999.2500     5.9699
 1737.0000  -999.2500     5.9699
 1737.5000  -999.2500     5.9700
 1738.0000  -999.2500     5.9689
 1738.5000  -999.2500     5.9457
 1739.0000  -999.2500     5.9303
 1739.5000  -999.2500     5.9329
 1740.0000  -999.2500     5.9352
 1740.5000  -999.2500     5.9376
 1741.0000  -999.2500     5.9399
 1741.5000  -999.2500     5.9422
 1742.0000  -999.2500     5.9446
 1742.5000  -999.2500     5.9469
 1743.0000  -999.2500     5.9490
 1743.5000  -999.2500     5.9616
 1744.0000  -999.2500     5.9768
 1744.5000  -999.2500     5.9898
 1745.0000  -999.2500     5.9845
 1745.5000  -999.2500     5.9795
 1746.0000  -999.2500     5.9746
 1746.5000  -999.2500     5.9697
 1747.0000  -999.2500     5.9648
 1747.5000  -999.2500     5.9599
 1748.0000  -999.2500     5.9549
 1748.5000  -999.2500     5.9503
 1749.0000  -999.2500     5.9651
 1749.5000  -999.2500     5.9812
 1750.0000  -999.2500     5.9794
 1750.5000  -999.2500     5.9569
 1751.0000  -999.2500     5.9340
 1751.5000  -999.2500     5.9297
 1752.0000  -999.2500     5.9297
 1752.5000  -999.2500     5.9299
 1753.0000  -999.2500     5.9294
 1753.5000  -999.2500     5.9013
 1754.0000  -999.2500     5.8706
 1754.5000  -999.2500     5.8396
 1755.0000  -999.2500     5.8278
 1755.5000  -999.2500     5.8253
 1756.0000  -999.2500     5.8229
 1756.5000  -999.2500     5.8205
 1757.0000  -999.2500     5.8180
 1757.5000  -999.2500     5.8156
 1758.0000  -999.2500     5.8132
 1758.5000  -999.2500     5.8107
 1759.0000  -999.2500     5.8050
 1759.5000  -999.2500     5.7931
 1760.0000  -999.2500     5.7995
 1760.5000  -999.2500     5.8153
 1761.0000  -999.2500     5.8314
 1761.5000  -999.2500     5.8474
 1762.0000  -999.2500     5.8636
 1762.5000  -999.2500     5.8665
 1763.0000  -999.2500     5.8622
 1763.5000  -999.2500     5.8576
 1764.0000  -999.2500     5.8530
 1764.5000  -999.2500     5.8498
 1765.0000  -999.2500     5.8529
 1765.5000  -999.2500     5.8559
 1766.0000  -999.2500     5.8589
 1766.5000  -999.2500     5.8619
 1767.0000  -999.2500     5.8649
 1767.5000  -999.2500     5.8678
 1768.0000  -999.2500     5.8666
 1768.5000  -999.2500     5.8600
 1769.0000  -999.2500     5.8535
 1769.5000  -999.2500     5.8470
 1770.0000  -999.2500     5.8404
 1770.5000  -999.2500     5.8340
 1771.0000  -999.2500     5.8306
 1771.5000  -999.2500     5.8368
 1772.0000  -999.2500     5.8426
 1772.5000  -999.2500     5.8484
 1773.0000  -999.2500     5.8494
 1773.5000  -999.2500     5.8494
 1774.0000  -999.2500     5.8494
 1774.5000  -999.2500     5.8494
 1775.0000  -999.2500     5.8495
 1775.5000  -999.2500     5.8499
 1776.0000  -999.2500     5.8447
 1776.5000  -999.2500     5.8241
 1777.0000  -999.2500     5.8169
 1777.5000  -999.2500     5.8105
 1778.0000  -999.2500     5.8040
 1778.5000  -999.2500     5.7975
 1779.0000  -999.2500     5.7906
 1779.5000  -999.2500     5.7957
 1780.0000  -999.2500     5.8049
 1780.5000  -999.2500     5.8141
 1781.0000  -999.2500     5.8233
 1781.5000  -999.2500     5.8326
 1782.0000  -999.2500     5.8418
 1782.5000  -999.2500     5.8487
 1783.0000  -999.2500     5.8421
 1783.5000  -999.2500     5.8357
 1784.0000  -999.2500     5.8294
 1784.5000  -999.2500     5.8231
 1785.0000  -999.2500     5.8167
 1785.5000  -999.2500     5.8096
 1786.0000  -999.2500     5.8354
 1786.5000  -999.2500     5.8679
 1787.0000  -999.2500     5.9018
 1787.5000  -999.2500     5.9098
 1788.0000  -999.2500     5.9186
 1788.5000  -999.2500     5.9427
 1789.0000  -999.2500     5.9671
 1789.5000  -999.2500     5.9521
 1790.0000  -999.2500     5.9263
 1790.5000  -999.2500     5.9001
 1791.0000  -999.2500     5.8736
 1791.5000  -999.2500     5.8774
 1792.0000  -999.2500     5.8898
 1792.5000  -999.2500     5.9024
 1793.0000  -999.2500     5.9149
 1793.5000  -999.2500     5.9276
 1794.0000  -999.2500     5.9297
 1794.5000  -999.2500     5.9297
 1795.0000  -999.2500     5.9297
 1795.5000  -999.2500     5.9297
 1796.0000  -999.2500     5.9297
 1796.5000  -999.2500     5.9297
 1797.0000  -999.2500     5.9297
 1797.5000  -999.2500     5.9297
 1798.0000  -999.2500     5.9298
 1798.5000  -999.2500     5.9243
 1799.0000  -999.2500     5.9149
 1799.5000  -999.2500     5.9054
 1800.0000  -999.2500     5.8961
 1800.5000  -999.2500     5.8960
 1801.0000  -999.2500     5.9172
 1801.5000  -999.2500     5.9379
 1802.0000  -999.2500     5.9479
 1802.5000  -999.2500     5.9431
 1803.0000  -999.2500     5.9385
 1803.5000  -999.2500     5.9339
 1804.0000  -999.2500     5.9292
 1804.5000  -999.2500     5.9246
 1805.0000  -999.2500     5.9200
 1805.5000  -999.2500     5.9153
 1806.0000  -999.2500     5.9105
 1806.5000  -999.2500     5.9146
 1807.0000  -999.2500     5.9211
 1807.5000  -999.2500     5.9276
 1808.0000  -999.2500     5.9342
 1808.5000  -999.2500     5.9407
 1809.0000  -999.2500     5.9472
 1809.5000  -999.2500     5.9471
 1810.0000  -999.2500     5.9429
 1810.5000  -999.2500     5.9385
 1811.0000  -999.2500     5.9341
 1811.5000  -999.2500     5.9299
 1812.0000  -999.2500     5.9297
 1812.5000  -999.2500     5.9297
 1813.0000  -999.2500     5.9297
 1813.5000  -999.2500     5.9297
 1814.0000  -999.2500     5.9297
 1814.5000  -999.2500     5.9297
 1815.0000  -999.2500     5.9297
 1815.5000  -999.2500     5.9297
 1816.0000  -999.2500     5.9297
 1816.5000  -999.2500     5.9297
 1817.0000  -999.2500     5.9297
 1817.5000  -999.2500     5.9297
 1818.0000  -999.2500     5.9297
 1818.5000  -999.2500     5.9285
 1819.0000  -999.2500     5.9272
 1819.5000  -999.2500     5.9261
 1820.0000  -999.2500     5.9248
 1820.5000  -999.2500     5.9236
 1821.0000  -999.2500     5.9225
 1821.5000  -999.2500     5.9213
 1822.0000  -999.2500     5.9201
