~VERSION INFORMATION
 VERS.                2.0:   CWLS LOG ASCII STANDARD - VERSION 2.0
 WRAP.                 NO:   ONE LINE PER DEPTH STEP
~WELL INFORMATION
#MNEM.UNIT      DATA TYPE    INFORMATION
#----------   ------------   ------------------------------
 STRT.F            0.5000:   START DEPTH
 STOP.F         3087.0000:   STOP DEPTH
 STEP.F            0.5000:   STEP LENGTH
 NULL.          -999.2500:   NO VALUE
 COMP. DEPARTMENT OF ENERGY:   COMPANY
 WELL.    NPR-3 #201-A-29:   WELL
 FLD . TEAPOT NAVAL RESERVE:   FIELD
 LOC .      S29 T39N R78W:   LOCATION
 CNTY.            NATRONA:   COUNTY
 STAT.            WYOMING:   STATE
 CTRY. UNITED STATES OF AMERICA:   COUNTRY
 SRVC.      NL McCullough:   SERVICE COMPANY
 DATE.        24-JUN-1965:   LOGDATE
 API .       490251144400:   API NUMBER
~CURVE INFORMATION
#MNEM.UNIT       API CODE    CURVE DESCRIPTION
#----------   ------------   ------------------------------
 DEPT.F                  :   
 GRR .GAPI   30 310 01 00:   GAMMA RAY
 CALI.IN     30 280 01 00:   CALIPER
~PARAMETER INFORMATION
#MNEM.UNIT          VALUE    DESCRIPTION
#----------   ------------   ------------------------------
 PD  .                 GL:   PERMANENT DATUM
 LMF .                 GL:   LOG MEASURED FROM
 EDF .F              5012:   DRILLING FLOOR
 DATE.        24-JUN-1965:   RUN DATE
 RUN .                  1:   RUN NUMBER
 DD  .F              2782:   DEPTH DRILLER
 DL  .F              2772:   DEPTH LOGGER
 BLI .F              2770:   BOTTOM LOG INTERVAL
 TLI .F              2300:   TOP LOG INTERVAL
 CS  .IN            6.625:   CASING SIZE
 CBD .F              2756:   CASING BOTTOM DRILLER
 ENGI.         COWLTHORPE:   RECORDING ENGINEER
 WITN.             HUDSON:   WITNESSED BY
 CLNT.            A2DTECH:   CLIENT CODE
 ORIG.           5" PRINT:   ORIGIN OF DATA
 UWI .       490251144400:   UNIQUE WELL ID
 DICO. A2D Technologies, Inc.:   DIGITIZING COMPANY
~OTHER INFORMATION
~A    DEPT     GRR         CALI 
# ...
  608.0000  -999.2500     6.3711
  608.5000  -999.2500     6.3722
  609.0000  -999.2500     6.3733
  609.5000  -999.2500     6.3744
  610.0000  -999.2500     6.3755
  610.5000  -999.2500     6.3766
  611.0000  -999.2500     6.3777
  611.5000  -999.2500     6.3788
  612.0000  -999.2500     6.3799
  612.5000  -999.2500     6.3810
  613.0000  -999.2500     6.3821
  613.5000  -999.2500     6.3832
  614.0000  -999.2500     6.3843
  614.5000  -999.2500     6.3856
  615.0000  -999.2500     6.3870
  615.5000  -999.2500     6.3884
  616.0000  -999.2500     6.3897
  616.5000  -999.2500     6.3911
  617.0000  -999.2500     6.3925
  617.5000  -999.2500     6.3939
  618.0000  -999.2500     6.3953
  618.5000  -999.2500     6.3967
  619.0000  -999.2500     6.3981
  619.5000  -999.2500     6.3995
  620.0000  -999.2500     6.4008
  620.5000  -999.2500     6.4022
  621.0000  -999.2500     6.4036
  621.5000  -999.2500     6.4050
  622.0000  -999.2500     6.4064
  622.5000  -999.2500     6.4078
  623.0000  -999.2500     6.4092
  623.5000  -999.2500     6.4106
  624.0000  -999.2500     6.4120
  624.5000  -999.2500     6.4134
  625.0000  -999.2500     6.4148
  625.5000  -999.2500     6.4161
  626.0000  -999.2500     6.4175
  626.5000  -999.2500     6.4189
  627.0000  -999.2500     6.4203
  627.5000  -999.2500     6.4217
  628.0000  -999.2500     6.4231
  628.5000  -999.2500     6.4246
  629.0000  -999.2500     6.4213
  629.5000  -999.2500     6.4172
  630.0000  -999.2500     6.4130
  630.5000  -999.2500     6.4088
  631.0000  -999.2500     6.4049
  631.5000  -999.2500     6.4047
  632.0000  -999.2500     6.4048
  632.5000  -999.2500     6.4048
  633.0000  -999.2500     6.4048
  633.5000  -999.2500     6.4048
  634.0000  -999.2500     6.4048
  634.5000  -999.2500     6.4048
  635.0000  -999.2500     6.4048
  635.5000  -999.2500     6.4048
  636.0000  -999.2500     6.4048
  636.5000  -999.2500     6.4048
  637.0000  -999.2500     6.4048
  637.5000  -999.2500     6.4048
  638.0000  -999.2500     6.4048
  638.5000  -999.2500     6.4048
  639.0000  -999.2500     6.4048
  639.5000  -999.2500     6.4048
  640.0000  -999.2500     6.4048
  640.5000  -999.2500     6.4048
  641.0000  -999.2500     6.4048
  641.5000  -999.2500     6.4048
  642.0000  -999.2500     6.4048
  642.5000  -999.2500     6.4048
  643.0000  -999.2500     6.4048
  643.5000  -999.2500     6.4048
  644.0000  -999.2500     6.4048
  644.5000  -999.2500     6.4048
  645.0000  -999.2500     6.4048
  645.5000  -999.2500     6.4048
  646.0000  -999.2500     6.4048
  646.5000  -999.2500     6.4048
  647.0000  -999.2500     6.4048
  647.5000  -999.2500     6.4048
  648.0000  -999.2500     6.4048
  648.5000  -999.2500     6.4048
  649.0000  -999.2500     6.4048
  649.5000  -999.2500     6.4048
  650.0000  -999.2500     6.4048
  650.5000  -999.2500     6.4048
  651.0000  -999.2500     6.4048
  651.5000  -999.2500     6.4048
  652.0000  -999.2500     6.4048
  652.5000  -999.2500     6.4048
  653.0000  -999.2500     6.4048
  653.5000  -999.2500     6.4048
  654.0000  -999.2500     6.4048
  654.5000  -999.2500     6.4048
  655.0000  -999.2500     6.4048
  655.5000  -999.2500     6.4048
  656.0000  -999.2500     6.4048
  656.5000  -999.2500     6.4048
  657.0000  -999.2500     6.4048
  657.5000  -999.2500     6.4048
  658.0000  -999.2500     6.4048
  658.5000  -999.2500     6.4048
  659.0000  -999.2500     6.4048
  659.5000  -999.2500     6.4048
  660.0000  -999.2500     6.4048
  660.5000  -999.2500     6.4048
  661.0000  -999.2500     6.4048
  661.5000  -999.2500     6.4048
  662.0000  -999.2500     6.4048
  662.5000  -999.2500     6.4048
  663.0000  -999.2500     6.4048
  663.5000  -999.2500     6.4048
  664.0000  -999.2500     6.4048
  664.5000  -999.2500     6.4048
  665.0000  -999.2500     6.4048
  665.5000  -999.2500     6.4048
  666.0000  -999.2500     6.4048
  666.5000  -999.2500     6.4048
  667.0000  -999.2500     6.4048
  667.5000  -999.2500     6.4048
  668.0000  -999.2500     6.4048
  668.5000  -999.2500     6.4048
  669.0000  -999.2500     6.4048
  669.5000  -999.2500     6.4048
  670.0000  -999.2500     6.4048
  670.5000  -999.2500     6.4048
  671.0000  -999.2500     6.4048
  671.5000  -999.2500     6.4048
  672.0000  -999.2500     6.4048
  672.5000  -999.2500     6.4048
  673.0000  -999.2500     6.4047
  673.5000  -999.2500     6.4054
  674.0000  -999.2500     6.4063
  674.5000  -999.2500     6.4072
  675.0000  -999.2500     6.4081
  675.5000  -999.2500     6.4090
  676.0000  -999.2500     6.4099
  676.5000  -999.2500     6.4109
  677.0000  -999.2500     6.4118
  677.5000  -999.2500     6.4127
  678.0000  -999.2500     6.4136
  678.5000  -999.2500     6.4145
  679.0000  -999.2500     6.4154
  679.5000  -999.2500     6.4163
  680.0000  -999.2500     6.4172
  680.5000  -999.2500     6.4181
  681.0000  -999.2500     6.4191
  681.5000  -999.2500     6.4200
  682.0000  -999.2500     6.4209
  682.5000  -999.2500     6.4218
  683.0000  -999.2500     6.4227
  683.5000  -999.2500     6.4236
  684.0000  -999.2500     6.4246
  684.5000  -999.2500     6.4247
  685.0000  -999.2500     6.4247
  685.5000  -999.2500     6.4247
  686.0000  -999.2500     6.4247
  686.5000  -999.2500     6.4247
  687.0000  -999.2500     6.4247
  687.5000  -999.2500     6.4247
  688.0000  -999.2500     6.4247
  688.5000  -999.2500     6.4247
  689.0000  -999.2500     6.4247
  689.5000  -999.2500     6.4247
  690.0000  -999.2500     6.4247
  690.5000  -999.2500     6.4247
  691.0000  -999.2500     6.4247
  691.5000  -999.2500     6.4247
  692.0000  -999.2500     6.4247
  692.5000  -999.2500     6.4247
  693.0000  -999.2500     6.4247
  693.5000  -999.2500     6.4247
  694.0000  -999.2500     6.4247
  694.5000  -999.2500     6.4247
  695.0000  -999.2500     6.4247
  695.5000  -999.2500     6.4247
  696.0000  -999.2500     6.4247
  696.5000  -999.2500     6.4247
  697.0000  -999.2500     6.4247
  697.5000  -999.2500     6.4247
  698.0000  -999.2500     6.4247
  698.5000  -999.2500     6.4247
  699.0000  -999.2500     6.4247
  699.5000  -999.2500     6.4247
  700.0000  -999.2500     6.4247
  700.5000  -999.2500     6.4247
  701.0000  -999.2500     6.4247
  701.5000  -999.2500     6.4247
  702.0000  -999.2500     6.4247
  702.5000  -999.2500     6.4247
  703.0000  -999.2500     6.4247
  703.5000  -999.2500     6.4247
  704.0000  -999.2500     6.4247
  704.5000  -999.2500     6.4247
  705.0000  -999.2500     6.4247
  705.5000  -999.2500     6.4247
  706.0000  -999.2500     6.4247
  706.5000  -999.2500     6.4247
  707.0000  -999.2500     6.4247
  707.5000  -999.2500     6.4247
  708.0000  -999.2500     6.4247
  708.5000  -999.2500     6.4247
  709.0000  -999.2500     6.4247
  709.5000  -999.2500     6.4247
  710.0000  -999.2500     6.4247
  710.5000  -999.2500     6.4247
  711.0000  -999.2500     6.4247
  711.5000  -999.2500     6.4247
  712.0000  -999.2500     6.4247
  712.5000  -999.2500     6.4247
  713.0000  -999.2500     6.4247
  713.5000  -999.2500     6.4247
  714.0000  -999.2500     6.4247
  714.5000  -999.2500     6.4247
  715.0000  -999.2500     6.4247
  715.5000  -999.2500     6.4247
  716.0000  -999.2500     6.4247
  716.5000  -999.2500     6.4247
  717.0000  -999.2500     6.4241
  717.5000  -999.2500     6.4232
  718.0000  -999.2500     6.4223
  718.5000  -999.2500     6.4214
  719.0000  -999.2500     6.4205
  719.5000  -999.2500     6.4196
  720.0000  -999.2500     6.4187
  720.5000  -999.2500     6.4177
  721.0000  -999.2500     6.4168
  721.5000  -999.2500     6.4159
  722.0000  -999.2500     6.4150
  722.5000  -999.2500     6.4141
  723.0000  -999.2500     6.4132
  723.5000  -999.2500     6.4123
  724.0000  -999.2500     6.4113
  724.5000  -999.2500     6.4104
  725.0000  -999.2500     6.4095
  725.5000  -999.2500     6.4086
  726.0000  -999.2500     6.4077
  726.5000  -999.2500     6.4068
  727.0000  -999.2500     6.4059
  727.5000  -999.2500     6.4049
  728.0000  -999.2500     6.4060
  728.5000  -999.2500     6.4075
  729.0000  -999.2500     6.4091
