~VERSION INFORMATION
 VERS.                2.0:   CWLS LOG ASCII STANDARD - VERSION 2.0
 WRAP.                 NO:   ONE LINE PER DEPTH STEP
~WELL INFORMATION
#MNEM.UNIT      DATA TYPE    INFORMATION
#----------   ------------   ------------------------------
 STRT.F           70.0000:   START DEPTH
 STOP.F          990.0000:   STOP DEPTH
 STEP.F            0.5000:   STEP LENGTH
 NULL.          -999.2500:   NO VALUE
 COMP. U S NAVY/INTEX OIL CO:   COMPANY
 WELL.      NPR 3 #55 S-2:   WELL
 FLD .            WILDCAT:   FIELD
 LOC .       S2 T38N R78W:   LOCATION
 CNTY.            NATRONA:   COUNTY
 STAT.            WYOMING:   STATE
 CTRY. UNITED STATES OF AMERICA:   COUNTRY
 SRVC.         Lane Wells:   SERVICE COMPANY
 DATE.        23-MAR-1960:   LOGDATE
 API .       490250968000:   API NUMBER
~CURVE INFORMATION
#MNEM.UNIT       API CODE    CURVE DESCRIPTION
#----------   ------------   ------------------------------
 DEPT.F                  :   
 SPR .MV     05 010 01 00:   SPONTANEOUS POTENTIAL FROM RES.
 ASN .OHMM   05 041 16 00:   AMPLIFIED SHORT NORMAL 16"
 ILD .OHMM   05 120 46 00:   INDUCTION LOG DEEP
 CILD.MMHO   05 110 46 00:   CONDUCTIVITY INDUCTION LOG DEEP
~PARAMETER INFORMATION
#MNEM.UNIT          VALUE    DESCRIPTION
#----------   ------------   ------------------------------
 PD  .                 GL:   PERMANENT DATUM
 EPD .F              5163:   ELEVATION PERMANENT DATUM
 LMF .                 KB:   LOG MEASURED FROM
 DAPD.F                 5:   FEET ABOVE PERMANENT DATUM
 DMF .                 KB:   DRILLING MEASURED FROM
 EKB .F              5168:   KELLING BUSHING
 EGL .F              5163:   GROUND LEVEL
 DATE.        23-MAR-1960:   RUN DATE
 RUN .                  1:   RUN NUMBER
 DD  .F              1010:   DEPTH DRILLER
 DL  .F               992:   DEPTH LOGGER
 BLI .F               990:   BOTTOM LOG INTERVAL
 TLI .F                70:   TOP LOG INTERVAL
 CS  .IN            8.625:   CASING SIZE
 CBD .F                12:   CASING BOTTOM DRILLER
 BS  .IN            7.875:   BIT SIZE
 BSD .F              1010:   BIT SIZE AT DEPTH
 DFT .   GEL-OIL EMULSION:   DRILLING FLUID TYPE
 DFD .                9.5:   DRILLING FLUID DENSITY
 DFV .                 40:   DRILLING FLUID VISCOSITY
 MSS .           FLOWLINE:   MUD SAMPLE SOURCE
 RMS .OHMM            2.8:   RESISTIVITY MUD SAMPLE
 MST .F                74:   MUD SAMPLE TEMPERATURE
 RMF .OHMM            2.0:   RESISTIVITY MUD FILTRATE SAMPLE
 MFST.F                74:   MUD FILTRATE SAMPLE TEMPERATURE
 RMC .OHMM            3.9:   RESISTIVITY MUD CAKE
 MCST.F                74:   MUD CAKE SAMPLE TEMPERATURE
 MFSS.          MUD PRESS:   MUD FILTRATE SAMPLE SOURCE
 MCSS.          MUD PRESS:   MUD CAKE SAMPLE SOURCE
 RMB .OHMM            2.8:   RESISTIVITY MUD AT BHT
 BHT .F                74:   BOTTOM HOLE TEMPERATURE
 MRT .F                74:   MAXIMUM RECORDED TEMPERATURE
 LUN .             L-4474:   LOGGING UNIT NUMBER
 LUL .             CASPER:   LOGGING UNIT LOCATION
 ENGI.             NELSON:   RECORDING ENGINEER
 WITN.          JORGENSEN:   WITNESSED BY
 CLNT.            A2DTECH:   CLIENT CODE
 ORIG.       2", 5" PRINT:   ORIGIN OF DATA
 UWI .       490250968000:   UNIQUE WELL ID
 DICO. A2D Technologies, Inc.:   DIGITIZING COMPANY
~OTHER INFORMATION
~A   DEPT      SPR          ASN        ILD      CILD  
# ...
  873.0000   -44.6072    11.7096     9.8764   122.5376
  873.5000   -45.1398    11.5828     9.7395   123.9122
  874.0000   -45.4061    11.4466     9.5355   125.2866
  874.5000   -45.0067    11.3775     9.4657   126.6612
  875.0000   -44.7403    11.3084     9.3289   128.0358
  875.5000   -44.2077    11.2393     9.2591   128.0624
  876.0000   -43.8083    11.2373     9.1893   129.4370
  876.5000   -43.6751    11.1682     9.1194   129.4638
  877.0000   -43.6751    11.1662     9.0497   130.8384
  877.5000   -43.9414    11.1642     9.0470   130.8650
  878.0000   -44.6072    11.0951     8.9766   130.8918
  878.5000   -45.1398    11.0260     8.9740   130.9188
  879.0000   -45.1398    11.0240     9.0391   130.9454
  879.5000   -44.8735    11.0896     9.0358   129.6178
  880.0000   -44.7403    11.0871     9.1009   129.6514
  880.5000   -44.3409    11.0852     9.0305   128.3238
  881.0000   -44.0746    11.0161     9.0278   129.7050
  881.5000   -43.9414    11.0141     8.9580   131.0794
  882.0000   -43.6751    10.9450     8.8882   132.4540
  882.5000   -43.9414    10.8759     8.8185   133.8284
  883.0000   -44.3409    10.8685     8.7487   135.2030
  883.5000   -44.8735    10.7375     8.7460   135.2298
  884.0000   -45.1398    10.6684     8.6762   136.6044
  884.5000   -45.1304    10.5989     8.6736   137.9788
  885.0000   -44.8735    10.5298     8.6709   136.6580
  885.5000   -44.7403    10.4607     8.6683   136.6848
  886.0000   -44.4528    10.5264     8.6656   136.7117
  886.5000   -43.9161    10.5239     8.6629   136.7384
  887.0000   -43.5419    10.5219     8.6603   136.7654
  887.5000   -43.6751    10.5870     8.7248   136.7924
  888.0000   -43.6751    10.5850     8.7893   135.4710
  888.5000   -44.0746    10.6501     8.9208   135.4987
  889.0000   -44.4740    10.7158     8.9852   135.3197
  889.5000   -45.0067    10.7809     9.0496   134.2036
  890.0000   -45.2730    10.8460     9.1141   131.5350
  890.5000   -45.1398    10.9782     9.1807   130.2142
  891.0000   -44.8735    11.1771     9.3817   127.5522
  891.5000   -45.1398    11.5107     9.5825   124.8836
  892.0000   -45.2730    11.7771     9.8595   122.2150
  892.5000   -45.8056    12.1778    10.2640   118.1986
  893.0000   -46.6045    12.5811    11.0438   115.5234
  893.5000   -47.5366    13.2637    11.8465   108.8182
  894.0000   -48.6019    14.1395    12.6492   102.1066
  894.5000   -50.0666    15.1641    13.5190    94.0470
  895.0000   -51.2650    16.5298    14.7244    88.6830
  895.5000   -52.7297    17.5345    15.9969    83.3190
  896.0000   -53.7949    18.3379    17.2023    77.9550
  896.5000   -54.4607    19.0742    17.8036    75.2796
  897.0000   -54.8602    19.4749    17.9352    73.9588
  897.5000   -54.4607    19.7413    18.1339    73.9922
  898.0000   -54.8602    19.8741    19.0708    72.6646
  898.5000   -54.0613    19.8045    18.7326    74.0458
  899.0000   -54.0613    19.5340    18.1930    74.0726
  899.5000   -54.7270    19.2636    17.7206    72.7518
  900.0000   -54.8602    19.0405    17.5471    73.0759
  900.5000   -53.7614    18.9178    17.3057    74.9105
  901.0000   -52.1838    18.6513    16.8931    76.8472
  901.5000   -51.9308    18.2453    16.5476    78.2082
  902.0000   -51.7976    17.7616    16.0290    79.5692
  902.5000   -51.2650    17.2455    15.6237    80.9302
  903.0000   -50.3329    16.9765    15.2855    82.2912
  903.5000   -50.1997    16.7076    15.0143    83.6523
  904.0000   -50.3329    16.5728    15.0117    85.0135
  904.5000   -49.8003    16.5723    14.9419    85.0269
  905.0000   -49.2676    16.5717    14.9393    86.3908
  905.5000   -48.8682    16.5712    14.9366    86.4040
  906.0000   -48.4687    16.6379    15.0011    86.4174
  906.5000   -48.4687    16.7045    14.9985    86.4308
  907.0000   -48.6019    16.7711    15.0636    87.7918
  907.5000   -49.8003    16.9718    15.1280    86.4540
  908.0000   -50.5992    17.2398    15.1247    86.4706
  908.5000   -50.1997    17.1720    15.1221    86.4840
  909.0000   -49.5340    16.8359    14.9852    85.1462
  909.5000   -48.7350    16.6341    14.7141    86.5104
  910.0000   -47.6698    16.4322    14.4430    86.5238
  910.5000   -47.1304    16.2974    14.2309    85.1860
  911.0000   -46.5912    16.1627    13.8890    87.8982
  911.5000   -46.0519    15.8266    13.4948    89.2592
  912.0000   -45.4061    15.5576    13.1566    90.6202
  912.5000   -45.6724    15.2215    12.8184    93.3288
  913.0000   -46.7377    14.8156    12.4801    94.7620
  913.5000   -47.0040    14.4096    12.0748    97.5423
  914.0000   -45.9387    14.0709    11.7366   100.1077
  914.5000   -44.8735    13.7428    11.4655   101.4716
  915.0000   -44.7403    13.4737    11.2615   102.8326
  915.5000   -44.7403    13.2718    11.1917   105.5414
  916.0000   -45.4061    13.2042    11.0548   105.5546
  916.5000   -45.5393    13.2037    10.9851   108.2634
  917.0000   -45.0067    13.2031    10.9153   109.6244
  917.5000   -44.7403    13.1355    10.9127   110.9854
  918.0000   -44.6072    13.0007    10.7758   112.3464
  918.5000   -44.8735    12.8660    10.6389   113.7074
  919.0000   -45.2730    12.6641    10.4349   113.7208
  919.5000   -45.8056    12.5293    10.3598   115.0818
  920.0000   -45.6724    12.3946    10.0939   116.4428
  920.5000   -45.2730    12.2598     9.9445   119.1514
  921.0000   -45.1264    12.1922     9.8196   120.5124
  921.5000   -44.7403    12.1245     9.8170   121.8734
  922.0000   -44.2077    11.9898     9.8143   121.9042
  922.5000   -43.6751    11.8550     9.7446   123.3374
  923.0000   -43.5419    11.7874     9.6077   124.7706
  923.5000   -43.6751    11.6526     9.5379   125.9704
  924.0000   -43.9414    11.5850     9.3339   127.3342
  924.5000   -44.2077    11.4502     9.2642   127.3474
  925.0000   -44.3409    11.3154     9.2615   127.3608
  925.5000   -43.9414    11.2451     9.1246   128.7218
  926.0000   -43.6751    11.1801     9.0549   128.7350
  926.5000   -44.2077    11.1045     8.9851   130.0960
  927.0000   -44.7403    11.0449     8.9825   130.1094
  927.5000   -44.6072    10.9100     8.9798   131.4704
  928.0000   -43.8083    10.9094     8.9772   131.4836
  928.5000   -43.1425    10.8418     8.9745   131.4970
  929.0000   -43.0093    10.8413     8.9718   131.5102
  929.5000   -43.1425    10.7736     8.9691   131.5236
  930.0000   -43.2756    10.7731     8.9659   131.5368
  930.5000   -43.6751    10.7725     8.9633   131.5502
  931.0000   -44.2077    10.7720     8.9606   132.9112
  931.5000   -44.4740    10.7715     8.9580   132.9245
  932.0000   -43.6751    10.8381     8.9553   132.9381
  932.5000   -43.0093    10.8375     8.9527   132.9515
  933.0000   -42.7430    10.9042     8.8829   134.3126
  933.5000   -43.0093    10.9708     8.8803   134.3286
  934.0000   -43.4088    10.9702     8.8776   134.3420
  934.5000   -43.6751    10.9696     8.8750   134.3552
  935.0000   -43.1425    10.9020     8.8052   134.3686
  935.5000   -42.7430    10.9015     8.7354   134.3818
  936.0000   -42.4767    10.7667     8.9342   134.3952
  936.5000   -42.2104    10.6990     8.8644   134.4084
  937.0000   -42.2104    10.6985     8.8617   134.4218
  937.5000   -42.6099    10.6309     8.7919   135.7828
  938.0000   -42.7430    10.6303     8.7222   137.1438
  938.5000   -42.7430    10.5573     8.7123   138.5048
  939.0000   -42.4767    10.4950     8.6497   138.5180
  939.5000   -42.0772    10.4838     8.6465   138.5314
  940.0000   -41.5446    10.4267     8.6438   138.5446
  940.5000   -41.6778    10.4934     8.6412   139.9058
  941.0000   -42.0772    10.4929     8.6385   139.8658
  941.5000   -42.4967    10.4923     8.6359   138.5846
  942.0000   -42.2104    10.5589     8.6332   139.9461
  942.5000   -41.5446    10.4913     8.6306   139.9622
  943.0000   -41.1451    10.4908     8.5608   139.9756
  943.5000   -41.0120    10.4902     8.5582   139.9888
  944.0000   -41.4115    10.4226     8.4884   140.0022
  944.5000   -41.8109    10.4219     8.4186   141.3632
  945.0000   -42.2104    10.4214     8.4160   141.3764
  945.5000   -42.3435    10.4208     8.3462   142.7374
