~VERSION INFORMATION
 VERS.                2.0:   CWLS LOG ASCII STANDARD - VERSION 2.0
 WRAP.                 NO:   ONE LINE PER DEPTH STEP
~WELL INFORMATION
#MNEM.UNIT      DATA TYPE    INFORMATION
#----------   ------------   ------------------------------
 STRT.F           71.5000:   START DEPTH
 STOP.F          820.0000:   STOP DEPTH
 STEP.F            0.5000:   STEP LENGTH
 NULL.          -999.2500:   NO VALUE
 COMP. U S NAVY/INTEX OIL CO:   COMPANY
 WELL. RES 3 TEAPOT DOME #72-S-34:   WELL
 FLD .             TEAPOT:   FIELD
 LOC .      S34 T39N R78W:   LOCATION
 CNTY.            NATRONA:   COUNTY
 STAT.            WYOMING:   STATE
 CTRY. UNITED STATES OF AMERICA:   COUNTRY
 SRVC.       Schlumberger:   SERVICE COMPANY
 DATE.        20-FEB-1961:   LOGDATE
 API .       490250655700:   API NUMBER
~CURVE INFORMATION
#MNEM.UNIT       API CODE    CURVE DESCRIPTION
#----------   ------------   ------------------------------
 DEPT.F                  :   
 GR  .GAPI   30 310 01 00:   GAMMA RAY
 SPR .MV     05 010 01 00:   SPONTANEOUS POTENTIAL FROM RES.
 ILD .OHMM   05 120 46 00:   INDUCTION LOG DEEP
 ASN .OHMM   05 041 16 00:   AMPLIFIED SHORT NORMAL 16"
 CILD.MMHO   05 110 46 00:   CONDUCTIVITY INDUCTION LOG DEEP
~PARAMETER INFORMATION
#MNEM.UNIT          VALUE    DESCRIPTION
#----------   ------------   ------------------------------
 LMF .                 KB:   LOG MEASURED FROM
 DMF .                 KB:   DRILLING MEASURED FROM
 EKB .F              5071:   KELLING BUSHING
 EGL .F              5057:   GROUND LEVEL
 DATE.          2-20-1961:   RUN DATE
 RUN .                  1:   RUN NUMBER
 DD  .F               820:   DEPTH DRILLER
 DL  .F               820:   DEPTH LOGGER
 BLI .F               819:   BOTTOM LOG INTERVAL
 TLI .F                80:   TOP LOG INTERVAL
 CBD .F                12:   CASING BOTTOM DRILLER
 BS  .IN            7.875:   BIT SIZE
 BSD .F               820:   BIT SIZE AT DEPTH
 DFT .       GEL-OIL EMUL:   DRILLING FLUID TYPE
 DFD .                9.3:   DRILLING FLUID DENSITY
 DFV .                 48:   DRILLING FLUID VISCOSITY
 DFPH.                8.5:   DRILLING FLUID PH
 DFL .                 16:   DRILLING FLUID LOSS
 MSS .           FLOWLINE:   MUD SAMPLE SOURCE
 RMS .OHMM            .82:   RESISTIVITY MUD SAMPLE
 MST .F                70:   MUD SAMPLE TEMPERATURE
 RMF .OHMM            .45:   RESISTIVITY MUD FILTRATE SAMPLE
 MFST.F                72:   MUD FILTRATE SAMPLE TEMPERATURE
 RMC .OHMM            1.4:   RESISTIVITY MUD CAKE
 MCST.F                78:   MUD CAKE SAMPLE TEMPERATURE
 RMB .OHMM            .73:   RESISTIVITY MUD AT BHT
 BHT .F                78:   BOTTOM HOLE TEMPERATURE
 TCS .HRS               1:   TIME CURCULATED STOPPED
 MRT .F                78:   MAXIMUM RECORDED TEMPERATURE
 LUN .               2523:   LOGGING UNIT NUMBER
 LUL .              CSPR.:   LOGGING UNIT LOCATION
 ENGI.             KNOBEL:   RECORDING ENGINEER
 WITN.          JORGENSEN:   WITNESSED BY
 CLNT.            A2DTECH:   CLIENT CODE
 ORIG.      2" & 5" PRINT:   ORIGIN OF DATA
 UWI .       490250655700:   UNIQUE WELL ID
 DICO. A2D Technologies, Inc.:   DIGITIZING COMPANY
~OTHER INFORMATION
~A   DEPT       GR        SPR          ILD      ASN       CILD   
# ...
  254.5000  -999.2500   -21.1052    12.5141    13.0226    81.4203
  255.0000  -999.2500   -21.0365    12.5953    13.1065    80.8385
  255.5000  -999.2500   -20.9678    12.6762    13.1904    80.2567
  256.0000  -999.2500   -20.8991    12.7573    13.2744    79.6749
  256.5000  -999.2500   -20.8304    12.8382    13.3585    79.0931
  257.0000  -999.2500   -20.7617    12.9193    13.4425    78.5113
  257.5000  -999.2500   -20.6931    13.0002    13.5589    78.0318
  258.0000  -999.2500   -20.6244    13.0813    13.6909    77.7734
  258.5000  -999.2500   -20.5557    13.1622    13.8227    77.5536
  259.0000  -999.2500   -20.4870    13.2432    13.9547    77.3338
  259.5000  -999.2500   -20.4183    13.3577    14.0866    77.1140
  260.0000  -999.2500   -20.3496    13.4895    14.2186    76.4112
  260.5000  -999.2500   -20.2810    13.6214    14.3505    75.4521
  261.0000  -999.2500   -20.2123    13.7531    14.4820    74.4930
  261.5000  -999.2500   -20.1437    13.8850    14.6140    73.5340
  262.0000  -999.2500   -20.0750    14.0165    14.7453    72.5749
  262.5000  -999.2500   -20.0064    14.1486    14.8777    71.6158
  263.0000  -999.2500   -19.9377    14.2800    15.0086    70.6567
  263.5000  -999.2500   -19.8691    14.4121    15.1822    69.6976
  264.0000  -999.2500   -19.8004    14.6491    15.3792    68.7385
  264.5000  -999.2500   -19.7319    14.9536    15.5776    67.7794
  265.0000  -999.2500   -19.6632    15.2573    15.7746    66.8203
  265.5000  -999.2500   -19.5946    15.5618    15.9732    65.8622
  266.0000  -999.2500   -19.5259    15.8657    16.3003    64.9031
  266.5000  -999.2500   -19.4574    16.1701    16.7189    63.9443
  267.0000  -999.2500   -19.4286    16.4496    17.1353    62.9851
  267.5000  -999.2500   -19.4288    16.4497    17.5540    62.0264
  268.0000  -999.2500   -19.4287    16.4497    17.9409    61.1346
  268.5000  -999.2500   -19.4288    16.4497    17.5540    61.1349
  269.0000  -999.2500   -19.4287    16.1896    17.1903    62.2839
  269.5000  -999.2500   -19.4288    15.9453    16.8489    63.3630
  270.0000  -999.2500   -19.5011    15.7013    16.5588    64.4415
  270.5000  -999.2500   -19.6319    15.4568    16.2859    65.5207
  271.0000  -999.2500   -19.7626    15.2127    16.0112    66.5998
  271.5000  -999.2500   -19.8934    14.9681    15.7381    67.4139
  272.0000  -999.2500   -20.0242    14.7239    15.4633    68.0005
  272.5000  -999.2500   -20.1550    14.4792    15.1901    68.5864
  273.0000  -999.2500   -20.2857    14.3308    15.0014    69.1739
  273.5000  -999.2500   -20.4165    14.2696    14.8916    69.7570
  274.0000  -999.2500   -20.5472    14.2090    14.7818    70.3431
  274.5000  -999.2500   -20.6779    14.1479    14.6718    70.9292
  275.0000  -999.2500   -20.8087    14.0872    14.5623    71.5154
  275.5000  -999.2500   -20.9394    14.0260    14.4828    72.1015
  276.0000  -999.2500   -21.0702    13.9649    14.4041    72.6876
  276.5000  -999.2500   -21.2010    13.8527    14.3243    73.2737
  277.0000  -999.2500   -21.3317    13.7400    14.2458    73.8598
  277.5000  -999.2500   -21.4625    13.6266    14.1640    74.4459
  278.0000  -999.2500   -21.5933    13.4039    13.7069    75.0497
  278.5000  -999.2500   -21.7241    13.0575    13.2364    80.8052
  279.0000  -999.2500   -21.8549    12.4148    12.7676    86.7396
  279.5000  -999.2500   -21.9857    11.4259    12.2763    92.6740
  280.0000  -999.2500   -22.1165    10.4375    11.8648    98.9066
  280.5000  -999.2500   -22.1937     9.4490    10.9549   108.4710
  281.0000  -999.2500   -22.2047     8.4007     9.9901   118.5415
  281.5000  -999.2500   -22.2155     7.9056     9.6521   128.6120
  282.0000  -999.2500   -22.2265     7.3780     9.2924   138.6824
  282.5000  -999.2500   -22.2374     6.8116     8.9328   148.7529
  283.0000  -999.2500   -22.2484     6.6281     8.5731   156.0755
  283.5000  -999.2500   -22.2593     6.4144     8.2135   159.6362
  284.0000  -999.2500   -22.2703     6.4425     7.9123   163.5189
  284.5000  -999.2500   -22.2812     6.4754     7.8252   162.2337
  285.0000  -999.2500   -22.2922     6.5062     7.9280   160.8208
  285.5000  -999.2500   -22.3031     6.5391     8.0309   159.4078
  286.0000  -999.2500   -22.3140     6.5698     8.1338   157.9949
  286.5000  -999.2500   -22.3250     6.6026     8.2366   156.5819
  287.0000  -999.2500   -22.3359     6.6333     8.3002   155.1690
  287.5000  -999.2500   -22.3468     6.6656     8.2809   153.5785
  288.0000  -999.2500   -22.3578     6.6966     8.1879   154.4433
  288.5000  -999.2500   -22.3687     6.7286     8.0803   155.4324
  289.0000  -999.2500   -22.3796     6.7600     7.9739   156.4194
  289.5000  -999.2500   -22.3922     6.7920     7.8666   157.5536
  290.0000  -999.2500   -22.4079     6.8235     7.7441   156.7094
  290.5000  -999.2500   -22.4235     6.8554     7.8076   155.7205
  291.0000  -999.2500   -22.4393     6.8872     7.8835   154.7327
  291.5000  -999.2500   -22.4549     6.8981     7.9585   153.7427
  292.0000  -999.2500   -22.4706     6.8678     8.0344   152.7552
  292.5000  -999.2500   -22.4862     6.8373     8.1096   151.7645
  293.0000  -999.2500   -22.5020     6.8070     8.1612   150.5979
  293.5000  -999.2500   -22.5176     6.7765     8.1609   151.7102
  294.0000  -999.2500   -22.5334     6.7463     8.1427   153.0709
  294.5000  -999.2500   -22.5489     6.7158     8.0832   154.4297
  295.0000  -999.2500   -22.5648     6.6855     8.0241   155.7897
  295.5000  -999.2500   -22.5835     6.6550     7.9646   157.1492
  296.0000  -999.2500   -22.5577     6.6248     7.9055   158.5089
  296.5000  -999.2500   -22.5249     6.5942     7.8460   159.8701
  297.0000  -999.2500   -22.4923     6.5640     7.7870   161.5308
  297.5000  -999.2500   -22.4595     6.5334     7.7274   161.5308
  298.0000  -999.2500   -22.4270     6.5341     7.6845   161.5308
  298.5000  -999.2500   -22.3942     6.6169     7.7449   161.2147
  299.0000  -999.2500   -22.3615     6.7002     7.8244   160.0278
  299.5000  -999.2500   -22.3288     6.7829     7.9214   158.5487
  300.0000  -999.2500   -22.2962     6.8662     8.0723   156.9966
  300.5000  -999.2500   -22.2634     6.9490     8.2223   154.9376
  301.0000  -999.2500   -22.2307     7.0323     8.2608   152.8785
  301.5000  -999.2500   -22.1981     7.1150     8.2109   150.8194
  302.0000  -999.2500   -22.1734     7.1983     8.1813   148.7603
  302.5000  -999.2500   -22.1516     7.2811     8.2101   146.7013
  303.0000  -999.2500   -22.1298     7.3644     8.2500   144.6422
  303.5000  -999.2500   -22.1080     7.4472     8.4016   142.5831
  304.0000  -999.2500   -22.0861     7.5305     8.5943   140.5240
  304.5000  -999.2500   -22.0644     7.6132     8.7867   138.4650
  305.0000  -999.2500   -22.0425     7.6965     8.9358   136.4059
  305.5000  -999.2500   -22.0207     7.7793     9.0331   134.3468
  306.0000  -999.2500   -21.9989     7.7567     9.0119   132.2877
  306.5000  -999.2500   -21.9771     7.6928     8.9529   132.1852
  307.0000  -999.2500   -21.9553     7.6294     8.9754   132.8463
  307.5000  -999.2500   -21.9335     7.5655     9.0315   133.5073
  308.0000  -999.2500   -21.9117     7.5020     9.0747   135.1093
  308.5000  -999.2500   -21.8899     7.4382     8.9418   137.0925
  309.0000  -999.2500   -21.8681     7.3746     8.8306   139.0755
  309.5000  -999.2500   -21.8463     7.3109     8.7210   141.0587
  310.0000  -999.2500   -21.8246     7.2472     8.6098   143.0417
  310.5000  -999.2500   -21.8027     7.1836     8.5001   145.0249
  311.0000  -999.2500   -21.7810     7.1199     8.3890   147.0079
  311.5000  -999.2500   -21.7592     7.0563     8.3007   148.9910
  312.0000  -999.2500   -21.7374     6.9925     8.2054   149.7548
  312.5000  -999.2500   -21.7156     6.9289     8.1418   149.9751
  313.0000  -999.2500   -21.6938     6.9340     8.1882   150.1955
  313.5000  -999.2500   -21.6720     6.9706     8.2214   150.4158
  314.0000  -999.2500   -21.6502     7.0070     8.2207   150.5964
  314.5000  -999.2500   -21.6284     7.0436     8.2213   149.1333
  315.0000  -999.2500   -21.6066     7.0800     8.2208   147.8939
