~VERSION INFORMATION
 VERS.                2.0:   CWLS LOG ASCII STANDARD - VERSION 2.0
 WRAP.                 NO:   ONE LINE PER DEPTH STEP
~WELL INFORMATION
#MNEM.UNIT      DATA TYPE    INFORMATION
#----------   ------------   ------------------------------
 STRT.F           30.0000:   START DEPTH
 STOP.F          482.0000:   STOP DEPTH
 STEP.F            0.5000:   STEP LENGTH
 NULL.          -999.2500:   NO VALUE
 COMP. FENIX & SCISSON INC:   COMPANY
 WELL.        S 10 #72-10:   WELL
 FLD .             TEAPOT:   FIELD
 LOC .      S10 T38N R78W:   LOCATION
 CNTY.            NATRONA:   COUNTY
 STAT.            WYOMING:   STATE
 CTRY. UNITED STATES OF AMERICA:   COUNTRY
 SRVC.            Unknown:   SERVICE COMPANY
 DATE.        07-FEB-1978:   LOGDATE
 API .       490251056900:   API NUMBER
~CURVE INFORMATION
#MNEM.UNIT       API CODE    CURVE DESCRIPTION
#----------   ------------   ------------------------------
 DEPT.F                  :   
 CALD.IN     45 280 60 00:   CALIPER FROM DENSITY LOG
 CORR.G/C3   45 356 01 00:   DENSITY CORRECTION
 DPHI.DEC    45 890 12 00:   DENSITY POROSITY SANDSTONE
 GRD .GAPI   45 310 01 00:   GAMMA RAY FROM DENSITY LOG
 RHOB.G/C3   45 350 01 00:   BULK DENSITY
 SN  .OHMM   05 040 16 00:   SHORT NORMAL 16"
 SPR .MV     05 010 01 00:   SPONTANEOUS POTENTIAL FROM RES.
 ILD .OHMM   05 120 46 00:   INDUCTION LOG DEEP
~PARAMETER INFORMATION
#MNEM.UNIT          VALUE    DESCRIPTION
#----------   ------------   ------------------------------
 PD  .                 GL:   PERMANENT DATUM
 EPD .F              5174:   ELEVATION PERMANENT DATUM
 LMF .                 KB:   LOG MEASURED FROM
 DMF .                 KB:   DRILLING MEASURED FROM
 EKB .F              5177:   KELLING BUSHING
 EGL .F              5174:   GROUND LEVEL
 DATE.        07-FEB-1978:   RUN DATE
 RUN .                  1:   RUN NUMBER
 DD  .F               469:   DEPTH DRILLER
 DL  .F               482:   DEPTH LOGGER
 BLI .F               474:   BOTTOM LOG INTERVAL
 TLI .F                44:   TOP LOG INTERVAL
 CS  .IN            8.625:   CASING SIZE
 CBD .F                39:   CASING BOTTOM DRILLER
 CBL .F                42:   CASING BOTTOM LOGGER
 BS  .IN            7.875:   BIT SIZE
 BSD .F               469:   BIT SIZE AT DEPTH
 DFT .    LIGNO/SULF FULL:   DRILLING FLUID TYPE
 DFD .                8.7:   DRILLING FLUID DENSITY
 DFV .                 31:   DRILLING FLUID VISCOSITY
 DFPH.                  9:   DRILLING FLUID PH
 DFL .                4.8:   DRILLING FLUID LOSS
 MSS .           FLOWLINE:   MUD SAMPLE SOURCE
 RMS .OHMM             .9:   RESISTIVITY MUD SAMPLE
 MST .F                50:   MUD SAMPLE TEMPERATURE
 RMF .OHMM            .65:   RESISTIVITY MUD FILTRATE SAMPLE
 MFST.F                58:   MUD FILTRATE SAMPLE TEMPERATURE
 RMC .OHMM            1.2:   RESISTIVITY MUD CAKE
 MCST.F                58:   MUD CAKE SAMPLE TEMPERATURE
 MFSS.               MEAS:   MUD FILTRATE SAMPLE SOURCE
 RMB .OHMM            .55:   RESISTIVITY MUD AT BHT
 BHT .F                82:   BOTTOM HOLE TEMPERATURE
 TCS .HRS               3:   TIME CURCULATED STOPPED
 MRT .F                82:   MAXIMUM RECORDED TEMPERATURE
 LUN .               2958:   LOGGING UNIT NUMBER
 LUL .               CASP:   LOGGING UNIT LOCATION
 ENGI.            POINTER:   RECORDING ENGINEER
 WITN.         HARRINGTON:   WITNESSED BY
 CLNT.            A2DTECH:   CLIENT CODE
 ORIG.           5" PRINT:   ORIGIN OF DATA
 UWI .       490251056900:   UNIQUE WELL ID
 DICO. A2D Technologies, Inc.:   DIGITIZING COMPANY
~OTHER INFORMATION
~A   DEPT     CALD       CORR       DPHI         GRD      RHOB         SN        SPR        ILD   
# ...
   70.5000     8.0982     0.1751     0.0806    89.0369     2.5101     8.9242   -26.8569     8.3126
   71.0000     8.0843     0.1948     0.0730    87.9629     2.5327     8.8649   -26.7003     8.3131
   71.5000     8.0780     0.1859     0.0715    86.8211     2.5275     8.8055   -26.6929     8.2563
   72.0000     8.0716     0.1966     0.0718    88.9257     2.5215     8.6866   -26.8366     8.1998
   72.5000     8.0727     0.2012     0.0736    91.6257     2.5344     8.5693   -26.9785     8.1436
   73.0000     8.0567     0.1953     0.0751    95.2227     2.5336     8.4535   -27.2677     8.0879
   73.5000     8.0304     0.1774     0.0763    98.3712     2.5322     8.3974   -27.4096     8.0326
   74.0000     8.0163     0.1413     0.0802    97.6333     2.5308     8.3417   -27.5515     7.9776
   74.5000     8.0025     0.1249     0.0847    96.8954     2.5270     8.2290   -27.5441     7.9703
   75.0000     8.0039     0.1205     0.0879    97.2038     2.5090     8.1185   -27.6878     7.8598
   75.5000     8.0050     0.1222     0.0885    97.8089     2.5001     8.1207   -27.8297     7.7508
   76.0000     8.0061     0.1237     0.0894    96.6249     2.5009     8.0110   -27.9697     7.6017
   76.5000     8.0072     0.1115     0.0891    97.2323     2.5017     8.0132   -28.1134     7.4458
   77.0000     8.0084     0.1059     0.0879    99.7829     2.5040     8.0154   -28.4027     7.3436
   77.5000     8.0093     0.1065     0.0867   101.1377     2.5093     8.1296   -27.9475     7.1930
   78.0000     8.0105     0.1182     0.0857    99.2040     2.5116     8.1319   -29.8804     7.2435
   78.5000     8.0116     0.1123     0.0851    95.1776     2.5132     8.1907   -27.9327     7.3963
   79.0000     8.0127     0.0974     0.0944    92.0481     2.5042     8.2500   -29.5791     7.5524
   79.5000     8.0139     0.1005     0.0983    90.5628     2.4914     8.3675   -28.0672     7.7117
   80.0000     8.0150     0.1247     0.0944    91.1702     2.4998     8.4281   -28.3682     7.8744
   80.5000     8.0161     0.1640     0.0802    90.1333     2.5292     8.6097   -28.9637     7.9849
   81.0000     8.0022     0.1912     0.0584    91.6827     2.5646     8.7344   -29.8361     8.0410
   81.5000     8.0033     0.1070     0.0763    89.8462     2.5616     8.8547   -29.4741     8.0416
   82.0000     7.9746     0.0408     0.1157    86.5767     2.5195     8.8572   -28.9239     8.0981
   82.5000     7.9608     0.1133     0.1169    85.5399     2.4617     8.8596   -28.9166     8.0987
   83.0000     7.9470     0.1766     0.1100    85.0986     2.4745     8.8626   -29.2095     8.2123
   83.5000     7.9182     0.2370     0.0889    88.5484     2.4958     8.8031   -29.0510     8.3276
   84.0000     7.9044     0.3440     0.0424    86.1663     2.5596     8.7447   -29.1929     8.4445
   84.5000     7.8906     0.3336     0.0397    84.3797     2.6011     8.6266   -30.0810     8.5039
   85.0000     7.8769     0.2343     0.0578    84.6905     2.5856     8.6296   -30.6707     8.5045
   85.5000     7.8629     0.1833     0.0710    85.4474     2.5427     8.5130   -30.6633     8.4461
   86.0000     7.8491     0.1382     0.0722    86.2042     2.5332     8.5154   -30.6559     8.3305
   86.5000     7.8353     0.0721     0.0975    86.8116     2.5124     8.5177   -30.6485     8.2733
   87.0000     7.8065     0.0691     0.1038    87.7180     2.4817     8.5201   -30.6411     8.2167
   87.5000     7.8079     0.0813     0.0998    90.1191     2.4795     8.6415   -30.6337     8.2174
   88.0000     7.7938     0.0875     0.0986    94.0150     2.4863     8.6438   -30.9248     8.2180
   88.5000     7.7952     0.0680     0.1007    97.7614     2.4901     8.7064   -31.2160     8.2185
   89.0000     7.7963     0.0335     0.1082    94.1834     2.4729     8.7694   -30.9101     8.2191
   89.5000     7.7974     0.0306     0.1148    92.3992     2.4662     8.8329   -30.3057     8.1629
   90.0000     7.7836     0.0307     0.1160    93.6045     2.4595     8.8968   -30.7460     8.1070
   90.5000     7.7847     0.0475     0.1106    88.0834     2.4693     8.8992   -30.7386     8.1076
   91.0000     7.7709     0.0551     0.1091    89.4832     2.4806     8.9017   -30.1342     8.1082
   91.5000     7.7571     0.0552     0.1111    91.6079     2.4777     8.9041   -30.1268     8.1087
   92.0000     7.7582     0.0446     0.1112    93.0470     2.4725     8.9686   -30.2766     8.2225
   92.5000     7.7595     0.0456     0.1102    93.5049     2.4635     9.0335   -30.7091     8.2803
   93.0000     7.7756     0.0586     0.1063    94.5607     2.4718     9.1622   -30.7015     8.4550
   93.5000     7.7767     0.0527     0.1051    94.1218     2.4756     9.2927   -30.2244     8.6352
   94.0000     7.7626     0.0633     0.1038    93.9794     2.4779     9.4251   -29.6418     8.8221
   94.5000     7.7640     0.0679     0.1065    94.2878     2.4787     9.4933   -29.9333     9.0689
   95.0000     7.7949     0.0500     0.1092    91.0112     2.4803     9.6955   -30.5210     9.3197
   95.5000     7.8110     0.0381     0.1126    87.5827     2.4758     9.8383   -30.5136     9.5245
   96.0000     7.8419     0.0322     0.1152    81.9121     2.4631    10.0479   -30.5063     9.7947
   96.5000     7.8729     0.0564     0.1141    85.2101     2.4744    10.2572   -30.4989    10.0726
   97.0000     7.9038     0.0806     0.1052    85.8175     2.4963    10.4034   -30.6407    10.2867
   97.5000     7.9348     0.0898     0.0888    85.6775     2.5129    10.5639   -31.0811    10.5627
   98.0000     7.9657     0.0778     0.0814    83.7438     2.5205    10.8521   -31.3741    10.8606
   98.5000     7.9967     0.0478     0.0895    81.3617     2.5115    11.1604   -31.6652    11.1669
   99.0000     8.0127     0.0419     0.0973    80.1753     2.5003    11.3194   -31.9563    11.3237
   99.5000     8.0437     0.0541     0.0958    80.1848     2.4936    11.4806   -32.2474    11.6430
  100.0000     8.0597     0.0760     0.0965    80.4933     2.4913    11.6446   -32.2767    11.6441
  100.5000     8.1208     0.1297     0.0855    82.1008     2.5005    11.8129   -32.3910    11.8096
  101.0000     8.1220     0.1373     0.0927    80.8131     2.5088    11.9837   -32.3821    11.8200
  101.5000     8.1231     0.1435     0.1003    79.4772     2.5038    12.1569   -31.9313    11.8984
  102.0000     8.1392     0.1617     0.1087    80.3755     2.4674    12.1628   -31.3075    11.9845
  102.5000     8.1252     0.2266     0.1120    78.8907     2.4705    12.1686   -30.5815    11.9885
  103.0000     8.1114     0.2418     0.1129    80.0867     2.4637    11.8414   -30.4293    11.8266
  103.5000     8.0977     0.2841     0.1219    80.6864     2.4427    11.6031   -30.7256    11.6661
  104.0000     8.0544     0.3851     0.1101    81.7325     2.4939    11.3683   -31.3189    11.5085
  104.5000     8.0107     0.4033     0.0925    80.3976     2.5271    11.1409   -31.3159    11.3531
  105.0000     7.9522     0.4018     0.0812    82.0389     2.5414    10.9914   -30.5667    11.1998
  105.5000     7.8639     0.3974     0.0577    82.5352     2.5490    10.9207   -30.4153    11.0485
  106.0000     7.7905     0.3707     0.0697    81.7501     2.5565    10.7754   -31.6056    10.9752
  106.5000     7.7017     0.3030     0.0899    80.5641     2.5287    10.7074   -31.9019    10.9023
  107.0000     7.6424     0.1977     0.0989    81.0149     2.5062    10.6383   -32.1974    10.7551
  107.5000     7.5831     0.1527     0.1092    81.4707     2.4859    10.4970   -32.3437    10.6837
  108.0000     7.5564     0.1302     0.1155    81.7798     2.4603    10.5021   -32.4900    10.6128
  108.5000     7.5743     0.1198     0.1133    82.5352     2.4611    10.4345   -32.1878    10.7647
  109.0000     7.6058     0.1019     0.1145    82.9671     2.4627    10.5122   -31.8864    10.9180
  109.5000     7.6331     0.0794     0.1200    81.0381     2.4559    10.5173   -31.7341    11.0736
  110.0000     7.6808     0.0600     0.1157    79.5544     2.4575    10.4496   -31.5819    11.2313
  110.5000     7.7267     0.0480     0.1145    81.1957     2.4613    10.3824   -32.1761    11.3126
