~VERSION INFORMATION
 VERS.                2.0:   CWLS LOG ASCII STANDARD - VERSION 2.0
 WRAP.                 NO:   ONE LINE PER DEPTH STEP
~WELL INFORMATION
#MNEM.UNIT      DATA TYPE    INFORMATION
#----------   ------------   ------------------------------
 STRT.F            2.0000:   START DEPTH
 STOP.F          508.0000:   STOP DEPTH
 STEP.F            0.1000:   STEP LENGTH
 NULL.          -999.2500:   NO VALUE
 COMP. LAWRENCE/ALLISON INC:   COMPANY
 WELL.      48-41 SX #3-3:   WELL
 FLD .             TEAPOT:   FIELD
 LOC .       S3 T38N R78W:   LOCATION
 CNTY.            NATRONA:   COUNTY
 STAT.            WYOMING:   STATE
 CTRY. UNITED STATES OF AMERICA:   COUNTRY
 SRVC.           Gearhart:   SERVICE COMPANY
 DATE.        09-JUL-1988:   LOGDATE
 API .       490251123300:   API NUMBER
~CURVE INFORMATION
#MNEM.UNIT       API CODE    CURVE DESCRIPTION
#----------   ------------   ------------------------------
 DEPT.F                  :   
 GRR .GAPI   07 310 01 00:   GAMMA RAY
 RILD.OHMM   07 120 46 00:   INDUCTION LOG DEEP RESISTIVITY
 RILM.OHMM   07 120 44 00:   INDUCTION LOG MEDIUM RESISTIVITY
~PARAMETER INFORMATION
#MNEM.UNIT          VALUE    DESCRIPTION
#----------   ------------   ------------------------------
 PD  .                 GL:   PERMANENT DATUM
 EPD .F              5200:   ELEVATION PERMANENT DATUM
 LMF .                 KB:   LOG MEASURED FROM
 DAPD.F                 5:   FEET ABOVE PERMANENT DATUM
 DMF .                 KB:   DRILLING MEASURED FROM
 EKB .F              5205:   KELLING BUSHING
 EDF .F              5204:   DRILLING FLOOR
 EGL .F              5200:   GROUND LEVEL
 DATE.        09-JUL-1988:   RUN DATE
 RUN .                  1:   RUN NUMBER
 DD  .F               510:   DEPTH DRILLER
 DL  .F               516:   DEPTH LOGGER
 BLI .F               508:   BOTTOM LOG INTERVAL
 TLI .F               1.5:   TOP LOG INTERVAL
 CS  .IN            9.625:   CASING SIZE
 CBD .F                40:   CASING BOTTOM DRILLER
 CBL .F                45:   CASING BOTTOM LOGGER
 BS  .IN             8.75:   BIT SIZE
 BSD .F               510:   BIT SIZE AT DEPTH
 DFT .                AIR:   DRILLING FLUID TYPE
 TCS .HRS            1800:   TIME CURCULATED STOPPED
 TLAB.HRS            1843:   TIME LOGGER AT BOTTOM
 MRT .F                70:   MAXIMUM RECORDED TEMPERATURE
 LUN .               7597:   LOGGING UNIT NUMBER
 LUL .           GILLETTE:   LOGGING UNIT LOCATION
 ENGI.         WEATHERMON:   RECORDING ENGINEER
 WITN.              FIVAS:   WITNESSED BY
 CLNT.            A2DTECH:   CLIENT CODE
 ORIG.           5" PRINT:   ORIGIN OF DATA
 UWI .       490251123300:   UNIQUE WELL ID
 DICO. A2D Technologies, Inc.:   DIGITIZING COMPANY
~OTHER INFORMATION
~A    DEPT      GRR      RILD       RILM   
# ...
  402.4000    76.3487    20.6267    21.7804
  402.5000    76.3248    20.5647    21.5260
  402.6000    76.0496    20.4444    21.2477
  402.7000    76.0507    20.3249    21.0267
  402.8000    76.2370    20.2011    20.6965
  402.9000    76.4926    20.0880    20.3360
  403.0000    76.8388    19.9706    20.0198
  403.1000    77.3486    19.8539    19.7858
  403.2000    77.8667    19.6915    19.5454
  403.3000    78.3684    19.4868    19.4351
  403.4000    78.6753    19.3729    19.3208
  403.5000    79.0868    19.2426    19.1418
  403.6000    79.4884    19.0525    18.9621
  403.7000    79.7440    18.9038    18.8273
  403.8000    79.9856    18.7409    18.6100
  403.9000    79.9869    18.5544    18.4829
  404.0000    80.2092    18.4341    18.3916
  404.1000    80.4648    18.2033    18.2143
  404.2000    80.5937    18.0073    18.0504
  404.3000    80.6742    17.7213    17.9441
  404.4000    80.8978    17.5276    17.8384
  404.5000    80.8990    17.4284    17.7234
  404.6000    80.9001    17.3291    17.6290
  404.7000    81.0933    17.2299    17.5252
  404.8000    81.2042    17.1306    17.4220
  404.9000    81.2055    17.0314    17.3543
  405.0000    81.2570    16.9321    17.3212
  405.1000    81.5126    16.8329    17.1131
  405.2000    81.8126    16.7336    17.0153
  405.3000    82.0237    16.6344    16.9928
  405.4000    82.2793    16.5351    16.9325
  405.5000    82.8817    16.4359    16.8328
  405.6000    83.9009    16.3366    16.7555
  405.7000    84.8982    16.1412    16.7507
  405.8000    85.7413    15.9223    16.6374
  405.9000    86.1987    15.8434    16.5541
  406.0000    86.7089    15.8431    16.4566
  406.1000    87.0853    15.7535    16.4053
  406.2000    87.3408    15.6614    16.3764
  406.3000    87.5963    15.6244    16.2899
  406.4000    87.8601    15.5865    16.2886
  406.5000    88.1077    15.4954    16.2007
  406.6000    88.1641    15.4087    16.1053
  406.7000    88.1653    15.4085    16.0105
  406.8000    88.0620    15.3311    15.9494
  406.9000    87.5224    15.2415    15.9325
  407.0000    86.0167    15.1958    15.8371
  407.1000    84.8521    15.1955    15.8360
  407.2000    83.9841    15.1847    15.7615
  407.3000    83.3079    15.0902    15.7245
  407.4000    82.8002    15.0900    15.6847
  407.5000    82.2925    15.0238    15.6139
  407.6000    81.7853    14.9854    15.6128
  407.7000    81.2393    14.9851    15.6116
  407.8000    81.0052    14.9678    15.5323
  407.9000    80.7520    14.8812    15.5019
  408.0000    80.3582    14.8810    15.5008
  408.1000    80.1309    14.8808    15.4723
  408.2000    80.3865    14.8249    15.3917
  408.3000    80.6431    14.7776    15.3905
  408.4000    81.2479    14.7774    15.3896
  408.5000    81.4551    14.7772    15.3219
  408.6000    81.8697    14.7770    15.2812
  408.7000    82.2679    14.7768    15.2472
  408.8000    82.5879    14.7149    15.1736
  408.9000    83.0807    14.6744    15.1726
  409.0000    83.3667    14.6741    15.1714
  409.1000    83.8164    14.6740    15.0991
  409.2000    84.1493    14.6737    15.0648
  409.3000    84.5345    14.6735    15.0637
  409.4000    84.9620    14.6734    15.0408
  409.5000    85.2531    14.6212    14.9577
  409.6000    85.7871    14.5716    14.9565
  409.7000    86.0307    14.5714    14.8794
  409.8000    86.6764    14.5712    14.8514
  409.9000    87.1451    14.5710    14.8503
  410.0000    87.5011    14.5708    14.8220
  410.1000    87.9579    14.5125    14.7459
  410.2000    88.2136    14.4698    14.7447
  410.3000    88.5106    14.4695    14.7437
  410.4000    88.5116    14.4694    14.7427
  410.5000    88.8444    14.4691    14.7417
  410.6000    89.3546    14.3893    14.7407
  410.7000    89.7933    14.3688    14.7397
  410.8000    90.0489    14.3686    14.7387
  410.9000    90.3277    14.3684    14.7375
  411.0000    90.7912    14.3511    14.7367
  411.1000    91.1173    14.2688    14.7357
  411.2000    91.5098    14.2686    14.7346
  411.3000    91.9303    14.2684    14.7335
  411.4000    92.1436    14.2682    14.7325
  411.5000    92.1448    14.2680    14.7314
  411.6000    91.1482    14.2678    14.7305
  411.7000    89.9296    14.2676    14.7295
  411.8000    88.9688    14.2674    14.7285
  411.9000    88.3145    14.2672    14.7275
  412.0000    87.8070    14.2670    14.7265
  412.1000    87.3125    14.2668    14.7254
  412.2000    87.0252    14.2666    14.7244
  412.3000    87.0262    14.2665    14.7234
  412.4000    87.0275    14.2662    14.7224
  412.5000    87.0287    14.2660    14.7213
  412.6000    86.9515    14.2658    14.7203
  412.7000    86.7293    14.2656    14.7193
  412.8000    86.7307    14.2294    14.7181
  412.9000    86.7318    14.1667    14.7173
  413.0000    86.7330    14.1665    14.6607
  413.1000    86.7343    14.1663    14.6136
  413.2000    86.7355    14.1662    14.6126
  413.3000    86.7366    14.1659    14.6116
  413.4000    86.7379    14.1657    14.6105
  413.5000    86.4376    14.1655    14.6096
  413.6000    86.2296    14.1654    14.6086
  413.7000    86.1382    14.1651    14.6076
  413.8000    86.1394    14.1649    14.6066
  413.9000    86.1406    14.1648    14.6055
  414.0000    86.1217    14.1646    14.6045
  414.1000    85.8415    14.1643    14.6035
  414.2000    85.8426    14.1642    14.6025
  414.3000    85.8437    14.1640    14.5510
  414.4000    85.8449    14.1637    14.4998
  414.5000    85.8461    14.1636    14.4988
  414.6000    85.9237    14.1634    14.4978
  414.7000    86.4519    14.1632    14.4966
  414.8000    86.9438    14.1630    14.4957
  414.9000    87.4538    14.1628    14.4947
  415.0000    87.9638    14.1626    14.4937
  415.1000    88.3702    14.1624    14.4927
  415.2000    88.6821    14.1622    14.4917
  415.3000    89.1832    14.2078    14.4906
  415.4000    89.4771    14.2603    14.4897
  415.5000    89.6943    14.2601    14.4887
  415.6000    89.9499    14.2599    14.4878
  415.7000    90.2055    14.2597    14.4867
  415.8000    90.4611    14.2595    14.4857
  415.9000    90.6896    14.2593    14.4847
  416.0000    90.6909    14.2591    14.4837
  416.1000    90.4578    14.2589    14.4827
  416.2000    90.3916    14.2587    14.4817
  416.3000    90.3927    14.2585    14.4807
  416.4000    90.3940    14.2584    14.4797
  416.5000    90.3952    14.2581    14.4787
  416.6000    90.3964    14.2579    14.4775
  416.7000    90.3978    14.2577    14.4767
  416.8000    90.3988    14.2576    14.4757
  416.9000    90.4000    14.2573    14.4747
  417.0000    90.4012    14.2571    14.4737
  417.1000    90.4024    14.2570    14.4727
  417.2000    90.4196    14.2568    14.4716
  417.3000    90.7066    14.2565    14.4707
  417.4000    90.9310    14.2564    14.4074
  417.5000    91.3626    14.2529    14.3688
  417.6000    91.7438    14.1575    14.3678
  417.7000    91.9994    14.1573    14.3668
  417.8000    92.2209    14.1571    14.3658
  417.9000    92.2221    14.1569    14.3646
  418.0000    92.4646    14.1567    14.2964
  418.1000    92.5261    14.1470    14.2637
  418.2000    92.5273    14.0585    14.2628
  418.3000    92.5285    14.0583    14.2618
  418.4000    92.5297    14.0582    14.2607
  418.5000    92.5258    14.0580    14.2597
  418.6000    92.2307    14.0577    14.2588
  418.7000    92.2317    14.0576    14.2578
  418.8000    92.3977    14.0574    14.2154
  418.9000    92.5357    14.0571    14.1575
  419.0000    92.5369    14.0570    14.1565
  419.1000    92.5381    14.0568    14.1554
  419.2000    92.5395    14.0566    14.1545
  419.3000    92.7708    14.0564    14.1535
  419.4000    93.2095    14.0562    14.1525
  419.5000    93.7197    14.0560    14.1515
  419.6000    94.1411    14.0558    14.1506
  419.7000    94.4378    13.9973    14.1496
  419.8000    94.9599    13.9584    14.1484
  419.9000    95.2095    13.9581    14.0802
  420.0000    95.4652    13.9580    14.0491
  420.1000    95.7207    13.9578    14.0480
  420.2000    95.8697    13.9576    14.0258
  420.3000    95.9302    13.9574    13.9433
  420.4000    96.1738    13.9572    13.8518
  420.5000    96.1751    13.9570    13.8510
