~VERSION INFORMATION
 VERS.                2.0:   CWLS LOG ASCII STANDARD - VERSION 2.0
 WRAP.                 NO:   ONE LINE PER DEPTH STEP
~WELL INFORMATION
#MNEM.UNIT      DATA TYPE    INFORMATION
#----------   ------------   ------------------------------
 STRT.F            8.0000:   START DEPTH
 STOP.F          866.5000:   STOP DEPTH
 STEP.F            0.5000:   STEP LENGTH
 NULL.          -999.2500:   NO VALUE
 COMP. LAWRENCE/ALLISON INC:   COMPANY
 WELL.    42-11 SX #11-11:   WELL
 FLD .              NPR 3:   FIELD
 LOC .      S11 T38N R78W:   LOCATION
 CNTY.            NATRONA:   COUNTY
 STAT.            WYOMING:   STATE
 CTRY. UNITED STATES OF AMERICA:   COUNTRY
 SRVC.           Gearhart:   SERVICE COMPANY
 DATE.        17-MAY-1987:   LOGDATE
 API .       490251112700:   API NUMBER
~CURVE INFORMATION
#MNEM.UNIT       API CODE    CURVE DESCRIPTION
#----------   ------------   ------------------------------
 DEPT.F                  :   
 GRR .GAPI   07 310 01 00:   GAMMA RAY FROM RES. LOG.
 RILD.OHMM   07 120 46 00:   INDUCTION LOG DEEP RESISTIVITY
 RILM.OHMM   07 120 44 00:   INDUCTION LOG MEDIUM RESISTIVITY
~PARAMETER INFORMATION
#MNEM.UNIT          VALUE    DESCRIPTION
#----------   ------------   ------------------------------
 PD  .                 GL:   PERMANENT DATUM
 EPD .F              5166:   ELEVATION PERMANENT DATUM
 LMF .                 KB:   LOG MEASURED FROM
 DAPD.F                 8:   FEET ABOVE PERMANENT DATUM
 DMF .                 KB:   DRILLING MEASURED FROM
 EKB .F              5174:   KELLING BUSHING
 EDF .F              5174:   DRILLING FLOOR
 EGL .F              5166:   GROUND LEVEL
 DATE.            5-17-87:   RUN DATE
 RUN .                  1:   RUN NUMBER
 DD  .F               891:   DEPTH DRILLER
 DL  .F               874:   DEPTH LOGGER
 BLI .F               865:   BOTTOM LOG INTERVAL
 TLI .F                44:   TOP LOG INTERVAL
 CS  .IN            8.625:   CASING SIZE
 CBD .F                49:   CASING BOTTOM DRILLER
 CBL .F                44:   CASING BOTTOM LOGGER
 BS  .IN            7.875:   BIT SIZE
 BSD .F               891:   BIT SIZE AT DEPTH
 DFT .           AIR FOAM:   DRILLING FLUID TYPE
 TCS .HRS            0300:   TIME CURCULATED STOPPED
 TLAB.HRS            1255:   TIME LOGGER AT BOTTOM
 MRT .F                80:   MAXIMUM RECORDED TEMPERATURE
 LUN .               7597:   LOGGING UNIT NUMBER
 LUL .           GILLETTE:   LOGGING UNIT LOCATION
 ENGI.            WANGLER:   RECORDING ENGINEER
 WITN.             STRONG:   WITNESSED BY
 CLNT.            A2DTECH:   CLIENT CODE
 ORIG.       2", 5" PRINT:   ORIGIN OF DATA
 UWI .       490251112700:   UNIQUE WELL ID
 DICO. A2D Technologies, Inc.:   DIGITIZING COMPANY
~OTHER INFORMATION
~A    DEPT      GRR      RILD       RILM   
# ...
  736.0000    75.6668    13.5412    14.0019
  736.5000    75.2404    13.4942    13.9433
  737.0000    77.7344    13.4476    13.8872
  737.5000    80.7942    13.4010    13.8313
  738.0000    83.8444    13.3547    13.7756
  738.5000    85.0526    13.3084    13.7202
  739.0000    84.3787    13.2624    13.6650
  739.5000    81.7923    13.2165    13.6099
  740.0000    79.1833    13.1708    13.5552
  740.5000    77.0877    13.1250    13.5010
  741.0000    77.7707    13.0807    13.4500
  741.5000    78.7721    12.9795    13.3468
  742.0000    78.9799    12.8739    13.2510
  742.5000    78.9799    12.7747    13.1559
  743.0000    78.9809    12.6817    13.0614
  743.5000    79.2990    12.5892    12.9677
  744.0000    80.6035    12.4974    12.8746
  744.5000    82.0826    12.4062    12.7821
  745.0000    83.4702    12.3297    12.6904
  745.5000    81.8865    12.2727    12.5993
  746.0000    79.5842    12.2160    12.5359
  746.5000    79.1503    12.1596    12.4761
  747.0000    80.6627    12.1034    12.4166
  747.5000    82.2027    12.0473    12.3573
  748.0000    82.0522    12.0084    12.2984
  748.5000    80.8180    12.0085    12.2368
  749.0000    81.8189    12.0085    12.2379
  749.5000    83.3599    12.0086    12.2377
  750.0000    85.1104    12.0086    12.2376
  750.5000    84.8562    12.0086    12.2376
  751.0000    83.8150    12.0086    12.2377
  751.5000    84.2543    12.0098    12.2376
  752.0000    84.8148    11.9720    12.2386
  752.5000    82.9347    11.9069    12.1973
  753.0000    81.8490    11.8423    12.1288
  753.5000    83.1275    11.7780    12.0603
  754.0000    86.1655    11.7141    11.9923
  754.5000    88.1795    11.6505    11.9247
  755.0000    88.7083    11.5872    11.8574
  755.5000    87.8441    11.5243    11.7905
  756.0000    86.7253    11.4618    11.7240
  756.5000    88.1394    11.3995    11.6579
  757.0000    89.6514    11.3336    11.5921
  757.5000    91.1560    11.2463    11.5173
  758.0000    92.4763    11.1593    11.4355
  758.5000    93.4576    11.0731    11.3543
  759.0000    93.9123    10.9875    11.2737
  759.5000    93.0384    10.9027    11.1939
  760.0000    92.0899    10.8235    11.1349
  760.5000    91.9854    10.8470    11.2472
  761.0000    92.1631    10.8700    11.3376
  761.5000    91.2516    10.8928    11.4288
  762.0000    90.3825    10.9156    11.5208
  762.5000    91.2951    10.9385    11.6144
  763.0000    94.6540    10.9614    11.6727
  763.5000    97.2666    10.9843    11.5968
  764.0000    96.1130    11.0073    11.5415
  764.5000    93.2927    11.0298    11.4334
  765.0000    92.8334    10.9241    11.3264
  765.5000    93.5588    10.8216    11.2203
  766.0000    93.6936    10.7200    11.1153
  766.5000    92.7659    10.6194    11.0112
  767.0000    92.5471    10.5198    10.9081
  767.5000    92.3113    10.4211    10.8060
  768.0000    92.0744    10.3233    10.7048
  768.5000    92.0171    10.2264    10.6208
  769.0000    92.8071    10.1305    10.5345
  769.5000    94.4550    10.0356    10.4455
  770.0000    96.0531     9.9246    10.3562
  770.5000    94.9923     9.8151    10.1976
  771.0000    92.5684     9.6622     9.9989
  771.5000    92.7303     9.4579     9.8042
  772.0000    94.5314     9.2580     9.6118
  772.5000    97.4387     9.0622     9.4297
  773.0000    99.1015     8.8706     9.2514
  773.5000    99.9909     8.6499     9.0786
  774.0000   100.8226     8.2438     8.9089
  774.5000   101.4612     7.8568     8.7423
  775.0000   100.1848     7.4880     8.5785
  775.5000    98.4133     6.9335     8.2298
  776.0000    96.4652     6.4201     7.4880
  776.5000    98.3308     5.9447     6.5571
  777.0000   103.9452     5.5345     5.9776
  777.5000   111.1751     5.4825     5.4820
  778.0000   116.6637     5.5134     4.6252
  778.5000   121.8428     5.5345     4.5817
  779.0000   121.8134     5.6383     4.8070
  779.5000   115.1729     5.7524     5.2203
  780.0000   108.3855     6.1033     5.6889
  780.5000   101.3853     6.6749     6.1996
  781.0000   100.0874     7.2991     6.7562
  781.5000   100.9918     7.9805     7.3629
  782.0000   101.9213     8.6201     8.0253
  782.5000   102.5891     9.1310     8.6575
  783.0000   102.0898     9.2928     8.9728
  783.5000   101.6136     9.4052     9.2265
  784.0000   101.1406     9.5190     9.3122
  784.5000   100.6589     9.6340     9.3989
  785.0000   101.1740     9.7505     9.4858
  785.5000   101.9684     9.8675     9.5733
  786.0000   102.4560    10.0975     9.6635
  786.5000   100.7951    10.4330     9.9998
  787.0000    99.1758    10.4850    10.2491
  787.5000    98.5977    10.5373    10.4427
  788.0000    99.7893    10.5897    10.6397
  788.5000    99.7829    10.6423    10.8405
  789.0000    99.1428    10.6951    11.0452
  789.5000    98.4819    10.8814    11.2540
  790.0000    98.5010    11.1999    11.4650
  790.5000   101.7711    11.4161    11.6419
  791.0000   105.1530    11.5435    11.7867
  791.5000   105.3466    11.6730    11.9334
  792.0000   101.7503    11.7978    12.0819
  792.5000    98.1222    11.9244    12.2322
  793.0000    94.9409    12.0525    12.3843
  793.5000    95.8575    12.1820    12.5384
  794.0000    98.1462    12.3129    12.6264
  794.5000    99.9378    12.3538    12.6817
  795.0000   100.3884    12.2948    12.7089
  795.5000   100.8512    12.2555    12.6421
  796.0000   101.3540    12.2162    12.5916
  796.5000   100.2073    12.1771    12.5412
  797.0000    98.5702    12.1382    12.4911
  797.5000    96.9751    12.1030    12.4411
  798.0000    97.9768    12.0706    12.3914
  798.5000    99.6628    12.0382    12.3468
  799.0000   100.2330    12.0059    12.3180
  799.5000    99.2771    11.9736    12.2894
  800.0000    96.6677    11.9418    12.2608
  800.5000    94.1151    11.9094    12.2323
  801.0000    91.9689    11.8075    12.2038
  801.5000    93.5876    11.6528    12.1754
  802.0000    97.1960    11.5004    12.1470
  802.5000   100.8694    11.3500    12.0726
  803.0000   100.0556    11.2016    11.7048
  803.5000    98.6516    11.0552    11.4624
  804.0000    97.2777    10.9107    11.2981
  804.5000    96.8779    10.7681    11.1362
  805.0000    99.4212    10.6273    10.9766
  805.5000   101.7994    10.4884    10.8234
  806.0000   104.2127    10.3513    10.6810
  806.5000   104.7336    10.2160    10.5438
  807.0000   102.9660    10.0824    10.4085
  807.5000   101.2358     9.9506    10.2750
  808.0000    99.7439     9.8210    10.1432
  808.5000   101.0573     9.7138    10.0130
  809.0000   103.1790     9.6325     9.8846
  809.5000   105.2825     9.5510     9.7577
  810.0000   106.6533     9.4703     9.6457
  810.5000   105.8289     9.3903     9.5743
  811.0000   105.0355     9.3110     9.5035
  811.5000   104.2715     9.2323     9.4332
  812.0000   103.6730     9.1902     9.3801
  812.5000   103.0613     9.1462     9.3492
  813.0000   101.7167     9.1026     9.3184
  813.5000   100.2040     9.0591     9.2877
  814.0000    98.6834     9.0158     9.2573
  814.5000    97.6781     8.9727     9.2266
  815.0000    99.8090     8.8666     9.1205
  815.5000   102.0731     8.7359     8.9838
  816.0000   104.3382     8.6072     8.8496
  816.5000   106.2493     8.4803     8.7162
  817.0000   106.9418     8.3553     8.5893
  817.5000   107.1078     8.2298     8.4686
  818.0000   106.9828     8.1503     8.3497
  818.5000   106.8624     8.0700     8.2325
  819.0000   106.7475     7.9907     8.1168
  819.5000   107.0442     7.9115     8.0029
  820.0000   108.1049     7.8091     7.8905
  820.5000   108.7719     7.6107     7.7797
  821.0000   108.5193     7.4183     7.6704
  821.5000   106.3540     7.2308     7.5590
  822.0000   103.9928     7.0480     7.2446
  822.5000   103.0163     6.8698     6.9327
  823.0000   104.4710     6.8130     6.6343
  823.5000   106.2453     6.9014     6.4259
  824.0000   107.1346     6.9527     6.3049
  824.5000   106.4192     7.0007     6.2577
  825.0000   106.0480     7.1244     6.7025
  825.5000   106.5517     7.2613     6.9892
  826.0000   107.6373     7.5121     7.2881
  826.5000   108.7064     7.9658     7.6772
