~VERSION INFORMATION
 VERS.                2.0:   CWLS LOG ASCII STANDARD - VERSION 2.0
 WRAP.                 NO:   ONE LINE PER DEPTH STEP
~WELL INFORMATION
#MNEM.UNIT      DATA TYPE    INFORMATION
#----------   ------------   ------------------------------
 STRT.F            0.0000:   START DEPTH
 STOP.F          678.0000:   STOP DEPTH
 STEP.F            0.5000:   STEP LENGTH
 NULL.          -999.2500:   NO VALUE
 COMP. FENIX & SCISSON INC:   COMPANY
 WELL. 37-21 SX 11 WO #37-11:   WELL
 FLD .             TEAPOT:   FIELD
 LOC .      S11 T38N R78W:   LOCATION
 CNTY.            NATRONA:   COUNTY
 STAT.            WYOMING:   STATE
 CTRY. UNITED STATES OF AMERICA:   COUNTRY
 SRVC.      Dresser Atlas:   SERVICE COMPANY
 DATE.        14-OCT-1983:   LOGDATE
 API .       490251084300:   API NUMBER
~CURVE INFORMATION
#MNEM.UNIT       API CODE    CURVE DESCRIPTION
#----------   ------------   ------------------------------
 DEPT.F                  :   
 SPR .MV     07 010 01 00:   SPONTANEOUS POTENTIAL
 SFLU.OHMM   07 220 01 00:   SPHERICALLY FOCUSED LOG UNAVERAGED RESISTIVITY
 ILM .OHMM   07 120 44 00:   INDUCTION LOG MEDIUM
 ILD .OHMM   07 120 46 00:   INDUCTION LOG DEEP
 NPHI.DEC    42 890 03 00:   NEUTRON POROSITY SANDSTONE
 DPHI.DEC    45 890 12 00:   DENSITY POROSITY SANDSTONE
 RHOB.G/C3   45 350 01 00:   BULK DENSITY
 CORR.G/C3   45 356 01 00:   DENSITY CORRECTION
 GRD .GAPI   45 310 01 00:   GAMMA RAY FROM DENSITY LOG
 CALD.IN     45 280 60 00:   CALIPER
~PARAMETER INFORMATION
#MNEM.UNIT          VALUE    DESCRIPTION
#----------   ------------   ------------------------------
 PD  .                 GL:   PERMANENT DATUM
 EPD .F              5188:   ELEVATION PERMANENT DATUM
 LMF .                 KB:   LOG MEASURED FROM
 DAPD.F                 5:   FEET ABOVE PERMANENT DATUM
 DMF .                 KB:   DRILLING MEASURED FROM
 EKB .F              5193:   KELLING BUSHING
 EGL .F              5188:   GROUND LEVEL
 DATE.           10-14-83:   RUN DATE
 RUN .                  4:   RUN NUMBER
 DD  .F               629:   DEPTH DRILLER
 DL  .F               630:   DEPTH LOGGER
 BLI .F               624:   BOTTOM LOG INTERVAL
 TLI .F               335:   TOP LOG INTERVAL
 BS  .IN             8.75:   BIT SIZE
 BSD .F               629:   BIT SIZE AT DEPTH
 DFT .          KCL WATER:   DRILLING FLUID TYPE
 LUN .               6307:   LOGGING UNIT NUMBER
 LUL .               GLTE:   LOGGING UNIT LOCATION
 ENGI.            DEYOUNG:   RECORDING ENGINEER
 WITN.            SCHULTE:   WITNESSED BY
 CLNT.            A2DTECH:   CLIENT CODE
 ORIG.       2", 5" PRINT:   ORIGIN OF DATA
 UWI .       490251084300:   UNIQUE WELL ID
 DICO. A2D Technologies, Inc.:   DIGITIZING COMPANY
~OTHER INFORMATION
~A    DEPT     SPR       SFLU        ILM        ILD       NPHI       DPHI       RHOB       CORR        GRD       CALD   
# ...
  167.5000   -35.2169     7.9503     7.5955     7.0752     0.2575     0.1241     2.4804     0.1122    90.8819     9.4077
  168.0000   -34.8135     8.1030     7.6809     7.1890     0.2593     0.1277     2.4807     0.1101    89.9313     9.4059
  168.5000   -35.0574     8.2586     7.7673     7.2692     0.2548     0.1252     2.4768     0.1076    91.0034     9.4040
  169.0000   -34.9514     8.4171     7.8546     7.3503     0.2503     0.1227     2.4728     0.1050    92.0718     9.4023
  169.5000   -34.8310     8.5787     7.9429     7.4323     0.2466     0.1227     2.4776     0.1025    92.7299     9.4032
  170.0000   -34.7073     8.7335     8.0322     7.5435     0.2443     0.1250     2.4774     0.1001    92.4894     9.4041
  170.5000   -34.5771     8.5096     8.1157     7.4791     0.2472     0.1274     2.4715     0.0975    93.0379     9.4050
  171.0000   -34.6235     8.3035     7.9282     7.3827     0.2510     0.1247     2.4738     0.0970    93.5714     9.4058
  171.5000   -34.7276     8.1025     7.7528     7.2877     0.2564     0.1246     2.4764     0.0976    93.0810     9.4067
  172.0000   -34.8344     7.9063     7.5821     7.1938     0.2631     0.1270     2.4706     0.0983    91.1372     9.4076
  172.5000   -34.9409     7.7148     7.4153     7.1011     0.2698     0.1274     2.4608     0.0989    89.1797     9.4085
  173.0000   -35.0475     7.5435     7.2523     7.0097     0.2758     0.1262     2.4615     0.0995    88.0768     9.4094
  173.5000   -35.1541     7.4572     7.0928     6.9194     0.2806     0.1289     2.4683     0.1001    87.0438     9.4103
  174.0000   -35.2587     7.3783     7.0752     6.8303     0.2780     0.1346     2.4699     0.0997    87.3507     9.4111
  174.5000   -35.3236     7.3387     7.0752     6.8090     0.2738     0.1320     2.4620     0.0960    88.7957     9.4120
  175.0000   -35.2705     7.3393     7.0752     6.7691     0.2732     0.1295     2.4543     0.0925    91.6261     9.4129
  175.5000   -35.2215     7.3031     7.0537     6.7295     0.2716     0.1287     2.4469     0.0916    91.7065     9.4138
  176.0000   -35.1722     7.2792     7.0343     6.6902     0.2657     0.1349     2.4456     0.0946    93.8925     9.4147
  176.5000   -35.1230     7.2553     7.0150     6.6510     0.2598     0.1412     2.4494     0.0963    94.6534     9.4156
  177.0000   -35.0739     7.2313     6.9956     6.6121     0.2564     0.1443     2.4533     0.0933    93.9294     9.4165
  177.5000   -35.0251     7.2060     6.9764     6.5735     0.2529     0.1427     2.4602     0.0958    97.5434     9.4174
  178.0000   -34.9755     7.2284     6.9572     6.5349     0.2544     0.1381     2.4678     0.0994    98.3977     9.4183
  178.5000   -34.8932     7.2531     6.9380     6.4955     0.2622     0.1399     2.4660     0.1016    97.8033     9.4191
  179.0000   -34.7006     7.2778     6.9189     6.4003     0.2746     0.1313     2.4618     0.1003    96.6297     9.4200
  179.5000   -34.5154     7.3023     6.9001     6.4674     0.2710     0.1251     2.4577     0.0963    94.4857     9.4209
  180.0000   -34.3480     7.3277     6.8835     6.6089     0.2653     0.1292     2.4621     0.0923    93.4239     9.4218
  180.5000   -34.4007     7.4912     7.0757     6.7506     0.2628     0.1331     2.4606     0.0882    94.0332     9.4207
  181.0000   -34.4493     7.7801     7.2490     6.8953     0.2610     0.1346     2.4481     0.0840    90.6790     9.4186
  181.5000   -34.4890     8.0792     7.4266     7.0432     0.2651     0.1336     2.4418     0.0810    87.3206     9.4165
  182.0000   -34.5182     8.3410     7.5558     7.1403     0.2656     0.1350     2.4527     0.0917    85.8747     9.4144
  182.5000   -34.9018     8.1030     7.5906     7.1403     0.2661     0.1433     2.4621     0.1027    88.8449     9.4123
  183.0000   -34.8546     7.8968     7.6255     7.1368     0.2651     0.1458     2.4756     0.1062    88.3493     9.4103
  183.5000   -34.7971     8.0268     7.6607     7.2101     0.2637     0.1369     2.4890     0.1082    88.8650     9.4082
  184.0000   -34.7844     8.1639     7.8032     7.2001     0.2562     0.1301     2.4958     0.1102    91.5993     9.4062
  184.5000   -35.0625     8.3033     8.1377     7.4806     0.2421     0.1232     2.4996     0.1088    88.3996     9.4042
  185.0000   -34.9878     8.6373     8.4864     7.8582     0.2280     0.1163     2.4977     0.1008    85.2899     9.3961
  185.5000   -34.9013     9.9599     8.8501     8.3427     0.2129     0.1130     2.5209     0.0972    82.4810     9.4340
  186.0000   -34.8126    11.1826     9.3092     8.0471     0.2070     0.1111     2.5461     0.0998    80.7798     9.4956
  186.5000   -34.7248    10.4885     8.8818     7.6857     0.2192     0.1090     2.5589     0.1023    84.8683     9.5540
  187.0000   -34.6369     9.1999     8.3685     7.3404     0.2312     0.0927     2.5177     0.1022    88.3068     9.5117
  187.5000   -34.5490     8.3571     7.8826     7.0089     0.2441     0.0711     2.5051     0.0997    89.8016     9.4648
  188.0000   -34.4611     8.0507     7.4226     6.6982     0.2494     0.0854     2.5045     0.0931    89.3216     9.4497
  188.5000   -34.3731     7.7557     7.2785     6.8085     0.2533     0.1045     2.4976     0.0852    91.6481     9.4748
  189.0000   -34.2856     7.4747     7.2029     6.9468     0.2612     0.1084     2.4828     0.0773    93.3830     9.5001
  189.5000   -34.1982     7.4162     7.1285     6.8822     0.2694     0.1075     2.4647     0.0824    92.3574     9.4643
  190.0000   -34.1937     7.3447     7.0549     6.8036     0.2776     0.1144     2.4608     0.0886    95.1031     9.4180
  190.5000   -34.2719     7.2740     6.9821     6.7259     0.2672     0.1236     2.4566     0.0932    93.3984     9.4088
  191.0000   -34.3503     7.2059     6.8835     6.6972     0.2578     0.1326     2.4595     0.0944    93.8194     9.3989
  191.5000   -34.4289     7.2059     7.0498     6.6950     0.2533     0.1387     2.4720     0.1017    93.8159     9.3891
  192.0000   -34.5080     7.4971     7.3222     6.8317     0.2596     0.1368     2.4853     0.1110    91.9200     9.3793
  192.5000   -34.5464     7.7677     7.6052     7.0542     0.2644     0.1335     2.4987     0.1202    90.0672     9.3695
  193.0000   -34.5386     8.1331     7.8991     7.2823     0.2669     0.1270     2.5069     0.1247    88.5561     9.3597
  193.5000   -34.5032     8.5156     8.2043     7.5178     0.2616     0.1198     2.5137     0.1228    86.6215     9.3503
  194.0000   -34.4692     8.9161     8.5214     7.7608     0.2529     0.1126     2.5106     0.1168    84.6277     9.3567
  194.5000   -34.4350     9.3355     8.8507     8.0121     0.2460     0.1055     2.5261     0.1108    83.7415     9.4047
  195.0000   -34.4014     9.8374     9.1927     8.2709     0.2377     0.1037     2.5346     0.1014    83.7375     9.4522
  195.5000   -34.3696     9.5902     9.3116     8.5751     0.2323     0.1003     2.5147     0.0913    85.8531     9.4992
  196.0000   -34.4863     9.3134     8.9036     8.3745     0.2365     0.0941     2.4865     0.1015    89.2412     9.4953
  196.5000   -34.4693     9.0423     8.6350     8.1484     0.2398     0.0895     2.4923     0.1123    90.1544     9.4872
  197.0000   -34.3620     8.7795     8.3744     7.9285     0.2405     0.1078     2.5009     0.1224    90.1297     9.4792
  197.5000   -34.2521     8.5246     8.1218     7.7144     0.2429     0.1177     2.4953     0.1260    91.6046     9.4712
  198.0000   -34.1424     8.2771     7.8767     7.5061     0.2486     0.1144     2.4875     0.1227    91.1890     9.4633
  198.5000   -34.0347     8.0367     7.6390     7.3035     0.2535     0.1130     2.4798     0.1178    90.5132     9.4554
  199.0000   -33.9625     7.8033     7.4083     7.1063     0.2578     0.1165     2.4654     0.1064    92.1877     9.4475
  199.5000   -33.9939     7.5767     7.1844     6.9145     0.2635     0.1200     2.4510     0.0951    94.2235     9.4421
  200.0000   -34.0222     7.3567     6.9455     6.7255     0.2663     0.1266     2.4422     0.0839    92.0522     9.4508
  200.5000   -34.0507     7.2059     6.9454     6.6377     0.2641     0.1336     2.4334     0.0849    92.5180     9.4593
