~VERSION INFORMATION
 VERS.                2.0:   CWLS LOG ASCII STANDARD - VERSION 2.0
 WRAP.                 NO:   ONE LINE PER DEPTH STEP
~WELL INFORMATION
#MNEM.UNIT      DATA TYPE    INFORMATION
#----------   ------------   ------------------------------
 STRT.F            7.0000:   START DEPTH
 STOP.F          690.0000:   STOP DEPTH
 STEP.F            0.5000:   STEP LENGTH
 NULL.          -999.2500:   NO VALUE
 COMP. FENIX & SCISSON INC:   COMPANY
 WELL.  NPR#3 #26-46 SX11:   WELL
 FLD .             TEAPOT:   FIELD
 LOC .      S11 T38N R78W:   LOCATION
 CNTY.            NATRONA:   COUNTY
 STAT.            WYOMING:   STATE
 CTRY. UNITED STATES OF AMERICA:   COUNTRY
 SRVC.      Dresser Atlas:   SERVICE COMPANY
 DATE.        13-AUG-1985:   LOGDATE
 API .       490251083600:   API NUMBER
~CURVE INFORMATION
#MNEM.UNIT       API CODE    CURVE DESCRIPTION
#----------   ------------   ------------------------------
 DEPT.F                  :   
 DPHI.DEC    45 890 12 00:   DENSITY POROSITY SANDSTONE
 NPHI.DEC    42 890 03 00:   NEUTRON POROSITY SANDSTONE
 RHOB.G/C3   45 350 01 00:   BULK DENSITY
 CORR.G/C3   45 356 01 00:   DENSITY CORRECTION
 CALD.IN     45 280 60 00:   CALIPER
 SPR .MV     07 010 01 00:   SPONTANEOUS POTENTIAL
 ILD .OHMM   07 120 46 00:   INDUCTION LOG DEEP
 ILM .OHMM   07 120 44 00:   INDUCTION LOG MEDIUM
 SFL .OHMM   07 220 01 00:   SHALLOW FOCUSED LOG RESISTIVITY
 GRR .GAPI   07 310 01 00:   GAMMA RAY FROM RES. LOG.
~PARAMETER INFORMATION
#MNEM.UNIT          VALUE    DESCRIPTION
#----------   ------------   ------------------------------
 PD  .                 GL:   PERMANENT DATUM
 EPD .F              5193:   ELEVATION PERMANENT DATUM
 LMF .                 KB:   LOG MEASURED FROM
 DAPD.F                 5:   FEET ABOVE PERMANENT DATUM
 DMF .                 KB:   DRILLING MEASURED FROM
 EKB .F              5198:   KELLING BUSHING
 EGL .F              5193:   GROUND LEVEL
 DATE.          8-13-1985:   RUN DATE
 RUN .                  8:   RUN NUMBER
 DD  .F               664:   DEPTH DRILLER
 BLI .F               635:   BOTTOM LOG INTERVAL
 TLI .F               340:   TOP LOG INTERVAL
 CBL .F               340:   CASING BOTTOM LOGGER
 BS  .IN             8.75:   BIT SIZE
 BSD .F               664:   BIT SIZE AT DEPTH
 DFT .          KPC WATER:   DRILLING FLUID TYPE
 LUN .           HL- 6274:   LOGGING UNIT NUMBER
 LUL .           GILLETTE:   LOGGING UNIT LOCATION
 ENGI.             RAUTIO:   RECORDING ENGINEER
 WITN.            SCHULTE:   WITNESSED BY
 CLNT.            A2DTECH:   CLIENT CODE
 ORIG.        2" 5" PRINT:   ORIGIN OF DATA
 UWI .       490251083600:   UNIQUE WELL ID
 DICO. A2D Technologies, Inc.:   DIGITIZING COMPANY
~OTHER INFORMATION
~A    DEPT    DPHI       NPHI       RHOB       CORR       CALD         SPR       ILD        ILM        SFL        GRR   
# ...
  509.5000     0.2244     0.2654     2.3064     0.1996     6.0896   -12.0375    12.2510    13.3415    14.2694    79.4194
  510.0000     0.2228     0.2781     2.3064     0.2028     6.0894   -11.9841    12.1687    13.1284    14.0646    78.7970
  510.5000     0.2324     0.2868     2.2901     0.1940     6.0892   -11.8751    12.1687    12.9132    13.9106    79.9108
  511.0000     0.2348     0.2866     2.2897     0.1968     6.0889   -11.7633    12.1687    12.6250    13.7583    80.7693
  511.5000     0.2288     0.2757     2.2974     0.2035     6.0887   -11.8002    12.1882    12.6780    13.6075    79.0002
  512.0000     0.2223     0.2677     2.3048     0.2113     6.0884   -11.8456    12.2311    12.7826    13.4649    76.5330
  512.5000     0.2275     0.2636     2.2996     0.2156     6.0882   -11.8891    12.2747    12.9527    13.8311    77.0652
  513.0000     0.2384     0.2618     2.2824     0.2068     6.0880   -11.8841    12.3186    13.1251    14.0988    79.7789
  513.5000     0.2438     0.2608     2.2731     0.2003     6.0877   -11.6554    12.3628    13.2999    14.3606    82.4249
  514.0000     0.2430     0.2618     2.2748     0.1973     6.0874   -11.4315    12.3946    13.4649    14.4934    83.8374
  514.5000     0.2371     0.2753     2.2820     0.2027     6.0870   -11.2063    12.3366    13.4045    14.2345    82.7763
  515.0000     0.2343     0.2901     2.2897     0.2078     6.0867   -11.0935    12.2823    13.3482    14.0331    82.9465
  515.5000     0.2333     0.2924     2.2914     0.2093     6.0863   -11.0444    12.2283    13.1154    13.9688    83.7575
  516.0000     0.2360     0.2884     2.2888     0.2099     6.0859   -10.9966    12.1745    12.7907    13.9697    83.7444
  516.5000     0.2437     0.2803     2.2704     0.1989     6.0856   -10.9502    12.0475    12.4738    13.7310    80.2469
  517.0000     0.2514     0.2739     2.2597     0.1975     6.0852   -10.9856    11.9131    12.1632    13.5731    76.8298
  517.5000     0.2545     0.2735     2.2542     0.1975     6.0848   -11.1359    11.7802    11.8374    13.4551    73.6095
  518.0000     0.2561     0.2729     2.2531     0.1984     6.0844   -11.2845    11.6487    11.8137    13.3665    73.1413
  518.5000     0.2576     0.2710     2.2501     0.1988     6.0841   -11.4329    11.5188    11.7877    13.2784    74.7688
  519.0000     0.2592     0.2683     2.2455     0.1955     6.0837   -11.5795    11.3895    11.7618    13.1909    78.8175
  519.5000     0.2593     0.2742     2.2459     0.1929     6.0833   -11.7709    11.2726    11.7359    13.1039    81.8375
  520.0000     0.2559     0.2848     2.2536     0.2000     6.0829   -11.9187    11.1717    11.6532    13.0176    82.8162
  520.5000     0.2529     0.2934     2.2578     0.2080     6.0826   -11.9252    11.0729    11.5510    12.9318    80.7508
  521.0000     0.2599     0.2946     2.2424     0.1981     6.0822   -11.9242    10.9748    11.4493    12.8295    78.5825
  521.5000     0.2739     0.2769     2.2153     0.1846     6.0818   -11.9239    10.8778    11.3495    12.6331    76.7433
  522.0000     0.2848     0.2578     2.2049     0.1726     6.0814   -11.9238    10.7852    11.2883    12.4397    75.8095
  522.5000     0.2815     0.2463     2.2079     0.1864     6.0811   -11.9235    10.7142    11.2599    12.2812    74.8862
  523.0000     0.2735     0.2487     2.2243     0.1981     6.0807   -11.9220    10.6436    11.2309    12.3256    74.3721
  523.5000     0.2682     0.2562     2.2299     0.1973     6.0803   -11.9934    10.6000    11.2017    12.3635    74.6219
  524.0000     0.2715     0.2639     2.2259     0.1916     6.0800   -12.0685    10.6001    11.2015    12.3976    74.9593
  524.5000     0.2793     0.2694     2.2111     0.1850     6.0796   -12.0306    10.6000    11.2015    12.4114    77.2308
  525.0000     0.2792     0.2677     2.2157     0.1825     6.0792   -11.6203    10.5999    11.2016    12.4254    80.9256
  525.5000     0.2746     0.2643     2.2229     0.1851     6.0788   -11.4649    10.6005    11.2016    12.4394    84.3015
  526.0000     0.2708     0.2615     2.2243     0.1883     6.0785   -11.3794    10.5697    11.2344    12.4535    83.4688
  526.5000     0.2644     0.2680     2.2389     0.1909     6.0781   -11.2964    10.5195    11.3146    12.4675    82.6137
  527.0000     0.2562     0.2729     2.2542     0.1938     6.0777   -11.2128    10.4696    11.4097    12.4819    81.7701
  527.5000     0.2519     0.2670     2.2587     0.1913     6.0773   -11.1289    10.4200    11.2591    12.4973    80.9271
  528.0000     0.2517     0.2549     2.2589     0.1890     6.0770   -11.0451    10.3706    11.0794    12.5121    80.1923
  528.5000     0.2377     0.2501     2.2626     0.1915     6.0766   -10.9612    10.3215    10.9024    12.2903    81.2272
  529.0000     0.2387     0.2484     2.2717     0.1935     6.0762   -10.8765    10.2725    10.7283    12.0825    82.3450
  529.5000     0.2413     0.2523     2.2798     0.1960     6.0759   -10.7927    10.2246    10.5771    11.8783    81.8474
  530.0000     0.2356     0.2547     2.2833     0.1983     6.0755   -10.7598    10.1475    10.4868    11.7173    80.0849
  530.5000     0.2471     0.2455     2.2585     0.1978     6.0751   -11.0640    10.0668    10.3973    11.6722    78.4948
  531.0000     0.2581     0.2437     2.2366     0.1877     6.0747   -11.3678     9.9868    10.3086    11.6226    78.0823
  531.5000     0.2688     0.2537     2.2301     0.1816     6.0743   -11.6695     9.9074    10.2206    11.7517    77.5335
  532.0000     0.2671     0.2645     2.2344     0.1879     6.0740   -11.9310     9.8286    10.1334    11.9458    76.7674
  532.5000     0.2604     0.2753     2.2513     0.2026     6.0736   -11.9249     9.7574    10.1104    11.8232    76.0009
  533.0000     0.2553     0.2862     2.2527     0.2078     6.0732   -11.9239     9.7575    10.0958    11.6402    76.0599
  533.5000     0.2589     0.2960     2.2458     0.2070     6.0729   -11.9239     9.7576    10.0812    11.4620    79.4440
  534.0000     0.2647     0.2976     2.2313     0.1938     6.0725   -11.9238     9.7576    10.0667    11.3052    83.0480
  534.5000     0.2767     0.2883     2.2171     0.1790     6.0721   -11.9242     9.7576    10.0522    11.3528    86.1861
  535.0000     0.2801     0.2778     2.2198     0.1766     6.0717   -11.8861     9.7575    10.0379    11.4055    86.7075
  535.5000     0.2694     0.2721     2.2361     0.1807     6.0714   -11.8215     9.7570    10.0301    11.4584    86.5607
  536.0000     0.2575     0.2685     2.2550     0.1884     6.0710   -11.7566     9.7559    10.1180    11.5152    85.8751
  536.5000     0.2476     0.2727     2.2686     0.1942     6.0706   -11.6916     9.8570    10.1964    11.7290    85.2380
  537.0000     0.2423     0.2803     2.2747     0.2003     6.0703   -11.6270     9.9654    10.2755    11.8249    87.1599
  537.5000     0.2402     0.2842     2.2768     0.1958     6.0699   -11.5623    10.1234    10.3550    11.9280    88.0497
  538.0000     0.2426     0.2767     2.2749     0.1909     6.0695   -11.5004    10.1035    10.4067    12.0573    83.6829
  538.5000     0.2464     0.2693     2.2657     0.1830     6.0691   -11.3767    10.0676    10.3417    12.0271    78.6135
  539.0000     0.2496     0.2689     2.2630     0.1820     6.0687   -11.2544    10.0318    10.2940    11.9874    78.0148
  539.5000     0.2476     0.2770     2.2690     0.1818     6.0684   -11.1325     9.9962    10.2464    11.9473    79.3569
  540.0000     0.2412     0.2804     2.2799     0.1896     6.0680   -11.0104     9.9606    10.1684    11.9480    80.4921
  540.5000     0.2360     0.2712     2.2844     0.1940     6.0676   -10.8888     9.8736    10.0408    11.9485    78.4552
  541.0000     0.2369     0.2642     2.2823     0.1959     6.0673   -10.7639     9.7058     9.9149    11.7169    76.4634
  541.5000     0.2460     0.2694     2.2692     0.1977     6.0669   -10.8351     9.5409     9.7905    11.4313    76.5126
  542.0000     0.2541     0.2795     2.2540     0.2008     6.0665   -11.0098     9.3787     9.6682    11.1525    80.5010
  542.5000     0.2617     0.2806     2.2389     0.2030     6.0661   -11.1884     9.2193     9.5867    11.0556    83.3604
