~VERSION INFORMATION
 VERS.                2.0:   CWLS LOG ASCII STANDARD - VERSION 2.0
 WRAP.                 NO:   ONE LINE PER DEPTH STEP
~WELL INFORMATION
#MNEM.UNIT      DATA TYPE    INFORMATION
#----------   ------------   ------------------------------
 STRT.F            8.5000:   START DEPTH
 STOP.F          642.0000:   STOP DEPTH
 STEP.F            0.5000:   STEP LENGTH
 NULL.          -999.2500:   NO VALUE
 COMP. FENIX & SCISSON INC:   COMPANY
 WELL. 26-36 S11 W1 #26-36 SX11:   WELL
 FLD .             TEAPOT:   FIELD
 LOC .      S11 T38N R78W:   LOCATION
 CNTY.            NATRONA:   COUNTY
 STAT.            WYOMING:   STATE
 CTRY. UNITED STATES OF AMERICA:   COUNTRY
 SRVC.      Dresser Atlas:   SERVICE COMPANY
 DATE.        16-JUL-1980:   LOGDATE
 API .       490251083500:   API NUMBER
~CURVE INFORMATION
#MNEM.UNIT       API CODE    CURVE DESCRIPTION
#----------   ------------   ------------------------------
 DEPT.F                  :   
 NPHI.DEC    42 890 03 00:   NEUTRON POROSITY SANDSTONE
 RHOB.G/C3   45 350 01 00:   BULK DENSITY
 CORR.G/C3   45 356 01 00:   DENSITY CORRECTION
 GRD .GAPI   45 310 01 00:   GAMMA RAY FROM DENSITY LOG
 CALD.IN     45 280 60 00:   CALIPER
 SPR .MV     07 010 01 00:   SPONTANEOUS POTENTIAL
 SFL .OHMM   07 220 01 00:   SHALLOW FOCUSED LOG RESISTIVITY
 ILD .OHMM   07 120 46 00:   INDUCTION LOG DEEP
 ILM .OHMM   07 120 44 00:   INDUCTION LOG MEDIUM
 DPHI.DEC    45 890 12 00:   DENSITY POROSITY SANDSTONE
~PARAMETER INFORMATION
#MNEM.UNIT          VALUE    DESCRIPTION
#----------   ------------   ------------------------------
 PD  .                 GL:   PERMANENT DATUM
 EPD .F              5184:   ELEVATION PERMANENT DATUM
 LMF .                 KB:   LOG MEASURED FROM
 DAPD.F                 5:   FEET ABOVE PERMANENT DATUM
 DMF .                 KB:   DRILLING MEASURED FROM
 EKB .F              5189:   KELLING BUSHING
 EGL .F              5184:   GROUND LEVEL
 DATE.            7-16-80:   RUN DATE
 RUN .                  1:   RUN NUMBER
 DD  .F               630:   DEPTH DRILLER
 DL  .F               637:   DEPTH LOGGER
 BLI .F               635:   BOTTOM LOG INTERVAL
 TLI .F                 8:   TOP LOG INTERVAL
 BS  .IN            7.875:   BIT SIZE
 BSD .F               630:   BIT SIZE AT DEPTH
 DFT .           CHEM GEL:   DRILLING FLUID TYPE
 DFD .                9.2:   DRILLING FLUID DENSITY
 DFV .                 65:   DRILLING FLUID VISCOSITY
 DFPH.                 10:   DRILLING FLUID PH
 DFL .                  8:   DRILLING FLUID LOSS
 MSS .           FLOWLINE:   MUD SAMPLE SOURCE
 RMS .OHMM            .61:   RESISTIVITY MUD SAMPLE
 MST .F                60:   MUD SAMPLE TEMPERATURE
 RMC .OHMM            .62:   RESISTIVITY MUD CAKE
 MCST.F                58:   MUD CAKE SAMPLE TEMPERATURE
 MFSS.               MEAS:   MUD FILTRATE SAMPLE SOURCE
 MCSS.               MEAS:   MUD CAKE SAMPLE SOURCE
 RMB .OHMM            .41:   RESISTIVITY MUD AT BHT
 BHT .F                90:   BOTTOM HOLE TEMPERATURE
 TCS .HRS               5:   TIME CURCULATED STOPPED
 MRT .F                90:   MAXIMUM RECORDED TEMPERATURE
 LUN .               6109:   LOGGING UNIT NUMBER
 LUL .              GLTTE:   LOGGING UNIT LOCATION
 ENGI.            GARONER:   RECORDING ENGINEER
 WITN.              AMEND:   WITNESSED BY
 CLNT.            A2DTECH:   CLIENT CODE
 ORIG.           5" PRINT:   ORIGIN OF DATA
 UWI .       490251083500:   UNIQUE WELL ID
 DICO. A2D Technologies, Inc.:   DIGITIZING COMPANY
~OTHER INFORMATION
~A    DEPT    NPHI       RHOB       CORR        GRD       CALD        SPR        SFL          ILD      ILM       DPHI   
# ...
  209.5000     0.2822     2.5089     0.0119    83.6893     7.8141   -37.2860    12.2795     8.4000     8.9053     0.0956
  210.0000     0.2891     2.5124     0.0121    85.3394     7.8095   -37.3269    12.1016     8.4005     8.8792     0.0979
  210.5000     0.2889     2.5132     0.0161    86.9260     7.8050   -37.3675    11.9256     8.4010     8.8796     0.0991
  211.0000     0.2869     2.5187     0.0200    87.2836     7.8004   -37.4085    11.7540     8.4016     8.8794     0.0934
  211.5000     0.2858     2.5119     0.0218    85.9907     7.7958   -37.4489    11.4937     8.4023     8.8453     0.0849
  212.0000     0.2905     2.5172     0.0227    85.4155     7.7909   -37.4894    11.4999     8.4027     8.7256     0.0986
  212.5000     0.2960     2.5281     0.0288    86.4491     7.7942   -37.5319    11.4912     8.2948     8.6076     0.1122
  213.0000     0.2943     2.5389     0.0336    86.4056     7.7997   -37.5520    11.8976     8.1410     8.4911     0.1192
  213.5000     0.2926     2.5179     0.0232    84.9777     7.8054   -37.5500    12.6019     7.9897     8.3763     0.1235
  214.0000     0.2951     2.4903     0.0117    84.8372     7.8110   -37.5501    12.2293     7.8402     8.2630     0.1235
  214.5000     0.2982     2.4796     0.0001    85.6676     7.8166   -37.5503    11.5306     7.6951     8.1512     0.1140
  215.0000     0.2965     2.4713    -0.0020    86.4992     7.8222   -37.5496    10.8768     7.5527     8.0409     0.1166
  215.5000     0.2970     2.4782    -0.0020    87.3264     7.8278   -37.5506    10.4427     7.4130     7.9321     0.1092
  216.0000     0.3072     2.4854    -0.0021    88.1538     7.8334   -37.5507    10.3349     7.2758     7.8248     0.0994
  216.5000     0.3054     2.4853    -0.0017    88.9836     7.8391   -37.5993    10.2282     7.2468     7.6594     0.1004
  217.0000     0.3129     2.4996     0.0069    89.8115     7.8447   -37.6631    10.1027     7.2468     7.6815     0.1038
  217.5000     0.3213     2.5152     0.0154    89.7184     7.8498   -37.7277    10.1027     7.3032     7.7899     0.1014
  218.0000     0.3145     2.5107     0.0206    87.9154     7.8474   -37.7903    10.1027     7.4409     7.8998     0.0981
  218.5000     0.3109     2.5064     0.0139    86.1578     7.8448   -37.8540    10.3913     7.5812     8.0112     0.1116
  219.0000     0.3009     2.5113     0.0118    84.3935     7.8423   -37.9209    11.0804     7.7242     8.1243     0.1164
  219.5000     0.2927     2.5127     0.0157    82.9621     7.8398   -37.9549    12.2007     7.8698     8.2389     0.1120
  220.0000     0.2874     2.4966     0.0095    81.8718     7.8373   -37.9517    12.1786     8.0182     8.3551     0.1102
  220.5000     0.2877     2.4854     0.0034    81.0925     7.8347   -37.9519    11.4881     8.0955     8.4730     0.1116
  221.0000     0.2914     2.4906     0.0020    81.7150     7.8322   -37.9524    11.2858     8.0955     8.5564     0.1132
  221.5000     0.2932     2.4962     0.0035    82.2861     7.8298   -37.9519    11.4016     8.0955     8.5467     0.1069
  222.0000     0.2908     2.4950     0.0077    82.0529     7.8284   -37.9520    11.6320     8.0955     8.5278     0.1028
  222.5000     0.2935     2.4881     0.0127    81.8930     7.8270   -37.9519    11.9284     8.0955     8.5088     0.0989
  223.0000     0.2931     2.4999     0.0177    82.5699     7.8256   -37.9518    11.7744     8.0955     8.4900     0.0944
  223.5000     0.2910     2.5085     0.0198    83.7650     7.8242   -37.9518    11.3426     8.0955     8.4709     0.0945
  224.0000     0.2974     2.5150     0.0200    84.9557     7.8228   -37.9518    11.0794     8.0955     8.4517     0.0967
  224.5000     0.2937     2.5260     0.0223    85.7189     7.8214   -37.9518    11.1801     8.0955     8.4323     0.0953
  225.0000     0.2922     2.5229     0.0232    85.3022     7.8200   -37.9518    11.2858     8.0955     8.4128     0.1029
  225.5000     0.2896     2.5194     0.0193    84.8900     7.8186   -37.9518    11.1590     8.0931     8.3974     0.1020
  226.0000     0.2870     2.5190     0.0179    84.6274     7.8172   -37.9518    10.9525     8.0927     8.3970     0.0997
  226.5000     0.2918     2.5069     0.0178    83.2014     7.8158   -37.9518    10.8768     8.2124     8.5212     0.0992
  227.0000     0.2922     2.5067     0.0149    83.0254     7.8144   -37.9518    10.8768     8.4067     8.7255     0.0894
  227.5000     0.2922     2.5134     0.0139    84.5849     7.8130   -37.9519    10.7885     8.6058     8.9316     0.0798
  228.0000     0.2954     2.5162     0.0139    84.8175     7.8116   -37.9520    10.6779     8.8097     9.1426     0.0732
  228.5000     0.2863     2.5294     0.0169    83.5515     7.8100   -37.9522    11.2105     9.0184     9.3586     0.0574
  229.0000     0.2726     2.5456     0.0303    82.3143     7.8158   -37.9520    13.3337     9.2115     9.5797     0.0505
  229.5000     0.2589     2.5620     0.0318    81.0772     7.8226   -37.9522    17.2545     9.1172     9.7365     0.0641
  230.0000     0.2517     2.5785     0.0364    79.8337     7.8293   -37.9526    15.3037     8.9839     9.5997     0.0813
  230.5000     0.2522     2.5940     0.0337    78.5617     7.8361   -37.9510    11.9284     8.8525     9.4515     0.0898
  231.0000     0.2632     2.5726     0.0258    79.1720     7.8428   -37.9515    11.7102     8.7230     9.3055     0.0888
  231.5000     0.2721     2.5423     0.0198    80.5088     7.8498   -37.8696    11.7102     8.5954     9.1617     0.1007
  232.0000     0.2763     2.5285     0.0215    81.8356     7.8556   -37.7543    11.7102     8.4695     9.0203     0.1043
  232.5000     0.2795     2.5229     0.0196    82.1350     7.8615   -37.6403    11.5428     8.3455     8.8809     0.1114
  233.0000     0.2822     2.5070     0.0155    82.4311     7.8674   -37.5519    11.3292     8.2464     8.7438     0.1081
  233.5000     0.2835     2.5034     0.0114    82.8173     7.8734   -37.5510    11.2858     8.2464     8.5564     0.1078
  234.0000     0.2827     2.4951     0.0079    83.2333     7.8793   -37.5492    11.5247     8.2464     8.5564     0.1048
  234.5000     0.2787     2.4958     0.0079    83.6479     7.8853   -37.5499    11.6601     8.2463     8.5601     0.0986
  235.0000     0.2808     2.5005     0.0078    83.9157     7.8901   -37.5499    11.7102     8.2462     8.5532     0.0948
  235.5000     0.2845     2.5088     0.0147    83.3536     7.8902   -37.5497    11.7102     8.2462     8.5547     0.0992
  236.0000     0.2866     2.5197     0.0230    82.7024     7.8775   -37.5500    11.5674     8.2462     8.5566     0.0960
  236.5000     0.2895     2.5177     0.0279    83.3451     7.8574   -37.5496    11.4331     8.2112     8.5562     0.0977
  237.0000     0.2943     2.5175     0.0260    84.0814     7.8372   -37.5501    11.3004     8.1711     8.5344     0.0959
  237.5000     0.2981     2.5134     0.0231    84.1040     7.8168   -37.5503    11.1689     8.1308     8.5142     0.0960
  238.0000     0.3018     2.5113     0.0203    84.0988     7.8102   -37.5474    11.0393     8.0911     8.4941     0.0978
  238.5000     0.3010     2.5165     0.0198    84.3658     7.8121   -37.5783    10.9111     8.0519     8.4741     0.0948
  239.0000     0.2975     2.5183     0.0216    85.4763     7.8141   -37.6412    10.8763     8.0115     8.4540     0.0872
  239.5000     0.2964     2.5186     0.0236    86.5836     7.8162   -37.7008    10.8759     7.9708     8.4339     0.0904
  240.0000     0.2954     2.5245     0.0239    86.2502     7.8182   -37.7602    10.9606     7.9463     8.4139     0.0928
  240.5000     0.2919     2.5320     0.0243    85.5369     7.8202   -37.8208    11.0745     7.9403     8.3939     0.0881
  241.0000     0.2881     2.5270     0.0257    85.4979     7.8222   -37.8796    11.1898     7.9257     8.3740     0.0865
  241.5000     0.2867     2.5255     0.0272    85.4906     7.8243   -37.9392    11.2842     7.9122     8.3542     0.0931
  242.0000     0.2873     2.5337     0.0279    84.8432     7.8262   -37.9530    11.1286     7.8986     8.3343     0.0932
  242.5000     0.2835     2.5284     0.0241    84.0809     7.8283   -37.9529    11.0005     7.8850     8.3146     0.0982
