~VERSION INFORMATION
 VERS.                2.0:   CWLS LOG ASCII STANDARD - VERSION 2.0
 WRAP.                 NO:   ONE LINE PER DEPTH STEP
~WELL INFORMATION
#MNEM.UNIT      DATA TYPE    INFORMATION
#----------   ------------   ------------------------------
 STRT.F           90.0000:   START DEPTH
 STOP.F         1312.0000:   STOP DEPTH
 STEP.F            0.5000:   STEP LENGTH
 NULL.          -999.2500:   NO VALUE
 COMP. US NAVY/ INTEX OIL CO:   COMPANY
 WELL. RES 3 TEAPOT DOME NPR "S' #42-2:   WELL
 FLD .             TEAPOT:   FIELD
 LOC .       S2 T38N R78W:   LOCATION
 CNTY.            NATRONA:   COUNTY
 STAT.            WYOMING:   STATE
 CTRY. UNITED STATES OF AMERICA:   COUNTRY
 SRVC. Schlumberger Well Surveying Corp:   SERVICE COMPANY
 DATE.        17-JUL-1964:   LOGDATE
 API .       490250646400:   API NUMBER
~CURVE INFORMATION
#MNEM.UNIT       API CODE    CURVE DESCRIPTION
#----------   ------------   ------------------------------
 DEPT.F                  :   
 GR  .GAPI   30 310 01 00:   GAMMA RAY
 CALS.IN     60 280 50 00:   CALIPER FROM SONIC LOG
 DT  .US/F   60 520 32 00:   INTERVAL TRANSIT TIME
 SPR .MV     05 010 01 00:   SPONTANEOUS POTENTIAL FROM RES.
 CILD.MMHO   05 110 46 00:   CONDUCTIVITY INDUCTION LOG DEEP
 ILD .OHMM   05 120 46 00:   INDUCTION LOG DEEP
 ASN .OHMM   05 040 16 00:   AMPLIFIED SHORT NORMAL 16"
~PARAMETER INFORMATION
#MNEM.UNIT          VALUE    DESCRIPTION
#----------   ------------   ------------------------------
 PD  .                 GL:   PERMANENT DATUM
 EPD .F              5142:   ELEVATION PERMANENT DATUM
 LMF .                 KB:   LOG MEASURED FROM
 DAPD.F                 8:   FEET ABOVE PERMANENT DATUM
 DMF .                 KB:   DRILLING MEASURED FROM
 EKB .F              5150:   KELLING BUSHING
 EGL .F              5142:   GROUND LEVEL
 DATE.          7-17-1964:   RUN DATE
 RUN .                  1:   RUN NUMBER
 DD  .F              1300:   DEPTH DRILLER
 DL  .F              1310:   DEPTH LOGGER
 BLI .F              1309:   BOTTOM LOG INTERVAL
 TLI .F               107:   TOP LOG INTERVAL
 CS  .IN            12.25:   CASING SIZE
 CBD .F                10:   CASING BOTTOM DRILLER
 BS  .IN               11:   BIT SIZE
 BSD .F              1300:   BIT SIZE AT DEPTH
 DFT .            GEL-OIL:   DRILLING FLUID TYPE
 DFD .                9.6:   DRILLING FLUID DENSITY
 DFV .                 63:   DRILLING FLUID VISCOSITY
 DFPH.                  8:   DRILLING FLUID PH
 DFL .                9.6:   DRILLING FLUID LOSS
 MSS .           FLOWLINE:   MUD SAMPLE SOURCE
 RMS .OHMM           2.07:   RESISTIVITY MUD SAMPLE
 MST .F                92:   MUD SAMPLE TEMPERATURE
 RMF .OHMM           1.42:   RESISTIVITY MUD FILTRATE SAMPLE
 MFST.F                92:   MUD FILTRATE SAMPLE TEMPERATURE
 RMC .OHMM           2.33:   RESISTIVITY MUD CAKE
 MCST.F                92:   MUD CAKE SAMPLE TEMPERATURE
 MFSS.                 FP:   MUD FILTRATE SAMPLE SOURCE
 MCSS.                 FP:   MUD CAKE SAMPLE SOURCE
 TCS .HRS               1:   TIME CURCULATED STOPPED
 LUN .               4507:   LOGGING UNIT NUMBER
 LUL .              CSPR.:   LOGGING UNIT LOCATION
 ENGI.             DANNER:   RECORDING ENGINEER
 WITN.          JORGENSEN:   WITNESSED BY
 CLNT.            A2DTECH:   CLIENT CODE
 ORIG.        2" 5" PRINT:   ORIGIN OF DATA
 UWI .       490250646400:   UNIQUE WELL ID
 DICO. A2D Technologies, Inc.:   DIGITIZING COMPANY
~OTHER INFORMATION
~A   DEPT       GR       CALS         DT        SPR        CILD         ILD        ASN 
# ...
  408.5000    78.7302    10.7084   105.5296   -62.5979    87.1653    11.7754    13.2690
  409.0000    75.8377    10.7050   107.2824   -62.3301    88.4322    11.6723    13.1180
  409.5000    76.9061    10.7016   109.1149   -61.7803    89.6991    11.6569    12.9634
  410.0000    78.3912    10.6982   125.1148   -61.2439    90.9660    11.6468    12.8061
  410.5000    80.5377    10.6948   149.5009   -60.6988    91.7626    11.6294    12.6461
  411.0000    86.2575    10.6914   146.7579   -60.1550    92.1004    11.6177    12.4881
  411.5000    90.3664    10.6880   145.9923   -59.6698    92.4383    11.5986    12.3273
  412.0000    93.3246    10.6846   142.7460   -59.1814    92.7761    11.5921    12.1718
  412.5000    95.4732    10.6814   116.0212   -58.6983    93.1140    11.5613    12.0064
  413.0000    96.9647    10.6749   117.3121   -58.2024    93.4518    11.5836    11.8775
  413.5000    96.4873    10.6406   120.1054   -57.7589    95.4419    11.4663    11.8460
  414.0000    91.8567    10.4699   127.4598   -57.4784    98.6272    11.3682    11.7063
  414.5000    89.7553    10.6218   124.8369   -56.7688   101.8125    10.7387    11.5101
  415.0000    90.8133    10.8396   129.0161   -56.0125   104.6046     9.6613    10.8411
  415.5000    91.5657    10.9855   129.1946   -55.2682   117.0420     8.7443    10.2104
  416.0000    86.8061    11.0066   129.2503   -54.5182   128.1127     7.9988     9.5205
  416.5000    85.5921    10.9695   128.2568   -53.7708   139.1834     7.4594     8.8112
  417.0000    85.4797    10.8696   126.8135   -53.0225   150.2541     7.0559     8.1908
  417.5000    86.5467    10.8229   125.3705   -52.2735   161.3248     6.7484     7.6846
  418.0000    90.6949    10.8185   123.2652   -51.5262   172.3955     6.4449     7.1534
  418.5000    93.3826    10.8187   122.1203   -50.7859   180.3116     6.3399     6.8016
  419.0000    85.6003    10.8191   121.6685   -50.3109   186.8994     6.3307     6.3628
  419.5000    84.4333    10.9145   120.7297   -50.1352   189.6897     6.3020     6.2287
  420.0000    84.3000    11.1003   119.9250   -50.3232   189.6897     6.2842     6.1718
  420.5000    83.8316    11.0534   122.1287   -50.5326   187.3151     6.2589     6.1354
  421.0000    83.1020    10.8334   122.4398   -50.7345   184.1619     6.2928     6.1663
  421.5000    81.5718    10.7982   122.7912   -50.9389   181.0088     6.3465     6.1860
  422.0000    81.7627    10.7986   132.1536   -51.1436   177.8556     6.3962     6.2127
  422.5000    83.7821    10.7988   149.7239   -51.3466   175.6757     6.4485     6.1966
  423.0000    86.9718    10.7990   132.4799   -51.5145   175.6757     6.4087     6.1390
  423.5000    88.6063    10.7954   132.3293   -51.3833   175.9009     6.3420     6.0640
  424.0000    84.6266    10.7619   127.3092   -51.1539   176.6767     6.2822     6.0543
  424.5000    84.5626    10.7092   125.7731   -50.9606   178.1876     6.2169     6.0580
  425.0000    84.6725    10.6265   126.5849   -50.7519   179.9612     6.1584     6.0839
  425.5000    84.0420    10.5631   125.5581   -50.5519   181.7349     6.0873     6.1193
  426.0000    80.1094    10.5008   123.2364   -50.3465   183.6837     6.0659     6.1519
  426.5000    79.5887    10.4708   120.1043   -50.1446   183.6837     6.1087     6.1564
  427.0000    82.2830    10.7355   118.3484   -49.9236   182.4491     6.1422     6.1563
  427.5000    83.1133    11.1744   115.8446   -49.8491   181.2437     6.1813     6.1778
  428.0000    84.0321    11.2874   113.1526   -49.7964   179.4795     6.2161     6.2320
  428.5000    84.7059    11.2935   111.6466   -49.7362   176.7768     6.2621     6.2975
  429.0000    83.9533    11.3006   111.5399   -49.6796   174.0741     6.3847     6.3820
  429.5000    81.2906    11.1952   111.5964   -49.6210   171.3714     6.5221     6.4741
  430.0000    78.0304    11.0742   112.7601   -49.5633   168.6687     6.6568     6.5619
  430.5000    74.9306    11.0546   113.6272   -49.5041   165.9660     6.7924     6.6565
  431.0000    76.8553    11.0736   114.4076   -49.4964   163.2633     6.9284     6.7088
  431.5000    75.0944    11.1307   114.0428   -49.4982   160.6607     7.0511     6.7201
  432.0000    74.0214    11.1820   113.3051   -49.4975   160.9610     7.0333     6.7402
  432.5000    79.9796    11.1811   112.5672   -49.4980   161.2505     6.9740     6.7721
  433.0000    84.3982    11.1812   111.6430   -49.4978   161.5401     6.9230     6.8075
  433.5000    85.5226    11.1813   111.1051   -49.4979   162.2498     6.8681     6.8342
  434.0000    82.7704    11.1809   110.5673   -49.4979   164.1041     6.8152     6.8116
  434.5000    80.2648    11.1394   110.2123   -49.4980   166.5365     6.7615     6.7417
  435.0000    78.8559    11.0931   110.2840   -49.4980   168.9690     6.7077     6.6721
  435.5000    79.2435    11.0638   110.7011   -49.4980   171.4014     6.6549     6.6037
  436.0000    79.6835    11.0790   111.2868   -49.4980   173.8338     6.5997     6.5334
  436.5000    81.7727    11.0934   111.7881   -49.4980   176.6767     6.5583     6.4744
  437.0000    82.8069    11.1078   112.0853   -49.4980   177.8528     6.5558     6.4280
  437.5000    88.2596    11.1222   112.3719   -49.4980   178.8664     6.5562     6.3971
  438.0000    90.7723    11.1368   112.3243   -49.4980   179.6797     6.5555     6.4019
  438.5000    87.9639    11.1364   112.1765   -49.4980   178.8884     6.5567     6.4038
  439.0000    87.1969    11.1302   112.2880   -49.4981   176.2692     6.5538     6.4129
  439.5000    86.5150    11.1239   111.9378   -49.4980   173.6824     6.5653     6.4082
  440.0000    86.9979    11.1112   110.6551   -49.4981   167.9739     6.6489     6.4839
  440.5000    87.9908    11.0910   109.2746   -49.4980   163.3602     6.7438     6.6092
  441.0000    86.6679    11.0770   108.1736   -49.4984   157.7032     6.8646     6.7081
  441.5000    87.8362    10.5435   107.3521   -49.4962   155.6603     6.9825     6.8295
  442.0000    89.4532    10.1625   106.5307   -49.4774   153.0121     7.1006     6.9291
  442.5000    89.8873    10.2817   105.7083   -49.4579   150.4183     7.2208     7.0051
  443.0000    84.1738    10.3253   104.8927   -49.4386   148.7571     7.3457     7.0957
  443.5000    82.1879    10.3405   104.5259   -49.4195   149.0949     7.4521     7.1756
  444.0000    79.5841    10.3544   104.4956   -49.3999   149.4328     7.4123     7.2711
  444.5000    79.5088    10.3686   104.5375   -49.3814   150.6173     7.2660     7.3235
  445.0000    78.9599    10.4435   104.7024   -49.3607   153.6537     7.1251     7.3088
  445.5000    76.5227    10.6876   105.1556   -49.3441   158.4509     6.9852     7.1799
  446.0000    72.7503    10.8383   105.7129   -49.3201   163.9239     6.8331     7.0127
  446.5000    68.8484    11.0847   106.5161   -49.3106   169.3969     6.7316     6.8482
  447.0000    68.7959    11.1187   107.3193   -49.2233   174.8699     6.6951     6.6828
  447.5000    69.4895    11.1046   108.0321   -49.0821   180.6807     6.6462     6.5300
  448.0000    70.1647    11.0918   108.2466   -48.9663   184.6847     6.6018     6.4749
  448.5000    70.8405    11.0794   108.3379   -48.8317   184.6847     6.5649     6.4529
  449.0000    71.4413    11.0681   108.4292   -48.7203   182.9557     6.6343     6.4273
  449.5000    71.1130    11.0569   108.5204   -48.5702   179.2702     6.7204     6.4115
  450.0000    69.0289    11.0457   108.5409   -48.5966   175.5847     6.8030     6.4314
  450.5000    71.1040    11.0345   108.3835   -48.7402   171.9319     6.8875     6.5657
  451.0000    74.0132    11.0239   108.4415   -48.7669   168.2344     6.9702     6.6980
  451.5000    77.0785    10.9676   108.3996   -48.8218   164.6731     7.0554     6.8274
  452.0000    80.1146    10.8949   108.1456   -48.8617   163.0286     7.1368     6.9606
  452.5000    82.7953    10.8209   108.4639   -48.9096   161.4427     7.2241     7.0441
  453.0000    84.4518    10.7706   108.9719   -48.9536   159.8583     7.2630     7.0554
  453.5000    85.2531    10.7381   109.4864   -48.9996   158.2775     7.2884     7.0488
