~VERSION INFORMATION
 VERS.                2.0:   CWLS LOG ASCII STANDARD - VERSION 2.0
 WRAP.                 NO:   ONE LINE PER DEPTH STEP
~WELL INFORMATION
#MNEM.UNIT      DATA TYPE    INFORMATION
#----------   ------------   ------------------------------
 STRT.F            0.0000:   START DEPTH
 STOP.F         2720.0000:   STOP DEPTH
 STEP.F            0.5000:   STEP LENGTH
 NULL.          -999.2500:   NO VALUE
 COMP. DEPARTMENT OF ENERGY:   COMPANY
 WELL.       NPR-3 #410-A:   WELL
 FLD . TEAPOT NAVAL RESERVE:   FIELD
 LOC .      S20 T39N R78W:   LOCATION
 CNTY.            NATRONA:   COUNTY
 STAT.            WYOMING:   STATE
 CTRY. UNITED STATES OF AMERICA:   COUNTRY
 SRVC.      NL McCullough:   SERVICE COMPANY
 DATE.        26-JUL-1965:   LOGDATE
 API .       490251144500:   API NUMBER
~CURVE INFORMATION
#MNEM.UNIT       API CODE    CURVE DESCRIPTION
#----------   ------------   ------------------------------
 DEPT.F                  :   
 GR  .GAPI   30 310 01 00:   GAMMA RAY
 CALI.IN     30 280 01 00:   CALIPER
~PARAMETER INFORMATION
#MNEM.UNIT          VALUE    DESCRIPTION
#----------   ------------   ------------------------------
 PD  .                 GL:   PERMANENT DATUM
 LMF .                 GL:   LOG MEASURED FROM
 DATE.            7-16-65:   RUN DATE
 RUN .                  1:   RUN NUMBER
 DD  .F              2720:   DEPTH DRILLER
 TLI .F              2100:   TOP LOG INTERVAL
 CS  .IN            6.875:   CASING SIZE
 DFT .              WATER:   DRILLING FLUID TYPE
 ENGI. FITZSIMMONE/COWLTHORPE:   RECORDING ENGINEER
 WITN.             HUDSON:   WITNESSED BY
 CLNT.            A2DTECH:   CLIENT CODE
 ORIG.           5" PRINT:   ORIGIN OF DATA
 UWI .       490251144500:   UNIQUE WELL ID
 DICO. A2D Technologies, Inc.:   DIGITIZING COMPANY
~OTHER INFORMATION
~A    DEPT      GR         CALI 
    0.0000  -999.2500     6.0100
    0.5000  -999.2500     6.0100
    1.0000  -999.2500     6.0100
    1.5000  -999.2500     6.0158
    2.0000  -999.2500     6.0255
    2.5000  -999.2500     6.0431
    3.0000  -999.2500     6.0700
    3.5000  -999.2500     6.0436
    4.0000  -999.2500     6.0469
    4.5000  -999.2500     6.0682
    5.0000  -999.2500     6.0284
    5.5000  -999.2500     6.0247
    6.0000  -999.2500     6.0502
    6.5000  -999.2500     6.0679
    7.0000  -999.2500     6.0535
    7.5000  -999.2500     6.0398
    8.0000  -999.2500     6.0261
    8.5000  -999.2500     6.0118
    9.0000  -999.2500     6.0256
    9.5000  -999.2500     6.0454
   10.0000  -999.2500     6.0454
   10.5000  -999.2500     6.0307
   11.0000  -999.2500     6.0300
   11.5000  -999.2500     6.0301
   12.0000  -999.2500     6.0301
   12.5000  -999.2500     6.0270
   13.0000  -999.2500     6.0174
   13.5000  -999.2500     6.0079
   14.0000  -999.2500     5.9983
   14.5000  -999.2500     5.9917
   15.0000  -999.2500     6.0093
   15.5000  -999.2500     6.0268
   16.0000  -999.2500     6.0446
   16.5000  -999.2500     6.0391
   17.0000  -999.2500     6.0229
   17.5000  -999.2500     6.0062
   18.0000  -999.2500     5.9900
   18.5000  -999.2500     6.0041
   19.0000  -999.2500     6.0217
   19.5000  -999.2500     6.0390
   20.0000  -999.2500     6.0482
   20.5000  -999.2500     6.0418
   21.0000  -999.2500     6.0357
   21.5000  -999.2500     6.0295
   22.0000  -999.2500     6.0233
   22.5000  -999.2500     6.0172
   23.0000  -999.2500     6.0109
   23.5000  -999.2500     6.0143
   24.0000  -999.2500     6.0208
   24.5000  -999.2500     6.0274
   25.0000  -999.2500     6.0250
   25.5000  -999.2500     6.0164
   26.0000  -999.2500     6.0077
   26.5000  -999.2500     5.9988
   27.0000  -999.2500     5.9905
   27.5000  -999.2500     6.0000
   28.0000  -999.2500     6.0106
   28.5000  -999.2500     6.0211
   29.0000  -999.2500     6.0298
   29.5000  -999.2500     6.0252
   30.0000  -999.2500     6.0208
   30.5000  -999.2500     6.0165
   31.0000  -999.2500     6.0121
   31.5000  -999.2500     6.0117
   32.0000  -999.2500     6.0147
   32.5000  -999.2500     6.0178
   33.0000  -999.2500     6.0209
   33.5000  -999.2500     6.0240
   34.0000  -999.2500     6.0270
   34.5000  -999.2500     6.0298
   35.0000  -999.2500     6.0383
   35.5000  -999.2500     6.0484
   36.0000  -999.2500     6.0585
   36.5000  -999.2500     6.0687
   37.0000  -999.2500     6.0790
   37.5000  -999.2500     6.0905
   38.0000  -999.2500     6.0364
   38.5000  -999.2500     5.9727
   39.0000  -999.2500     5.9660
   39.5000  -999.2500     5.9628
   40.0000  -999.2500     5.9593
   40.5000  -999.2500     5.9556
   41.0000  -999.2500     5.9522
   41.5000  -999.2500     5.9552
   42.0000  -999.2500     5.9703
   42.5000  -999.2500     5.9853
   43.0000  -999.2500     6.0000
   43.5000  -999.2500     6.0027
   44.0000  -999.2500     5.9801
   44.5000  -999.2500     5.9571
   45.0000  -999.2500     5.9729
   45.5000  -999.2500     5.9846
   46.0000  -999.2500     5.9670
   46.5000  -999.2500     5.9499
   47.0000  -999.2500     5.9639
   47.5000  -999.2500     5.9814
   48.0000  -999.2500     5.9987
   48.5000  -999.2500     6.0076
   49.0000  -999.2500     5.9999
   49.5000  -999.2500     5.9924
   50.0000  -999.2500     5.9870
   50.5000  -999.2500     5.9826
   51.0000  -999.2500     5.9782
   51.5000  -999.2500     5.9737
   52.0000  -999.2500     5.9704
   52.5000  -999.2500     5.9813
   53.0000  -999.2500     5.9920
   53.5000  -999.2500     6.0025
   54.0000  -999.2500     6.0131
   54.5000  -999.2500     6.0236
   55.0000  -999.2500     6.0336
   55.5000  -999.2500     6.0428
   56.0000  -999.2500     6.0520
   56.5000  -999.2500     6.0613
   57.0000  -999.2500     6.0693
   57.5000  -999.2500     6.0471
   58.0000  -999.2500     6.0330
   58.5000  -999.2500     6.0470
   59.0000  -999.2500     6.0602
   59.5000  -999.2500     6.0734
   60.0000  -999.2500     6.0871
   60.5000  -999.2500     6.0896
   61.0000  -999.2500     6.0871
   61.5000  -999.2500     6.0845
   62.0000  -999.2500     6.0820
   62.5000  -999.2500     6.0795
   63.0000  -999.2500     6.0770
   63.5000  -999.2500     6.0744
   64.0000  -999.2500     6.0720
   64.5000  -999.2500     6.0740
   65.0000  -999.2500     6.0859
   65.5000  -999.2500     6.0976
   66.0000  -999.2500     6.1093
   66.5000  -999.2500     6.1211
   67.0000  -999.2500     6.1328
   67.5000  -999.2500     6.1443
   68.0000  -999.2500     6.1434
   68.5000  -999.2500     6.1283
   69.0000  -999.2500     6.1128
   69.5000  -999.2500     6.1189
   70.0000  -999.2500     6.1295
   70.5000  -999.2500     6.1403
   71.0000  -999.2500     6.1492
   71.5000  -999.2500     6.1116
   72.0000  -999.2500     6.1004
   72.5000  -999.2500     6.0856
   73.0000  -999.2500     6.0379
   73.5000  -999.2500     6.0423
   74.0000  -999.2500     6.0572
   74.5000  -999.2500     6.0719
   75.0000  -999.2500     6.0812
   75.5000  -999.2500     6.0909
   76.0000  -999.2500     6.1008
   76.5000  -999.2500     6.1092
   77.0000  -999.2500     6.0577
   77.5000  -999.2500     6.0016
   78.0000  -999.2500     5.9430
   78.5000  -999.2500     5.9448
   79.0000  -999.2500     5.9660
   79.5000  -999.2500     5.9699
   80.0000  -999.2500     5.9699
   80.5000  -999.2500     5.9768
   81.0000  -999.2500     5.9900
   81.5000  -999.2500     6.0031
   82.0000  -999.2500     6.0165
   82.5000  -999.2500     6.0293
   83.0000  -999.2500     6.0120
   83.5000  -999.2500     5.9921
   84.0000  -999.2500     6.0070
   84.5000  -999.2500     6.0272
   85.0000  -999.2500     6.0475
   85.5000  -999.2500     6.0689
   86.0000  -999.2500     6.0230
   86.5000  -999.2500     6.0203
   87.0000  -999.2500     6.0341
   87.5000  -999.2500     6.0495
   88.0000  -999.2500     6.0093
   88.5000  -999.2500     5.9598
   89.0000  -999.2500     5.9540
   89.5000  -999.2500     5.9594
   90.0000  -999.2500     5.9651
   90.5000  -999.2500     5.9719
   91.0000  -999.2500     5.9860
   91.5000  -999.2500     6.0000
   92.0000  -999.2500     6.0070
   92.5000  -999.2500     5.9927
   93.0000  -999.2500     5.9951
   93.5000  -999.2500     6.0037
   94.0000  -999.2500     6.0073
   94.5000  -999.2500     5.9951
   95.0000  -999.2500     5.9980
   95.5000  -999.2500     6.0190
   96.0000  -999.2500     6.0262
   96.5000  -999.2500     6.0092
   97.0000  -999.2500     5.9925
   97.5000  -999.2500     6.0043
   98.0000  -999.2500     5.9995
   98.5000  -999.2500     5.9562
   99.0000  -999.2500     5.9338
   99.5000  -999.2500     5.9458
  100.0000  -999.2500     5.9574
  100.5000  -999.2500     5.9695
  101.0000  -999.2500     5.9828
  101.5000  -999.2500     5.9969
  102.0000  -999.2500     6.0081
  102.5000  -999.2500     5.9681
  103.0000  -999.2500     5.9623
  103.5000  -999.2500     5.9561
  104.0000  -999.2500     5.9503
  104.5000  -999.2500     5.9618
  105.0000  -999.2500     5.9679
  105.5000  -999.2500     5.9623
  106.0000  -999.2500     5.9569
  106.5000  -999.2500     5.9513
  107.0000  -999.2500     5.9521
  107.5000  -999.2500     5.9555
  108.0000  -999.2500     5.9588
  108.5000  -999.2500     5.9622
  109.0000  -999.2500     5.9654
  109.5000  -999.2500     5.9690
  110.0000  -999.2500     5.9609
  110.5000  -999.2500     5.9482
  111.0000  -999.2500     5.9351
  111.5000  -999.2500     5.9405
  112.0000  -999.2500     5.9587
  112.5000  -999.2500     5.9772
  113.0000  -999.2500     5.9958
  113.5000  -999.2500     6.0144
  114.0000  -999.2500     6.0301
  114.5000  -999.2500     5.9948
  115.0000  -999.2500     5.9564
  115.5000  -999.2500     5.9531
  116.0000  -999.2500     5.9708
  116.5000  -999.2500     5.9882
  117.0000  -999.2500     6.0059
  117.5000  -999.2500     6.0020
  118.0000  -999.2500     5.9775
  118.5000  -999.2500     5.9530
  119.0000  -999.2500     5.9298
  119.5000  -999.2500     5.9430
  120.0000  -999.2500     5.9588
  120.5000  -999.2500     5.9642
  121.0000  -999.2500     5.9449
