~VERSION INFORMATION
 VERS.                2.0:   CWLS LOG ASCII STANDARD - VERSION 2.0
 WRAP.                 NO:   ONE LINE PER DEPTH STEP
~WELL INFORMATION
#MNEM.UNIT      DATA TYPE    INFORMATION
#----------   ------------   ------------------------------
 STRT.F            8.0000:   START DEPTH
 STOP.F          551.0000:   STOP DEPTH
 STEP.F            0.5000:   STEP LENGTH
 NULL.          -999.2500:   NO VALUE
 COMP.   FLUOR DANIEL INC:   COMPANY
 WELL. NAVAL PETROLEUM RESERVE 3 S-10 #31-10:   WELL
 FLD .        TEAPOT DOME:   FIELD
 LOC .      S10 T38N R78W:   LOCATION
 CNTY.            NATRONA:   COUNTY
 STAT.            WYOMING:   STATE
 CTRY. UNITED STATES OF AMERICA:   COUNTRY
 SRVC.       Schlumberger:   SERVICE COMPANY
 DATE.        21-JUN-1970:   LOGDATE
 API .       490251039400:   API NUMBER
~CURVE INFORMATION
#MNEM.UNIT       API CODE    CURVE DESCRIPTION
#----------   ------------   ------------------------------
 DEPT.F                  :   
 SPR .MV     05 010 01 00:   SPONTANEOUS POTENTIAL FROM RES.
 ASN .OHMM   05 041 16 00:   AMPLIFIED SHORT NORMAL 16"
 ILD .OHMM   05 120 46 00:   INDUCTION LOG DEEP
 CILD.MMHO   05 110 46 00:   CONDUCTIVITY INDUCTION LOG DEEP
 CALD.IN     45 280 60 00:   CALIPER FROM DENSITY LOG
 CORR.G/C3   45 356 01 00:   DENSITY CORRECTION
 RHOB.G/C3   45 350 01 00:   BULK DENSITY
 DPHI.DEC    45 890 12 00:   DENSITY POROSITY SANDSTONE
~PARAMETER INFORMATION
#MNEM.UNIT          VALUE    DESCRIPTION
#----------   ------------   ------------------------------
 PD  .                 GL:   PERMANENT DATUM
 EPD .F              5256:   ELEVATION PERMANENT DATUM
 LMF .                 KB:   LOG MEASURED FROM
 DAPD.F                10:   FEET ABOVE PERMANENT DATUM
 DMF .                 KB:   DRILLING MEASURED FROM
 EKB .F              5266:   KELLING BUSHING
 EGL .F              5256:   GROUND LEVEL
 DATE.        27-JUN-1970:   RUN DATE
 RUN .                  1:   RUN NUMBER
 DD  .F               553:   DEPTH DRILLER
 DL  .F               552:   DEPTH LOGGER
 BLI .F               551:   BOTTOM LOG INTERVAL
 TLI .F                44:   TOP LOG INTERVAL
 CS  .IN             9.75:   CASING SIZE
 BS  .IN                9:   BIT SIZE
 BSD .F               553:   BIT SIZE AT DEPTH
 DFT .        FRESHGELMUD:   DRILLING FLUID TYPE
 DFD .                9.2:   DRILLING FLUID DENSITY
 BHT .F               100:   BOTTOM HOLE TEMPERATURE
 TCS .HRS               1:   TIME CURCULATED STOPPED
 MRT .F               100:   MAXIMUM RECORDED TEMPERATURE
 ENGI.             TUSNES:   RECORDING ENGINEER
 WITN.                HAZ:   WITNESSED BY
 CLNT.            A2DTECH:   CLIENT CODE
 ORIG.           5" PRINT:   ORIGIN OF DATA
 UWI .       490251039400:   UNIQUE WELL ID
 DICO. A2D Technologies, Inc.:   DIGITIZING COMPANY
~OTHER INFORMATION
~A    DEPT     SPR        ASN        ILD       CILD         CALD     CORR       RHOB       DPHI   
# ...
  453.5000   -30.2986    14.0082    14.2584    69.3374     8.5661     0.0019     2.4036     0.1523
  454.0000   -30.3396    13.9306    14.1018    69.3473     8.5522    -0.0011     2.4239     0.1389
  454.5000   -30.6329    13.7757    14.0223    70.8783     8.5532     0.0237     2.4224     0.1309
  455.0000   -30.9480    13.6981    13.8657    71.7259     8.5242     0.0155     2.4103     0.1300
  455.5000   -31.1079    13.5432    13.7091    73.1895     8.5100     0.0103     2.3989     0.1374
  456.0000   -31.1125    13.3882    13.6224    74.1038     8.4810     0.0081     2.3891     0.1439
  456.5000   -30.9607    13.3107    13.4609    74.7304     8.4523     0.0172     2.3856     0.1421
  457.0000   -30.6558    13.2331    13.3159    75.5008     8.4380     0.0195     2.4262     0.1314
  457.5000   -30.8157    13.1555    13.2365    75.5008     8.5745     0.0226     2.4546     0.1213
  458.0000   -30.8203    13.0780    13.1570    76.2712     8.6206     0.0158     2.4494     0.1168
  458.5000   -30.8249    13.0778    13.0776    76.2712     8.6216     0.0068     2.4201     0.1258
  459.0000   -30.6731    13.0777    13.0753    76.2712     8.6074     0.0150     2.4059     0.1381
  459.5000   -30.3682    13.0001    13.0730    76.2712     8.5934     0.0190     2.3991     0.1460
  460.0000   -30.0623    13.0774    12.9936    76.2712     8.5794    -0.0012     2.4561     0.1333
  460.5000   -29.7562    13.0772    12.9913    76.2712     8.5655     0.0086     2.4681     0.1153
  461.0000   -29.6056    13.0771    12.9890    75.5008     8.5367     0.0222     2.4711     0.1102
  461.5000   -29.4549    13.1543    13.0645    75.5008     8.5228     0.0275     2.4381     0.1177
  462.0000   -29.3042    13.1542    13.1389    75.5008     8.4938     0.0163     2.4606     0.1261
  462.5000   -29.3090    13.3088    13.2909    74.7304     8.4645     0.0246     2.4749     0.1117
  463.0000   -29.3146    13.3861    13.4429    73.9599     8.4505     0.0584     2.4779     0.1092
  463.5000   -29.3191    13.4633    13.5949    73.1895     8.4519     0.0697     2.4704     0.1201
  464.0000   -29.1673    13.5406    13.6698    73.1895     8.4529     0.0765     2.4261     0.1297
  464.5000   -28.8613    13.6178    13.7447    73.1895     8.4690     0.0608     2.4681     0.1204
  465.0000   -28.8671    13.6074    13.7418    73.1895     8.5000     0.0376     2.4771     0.1092
  465.5000   -28.8717    13.4627    13.7396    73.9599     8.5161     0.0211     2.4824     0.1071
  466.0000   -29.0315    13.3077    13.6601    74.7304     8.5472     0.0054     2.4764     0.1152
  466.5000   -29.3467    13.1528    13.5035    75.5008     8.5482     0.0001     2.4134     0.1344
  467.0000   -29.5065    13.0752    13.3469    76.3790     8.5492    -0.0020     2.3863     0.1444
  467.5000   -29.8217    12.9977    13.2675    77.9534     8.5503     0.0176     2.4164     0.1392
  468.0000   -29.8263    12.8427    13.1109    79.3529     8.5363     0.0297     2.4351     0.1240
  468.5000   -29.9862    12.6878    12.9543    81.6641     8.5223     0.0365     2.4374     0.1357
  469.0000   -30.1460    12.5328    12.7977    82.4345     8.5084     0.0335     2.4312     0.1309
  469.5000   -30.3059    12.3779    12.7183    83.9753     8.4944     0.0403     2.4452     0.1191
  470.0000   -30.4659    12.2229    12.6388    84.7458     8.4657     0.0584     2.4734     0.1098
  470.5000   -30.7811    12.2227    12.4822    85.5162     8.4364     0.0502     2.4220     0.1219
  471.0000   -30.9410    12.2226    12.4028    85.5162     8.4077     0.0360     2.4021     0.1339
  471.5000   -30.9465    12.2157    12.3233    85.5162     8.3935     0.0218     2.4471     0.1200
  472.0000   -30.7947    12.2223    12.3210    86.2866     8.3948     0.0196     2.4164     0.1255
  472.5000   -30.6440    12.3769    12.3959    85.5162     8.3958     0.0249     2.4404     0.1317
  473.0000   -30.6497    12.5460    12.6246    83.9753     8.3969     0.0257     2.4479     0.1194
  473.5000   -30.6543    13.0195    13.0081    81.6641     8.3979     0.0317     2.4464     0.1218
  474.0000   -30.8142    14.0792    13.7003    76.2712     8.3989     0.0469     2.4336     0.1254
  474.5000   -30.8188    15.1627    14.7011    71.6487     8.4300     0.0561     2.4839     0.1083
  475.0000   -31.2892    16.4009    15.8562    67.7966     8.4611     0.0638     2.4876     0.1053
  475.5000   -31.7596    17.4843    16.9342    63.1741     8.4922     0.0695     2.4816     0.1059
  476.0000   -32.2301    18.3356    17.8578    59.3220     8.5533     0.0703     2.4411     0.1203
  476.5000   -32.7005    19.0320    18.8586    56.2404     8.5994     0.0583     2.4051     0.1492
  477.0000   -33.4815    19.5737    19.4736    53.1587     8.6304     0.0321     2.3923     0.1540
  477.5000   -34.2625    19.8058    19.7800    52.3883     8.6315     0.0044     2.4051     0.1531
  478.0000   -35.2070    19.1090    19.4691    53.1587     8.6172     0.0315     2.4096     0.1534
  478.5000   -36.3174    18.4122    18.9267    54.6995     8.6033     0.0428     2.3938     0.1673
  479.0000   -37.0715    17.7929    18.3056    57.1491     8.5893     0.0473     2.3376     0.1934
  479.5000   -36.4559    17.0961    17.5224    60.0924     8.5756     0.0481     2.3136     0.2039
  480.0000   -35.6841    16.7090    16.7387    62.4037     8.5766     0.0437     2.3353     0.1795
  480.5000   -35.2217    16.3218    16.0620    63.1741     8.5626     0.0068     2.3608     0.1686
  481.0000   -35.8485    16.0854    15.7511    63.9445     8.5637     0.0468     2.3848     0.1642
  481.5000   -36.6295    15.8571    15.6717    64.7149     8.5647     0.0491     2.3878     0.1687
  482.0000   -37.2552    15.8570    15.6694    64.7149     8.5658     0.0122     2.3359     0.1889
  482.5000   -37.7257    15.8568    15.8220    64.7149     8.5668     0.0041     2.3030     0.2079
  483.0000   -37.7302    15.9341    15.8969    65.4854     8.5679     0.0027     2.3008     0.2099
  483.5000   -37.7348    16.0887    15.9718    65.4854     8.5689     0.0103     2.3224     0.2009
  484.0000   -37.4277    16.0885    16.0467    65.4854     8.5700     0.0366     2.3387     0.1972
  484.5000   -37.1229    16.0884    16.0438    65.4854     8.5710     0.0352     2.3361     0.1969
  485.0000   -36.8168    16.0108    16.0415    65.4854     8.5720     0.0270     2.3241     0.2011
  485.5000   -36.5109    15.9333    15.8078    65.4854     8.5731     0.0248     2.3188     0.2032
  486.0000   -36.0497    15.7783    15.6512    65.4854     8.5891     0.0173     2.3151     0.2050
  486.5000   -36.0543    15.5460    15.3403    66.2558     8.5874     0.0046     2.3091     0.2059
  487.0000   -36.0590    15.4684    15.1049    67.0262     8.5762    -0.0014     2.3053     0.2059
  487.5000   -36.0896    15.4683    14.9434    68.5670     8.5775    -0.0021     2.3053     0.2056
  488.0000   -36.5350    15.5455    14.7932    68.5670     8.5786     0.0032     2.3076     0.2047
  488.5000   -36.2291    15.6228    14.7904    68.5670     8.5796     0.0198     2.3151     0.2041
  489.0000   -35.9231    15.6236    14.9425    68.5670     8.5807     0.0191     2.3211     0.2026
  489.5000   -35.4619    15.7772    15.1717    68.5670     8.5817     0.0154     2.3278     0.1936
  490.0000   -35.3100    15.9319    15.5552    67.6938     8.5827     0.0125     2.3541     0.1864
  490.5000   -35.4710    16.1639    15.8616    66.8898     8.5838     0.0241     2.3728     0.1704
  491.0000   -35.4756    16.3959    16.1679    65.4854     8.5848     0.0389     2.3653     0.1761
  491.5000   -35.3238    16.7054    16.4743    63.9445     8.5859     0.0359     2.3533     0.1819
  492.0000   -34.8637    17.0148    16.7041    63.1741     8.5869    -0.0023     2.3593     0.1644
  492.5000   -33.9366    17.1695    16.9333    62.4037     8.5880    -0.0023     2.4156     0.1349
  493.0000   -33.3201    17.3242    17.0082    62.4037     8.5740     0.0015     2.4306     0.1286
  493.5000   -33.4799    17.2466    16.8510    61.6333     8.5750     0.0158     2.4284     0.1274
