~VERSION INFORMATION
 VERS.                2.0:   CWLS LOG ASCII STANDARD - VERSION 2.0
 WRAP.                 NO:   ONE LINE PER DEPTH STEP
~WELL INFORMATION
#MNEM.UNIT      DATA TYPE    INFORMATION
#----------   ------------   ------------------------------
 STRT.F           80.0000:   START DEPTH
 STOP.F          718.0000:   STOP DEPTH
 STEP.F            0.5000:   STEP LENGTH
 NULL.          -999.2500:   NO VALUE
 COMP. U S NAVY-INTEX OIL:   COMPANY
 WELL. RES 3 TEAPOT DOM #11SX-2:   WELL
 FLD .             TEAPOT:   FIELD
 LOC .       S2 T38N R78W:   LOCATION
 CNTY.            NATRONA:   COUNTY
 STAT.            WYOMING:   STATE
 CTRY. UNITED STATES OF AMERICA:   COUNTRY
 SRVC.       Schlumberger:   SERVICE COMPANY
 DATE.        05-AUG-1961:   LOGDATE
 API .       490250647900:   API NUMBER
~CURVE INFORMATION
#MNEM.UNIT       API CODE    CURVE DESCRIPTION
#----------   ------------   ------------------------------
 DEPT.F                  :   
 ILD .OHMM   05 120 46 00:   INDUCTION LOG DEEP
 ASN .OHMM   05 041 16 00:   AMPLIFIED SHORT NORMAL 16"
 SPR .MV     05 010 01 00:   SPONTANEOUS POTENTIAL FROM RES.
 CILD.MMHO   05 110 46 00:   CONDUCTIVITY INDUCTION LOG DEEP
 GR  .GAPI   30 310 01 00:   GAMMA RAY
~PARAMETER INFORMATION
#MNEM.UNIT          VALUE    DESCRIPTION
#----------   ------------   ------------------------------
 LMF .                 KB:   LOG MEASURED FROM
 DMF .                 KB:   DRILLING MEASURED FROM
 EKB .F              5105:   KELLING BUSHING
 EGL .F              5100:   GROUND LEVEL
 DATE.           8-5-1961:   RUN DATE
 RUN .                  1:   RUN NUMBER
 DD  .F               715:   DEPTH DRILLER
 DL  .F               719:   DEPTH LOGGER
 BLI .F               718:   BOTTOM LOG INTERVAL
 TLI .F               120:   TOP LOG INTERVAL
 BS  .IN             6.75:   BIT SIZE
 BSD .F               715:   BIT SIZE AT DEPTH
 DFT .       OIL EMULSION:   DRILLING FLUID TYPE
 DFV .                 40:   DRILLING FLUID VISCOSITY
 RMS .OHMM           1.11:   RESISTIVITY MUD SAMPLE
 MST .F                68:   MUD SAMPLE TEMPERATURE
 TCS .HRS               2:   TIME CURCULATED STOPPED
 LUN .               2544:   LOGGING UNIT NUMBER
 LUL .                 NC:   LOGGING UNIT LOCATION
 ENGI.            EARNEST:   RECORDING ENGINEER
 WITN.          JORGENSEN:   WITNESSED BY
 CLNT.            A2DTECH:   CLIENT CODE
 ORIG.      2" & 5" PRINT:   ORIGIN OF DATA
 UWI .       490250647900:   UNIQUE WELL ID
 DICO. A2D Technologies, Inc.:   DIGITIZING COMPANY
~OTHER INFORMATION
~A   DEPT        ILD        ASN      SPR        CILD        GR   
# ...
  141.0000    13.1387     9.2180   -54.9365    88.2107  -999.2500
  141.5000    11.4246     9.6389   -55.1518   102.1968  -999.2500
  142.0000     9.7220    10.5334   -55.3672   116.1829  -999.2500
  142.5000     8.2536    10.4181   -55.5906   130.1690  -999.2500
  143.0000     8.0725    10.2794   -55.6536   139.4754  -999.2500
  143.5000     7.7577    10.1662   -55.5411   146.5453  -999.2500
  144.0000     7.5450    10.0422   -55.3778   153.6152  -999.2500
  144.5000     7.3274     9.6807   -55.2138   160.6851  -999.2500
  145.0000     7.1088     7.7990   -55.0499   167.7550  -999.2500
  145.5000     6.8898     7.0833   -54.8862   174.8249  -999.2500
  146.0000     6.6682     6.7450   -54.7224   180.4175  -999.2500
  146.5000     6.7284     6.5320   -54.5587   179.2810  -999.2500
  147.0000     7.3222     6.7916   -54.3948   178.6150  -999.2500
  147.5000     7.9113     7.1337   -54.2315   169.0052  -999.2500
  148.0000     8.4988     7.8110   -54.0674   155.9667  -999.2500
  148.5000     9.0867     8.4855   -53.8941   142.8847  -999.2500
  149.0000     9.6744     9.1768   -54.0686   129.8079  -999.2500
  149.5000    10.2618     9.4057   -54.3460   116.7277  -999.2500
  150.0000    10.8498     9.7435   -54.6267   103.6402  -999.2500
  150.5000    11.4424     9.9971   -54.9076    92.8330  -999.2500
  151.0000    11.8068    10.0411   -55.1923    88.7135  -999.2500
  151.5000    12.1072     9.1651   -55.2771    84.5966  -999.2500
  152.0000    12.3890     9.4644   -55.3093    80.4700  -999.2500
  152.5000    13.2279     9.9251   -55.3397    76.3313  -999.2500
  153.0000    14.1959     9.9968   -55.3704    72.1926  -999.2500
  153.5000    15.1564    11.0432   -55.4016    68.0538  -999.2500
  154.0000    15.6855    12.0320   -55.4307    66.3201  -999.2500
  154.5000    14.9278    12.1492   -55.4089    70.5159  -999.2500
  155.0000    14.2071    12.2848   -55.2316    74.7117  -999.2500
  155.5000    13.4891    12.4171   -55.0600    78.9126  -999.2500
  156.0000    12.7726    12.5508   -54.8887    83.1214  -999.2500
  156.5000    12.2584    12.6794   -54.7167    86.0176  -999.2500
  157.0000    12.4765    12.7562   -54.5446    86.0275  -999.2500
  157.5000    12.7188    12.2423   -54.3763    84.1504  -999.2500
  158.0000    12.9627    11.8399   -54.3214    81.4206  -999.2500
  158.5000    13.2097    11.4381   -54.5546    78.6947  -999.2500
  159.0000    13.4727    11.0343   -54.7768    75.9781  -999.2500
  159.5000    13.8160    10.6336   -54.9988    73.2668  -999.2500
  160.0000    14.1489    10.2308   -55.2212    70.5552  -999.2500
  160.5000    14.4826     9.3807   -55.4437    67.8437  -999.2500
  161.0000    14.8147    10.9054   -55.6663    66.9622  -999.2500
  161.5000    14.8299    12.0236   -55.8885    69.3598  -999.2500
  162.0000    14.7939    13.2069   -56.1089    71.7575  -999.2500
  162.5000    14.7566    13.9635   -56.1749    71.5706  -999.2500
  163.0000    14.7204    13.9979   -55.9588    70.9997  -999.2500
  163.5000    14.6864    14.0336   -55.7473    70.4289  -999.2500
  164.0000    14.8553    13.7137   -55.5354    69.2073  -999.2500
  164.5000    15.3684    12.8056   -55.3234    66.9595  -999.2500
  165.0000    15.8763    11.9054   -55.1116    64.7117  -999.2500
  165.5000    16.3853    10.9950   -54.8995    62.4640  -999.2500
  166.0000    16.8983     9.9929   -54.6856    60.4087  -999.2500
  166.5000    17.4269     9.8786   -54.4669    58.6326  -999.2500
  167.0000    17.6314     8.8451   -54.4531    56.8566  -999.2500
  167.5000    17.8241    10.1387   -54.4579    55.0902  -999.2500
  168.0000    17.7026    11.6671   -54.7024    53.1954  -999.2500
  168.5000    17.1330    13.1914   -54.8185    56.9088  -999.2500
  169.0000    16.5864    14.7142   -54.9349    60.8946  -999.2500
  169.5000    17.3662    16.2358   -55.0493    64.8907  -999.2500
  170.0000    18.2418    17.8344   -55.1636    62.3260  -999.2500
  170.5000    18.5622    18.0364   -55.2774    51.1928  -999.2500
  171.0000    17.2244    17.6759   -55.3909    54.6282  -999.2500
  171.5000    16.1903    16.9167   -55.4222    58.2247  -999.2500
  172.0000    15.1522    16.1470   -55.3556    67.6143  -999.2500
  172.5000    14.1152    15.3769   -55.2896    77.4602  -999.2500
  173.0000    13.2456    14.6065   -55.2230    80.4292  -999.2500
  173.5000    12.5573    13.8390   -55.1553    83.4446  -999.2500
  174.0000    11.9105    13.0762   -55.0877    86.4335  -999.2500
  174.5000    12.4387    12.5423   -54.8373    86.0494  -999.2500
  175.0000    13.0201    12.0084   -54.3974    82.2068  -999.2500
  175.5000    13.5962    11.5681   -53.9577    78.3439  -999.2500
  176.0000    14.1707    11.1219   -53.5191    74.4811  -999.2500
  176.5000    14.7453    10.6840   -53.0796    70.6183  -999.2500
  177.0000    15.3222    10.2045   -52.9978    66.7579  -999.2500
  177.5000    15.9070    10.1514   -53.2457    62.9123  -999.2500
  178.0000    16.3982    10.8669   -53.4940    59.1736  -999.2500
  178.5000    15.0261    10.1847   -53.7447    63.7954  -999.2500
  179.0000    14.3163    11.5791   -53.9952    68.0954  -999.2500
  179.5000    14.2096    12.4464   -54.2454    69.8222  -999.2500
  180.0000    13.9197    13.6648   -54.4947    71.4983  -999.2500
  180.5000    13.4838    13.4260   -54.7455    73.0827  -999.2500
  181.0000    13.0462    12.9962   -54.8018    75.0497  -999.2500
  181.5000    12.6045    12.5629   -54.7091    78.7550  -999.2500
  182.0000    12.1621    12.1312   -54.6157    82.0079  -999.2500
  182.5000    11.6170    11.6991   -54.5213    88.7483  -999.2500
  183.0000    10.9993    11.2802   -54.4270    95.0574  -999.2500
  183.5000    10.3790    10.7963   -54.3328   101.3509  -999.2500
  184.0000     9.7577    10.0430   -54.2383   107.6563  -999.2500
  184.5000     9.1908     5.9635   -54.1441   113.9540  -999.2500
  185.0000     8.9758     6.4827   -54.0612   120.2554  -999.2500
  185.5000     8.7737     7.6378   -54.0555   125.5368  -999.2500
  186.0000     8.7900     8.3406   -54.4253   123.5388  -999.2500
  186.5000     8.9380     8.1690   -55.0337   121.4645  -999.2500
  187.0000     9.1295     7.9896   -54.8794   118.8005  -999.2500
  187.5000     9.3459     7.8139   -54.2746   114.0656  -999.2500
  188.0000     9.5625     7.6372   -54.3579   108.0716  -999.2500
  188.5000     9.7789     7.4226   -54.8193   102.0775  -999.2500
  189.0000     9.9952     6.9618   -55.2904   100.7488  -999.2500
  189.5000    10.2164     6.3855   -55.4199   102.0808  -999.2500
  190.0000    10.1574     6.8684   -55.2000   103.4129  -999.2500
  190.5000     9.9594     7.5355   -54.9775   104.7449  -999.2500
  191.0000     9.7605     7.1504   -54.7550   106.3738  -999.2500
  191.5000     9.5389     6.7892   -54.5205   109.5706  -999.2500
  192.0000     9.2438     6.4310   -54.6381   112.7674  -999.2500
  192.5000     8.9430     6.0565   -54.9012   118.0666  -999.2500
  193.0000     8.6452     6.0194   -55.1858   124.3936  -999.2500
  193.5000     8.3803     6.1080   -54.8994   130.7207  -999.2500
  194.0000     8.3266     6.1971   -54.3889   131.3320  -999.2500
  194.5000     8.2656     6.1619   -53.8772   120.6983  -999.2500
  195.0000     8.2038     5.5380   -53.4447   106.2127  -999.2500
  195.5000     8.1422     4.9198   -53.6232   101.8887  -999.2500
  196.0000     8.0803     4.2854   -53.8515   121.7346  -999.2500
  196.5000     8.0188     4.1260   -54.0798   137.6839  -999.2500
  197.0000     8.0547     4.2101   -54.3091   139.5030  -999.2500
  197.5000     8.3040     4.3297   -54.5373   136.5060  -999.2500
  198.0000     8.4312     4.4319   -54.7665   133.5090  -999.2500
  198.5000     8.0695     5.3378   -55.0085   138.1312  -999.2500
  199.0000     7.7184     6.4827   -54.7587   145.5524  -999.2500
  199.5000     7.3713     7.4044   -54.3624   152.9736  -999.2500
  200.0000     7.0991     7.4305   -53.9454   158.5487  -999.2500
  200.5000     7.1080     6.8781   -54.1608   158.5487  -999.2500
  201.0000     7.1557     6.1550   -54.4048   154.2334  -999.2500
  201.5000     7.3676     5.4282   -54.1356   148.5034  -999.2500
