~VERSION INFORMATION
 VERS.                2.0:   CWLS LOG ASCII STANDARD - VERSION 2.0
 WRAP.                 NO:   ONE LINE PER DEPTH STEP
~WELL INFORMATION
#MNEM.UNIT      DATA TYPE    INFORMATION
#----------   ------------   ------------------------------
 STRT.F           24.0000:   START DEPTH
 STOP.F          464.0000:   STOP DEPTH
 STEP.F            0.5000:   STEP LENGTH
 NULL.          -999.2500:   NO VALUE
 COMP.    FENIX & SCISSON:   COMPANY
 WELL.       NPR #62-S-10:   WELL
 FLD .             TEAPOT:   FIELD
 LOC .      S10 T38N R78W:   LOCATION
 CNTY.            NATRONA:   COUNTY
 STAT.            WYOMING:   STATE
 CTRY. UNITED STATES OF AMERICA:   COUNTRY
 SRVC.              Welex:   SERVICE COMPANY
 DATE.        12-APR-1977:   LOGDATE
 API .       490251033300:   API NUMBER
~CURVE INFORMATION
#MNEM.UNIT       API CODE    CURVE DESCRIPTION
#----------   ------------   ------------------------------
 DEPT.F                  :   
 SPR .MV     07 010 01 00:   SPONTANEOUS POTENTIAL
 ILD .OHMM   07 120 46 00:   INDUCTION LOG DEEP
 ILM .OHMM   07 120 44 00:   INDUCTION LOG MEDIUM
 SGRD.OHMM   07 221 05 00:   SHALLOW SHORT GUARD RESISTIVITY
 GRD .GAPI   45 310 01 00:   GAMMA RAY FROM DENSITY LOG
 CALD.IN     45 280 60 00:   CALIPER FROM DENSITY LOG
 CORR.G/C3   45 356 01 00:   DENSITY CORRECTION
 RHOB.G/C3   45 350 01 00:   BULK DENSITY
 DPHI.DEC    45 890 12 00:   DENSITY POROSITY SANDSTONE
~PARAMETER INFORMATION
#MNEM.UNIT          VALUE    DESCRIPTION
#----------   ------------   ------------------------------
 PD  .                 GL:   PERMANENT DATUM
 EPD .F              5155:   ELEVATION PERMANENT DATUM
 LMF .                 GL:   LOG MEASURED FROM
 DMF .                 GL:   DRILLING MEASURED FROM
 EGL .F              5155:   GROUND LEVEL
 DATE.        12-APR-1977:   RUN DATE
 RUN .                  1:   RUN NUMBER
 DD  .F               460:   DEPTH DRILLER
 DL  .F               464:   DEPTH LOGGER
 BLI .F               462:   BOTTOM LOG INTERVAL
 TLI .F                30:   TOP LOG INTERVAL
 CS  .IN            8.625:   CASING SIZE
 BS  .IN            7.875:   BIT SIZE
 BSD .F               460:   BIT SIZE AT DEPTH
 DFT .            KCL GEL:   DRILLING FLUID TYPE
 DFD .                8.8:   DRILLING FLUID DENSITY
 TCS .HRS            0100:   TIME CURCULATED STOPPED
 MRT .F                65:   MAXIMUM RECORDED TEMPERATURE
 ENGI.        E. CALLAHAN:   RECORDING ENGINEER
 WITN.            R. LYON:   WITNESSED BY
 CLNT.            A2DTECH:   CLIENT CODE
 ORIG.           5" PRINT:   ORIGIN OF DATA
 UWI .       490251033300:   UNIQUE WELL ID
 DICO. A2D Technologies, Inc.:   DIGITIZING COMPANY
~OTHER INFORMATION
~A   DEPT      SPR        ILD        ILM       SGRD        GRD       CALD       CORR       RHOB       DPHI   
# ...
  170.0000   -29.5521     5.3711     6.6788     6.6331   132.8795     8.0840    -0.0064     2.4512     0.1221
  170.5000   -29.5446     5.6409     6.9163     8.8771   132.1476     8.0852     0.0072     2.4626     0.1148
  171.0000   -29.5371     5.9208     7.1623     9.5649   131.7156     8.0864     0.0178     2.4837     0.1051
  171.5000   -29.5296     6.0890     7.4170    10.1634   131.7333     8.1026     0.0224     2.4808     0.1024
  172.0000   -29.5221     6.4384     7.6808    10.5233   132.5007     8.1037     0.0270     2.4816     0.1066
  172.5000   -29.5145     6.7610     7.8446    10.5245   131.4690     8.1049     0.0316     2.4907     0.0976
  173.0000   -29.5070     7.0508     8.0075    10.2424   132.9860     8.1061     0.0363     2.4990     0.0894
  173.5000   -29.4995     7.2021     8.1264     9.8952   131.9290     8.1073     0.0364     2.5051     0.0876
  174.0000   -29.4920     7.3567     8.2997    10.3235   130.6271     8.1085     0.0320     2.5067     0.0879
  174.5000   -29.4845     7.4628     8.4183    10.8408   129.4455     8.0944     0.0306     2.5052     0.0899
  175.0000   -29.4770     7.5704     8.5385    10.7711   127.6641     8.0959     0.0307     2.5023     0.0914
  175.5000   -29.4695     7.6266     8.6020    10.7024   126.3281     8.0970     0.0279     2.4978     0.0932
  176.0000   -29.4620     7.6303     8.6660    10.7076   126.9500     8.0982     0.0280     2.4964     0.0947
  176.5000   -29.1559     7.6340     8.7304    10.7871   128.9168     8.0844     0.0266     2.4964     0.0941
  177.0000   -28.9992     7.6378     8.7346    10.9427   133.8821     8.0856     0.0267     2.4935     0.0964
  177.5000   -28.8424     7.6415     8.7996    11.0240   139.1472     8.0868     0.0224     2.4837     0.1018
  178.0000   -28.6856     7.6452     8.8650    11.0294   140.0645     8.0880     0.0209     2.4733     0.1069
  178.5000   -28.5289     7.6489     8.8693    10.9574   139.7824     8.0894     0.0211     2.4741     0.1102
  179.0000   -28.3721     7.6526     8.8736    10.8886   139.2005     8.0906     0.0212     2.4779     0.1105
  179.5000   -28.3646     7.6564     8.8779    10.8188   138.4686     8.0918     0.0243     2.4840     0.1080
  180.0000   -28.3571     7.6601     8.8823    10.6754   139.6857     8.0930     0.0274     2.4878     0.1056
  180.5000   -28.3496     7.6638     8.8866    10.5327   142.2522     8.1091     0.0276     2.4818     0.1096
  181.0000   -28.3421     7.6676     8.8909    10.4652   144.6688     8.1103     0.0262     2.4721     0.1113
  181.5000   -28.3345     7.6713     8.7730    10.6174   146.3438     8.1115     0.0263     2.4782     0.1079
  182.0000   -28.3270     7.6750     8.7157    10.7705   147.7511     8.1127     0.0279     2.4880     0.1043
  182.5000   -28.6180     7.6788     8.6598    11.0017   149.2404     8.0986     0.0295     2.4919     0.1061
  183.0000   -28.6105     7.6286     8.5449    11.0070   149.1824     8.1001     0.0282     2.4791     0.1114
  183.5000   -28.7541     7.6333     8.4326    10.9352   145.5116     8.1013     0.0283     2.4738     0.1066
  184.0000   -28.8959     7.5321     8.3775    10.8524   146.8787     8.1024     0.0300     2.4792     0.1045
  184.5000   -28.9119     7.3811     8.3826    10.7112   147.6416     8.1036     0.0345     2.4868     0.1093
  185.0000   -29.0301     7.1832     8.3289    10.5791   146.6144     8.1048     0.0379     2.4740     0.1113
  185.5000   -29.0383     6.8946     8.2184    10.5113   144.9829     8.1060     0.0438     2.4671     0.1158
  186.0000   -29.3136     6.7098     7.9428    10.5165   143.0517     8.1072     0.0379     2.4547     0.1218
  186.5000   -29.4553     6.4403     7.6234    10.3056   142.6152     8.1084     0.0305     2.4524     0.1257
  187.0000   -29.5971     6.2245     7.0681     9.2948   143.6869     8.1098     0.0351     2.4631     0.1163
  187.5000   -29.5896     6.0989     6.8777     5.8919   142.5052     8.1110     0.0397     2.4706     0.1150
  188.0000   -29.5820     5.9361     6.9297     7.1540   138.1752     8.1122     0.0414     2.4579     0.1160
  188.5000   -29.5745     5.8084     6.9812     9.3084   135.4942     8.1134     0.0415     2.4738     0.1123
  189.0000   -29.5670     5.6605     7.0331     9.3776   134.6125     8.1145     0.0401     2.4671     0.1140
  189.5000   -29.5595     5.5029     6.9398     9.4473   134.0300     8.1157     0.0402     2.4521     0.1206
  190.0000   -29.5520     5.3193     6.8469     9.7170   134.1982     8.1169     0.0418     2.4385     0.1282
  190.5000   -29.6940     5.2135     6.6181    10.1323   134.3659     8.1181     0.0435     2.4522     0.1246
  191.0000   -29.8358     5.1097     6.3082     9.2669   134.2279     8.1342     0.0481     2.4703     0.1107
  191.5000   -29.8280     5.0450     5.2357     7.9631   133.4743     8.1202     0.0542     2.4997     0.0905
  192.0000   -29.9716     5.0825     5.3481     4.6458   133.9081     8.1366     0.0543     2.5194     0.0797
  192.5000   -29.9622     5.1921     5.7739     5.0852   134.8867     8.1378     0.0484     2.5127     0.0848
  193.0000   -29.9547     5.3397     6.3205     9.0944   134.0093     8.1539     0.0440     2.5022     0.0914
  193.5000   -29.9472     5.5686     6.6835     9.7502   132.6777     8.1701     0.0396     2.4932     0.0964
  194.0000   -30.0908     5.8476     6.9703     9.8909   132.0914     8.1862     0.0352     2.4872     0.1003
  194.5000   -30.2325     6.0563     7.1694     9.8957   133.1630     8.1724     0.0322     2.4842     0.1036
  195.0000   -30.3743     6.3159     7.2822     9.9005   134.2302     8.1587     0.0310     2.4812     0.1060
  195.5000   -30.3649     6.5866     7.5412     9.9054   134.8477     8.1449     0.0296     2.4775     0.1081
  196.0000   -30.3574     6.8690     7.6935     9.9790   134.1158     8.1311     0.0283     2.4717     0.1107
  196.5000   -30.3498     7.0651     7.7507     9.9838   133.5339     8.1326     0.0254     2.4650     0.1134
  197.0000   -30.3442     7.2167     7.7008     9.9887   133.7016     8.1337     0.0225     2.4575     0.1176
  197.5000   -30.3996     7.0232     7.5936     9.9926   134.3190     8.1349     0.0181     2.4470     0.1224
  198.0000   -30.4489     6.5572     7.4422     9.9185   134.9365     8.1208     0.0123     2.4388     0.1267
  198.5000   -30.4982     6.2938     7.2405     9.7147   134.6544     8.1073     0.0064     2.4313     0.1317
  199.0000   -30.5475     6.2527     6.9513     9.1240   134.0720     8.0933     0.0020     2.4298     0.1358
  199.5000   -30.5968     6.2565     6.5829     7.9728   134.3900     8.0947     0.0036     2.4359     0.1112
  200.0000   -30.5970     5.4137     6.1893     5.5651   136.0570     8.0804     0.0102     2.4632     0.1051
  200.5000   -30.5806     5.1595     6.0240     5.2322   138.7871     8.0789     0.0225     2.4903     0.1018
  201.0000   -30.5642     5.4181     6.2842     8.2035   139.3970     8.0774     0.0281     2.4949     0.0951
  201.5000   -30.5478     5.6500     6.5551     9.9643   138.4977     8.0759     0.0327     2.5064     0.0921
  202.0000   -30.5313     5.8917     6.7906     8.1910   137.3123     8.0744     0.0388     2.5208     0.0839
  202.5000   -30.5149     6.0595     7.1376     7.7234   135.6422     8.0751     0.0390     2.5267     0.0782
  203.0000   -30.3493     6.3626     7.6521     9.4969   132.9536     8.0769     0.0360     2.5237     0.0761
  203.5000   -30.3328     6.6349     7.9787    10.0123   130.2060     8.0633     0.0317     2.5176     0.0780
  204.0000   -30.1672     6.9188     8.2607    10.8575   131.5952     8.0655     0.0242     2.5080     0.0838
  204.5000   -30.1507     7.2649     8.4498    11.0912   132.7965     8.0823     0.0244     2.5059     0.0893
  205.0000   -30.2843     7.5235     8.7540    11.1743   131.1734     8.0841     0.0260     2.5092     0.0877
  205.5000   -30.4172     7.7377     9.0621    11.4148   130.7393     8.0858     0.0276     2.5114     0.0859
  206.0000   -30.5501     7.9580     9.3151    11.7414   131.3651     8.0876     0.0263     2.5114     0.0853
