~VERSION INFORMATION
 VERS.                2.0:   CWLS LOG ASCII STANDARD - VERSION 2.0
 WRAP.                 NO:   ONE LINE PER DEPTH STEP
~WELL INFORMATION
#MNEM.UNIT      DATA TYPE    INFORMATION
#----------   ------------   ------------------------------
 STRT.F            3.0000:   START DEPTH
 STOP.F          604.0000:   STOP DEPTH
 STEP.F            0.5000:   STEP LENGTH
 NULL.          -999.2500:   NO VALUE
 COMP. BROWN JOHN E&C INC:   COMPANY
 WELL.    73-2 SX-3 #73-3:   WELL
 FLD .             TEAPOT:   FIELD
 LOC .       S3 T38N R78W:   LOCATION
 CNTY.            NATRONA:   COUNTY
 STAT.            WYOMING:   STATE
 CTRY. UNITED STATES OF AMERICA:   COUNTRY
 SRVC.     Atlas Wireline:   SERVICE COMPANY
 DATE.        13-APR-1992:   LOGDATE
 API .       490252251100:   API NUMBER
~CURVE INFORMATION
#MNEM.UNIT       API CODE    CURVE DESCRIPTION
#----------   ------------   ------------------------------
 DEPT.F                  :   
 GRR .GAPI   07 310 01 00:   GAMMA RAY
 RILD.OHMM   07 120 46 00:   INDUCTION LOG DEEP RESISTIVITY
 RILM.OHMM   07 120 44 00:   INDUCTION LOG MEDIUM RESISTIVITY
~PARAMETER INFORMATION
#MNEM.UNIT          VALUE    DESCRIPTION
#----------   ------------   ------------------------------
 PD  .                 GL:   PERMANENT DATUM
 EPD .F              5131:   ELEVATION PERMANENT DATUM
 LMF .                 KB:   LOG MEASURED FROM
 DAPD.F                 5:   FEET ABOVE PERMANENT DATUM
 DMF .                 KB:   DRILLING MEASURED FROM
 EKB .F              5136:   KELLING BUSHING
 EDF .F              5135:   DRILLING FLOOR
 EGL .F              5131:   GROUND LEVEL
 DATE.        13-APR-1992:   RUN DATE
 RUN .                  1:   RUN NUMBER
 DD  .F               610:   DEPTH DRILLER
 DL  .F               608:   DEPTH LOGGER
 BLI .F               605:   BOTTOM LOG INTERVAL
 TLI .F                 3:   TOP LOG INTERVAL
 CS  .IN            8.625:   CASING SIZE
 CBD .F                45:   CASING BOTTOM DRILLER
 CBL .F                50:   CASING BOTTOM LOGGER
 BS  .IN            7.875:   BIT SIZE
 BSD .F               610:   BIT SIZE AT DEPTH
 DFT .                AIR:   DRILLING FLUID TYPE
 LUN .           HL- 6272:   LOGGING UNIT NUMBER
 LUL .             CASPER:   LOGGING UNIT LOCATION
 ENGI.       P. RASHUSSEN:   RECORDING ENGINEER
 WITN.          G. STRONG:   WITNESSED BY
 CLNT.            A2DTECH:   CLIENT CODE
 ORIG.           5" PRINT:   ORIGIN OF DATA
 UWI .       490252251100:   UNIQUE WELL ID
 DICO. A2D Technologies, Inc.:   DIGITIZING COMPANY
~OTHER INFORMATION
~A    DEPT      GRR      RILD       RILM   
# ...
  458.0000   100.0188     9.8298     9.8587
  458.5000   105.1503     9.6902     9.7186
  459.0000   105.1146     9.6195     9.6477
  459.5000   104.1671     9.5486     9.6444
  460.0000   104.1314     9.6130     9.6411
  460.5000   104.7052     9.6089     9.6378
  461.0000   104.9726     9.6729     9.7021
  461.5000   105.8480     9.8055     9.8352
  462.0000   106.1162    10.0796    10.2522
  462.5000   107.8013    10.8043    10.7250
  463.0000   109.6922    11.6274    12.0294
  463.5000   107.5199    12.5876    13.4468
  464.0000   103.8368    13.3988    14.9265
  464.5000    98.6339    14.9762    16.5691
  465.0000    88.2639    16.8566    19.1794
  465.5000    79.4136    19.5100    21.1419
  466.0000    75.7394    22.4241    22.9819
  466.5000    78.1264    25.0640    25.8698
  467.0000    79.3070    27.0543    28.3184
  467.5000    78.0344    28.5976    29.1092
  468.0000    75.5501    27.4157    28.5960
  468.5000    71.2878    26.2673    27.5078
  469.0000    70.9481    25.3431    25.4653
  469.5000    71.2253    24.3222    23.5745
  470.0000    72.7004    23.8102    22.4422
  470.5000    77.8319    22.9860    22.2784
  471.0000    82.0515    22.0360    22.5840
  471.5000    85.0642    21.7232    22.8938
  472.0000    82.5880    21.1181    23.3705
  472.5000    81.0325    20.3870    23.5262
  473.0000    79.4771    20.2384    22.8699
  473.5000    78.2026    20.3732    21.7715
  474.0000    78.2371    20.3661    21.0159
  474.5000    80.8808    20.5017    20.4301
  475.0000    83.5807    20.4944    20.1399
  475.5000    85.9766    20.2021    19.7156
  476.0000    87.1656    20.0548    19.4356
  476.5000    88.3368    19.6326    19.0261
  477.0000    88.6140    19.2194    19.0196
  477.5000    87.0496    18.9465    19.0132
  478.0000    85.4941    18.9401    19.1398
  478.5000    83.6347    18.9336    19.1325
  479.0000    84.2148    18.7955    19.1259
  479.5000    88.7985    18.6584    18.9856
  480.0000    94.1570    18.5224    18.5857
  480.5000    89.8660    18.2487    18.4500
  481.0000    87.3987    17.9792    17.9357
  481.5000    87.6758    17.7432    17.6809
  482.0000    89.1510    17.4914    17.4298
  482.5000    90.0360    17.3638    17.3026
  483.0000    89.9914    17.2372    17.1763
  483.5000    89.3478    17.1115    17.1704
  484.0000    87.7924    16.8686    17.0444
  484.5000    87.7567    16.8628    16.9200
  485.0000    87.7210    16.8570    16.6790
  485.5000    88.6424    16.7341    16.4420
  486.0000    92.5039    16.4966    15.9837
  486.5000    91.2523    16.3667    15.6470
  487.0000    90.0008    16.1249    15.5328
  487.5000    91.4849    15.6928    15.4194
  488.0000    93.5858    15.3624    15.2004
  488.5000    93.5412    15.1444    14.9845
  489.0000    93.5055    14.9294    14.7716
  489.5000    94.3816    14.8205    14.6632
  490.0000    95.2578    14.6101    14.6582
  490.5000    94.3040    14.5036    14.5506
  491.0000    93.0252    14.4986    14.6476
  491.5000    92.7191    14.4937    14.6426
  492.0000    94.4981    14.4887    14.5357
  492.5000    96.9030    14.4837    14.5307
  493.0000    95.9465    14.4786    14.4247
  493.5000    95.6068    14.3720    14.4198
  494.0000    96.4830    14.1680    14.3146
  494.5000    97.9760    13.8698    14.2101
  495.0000    97.0195    13.4834    13.9589
  495.5000    96.3759    13.0167    13.1512
  496.0000    95.7323    12.3058    12.2583
  496.5000    96.3221    12.0467    12.0001
  497.0000    98.7436    11.8757    11.9125
  497.5000    98.3518    11.7891    11.9084
  498.0000    97.4043    11.7031    11.9044
  498.5000    94.0251    11.6991    11.8175
  499.0000    93.9894    11.6136    11.7313
  499.5000    93.9537    11.5282    11.4042
  500.0000    94.5262    11.3554    11.1640
  500.5000    91.4072    11.2320    11.3972
  501.0000    89.2948    11.1127    11.0798
  501.5000    89.2614    11.0425    10.9232
  502.0000    94.3886    11.0395    10.9198
  502.5000    99.8268    10.9597    10.9168
  503.0000   102.2254    10.8805    10.9138
  503.5000    99.1529    10.8019    10.9108
  504.0000    94.2567    10.7989    10.9078
  504.5000    91.4881    10.7960    10.9812
  505.0000    91.7673    10.8693    11.0551
  505.5000    93.2458    10.9424    11.1295
  506.0000    96.2606    11.0153    11.2044
  506.5000    95.9154    11.0894    11.2798
  507.0000    96.1946    11.0863    11.3557
  507.5000    97.6731    11.1609    11.3526
  508.0000    99.7690    11.2359    11.3495
  508.5000   100.0395    11.2321    11.3460
  509.0000   100.9176    11.2290    11.3429
  509.5000   101.1886    11.1479    11.3394
  510.0000    99.9392    11.0673    11.3363
  510.5000   100.8541    10.9874    11.3331
  511.0000   103.0700    10.9080    11.2512
  511.5000   108.0392    10.8291    11.1698
  512.0000   106.7904    10.7509    10.8584
  512.5000   104.6298    10.6732    10.7799
  513.0000   102.4691    10.5961    10.6275
  513.5000   102.1322    10.3738    10.4772
  514.0000   104.5308    10.2272    10.4015
  514.5000   107.2333    10.1533    10.3262
  515.0000   108.7283    10.1504    10.3234
  515.5000   108.9911    10.2188    10.3929
  516.0000   110.4861    10.2868    10.3900
  516.5000   111.3567    10.2840    10.2431
  517.0000   111.6292    10.3539    10.1691
  517.5000   109.4670    10.3503    10.1663
  518.0000   108.5221    10.2755    10.1635
  518.5000   107.8733    10.2727    10.1600
  519.0000   108.1598    10.1985    10.1572
  519.5000   108.7271    10.1248    10.2270
  520.0000   107.6597    10.1220    10.2227
  520.5000   104.1003    10.0489    10.2199
  521.0000   105.2764    10.0461    10.2901
  521.5000   107.0671    10.0427    10.2859
  522.0000   112.2013     9.9707    10.2831
  522.5000   112.4805     9.9680    10.2087
  523.0000   110.6156     9.9646    10.1349
  523.5000   106.9351     9.8926    10.0616
  524.0000   106.2942     9.8212     9.9888
  524.5000   107.1731     9.7502     9.9166
  525.0000   108.3559     9.6797     9.8449
  525.5000   109.5387     9.5430     9.7057
  526.0000   112.2413     9.4081     9.6348
  526.5000   113.4255     9.2752     9.5652
  527.0000   113.3911     9.1442     9.4960
  527.5000   113.3581     8.9523     9.2319
  528.0000   114.5409     8.8876     9.0380
  528.5000   116.6356     8.7620     8.9727
  529.0000   114.0854     8.6346     8.7843
  529.5000   110.0961     8.4569     8.5998
  530.0000   110.7533     8.2790     8.4192
  530.5000   114.0637     8.1620     8.1281
  531.0000   119.1979     8.0467     7.9574
  531.5000   120.3890     7.9330     7.7903
  532.0000   120.3477     7.3963     7.5209
  532.5000   117.5792     6.8004     6.8664
  533.0000   117.5462     6.0803     6.1819
  533.5000   117.8254     5.2869     5.2629
  534.0000   118.6960     4.9985     4.4496
  534.5000   128.6934     4.9279     4.2963
  535.0000   141.7303     4.9610     4.7026
  535.5000   149.2961     5.0294     5.0767
  536.0000   148.6552     5.1717     5.5189
  536.5000   136.7681     5.3982     6.0417
  537.0000   123.6597     5.6329     6.5222
  537.5000   115.1161     6.1932     6.9920
  538.0000   109.0041     7.1187     7.4957
  538.5000   107.1556     7.7925     8.0356
  539.0000   108.3302     8.3534     8.4949
  539.5000   111.0327     8.7081     8.7337
  540.0000   115.2551     8.8899     8.9156
  540.5000   119.7813     9.0124     8.9762
  541.0000   119.7483     9.0736     8.9725
  541.5000   119.7153     9.1346     9.0335
  542.0000   120.5942     9.1955     9.0304
  542.5000   124.2086     9.2573     9.1555
  543.0000   123.2638     9.3195     9.2171
  543.5000   122.3189     9.3822     9.3435
  544.0000   121.3576     9.4453     9.6056
  544.5000   119.4925     9.5748     9.8062
  545.0000   117.0517     9.7067     9.9421
  545.5000   117.3789     9.8410    10.1490
  546.0000   119.1062    10.0458    10.3611
  546.5000   121.8088    10.1848    10.5775
  547.0000   122.6959    10.2533    10.6494
  547.5000   119.3112    10.2498    10.6457
  548.0000   117.7584    10.2470    10.6428
  548.5000   116.8136    10.3879    10.7888
