~VERSION INFORMATION
 VERS.                2.0:   CWLS LOG ASCII STANDARD - VERSION 2.0
 WRAP.                 NO:   ONE LINE PER DEPTH STEP
~WELL INFORMATION
#MNEM.UNIT      DATA TYPE    INFORMATION
#----------   ------------   ------------------------------
 STRT.F          190.0000:   START DEPTH
 STOP.F         3246.0000:   STOP DEPTH
 STEP.F            0.5000:   STEP LENGTH
 NULL.          -999.2500:   NO VALUE
 COMP. BROWN JOHN E&C INC:   COMPANY
 WELL.      STX-15 #84-15:   WELL
 FLD .             TEAPOT:   FIELD
 LOC .      S15 T38N R78W:   LOCATION
 CNTY.            NATRONA:   COUNTY
 STAT.            WYOMING:   STATE
 CTRY. UNITED STATES OF AMERICA:   COUNTRY
 SRVC.           BIRDWELL:   SERVICE COMPANY
 DATE.        17-MAR-1978:   LOGDATE
 API .       490251111600:   API NUMBER
~CURVE INFORMATION
#MNEM.UNIT       API CODE    CURVE DESCRIPTION
#----------   ------------   ------------------------------
 DEPT.F                  :   
 ILD .OHMM   05 120 46 00:   INDUCTION LOG DEEP
 SN  .OHMM   05 040 16 00:   SHORT NORMAL 16"
 SPR .MV     05 010 01 00:   SPONTANEOUS POTENTIAL FROM RES.
 GRD .GAPI   45 310 01 00:   GAMMA RAY FROM DENSITY LOG
 CALD.IN     45 280 60 00:   CALIPER
 RHOB.G/C3   45 350 01 00:   BULK DENSITY
 CORR.G/C3   45 356 01 00:   DENSITY CORRECTION
 DPHI.DEC    45 890 12 00:   DENSITY POROSITY SANDSTONE
~PARAMETER INFORMATION
#MNEM.UNIT          VALUE    DESCRIPTION
#----------   ------------   ------------------------------
 PD  .                 GL:   PERMANENT DATUM
 EPD .F              5241:   ELEVATION PERMANENT DATUM
 LMF .                 KB:   LOG MEASURED FROM
 DAPD.F                10:   FEET ABOVE PERMANENT DATUM
 DMF .                 KB:   DRILLING MEASURED FROM
 EKB .F              5251:   KELLING BUSHING
 EGL .F              5241:   GROUND LEVEL
 DATE.            3-17-78:   RUN DATE
 RUN .                  1:   RUN NUMBER
 DD  .F              3250:   DEPTH DRILLER
 DL  .F              3250:   DEPTH LOGGER
 BLI .F              3244:   BOTTOM LOG INTERVAL
 TLI .F               224:   TOP LOG INTERVAL
 CS  .IN            8.625:   CASING SIZE
 CBL .F               224:   CASING BOTTOM LOGGER
 BS  .IN            7.875:   BIT SIZE
 BSD .F              3250:   BIT SIZE AT DEPTH
 DFD .                8.9:   DRILLING FLUID DENSITY
 DFV .                 31:   DRILLING FLUID VISCOSITY
 DFPH.               10.5:   DRILLING FLUID PH
 DFL .                  8:   DRILLING FLUID LOSS
 MSS .           FLOWLINE:   MUD SAMPLE SOURCE
 RMS .OHMM            1.3:   RESISTIVITY MUD SAMPLE
 MST .F                70:   MUD SAMPLE TEMPERATURE
 RMF .OHMM            1.1:   RESISTIVITY MUD FILTRATE SAMPLE
 MFST.F                70:   MUD FILTRATE SAMPLE TEMPERATURE
 RMC .OHMM            1.4:   RESISTIVITY MUD CAKE
 MCST.F                70:   MUD CAKE SAMPLE TEMPERATURE
 MFSS.               MEAS:   MUD FILTRATE SAMPLE SOURCE
 MCSS.               MEAS:   MUD CAKE SAMPLE SOURCE
 RMB .OHMM            .77:   RESISTIVITY MUD AT BHT
 BHT .F               118:   BOTTOM HOLE TEMPERATURE
 TCS .HRS               6:   TIME CURCULATED STOPPED
 MRT .F               118:   MAXIMUM RECORDED TEMPERATURE
 LUN .               2958:   LOGGING UNIT NUMBER
 LUL .               CASP:   LOGGING UNIT LOCATION
 ENGI.             MILLER:   RECORDING ENGINEER
 WITN.           MCGINLEY:   WITNESSED BY
 CLNT.            A2DTECH:   CLIENT CODE
 ORIG.     1", 2.5" PRINT:   ORIGIN OF DATA
 UWI .       490251111600:   UNIQUE WELL ID
 DICO. A2D Technologies, Inc.:   DIGITIZING COMPANY
~OTHER INFORMATION
~A   DEPT      ILD         SN        SPR         GRD      CALD       RHOB       CORR       DPHI   
# ...
 1405.0000     9.4734     8.2761   -32.8605    77.8900    12.6436     2.5179     0.0049     0.0879
 1405.5000     9.5028     8.2761   -32.8654    78.1263    12.6423     2.5092    -0.0009     0.0932
 1406.0000     9.5324     8.2761   -32.8745    76.5455    12.6468     2.5014    -0.0079     0.0932
 1406.5000     9.5620     8.2761   -33.1849    75.0376    12.6507     2.5022    -0.0053     0.0932
 1407.0000     9.5943     8.2761   -33.5546    73.3560    12.6546     2.5032     0.0008     0.0918
 1407.5000     9.5074     8.2761   -33.9681    72.6015    12.6586     2.5046     0.0068     0.0905
 1408.0000     9.4130     8.2761   -33.8991    72.7830    12.6626     2.5062     0.0125     0.0892
 1408.5000     9.3195     8.2761   -33.5504    73.0038    12.6665     2.5078     0.0185     0.0879
 1409.0000     9.2270     8.2762   -33.2421    72.7915    12.6706     2.5096     0.0190     0.0866
 1409.5000     9.1331     8.2761   -32.9394    74.9838    12.6746     2.5114     0.0169     0.0847
 1410.0000     9.0748     8.2761   -32.6003    77.9412    12.6779     2.5174     0.0180     0.0823
 1410.5000     9.0795     8.2765   -32.5066    77.7042    12.6914     2.5228     0.0248     0.0798
 1411.0000     9.0769     8.2712   -32.6630    77.8394    12.7192     2.5284     0.0286     0.0773
 1411.5000     9.0774     8.2571   -32.7959    79.0937    12.7384     2.5327     0.0299     0.0782
 1412.0000     9.0775     8.2436   -32.9272    80.5286    12.7595     2.5306     0.0320     0.0798
 1412.5000     9.0772     8.2298   -33.0628    80.9402    12.7801     2.5279     0.0284     0.0805
 1413.0000     9.0770     8.2161   -33.2124    81.3951    12.8009     2.5248     0.0306     0.0771
 1413.5000     9.0770     8.2025   -33.1841    81.3939    12.8216     2.5270     0.0332     0.0749
 1414.0000     9.0770     8.1889   -32.9774    81.3930    12.8425     2.5306     0.0358     0.0755
 1414.5000     9.0774     8.1752   -32.7891    81.4157    12.8630     2.5343     0.0307     0.0765
 1415.0000     9.0730     8.1617   -32.6049    80.1937    12.8837     2.5336     0.0262     0.0765
 1415.5000     9.0625     8.1481   -32.4039    78.8874    12.9059     2.5313     0.0205     0.0727
 1416.0000     9.0526     8.1346   -32.2238    77.8975    12.9233     2.5427     0.0241     0.0693
 1416.5000     9.0426     8.1210   -32.0850    78.6315    12.9331     2.5384     0.0285     0.0749
 1417.0000     9.0325     8.1075   -32.4075    79.4225    12.9441     2.5331     0.0331     0.0727
 1417.5000     9.0225     8.0941   -32.6980    80.1894    12.9554     2.5316     0.0382     0.0684
 1418.0000     9.0125     8.0806   -33.0107    79.0083    12.9583     2.5420     0.0380     0.0661
 1418.5000     9.0025     8.0672   -33.2586    77.4272    12.9582     2.5485     0.0326     0.0701
 1419.0000     8.9925     8.0538   -33.2625    75.8627    12.9581     2.5380     0.0277     0.0738
 1419.5000     8.9826     8.0404   -33.2693    75.3756    12.9582     2.5266     0.0222     0.0774
 1420.0000     8.9727     8.0271   -33.2658    74.8922    12.9582     2.5141     0.0220     0.0811
 1420.5000     8.9628     8.0138   -33.2667    74.4558    12.9582     2.5085     0.0273     0.0848
 1421.0000     8.9526     8.0004   -33.2668    73.9713    12.9582     2.5090     0.0318     0.0884
 1421.5000     8.9426     7.9868   -33.2662    74.0564    12.9581     2.5091     0.0364     0.0899
 1422.0000     8.9326     7.9754   -33.2661    75.7309    12.9581     2.5115     0.0418     0.0871
 1422.5000     8.9226     7.9608   -33.2660    77.7734    12.9581     2.5142     0.0416     0.0862
 1423.0000     8.9127     7.9483   -33.2660    79.7685    12.9581     2.5171     0.0331     0.0887
 1423.5000     8.8603     7.9356   -33.2655    81.3561    12.9581     2.5197     0.0252     0.0837
 1424.0000     8.7956     7.9229   -33.2666    80.1285    12.9581     2.5207     0.0164     0.0856
 1424.5000     8.7312     7.9102   -33.2669    78.6258    12.9581     2.5158     0.0133     0.0876
 1425.0000     8.6673     7.8975   -33.3228    77.1152    12.9581     2.5111     0.0187     0.0881
 1425.5000     8.6038     7.8848   -33.3956    77.7692    12.9581     2.5114     0.0232     0.0836
 1426.0000     8.5408     7.8722   -33.4684    78.4341    12.9581     2.5184     0.0278     0.0757
 1426.5000     8.4784     7.8595   -33.5403    79.2027    12.9581     2.5243     0.0327     0.0805
 1427.0000     8.4260     7.8469   -33.6130    79.9584    12.9581     2.5188     0.0354     0.0892
 1427.5000     8.4053     7.8343   -33.6856    79.7614    12.9581     2.5138     0.0327     0.0896
 1428.0000     8.3847     7.8218   -33.7573    77.7165    12.9581     2.5074     0.0300     0.0901
 1428.5000     8.3639     7.8092   -33.8310    75.7589    12.9581     2.5071     0.0273     0.0905
 1429.0000     8.3435     7.7967   -33.9027    73.8530    12.9581     2.5083     0.0245     0.0902
 1429.5000     8.3230     7.7842   -33.9724    73.2451    12.9581     2.5093     0.0274     0.0876
 1430.0000     8.3027     7.7717   -34.0554    72.6271    12.9582     2.5129     0.0310     0.0850
 1430.5000     8.2824     7.7593   -34.0025    72.1090    12.9582     2.5164     0.0354     0.0837
 1431.0000     8.2640     7.7468   -33.8643    71.9052    12.9582     2.5189     0.0326     0.0861
 1431.5000     8.2465     7.7344   -33.7380    74.5217    12.9582     2.5164     0.0266     0.0846
 1432.0000     8.2291     7.7218   -33.6133    76.8324    12.9581     2.5154     0.0199     0.0829
 1432.5000     8.2117     7.7099   -33.4848    79.5951    12.9586     2.5178     0.0264     0.0845
 1433.0000     8.1942     7.6969   -33.3586    79.1767    12.9579     2.5173     0.0410     0.0862
 1433.5000     8.1771     7.6850   -33.2330    78.5216    12.9572     2.5104     0.0538     0.0880
 1434.0000     8.1595     7.6581   -33.1036    77.7911    12.9275     2.5161     0.0660     0.0878
 1434.5000     8.1426     7.6344   -32.9797    77.0778    12.8919     2.5318     0.0455     0.0860
 1435.0000     8.1259     7.6094   -32.8703    77.3448    12.8561     2.5278     0.0221     0.0841
 1435.5000     8.1211     7.5851   -32.9167    77.6709    12.8207     2.5134     0.0245     0.0822
 1436.0000     8.1132     7.5608   -32.9607    78.1468    12.7845     2.5190     0.0282     0.0804
 1436.5000     8.1065     7.5366   -33.0116    77.6575    12.7583     2.5244     0.0317     0.0789
 1437.0000     8.0996     7.5124   -33.0591    76.6689    12.7534     2.5225     0.0232     0.0852
 1437.5000     8.0925     7.4883   -33.1073    75.8098    12.7477     2.5076     0.0162     0.0917
 1438.0000     8.0854     7.4642   -33.1559    75.0191    12.7426     2.5030     0.0121     0.0896
 1438.5000     8.0784     7.4403   -33.2040    76.3087    12.7374     2.5113     0.0225     0.0848
 1439.0000     8.0714     7.4161   -33.2523    78.1389    12.7321     2.5181     0.0321     0.0799
 1439.5000     8.0644     7.4069   -33.3005    80.0966    12.7270     2.5251     0.0380     0.0751
 1440.0000     8.0574     7.4077   -33.3488    80.6666    12.7217     2.5326     0.0306     0.0740
 1440.5000     8.0504     7.4077   -33.3971    81.1111    12.7189     2.5338     0.0233     0.0776
 1441.0000     8.0434     7.4075   -33.4450    81.2007    12.7172     2.5286     0.0168     0.0812
 1441.5000     8.0365     7.4077   -33.4942    81.3760    12.7154     2.5231     0.0203     0.0848
 1442.0000     8.0295     7.4076   -33.5414    81.0877    12.7136     2.5163     0.0231     0.0884
 1442.5000     8.0225     7.4077   -33.5895    80.7769    12.7119     2.5082     0.0132     0.0924
 1443.0000     8.0155     7.4077   -33.6439    80.3957    12.7101     2.5004     0.0029     0.0925
 1443.5000     8.0086     7.4077   -33.6431    80.0916    12.7083     2.4952     0.0029     0.0909
 1444.0000     8.0016     7.4077   -33.5497    79.9875    12.7065     2.5007     0.0090     0.0894
 1444.5000     7.9947     7.4077   -33.4632    81.9239    12.7048     2.5068     0.0143     0.0878
 1445.0000     7.9878     7.4077   -33.3754    83.3591    12.7030     2.5132     0.0195     0.0863
