~VERSION INFORMATION
 VERS.                2.0:   CWLS LOG ASCII STANDARD - VERSION 2.0
 WRAP.                 NO:   ONE LINE PER DEPTH STEP
~WELL INFORMATION
#MNEM.UNIT      DATA TYPE    INFORMATION
#----------   ------------   ------------------------------
 STRT.F           95.0000:   START DEPTH
 STOP.F          862.0000:   STOP DEPTH
 STEP.F            0.5000:   STEP LENGTH
 NULL.          -999.2500:   NO VALUE
 COMP. U S NAVY INTEX OIL:   COMPANY
 WELL. RES 3 TEAMPT DOME #13-S-35:   WELL
 FLD .        TEAPOT DOME:   FIELD
 LOC .      S35 T39N R78W:   LOCATION
 CNTY.            NATRONA:   COUNTY
 STAT.            WYOMING:   STATE
 CTRY. UNITED STATES OF AMERICA:   COUNTRY
 SRVC.       Schlumberger:   SERVICE COMPANY
 DATE.        27-JUL-1963:   LOGDATE
 API .       490250655000:   API NUMBER
~CURVE INFORMATION
#MNEM.UNIT       API CODE    CURVE DESCRIPTION
#----------   ------------   ------------------------------
 DEPT.F                  :   
 SPR .MV     05 010 01 00:   SPONTANEOUS POTENTIAL FROM RES.
 ILD .OHMM   05 120 46 00:   INDUCTION LOG DEEP
 ASN .OHMM   05 041 18 00:   AMPLIFIED SHORT NORMAL 18"
 CILD.MMHO   05 110 46 00:   CONDUCTIVITY INDUCTION LOG DEEP
 GR  .GAPI   30 310 01 00:   GAMMA RAY
~PARAMETER INFORMATION
#MNEM.UNIT          VALUE    DESCRIPTION
#----------   ------------   ------------------------------
 PD  .                 GL:   PERMANENT DATUM
 EPD .F              5100:   ELEVATION PERMANENT DATUM
 LMF .                 KB:   LOG MEASURED FROM
 DAPD.F               5.0:   FEET ABOVE PERMANENT DATUM
 DMF .                 KB:   DRILLING MEASURED FROM
 EKB .F              5105:   KELLING BUSHING
 EGL .F              5100:   GROUND LEVEL
 DATE.        27-JUL-1963:   RUN DATE
 RUN .                  1:   RUN NUMBER
 DD  .F               862:   DEPTH DRILLER
 DL  .F               863:   DEPTH LOGGER
 BLI .F               862:   BOTTOM LOG INTERVAL
 TLI .F               100:   TOP LOG INTERVAL
 CS  .IN            8.625:   CASING SIZE
 CBD .F                10:   CASING BOTTOM DRILLER
 BS  .IN             6.75:   BIT SIZE
 BSD .F               862:   BIT SIZE AT DEPTH
 DFT . NATURAL- GEL ADDED:   DRILLING FLUID TYPE
 DFD .                9.0:   DRILLING FLUID DENSITY
 DFV .                 38:   DRILLING FLUID VISCOSITY
 DFPH.                8.5:   DRILLING FLUID PH
 DFL .                5.6:   DRILLING FLUID LOSS
 MSS .           FLOWLINE:   MUD SAMPLE SOURCE
 RMS .OHMM            4.6:   RESISTIVITY MUD SAMPLE
 MST .F                83:   MUD SAMPLE TEMPERATURE
 RMF .OHMM            3.8:   RESISTIVITY MUD FILTRATE SAMPLE
 MFST.F                83:   MUD FILTRATE SAMPLE TEMPERATURE
 RMC .OHMM            4.8:   RESISTIVITY MUD CAKE
 MCST.F                83:   MUD CAKE SAMPLE TEMPERATURE
 MFSS.                 FP:   MUD FILTRATE SAMPLE SOURCE
 MCSS.                 FP:   MUD CAKE SAMPLE SOURCE
 TCS .HRS               1:   TIME CURCULATED STOPPED
 LUN .               2523:   LOGGING UNIT NUMBER
 LUL .               CSPR:   LOGGING UNIT LOCATION
 ENGI.            GIFFORD:   RECORDING ENGINEER
 WITN.          JORGENSON:   WITNESSED BY
 CLNT.            A2DTECH:   CLIENT CODE
 ORIG.           5" PRINT:   ORIGIN OF DATA
 UWI .       490250655000:   UNIQUE WELL ID
 DICO. A2D Technologies, Inc.:   DIGITIZING COMPANY
~OTHER INFORMATION
~A   DEPT      SPR        ILD        ASN       CILD         GR   
# ...
  522.0000   -31.2975     7.6899     9.3223   126.4558  -999.2500
  522.5000   -31.5993     7.7638     9.3665   124.2126  -999.2500
  523.0000   -32.0512     7.8376     9.4108   123.4673  -999.2500
  523.5000   -32.2028     7.9111     9.4260   124.9779  -999.2500
  524.0000   -32.2042     7.8344     9.3024   127.2374  -999.2500
  524.5000   -32.0555     7.6819     9.1385   129.5250  -999.2500
  525.0000   -31.9068     7.6052     9.0329   131.7568  -999.2500
  525.5000   -31.9087     7.6037     8.9872   131.7655  -999.2500
  526.0000   -32.2104     7.7532     9.1214   131.7728  -999.2500
  526.5000   -32.8125     7.7514     9.2108   131.0293  -999.2500
  527.0000   -33.2644     7.7500     9.2698   129.5333  -999.2500
  527.5000   -33.1153     7.7485     9.3291   127.2901  -999.2500
  528.0000   -32.8168     7.7467     9.4523   127.2974  -999.2500
  528.5000   -32.3678     7.6699     9.6423   128.8063  -999.2500
  529.0000   -32.0694     7.5932     9.7017   130.3168  -999.2500
  529.5000   -32.2210     7.5164     9.3260   131.0748  -999.2500
  530.0000   -32.2224     7.3644     9.2505   131.8328  -999.2500
  530.5000   -32.2239     7.2876     9.5045   131.8401  -999.2500
  531.0000   -32.3755     7.2108     9.3988   131.8473  -999.2500
  531.5000   -32.3769     7.1978     9.0962   132.6054  -999.2500
  532.0000   -32.5285     7.1323     8.9474   133.3634  -999.2500
  532.5000   -33.1481     7.1308     8.8867   134.8724  -999.2500
  533.0000   -33.2826     7.1294     8.8260   136.3828  -999.2500
  533.5000   -32.8336     7.1279     8.7803   137.1408  -999.2500
  534.0000   -32.6845     7.1265     8.7496   137.8988  -999.2500
  534.5000   -32.5358     7.1250     8.7489   137.9061  -999.2500
  535.0000   -33.7388     7.1235     8.7481   137.9133  -999.2500
  535.5000   -34.7913     7.0464     8.7774   137.1699  -999.2500
  536.0000   -35.3934     6.9697     8.8364   136.4264  -999.2500
  536.5000   -34.6206     6.9682     8.8509   137.3024  -999.2500
  537.0000   -33.8952     6.8915     8.8350   140.1965  -999.2500
  537.5000   -33.1459     6.8147     8.7893   140.9545  -999.2500
  538.0000   -32.3966     6.7379     8.7286   141.7125  -999.2500
  538.5000   -32.0974     6.5859     8.6529   141.7198  -999.2500
  539.0000   -31.9487     6.5841     8.5902   141.7271  -999.2500
  539.5000   -32.2508     6.6583     8.5014   142.4851  -999.2500
  540.0000   -32.7128     6.7321     8.4706   141.7416  -999.2500
  540.5000   -33.1549     6.8813     8.5299   140.9982  -999.2500
  541.0000   -33.4567     6.9551     8.6041   138.7550  -999.2500
  541.5000   -33.4582     7.0286     8.6934   137.2608  -999.2500
  542.0000   -33.3091     7.1094     8.7826   135.0158  -999.2500
  542.5000   -33.3109     7.3265     8.8868   132.7690  -999.2500
  543.0000   -33.1622     7.5510     9.0100   131.2763  -999.2500
  543.5000   -33.0135     7.7005     9.1400   129.7823  -999.2500
  544.0000   -32.7147     7.8493     9.2143   129.0388  -999.2500
  544.5000   -32.5660     7.8478     9.2585   128.2954  -999.2500
  545.0000   -32.4173     7.9217     9.3030   127.5519  -999.2500
  545.5000   -32.2690     7.9955     9.3021   126.8084  -999.2500
  546.0000   -32.2704     7.9937     9.3013   126.0649  -999.2500
  546.5000   -32.2719     7.9922     9.3316   125.3214  -999.2500
  547.0000   -32.2733     7.8402     9.3599   124.5796  -999.2500
  547.5000   -32.2748     7.7634     9.3589   123.8363  -999.2500
  548.0000   -32.4264     7.5361     9.4182   124.7051  -999.2500
  548.5000   -32.4282     7.5346     9.2376   126.8557  -999.2500
  549.0000   -32.4296     7.4579     9.0569   128.3644  -999.2500
  549.5000   -32.2806     7.3807     9.1162   130.6240  -999.2500
  550.0000   -32.1615     7.2214     9.2354   132.8209  -999.2500
  550.5000   -31.9834     7.0774     9.0691   136.6456  -999.2500
  551.0000   -31.9852     6.9261     8.8743   138.9051  -999.2500
  551.5000   -32.1368     6.7748     8.6938   141.9153  -999.2500
  552.0000   -32.2884     6.7740     8.5715   144.9255  -999.2500
  552.5000   -32.2899     6.7733     8.3927   147.9357  -999.2500
  553.0000   -32.2913     6.7726     8.2872   149.4896  -999.2500
  553.5000   -32.2931     6.7717     8.2116   150.2041  -999.2500
  554.0000   -31.8441     6.7710     8.1511   149.4605  -999.2500
  554.5000   -31.0948     6.7702     8.1505   147.9662  -999.2500
  555.0000   -30.6454     6.6944     8.1964   146.4701  -999.2500
  555.5000   -30.6472     6.8441     8.3141   144.2268  -999.2500
  556.0000   -31.2493     6.9187     8.4185   141.9818  -999.2500
  556.5000   -31.8517     7.2190     8.5229   139.7385  -999.2500
  557.0000   -32.1534     7.3689     8.6273   138.2424  -999.2500
  557.5000   -32.1548     7.4436     8.7466   135.9973  -999.2500
  558.0000   -32.1563     7.4427     8.8408   134.5030  -999.2500
  558.5000   -32.3079     7.4420     8.8953   133.0078  -999.2500
  559.0000   -32.0090     7.5166     8.8947   131.5162  -999.2500
  559.5000   -31.2601     7.5157     8.9242   130.0237  -999.2500
  560.0000   -31.1110     7.5149     9.0285   129.2783  -999.2500
  560.5000   -31.4131     7.5142     9.1042   128.5348  -999.2500
  561.0000   -31.7148     7.5135     9.2221   127.7928  -999.2500
  561.5000   -32.1667     7.5128     9.3115   127.8003  -999.2500
  562.0000   -32.1682     7.4367     9.3709   129.3107  -999.2500
  562.5000   -32.0195     7.4358     9.3703   129.3179  -999.2500
  563.0000   -31.7206     7.4351     9.3397   130.8266  -999.2500
  563.5000   -31.4217     7.3591     9.2476   132.3352  -999.2500
  564.0000   -31.2730     7.2831     9.1585   133.0932  -999.2500
  564.5000   -31.2748     7.2823     9.0980   135.3528  -999.2500
  565.0000   -31.1261     7.2816     9.0374   136.1124  -999.2500
  565.5000   -31.1279     7.2054     9.0069   137.6211  -999.2500
  566.0000   -31.1294     7.2047     8.9913   138.3790  -999.2500
  566.5000   -31.1308     7.2040     9.0057   138.3862  -999.2500
  567.0000   -31.1323     7.2033     9.0650   138.3934  -999.2500
  567.5000   -31.1337     7.2025     9.0494   138.4024  -999.2500
  568.0000   -32.1862     7.2018     9.0188   137.6570  -999.2500
  568.5000   -32.9387     7.3515     9.0033   136.1645  -999.2500
  569.0000   -33.2405     7.5016     9.0184   133.1687  -999.2500
  569.5000   -33.5422     7.8019     9.1519   130.1729  -999.2500
  570.0000   -33.8440     8.1023     9.3163   126.4263  -999.2500
  570.5000   -33.8454     8.3275     9.4806   122.6815  -999.2500
  571.0000   -33.8468     8.5527     9.6749   120.4365  -999.2500
  571.5000   -33.6981     8.8530     9.9142   119.6911  -999.2500
  572.0000   -33.5494     9.0031    10.0186   118.1968  -999.2500
  572.5000   -33.1008     9.2281    10.0180   115.9535  -999.2500
  573.0000   -32.6518     9.3780    10.0174   114.3642  -999.2500
  573.5000   -32.5027     9.5280    10.0917   112.2142  -999.2500
  574.0000   -32.6547     9.6024    10.1661   109.2202  -999.2500
  574.5000   -32.9568     9.7523    10.1654   106.9751  -999.2500
  575.0000   -33.2585     9.8269    10.1648   105.4790  -999.2500
  575.5000   -33.5602     9.9014    10.2394   103.9865  -999.2500
  576.0000   -33.5617    10.0511    10.3886   102.4922  -999.2500
  576.5000   -33.7133    10.1259    10.4630   101.7504  -999.2500
  577.0000   -34.0150    10.2003    10.6123   100.2561  -999.2500
  577.5000   -34.6174    10.3501    10.7617    99.5107  -999.2500
  578.0000   -35.0693    10.4999    10.9110    98.0182  -999.2500
  578.5000   -35.3711    10.5745    11.0604    97.2747  -999.2500
  579.0000   -35.5226    10.6492    11.2096    96.5311  -999.2500
  579.5000   -35.3736    10.7238    11.3589    95.0386  -999.2500
  580.0000   -34.7748    10.7229    11.5831    94.2932  -999.2500
  580.5000   -33.7255    10.6467    11.6575    93.5497  -999.2500
  581.0000   -32.9762    10.5707    11.5820    93.5586  -999.2500
  581.5000   -32.6774    10.4946    11.4315    94.3168  -999.2500
  582.0000   -32.6788    10.3433    11.3559    95.0763  -999.2500
  582.5000   -32.8304    10.1920    11.2692    96.5850  -999.2500
