~VERSION INFORMATION
 VERS.                2.0:   CWLS LOG ASCII STANDARD - VERSION 2.0
 WRAP.                 NO:   ONE LINE PER DEPTH STEP
~WELL INFORMATION
#MNEM.UNIT      DATA TYPE    INFORMATION
#----------   ------------   ------------------------------
 STRT.F           30.0000:   START DEPTH
 STOP.F          750.0000:   STOP DEPTH
 STEP.F            0.5000:   STEP LENGTH
 NULL.          -999.2500:   NO VALUE
 COMP. FENIX & SCISSON INC:   COMPANY
 WELL. TEAPOT DOME SX #38-11:   WELL
 FLD .             TEAPOT:   FIELD
 LOC .      S11 T38N R78W:   LOCATION
 CNTY.            NATRONA:   COUNTY
 STAT.            WYOMING:   STATE
 CTRY. UNITED STATES OF AMERICA:   COUNTRY
 SRVC.            Unknown:   SERVICE COMPANY
 DATE.        23-FEB-1978:   LOGDATE
 API .       490251058200:   API NUMBER
~CURVE INFORMATION
#MNEM.UNIT       API CODE    CURVE DESCRIPTION
#----------   ------------   ------------------------------
 DEPT.F                  :   
 CALD.IN     45 280 60 00:   CALIPER FROM DENSITY LOG
 GRD .GAPI   45 310 01 00:   GAMMA RAY FROM DENSITY LOG
 RHOB.G/C3   45 350 01 00:   BULK DENSITY
 DPHI.DEC    45 890 12 00:   DENSITY POROSITY SANDSTONE
 CORR.G/C3   45 356 01 00:   DENSITY CORRECTION
 SPR .MV     07 010 01 00:   SPONTANEOUS POTENTIAL FROM RES. LOG
 SN  .OHMM   07 040 16 00:   SHORT NORMAL 16'
 ILD .OHMM   07 120 46 00:   INDUCTION LOG DEEP
~PARAMETER INFORMATION
#MNEM.UNIT          VALUE    DESCRIPTION
#----------   ------------   ------------------------------
 PD  .                 GL:   PERMANENT DATUM
 EPD .F              5204:   ELEVATION PERMANENT DATUM
 LMF .                 KB:   LOG MEASURED FROM
 DAPD.F                 4:   FEET ABOVE PERMANENT DATUM
 DMF .                 KB:   DRILLING MEASURED FROM
 EKB .F              5208:   KELLING BUSHING
 EGL .F              5204:   GROUND LEVEL
 DATE.            2-23-78:   RUN DATE
 RUN .                  1:   RUN NUMBER
 DD  .F               755:   DEPTH DRILLER
 DL  .F               751:   DEPTH LOGGER
 BLI .F               745:   BOTTOM LOG INTERVAL
 TLI .F                45:   TOP LOG INTERVAL
 CS  .IN            8.625:   CASING SIZE
 CBD .F                40:   CASING BOTTOM DRILLER
 CBL .F                40:   CASING BOTTOM LOGGER
 BS  .IN            7.875:   BIT SIZE
 BSD .F               755:   BIT SIZE AT DEPTH
 DFT .         LIGNO SULF:   DRILLING FLUID TYPE
 DFD .                8.7:   DRILLING FLUID DENSITY
 DFV .                 33:   DRILLING FLUID VISCOSITY
 DFPH.                 10:   DRILLING FLUID PH
 DFL .                  4:   DRILLING FLUID LOSS
 MSS .          FLOW LINE:   MUD SAMPLE SOURCE
 RMS .OHMM              2:   RESISTIVITY MUD SAMPLE
 MST .F                60:   MUD SAMPLE TEMPERATURE
 RMF .OHMM            1.9:   RESISTIVITY MUD FILTRATE SAMPLE
 MFST.F                62:   MUD FILTRATE SAMPLE TEMPERATURE
 RMC .OHMM            3.5:   RESISTIVITY MUD CAKE
 MCST.F                60:   MUD CAKE SAMPLE TEMPERATURE
 MFSS.               MEAS:   MUD FILTRATE SAMPLE SOURCE
 MCSS.               MEAS:   MUD CAKE SAMPLE SOURCE
 RMB .OHMM           1.69:   RESISTIVITY MUD AT BHT
 BHT .F                71:   BOTTOM HOLE TEMPERATURE
 TCS .HRS               3:   TIME CURCULATED STOPPED
 MRT .F                71:   MAXIMUM RECORDED TEMPERATURE
 LUN .               2958:   LOGGING UNIT NUMBER
 LUL .               CASP:   LOGGING UNIT LOCATION
 ENGI.            POINTER:   RECORDING ENGINEER
 WITN.           MCGINLEY:   WITNESSED BY
 CLNT.            A2DTECH:   CLIENT CODE
 ORIG.       2", 5" PRINT:   ORIGIN OF DATA
 UWI .       490251058200:   UNIQUE WELL ID
 DICO. A2D Technologies, Inc.:   DIGITIZING COMPANY
~OTHER INFORMATION
~A   DEPT     CALD         GRD      RHOB       DPHI       CORR        SPR         SN        ILD   
# ...
  151.5000     8.2278    96.6679     2.4009     0.1412     0.0547   -34.8192    12.5480    11.4683
  152.0000     8.2407    96.5642     2.4280     0.1431     0.0380   -34.3625    12.7585    11.5740
  152.5000     8.2482    96.8743     2.4385     0.1460     0.0293   -34.5773    13.0575    11.7905
  153.0000     8.2386    96.8711     2.3924     0.1477     0.0307   -34.9651    13.3635    12.0110
  153.5000     8.0886    93.8784     2.3991     0.1482     0.0293   -35.3518    13.6363    12.2222
  154.0000     7.9520    92.1929     2.4106     0.1488     0.0268   -35.7332    13.6363    12.3442
  154.5000     7.9514    94.5832     2.3936     0.1507     0.0244   -35.9276    13.6363    12.4673
  155.0000     7.9223    95.6448     2.3918     0.1580     0.0219   -35.7335    13.9763    12.5495
  155.5000     7.8745    93.3193     2.3805     0.1612     0.0220   -35.5465    14.2776    12.5495
  156.0000     7.8546    90.5035     2.3689     0.1584     0.0247   -35.3577    14.3183    12.6681
  156.5000     8.0032    90.6052     2.3643     0.1549     0.0270   -35.1667    14.3562    12.8292
  157.0000     8.1222    92.1896     2.3758     0.1594     0.0241   -34.9967    14.3953    12.9924
  157.5000     8.0582    93.9267     2.3830     0.1691     0.0208   -35.3965    14.5723    13.1576
  158.0000     8.0246    96.0402     2.3736     0.1604     0.0228   -35.8285    14.7361    13.3248
  158.5000     8.0804    96.1229     2.3630     0.1629     0.0249   -36.2544    14.9019    13.4940
  159.0000     7.9819    97.6220     2.3763     0.1664     0.0272   -36.5146    15.0694    13.6756
  159.5000     7.8260   100.3423     2.3690     0.1699     0.0297   -36.0307    15.2389    13.9062
  160.0000     7.6639   100.3909     2.3618     0.1703     0.0324   -35.5535    15.4103    14.1408
  160.5000     7.5597    98.4625     2.3604     0.1655     0.0269   -35.5826    15.6609    14.3793
  161.0000     7.5308    95.8753     2.3673     0.1651     0.0192   -35.8894    16.0288    14.6219
  161.5000     7.6253    91.6591     2.3705     0.1631     0.0150   -36.1866    16.5009    14.8686
  162.0000     7.7318    87.4553     2.3707     0.1612     0.0149   -35.8919    16.9928    15.1194
  162.5000     7.7917    84.4472     2.3883     0.1619     0.0092   -35.4384    17.4950    15.3745
  163.0000     7.8822    82.8531     2.3913     0.1650    -0.0032   -35.3431    17.4141    15.2731
  163.5000     7.9675    83.3204     2.3740     0.1796    -0.0098   -35.7086    17.3336    15.1723
  164.0000     8.0169    85.2395     2.3414     0.1922     0.0071   -36.0695    17.2535    15.0934
  164.5000     8.0287    87.4208     2.3306     0.1946     0.0169   -36.4325    17.1738    15.1464
  165.0000     8.0431    91.4896     2.3322     0.1934     0.0170   -36.7998    17.0944    15.1903
  165.5000     8.0577    95.3396     2.3293     0.1874     0.0246   -37.1807    17.0154    15.2333
  166.0000     8.0722    93.6099     2.3362     0.1787     0.0353   -36.2972    16.9367    14.9261
  166.5000     8.0867    87.8356     2.3478     0.1731     0.0347   -35.4055    16.8584    14.7257
  167.0000     8.1007    85.1105     2.3596     0.1781     0.0262   -35.6569    16.7805    14.5278
  167.5000     8.1109    86.5863     2.3675     0.1919     0.0171   -35.9122    16.7061    14.3325
  168.0000     8.0516    87.9963     2.3447     0.2006     0.0184   -36.2097    16.4956    14.1495
  168.5000     7.9276    89.4950     2.3230     0.2002     0.0268   -35.8229    16.2486    14.1489
  169.0000     7.8314    92.6916     2.3213     0.1947     0.0461   -35.3148    16.0054    14.1491
  169.5000     7.8264    95.8404     2.3246     0.1856     0.0704   -34.7962    15.7657    13.8085
  170.0000     7.6746    96.4794     2.3528     0.1691     0.0737   -35.0103    15.5297    13.5111
  170.5000     7.7574    96.8264     2.3895     0.1526     0.0683   -35.3339    15.2972    13.5111
  171.0000     7.9260    98.1451     2.3911     0.1500     0.0626   -35.6615    15.0682    13.1820
  171.5000     8.0969    99.4421     2.3884     0.1556     0.0589   -35.9561    14.8427    12.9018
  172.0000     8.1309    98.8262     2.3900     0.1600     0.0612   -35.1295    14.6345    13.0777
  172.5000     8.1327    95.7761     2.3875     0.1620     0.0634   -34.3544    14.4660    13.2640
  173.0000     8.1334    92.6905     2.3847     0.1612     0.0667   -34.4424    14.2994    12.8519
  173.5000     8.1342    91.9942     2.3822     0.1540     0.0848   -34.5448    14.1458    12.3511
  174.0000     8.1351    91.9546     2.3866     0.1351     0.1037   -34.7251    13.6524    11.7465
  174.5000     8.1361    94.5319     2.4225     0.1138     0.1231   -34.6070    13.2028    11.0722
  175.0000     8.1370   103.5085     2.4603     0.0953     0.1308   -34.1435    12.7244    10.2162
  175.5000     8.1379   117.1320     2.4925     0.0993     0.1048   -33.6858    11.9581     9.4263
  176.0000     8.1389   115.5749     2.4896     0.1088     0.0749   -33.2327    10.8370     8.6976
  176.5000     8.1398   110.5515     2.4690     0.1170     0.0689   -33.0202     9.8209     8.1446
  177.0000     8.1407   109.3827     2.4586     0.1173     0.0689   -33.3350     8.9001     7.7360
  177.5000     8.1417   112.9069     2.4620     0.1192     0.0586   -33.5852     8.0657     7.3478
  178.0000     8.1426   116.9285     2.4608     0.1217     0.0454   -33.1469     7.6719     6.9544
  178.5000     8.1435   118.4071     2.4510     0.1233     0.0415   -32.6369     7.6011     6.8239
  179.0000     8.1445   118.3622     2.4499     0.1249     0.0372   -32.5791     7.5122     6.6912
  179.5000     8.1454   118.2900     2.4492     0.1312     0.0328   -32.6231     7.3867     6.5599
  180.0000     8.1463   118.0133     2.4355     0.1380     0.0290   -32.6682     7.2633     6.3979
  180.5000     8.1473   116.7517     2.4287     0.1449     0.0316   -32.7124     7.1419     6.4717
  181.0000     8.1482   115.4466     2.4160     0.1448     0.0341   -32.7581     7.0165     6.4982
  181.5000     8.1491   115.0354     2.4073     0.1370     0.0365   -32.6754     7.0327     6.5254
  182.0000     8.1499   114.3141     2.4217     0.1298     0.0388   -32.5502     7.0499     6.5526
  182.5000     8.1515   113.6892     2.4327     0.1229     0.0382   -32.4230     7.0671     6.5797
  183.0000     8.1920   114.1639     2.4378     0.1185     0.0368   -32.2939     7.0844     6.6070
  183.5000     8.2367   115.1505     2.4465     0.1220     0.0354   -32.1653     7.1017     6.6344
  184.0000     8.2813   116.1420     2.4545     0.1235     0.0355   -32.4048     7.1190     6.6619
  184.5000     8.3257   115.7484     2.4520     0.1237     0.0386   -32.6827     7.1364     6.6895
  185.0000     8.3496   115.1130     2.4476     0.1222     0.0350   -32.9600     7.1538     6.7172
  185.5000     8.3481   114.0974     2.4530     0.1209     0.0320   -33.2366     7.1713     6.7451
  186.0000     8.3466   111.6837     2.4537     0.1226     0.0290   -33.5132     7.1888     6.7622
  186.5000     8.3450   110.4552     2.4489     0.1249     0.0266   -33.7900     7.2063     6.6967
  187.0000     8.3434   112.3268     2.4445     0.1241     0.0299   -34.0682     7.2135     6.6499
  187.5000     8.3418   112.6815     2.4485     0.1229     0.0340   -34.3444     7.2135     6.6034
  188.0000     8.3401   112.4182     2.4534     0.1121     0.0332   -34.5145     7.2135     6.5572
  188.5000     8.3385   112.1433     2.4583     0.1138     0.0310   -34.0388     7.2135     6.5113
  189.0000     8.3369   113.1472     2.4593     0.1156     0.0288   -33.5673     7.2135     6.4573
  189.5000     8.3353   114.7142     2.4591     0.1174     0.0265   -33.4714     7.2135     6.5016
  190.0000     8.3337   114.6491     2.4595     0.1193     0.0243   -33.7477     7.2134     6.5566
  190.5000     8.3321   114.6418     2.4559     0.1197     0.0221   -33.9875     7.2135     6.6040
  191.0000     8.3303   114.0332     2.4527     0.1193     0.0209   -33.5373     7.2135     6.7241
  191.5000     8.3347   112.8940     2.4566     0.1245     0.0217   -32.9856     7.3245     6.8464
