~VERSION INFORMATION
 VERS.                2.0:   CWLS LOG ASCII STANDARD - VERSION 2.0
 WRAP.                 NO:   ONE LINE PER DEPTH STEP
~WELL INFORMATION
#MNEM.UNIT      DATA TYPE    INFORMATION
#----------   ------------   ------------------------------
 STRT.F           40.0000:   START DEPTH
 STOP.F          512.0000:   STOP DEPTH
 STEP.F            0.5000:   STEP LENGTH
 NULL.          -999.2500:   NO VALUE
 COMP. LAWRENCE/ALLISON INC:   COMPANY
 WELL.   65-21 SX F1 #3-3:   WELL
 FLD .             TEAPOT:   FIELD
 LOC .       S3 T38N R78W:   LOCATION
 CNTY.            NATRONA:   COUNTY
 STAT.            WYOMING:   STATE
 CTRY. UNITED STATES OF AMERICA:   COUNTRY
 SRVC.       Schlumberger:   SERVICE COMPANY
 DATE.        14-JUL-1982:   LOGDATE
 API .       490251089600:   API NUMBER
~CURVE INFORMATION
#MNEM.UNIT       API CODE    CURVE DESCRIPTION
#----------   ------------   ------------------------------
 DEPT.F                  :   
 CALD.IN     45 280 60 00:   CALIPER FROM DENSITY LOG
 CORR.G/C3   45 356 01 00:   DENSITY CORRECTION
 DPHI.DEC    45 890 12 00:   DENSITY POROSITY SANDSTONE
 GRD .GAPI   45 310 01 00:   GAMMA RAY FROM DENSITY LOG
 RHOB.G/C3   45 350 01 00:   BULK DENSITY
~PARAMETER INFORMATION
#MNEM.UNIT          VALUE    DESCRIPTION
#----------   ------------   ------------------------------
 PD  .                 GL:   PERMANENT DATUM
 EPD .F              5155:   ELEVATION PERMANENT DATUM
 LMF .                 KB:   LOG MEASURED FROM
 DAPD.F                 9:   FEET ABOVE PERMANENT DATUM
 DMF .                 KB:   DRILLING MEASURED FROM
 EKB .F              5164:   KELLING BUSHING
 EDF .F            5162.5:   DRILLING FLOOR
 EGL .F              5155:   GROUND LEVEL
 DATE.        14-JUL-1982:   RUN DATE
 RUN .                  1:   RUN NUMBER
 DD  .F               500:   DEPTH DRILLER
 DL  .F               515:   DEPTH LOGGER
 BLI .F               512:   BOTTOM LOG INTERVAL
 TLI .F                50:   TOP LOG INTERVAL
 CS  .IN           13.375:   CASING SIZE
 CBD .F                50:   CASING BOTTOM DRILLER
 CBL .F                50:   CASING BOTTOM LOGGER
 BS  .IN            12.25:   BIT SIZE
 BSD .F               500:   BIT SIZE AT DEPTH
 DFT .                KCL:   DRILLING FLUID TYPE
 TCS .HRS            0600:   TIME CURCULATED STOPPED
 TLAB.HRS            1000:   TIME LOGGER AT BOTTOM
 LUN .               8035:   LOGGING UNIT NUMBER
 LUL .             CASPER:   LOGGING UNIT LOCATION
 ENGI.            PERARIS:   RECORDING ENGINEER
 WITN.             TAYLOR:   WITNESSED BY
 CLNT.            A2DTECH:   CLIENT CODE
 ORIG.         2.5" PRINT:   ORIGIN OF DATA
 UWI .       490251089600:   UNIQUE WELL ID
 DICO. A2D Technologies, Inc.:   DIGITIZING COMPANY
~OTHER INFORMATION
~A   DEPT     CALD       CORR       DPHI         GRD      RHOB   
# ...
  406.0000    12.3301     0.0031     0.1931    57.4090     2.3558
  406.5000    12.3303     0.0080     0.1864    58.7209     2.3651
  407.0000    12.3244     0.0155     0.1822    59.5522     2.3728
  407.5000    12.3007     0.0216     0.1791    60.0000     2.3803
  408.0000    12.3009     0.0261     0.1773    60.1134     2.3844
  408.5000    12.3105     0.0170     0.1852    60.8955     2.3723
  409.0000    12.3310     0.0017     0.1864    61.3433     2.3646
  409.5000    12.3312     0.0082     0.1840    61.7910     2.3711
  410.0000    12.3313     0.0188     0.1822    62.4179     2.3737
  410.5000    12.3315     0.0246     0.1855    62.8821     2.3752
  411.0000    12.3316     0.0188     0.1934    63.7940     2.3545
  411.5000    12.3318     0.0107     0.1962    64.2582     2.3513
  412.0000    12.3319     0.0122     0.1894    64.4776     2.3613
  412.5000    12.3321     0.0141     0.1822    64.4776     2.3729
  413.0000    12.3323     0.0172     0.1775    64.9254     2.3814
  413.5000    12.3324     0.0208     0.1742    65.3731     2.3875
  414.0000    12.3326     0.0242     0.1713    66.7164     2.3919
  414.5000    12.3327     0.0205     0.1674    67.6119     2.3964
  415.0000    12.3328     0.0196     0.1627    68.0597     2.4040
  415.5000    12.3330     0.0211     0.1593    68.5075     2.4116
  416.0000    12.3331     0.0234     0.1577    68.0597     2.4146
  416.5000    12.3333     0.0180     0.1600    66.7164     2.4070
  417.0000    12.3334     0.0058     0.1746    66.2687     2.3827
  417.5000    12.3336     0.0012     0.1808    65.3731     2.3766
  418.0000    12.3337     0.0057     0.1762    65.3731     2.3873
  418.5000    12.3339     0.0088     0.1647    64.9044     2.4025
  419.0000    12.3639     0.0133     0.1586    63.5553     2.4100
  419.5000    12.3640     0.0163     0.1549    62.6866     2.4161
  420.0000    12.3642     0.0178     0.1550    62.8059     2.4191
  420.5000    12.3643     0.0193     0.1556    65.1538     2.4207
  421.0000    12.3943     0.0192     0.1519    67.7971     2.4252
  421.5000    12.3945     0.0177     0.1495    69.5119     2.4267
  422.0000    12.3946     0.0146     0.1495    70.2985     2.4267
  422.5000    12.3948     0.0211     0.1544    70.2985     2.4186
  423.0000    12.3821     0.0382     0.1501    68.1642     2.4145
  423.5000    12.3652     0.0614     0.1453    65.0239     2.4254
  424.0000    12.3502     0.0740     0.1434    63.9642     2.4362
  424.5000    12.3357     0.0639     0.1429    67.3060     2.4388
  425.0000    12.3358     0.0448     0.1453    71.1940     2.4373
  425.5000    12.3061     0.0348     0.1392    72.0896     2.4467
  426.0000    12.3063     0.0311     0.1292    72.5373     2.4598
  426.5000    12.3064     0.0305     0.1263    72.0896     2.4623
  427.0000    12.3066     0.0259     0.1291    71.6418     2.4557
  427.5000    12.3067     0.0221     0.1353    71.6418     2.4487
  428.0000    12.3069     0.0181     0.1368    71.1940     2.4495
  428.5000    12.3070     0.0173     0.1328    71.6418     2.4542
  429.0000    12.3072     0.0196     0.1314    72.0896     2.4570
  429.5000    12.3073     0.0187     0.1383    72.0896     2.4509
  430.0000    12.3075     0.0141     0.1397    72.5373     2.4448
  430.5000    12.3076     0.0156     0.1366    72.9851     2.4494
  431.0000    12.3078     0.0186     0.1332    73.4328     2.4555
  431.5000    12.3103     0.0216     0.1311    74.3284     2.4615
  432.0000    12.3451     0.0246     0.1308    76.1373     2.4554
  432.5000    12.4323     0.0125     0.1332    78.8508     2.4342
  433.0000    12.5173     0.0048     0.1338    80.2269     2.4281
  433.5000    12.5473     0.0033     0.1332    81.4925     2.4372
  434.0000    12.5230     0.0078     0.1332    77.1045     2.4448
  434.5000    12.3891     0.0093     0.1332    75.2239     2.4524
  435.0000    12.3388     0.0062     0.1333    75.7761     2.4554
  435.5000    12.3390     0.0016     0.1339    76.1194     2.4508
  436.0000    12.3518     0.0001     0.1351    75.5343     2.4493
  436.5000    12.3990     0.0016     0.1357    74.1746     2.4508
  437.0000    12.3991     0.0016     0.1357    73.0925     2.4523
  437.5000    12.3831     0.0030     0.1381    71.9030     2.4467
  438.0000    12.3696     0.0034     0.1430    70.9910     2.4383
  438.5000    12.3399     0.0084     0.1405    70.2985     2.4410
  439.0000    12.3400     0.0151     0.1295    70.2985     2.4743
  439.5000    12.3103     0.0223     0.1085    70.2985     2.4992
  440.0000    12.3105     0.0278     0.1035    69.8507     2.5060
  440.5000    12.3106     0.0247     0.1180    69.4030     2.4781
  441.0000    12.3108     0.0127     0.1354    69.4030     2.4377
  441.5000    12.3109     0.0119     0.1485    70.2985     2.4316
  442.0000    12.3111     0.0134     0.1447    70.7463     2.4392
  442.5000    12.3112     0.0143     0.1395    71.6418     2.4462
  443.0000    12.3412     0.0164     0.1372    71.6418     2.4508
  443.5000    12.3413     0.0179     0.1358    71.1940     2.4531
  444.0000    12.3116     0.0118     0.1360    71.6418     2.4492
  444.5000    12.3118     0.0102     0.1357    72.0896     2.4537
  445.0000    12.3119     0.0193     0.1268    73.4328     2.4674
  445.5000    12.3121     0.0314     0.1206    74.3298     2.4765
  446.0000    12.3122     0.0405     0.1191    75.6896     2.4795
  446.5000    12.3124     0.0481     0.1188    76.6358     2.4811
  447.0000    12.3125     0.0405     0.1243    77.9612     2.4750
  447.5000    12.3127     0.0343     0.1261    78.8732     2.4689
  448.0000    12.3128     0.0313     0.1279    79.8686     2.4643
  448.5000    12.3130     0.0328     0.1304    81.1448     2.4597
  449.0000    12.3131     0.0343     0.1286    82.0567     2.4596
  449.5000    12.3133     0.0357     0.1261    83.4164     2.4673
  450.0000    12.3134     0.0357     0.1255    84.6269     2.4704
  450.5000    12.3136     0.0357     0.1280    87.9761     2.4687
  451.0000    12.3137     0.0357     0.1486    92.0717     2.4540
  451.5000    12.3139     0.0356     0.1663    95.5209     2.4152
  452.0000    12.3141     0.0351     0.1766    98.0418     2.3848
  452.5000    12.2843     0.0278     0.1815    97.5821     2.3791
  453.0000    12.2845     0.0146     0.1597    93.0388     2.4028
  453.5000    12.2846     0.0134     0.1348    90.1030     2.4336
  454.0000    12.2848     0.0164     0.1258    85.5224     2.4636
  454.5000    12.2849     0.0187     0.1211    81.9403     2.4738
  455.0000    12.2851     0.0210     0.1180    80.5970     2.4774
  455.5000    12.2852     0.0217     0.1151    80.4791     2.4860
  456.0000    12.2854     0.0171     0.1147    81.4925     2.4885
  456.5000    12.2855     0.0110     0.1168    82.3881     2.4872
  457.0000    12.2857     0.0064     0.1220    82.3881     2.4788
  457.5000    12.2836     0.0033     0.1232    81.4925     2.4725
  458.0000    12.2561     0.0048     0.1194    80.5970     2.4734
  458.5000    12.2563     0.0094     0.1163    79.2537     2.4780
  459.0000    12.2564     0.0139     0.1141    79.2537     2.4839
  459.5000    12.2566     0.0154     0.1135    79.7015     2.4885
  460.0000    12.2567     0.0169     0.1141    79.7015     2.4915
  460.5000    12.2569     0.0184     0.1260    79.2074     2.4672
  461.0000    12.2570     0.0122     0.1311    77.7851     2.4626
  461.5000    12.2572     0.0045     0.1293    76.0403     2.4641
  462.0000    12.2573     0.0064     0.1220    74.6806     2.4717
  462.5000    12.2575     0.0142     0.1160    73.3209     2.4793
  463.0000    12.2576     0.0217     0.1099    74.2656     2.4884
  463.5000    12.2578     0.0276     0.1075    75.8164     2.4960
  464.0000    12.2579     0.0303     0.1069    77.1761     2.5005
  464.5000    12.2581     0.0233     0.1087    78.2657     2.4945
  465.0000    12.2582     0.0186     0.1129    79.2537     2.4899
  465.5000    12.2285     0.0139     0.1136    79.9119     2.4899
  466.0000    12.2287     0.0086     0.1117    80.8239     2.4860
  466.5000    12.2587     0.0037     0.1239    81.2880     2.4619
