~VERSION INFORMATION
 VERS.                2.0:   CWLS LOG ASCII STANDARD - VERSION 2.0
 WRAP.                 NO:   ONE LINE PER DEPTH STEP
~WELL INFORMATION
#MNEM.UNIT      DATA TYPE    INFORMATION
#----------   ------------   ------------------------------
 STRT.F           28.5000:   START DEPTH
 STOP.F          625.0000:   STOP DEPTH
 STEP.F            0.5000:   STEP LENGTH
 NULL.          -999.2500:   NO VALUE
 COMP. FENIX & SCISSON INC:   COMPANY
 WELL.    NPR ##3 13-SX-3:   WELL
 FLD .             TEAPOT:   FIELD
 LOC .       S3 T38N R78W:   LOCATION
 CNTY.            NATRONA:   COUNTY
 STAT.            WYOMING:   STATE
 CTRY. UNITED STATES OF AMERICA:   COUNTRY
 SRVC.       Schlumberger:   SERVICE COMPANY
 DATE.        25-FEB-1977:   LOGDATE
 API .       490251028400:   API NUMBER
~CURVE INFORMATION
#MNEM.UNIT       API CODE    CURVE DESCRIPTION
#----------   ------------   ------------------------------
 DEPT.F                  :   
 SPR .MV     07 010 01 00:   SPONTANEOUS POTENTIAL
 ILD .OHMM   07 120 46 00:   INDUCTION LOG DEEP
 LL8 .OHMM   07 220 08 00:   LATEROLOG-8 RES.
 ILM .OHMM   07 120 44 00:   INDUCTION LOG MEDIUM
 GRD .GAPI   45 310 01 00:   GAMMA RAY FROM DENSITY LOG
 CALD.IN     45 280 60 00:   CALIPER
 RHOB.G/C3   45 350 01 00:   BULK DENSITY
 CORR.G/C3   45 356 01 00:   DENSITY CORRECTION
 DPOR.DEC    45 890 12 00:   DENSITY POROSITY SANDSTONE
~PARAMETER INFORMATION
#MNEM.UNIT          VALUE    DESCRIPTION
#----------   ------------   ------------------------------
 PD  .                 GL:   PERMANENT DATUM
 EPD .F              5227:   ELEVATION PERMANENT DATUM
 LMF .                 GL:   LOG MEASURED FROM
 DMF .                 GL:   DRILLING MEASURED FROM
 EKB .F              5232:   KELLING BUSHING
 EGL .F              5227:   GROUND LEVEL
 DATE.          2-25-1977:   RUN DATE
 RUN .                  1:   RUN NUMBER
 DD  .F               629:   DEPTH DRILLER
 DL  .F               626:   DEPTH LOGGER
 BLI .F               620:   BOTTOM LOG INTERVAL
 TLI .F                40:   TOP LOG INTERVAL
 CS  .IN            8.625:   CASING SIZE
 CBD .F                40:   CASING BOTTOM DRILLER
 CBL .F                40:   CASING BOTTOM LOGGER
 BS  .IN            7.875:   BIT SIZE
 BSD .F               629:   BIT SIZE AT DEPTH
 DFT .                KCL:   DRILLING FLUID TYPE
 DFD .                8.8:   DRILLING FLUID DENSITY
 DFV .                 45:   DRILLING FLUID VISCOSITY
 DFPH.                  8:   DRILLING FLUID PH
 DFL .                8.2:   DRILLING FLUID LOSS
 MSS .                PIT:   MUD SAMPLE SOURCE
 RMS .OHMM           .508:   RESISTIVITY MUD SAMPLE
 MST .F                60:   MUD SAMPLE TEMPERATURE
 RMF .OHMM           .419:   RESISTIVITY MUD FILTRATE SAMPLE
 MFST.F                58:   MUD FILTRATE SAMPLE TEMPERATURE
 MFSS.                  M:   MUD FILTRATE SAMPLE SOURCE
 RMB .OHMM            .41:   RESISTIVITY MUD AT BHT
 BHT .F                75:   BOTTOM HOLE TEMPERATURE
 TCS .HRS            1700:   TIME CURCULATED STOPPED
 TLAB.HRS            2130:   TIME LOGGER AT BOTTOM
 MRT .F                75:   MAXIMUM RECORDED TEMPERATURE
 LUN .               5642:   LOGGING UNIT NUMBER
 LUL .               CSPR:   LOGGING UNIT LOCATION
 ENGI.             MARTIN:   RECORDING ENGINEER
 CLNT.            A2DTECH:   CLIENT CODE
 ORIG.       2", 5" PRINT:   ORIGIN OF DATA
 UWI .       490251028400:   UNIQUE WELL ID
 DICO. A2D Technologies, Inc.:   DIGITIZING COMPANY
~OTHER INFORMATION
~A   DEPT      SPR        ILD        LL8        ILM         GRD      CALD         RHOB     CORR       DPOR   
# ...
  576.0000   -49.8794    12.5469    11.6142    12.0293    96.1801     8.2455     2.4669     0.0011     0.1054
  576.5000   -49.9377    12.5781    11.4901    12.0824    97.0127     8.2455     2.4699     0.0010     0.1068
  577.0000   -50.0918    12.6095    11.3673    12.0719    96.6098     8.2455     2.4635    -0.0040     0.1114
  577.5000   -50.2497    12.6409    11.2458    12.0601    96.7594     8.2455     2.4609     0.0000     0.1053
  578.0000   -50.0993    12.6724    11.1256    12.0483    97.7498     8.2455     2.4738     0.0105     0.0958
  578.5000   -49.8031    12.7041    11.0152    12.0365    96.2288     8.2455     2.4753     0.0042     0.1051
  579.0000   -49.5058    12.7357    11.2830    12.0247    94.4468     8.2455     2.4734     0.0045     0.1066
  579.5000   -49.2027    12.7718    11.6945    12.0129    93.4688     8.2455     2.4779     0.0078     0.1007
  580.0000   -49.3126    12.6488    11.8610    12.0012    95.1487     8.2455     2.4800     0.0044     0.1011
  580.5000   -49.6987    12.5079    11.3755    11.9893    97.4402     8.2455     2.4772     0.0008     0.1028
  581.0000   -50.0889    12.3686    11.1176    11.9765   100.0602     8.2455     2.4745    -0.0009     0.1044
  581.5000   -50.4801    12.2308    11.4303    11.9746   102.6799     8.2455     2.4802     0.0050     0.1024
  582.0000   -50.8730    12.0946    11.2233    11.7486   105.2903     8.2455     2.4892     0.0038     0.0915
  582.5000   -51.2569    11.9599    10.9982    11.5401   106.8632     8.2455     2.4924    -0.0011     0.0949
  583.0000   -51.3561    11.8266    10.7774    11.3352   106.4059     8.2455     2.4806    -0.0015     0.1035
  583.5000   -51.4956    11.6401    10.5611    11.1340   105.9787     8.2455     2.4834     0.0043     0.1002
  584.0000   -51.6413    11.3865    10.3495    10.9364   106.4971     8.2455     2.4788     0.0102     0.1035
  584.5000   -51.6725    11.1385    10.1356    10.7423   107.1730     8.2455     2.4699     0.0060     0.1076
  585.0000   -51.6604    10.8959     9.9254    10.5516   107.1925     8.2455     2.4601     0.0001     0.1121
  585.5000   -51.2478    10.6585     9.7675    10.4207   106.2250     8.2455     2.4681     0.0012     0.1089
  586.0000   -50.8917    10.6152     9.8660    10.3802   104.9484     8.2455     2.4781     0.0085     0.1050
  586.5000   -51.0875    10.6328     9.9638    10.3406   103.8652     8.2455     2.4759     0.0077     0.1063
  587.0000   -51.2771    10.6616    10.0423    10.3245   105.8960     8.2455     2.4775     0.0027     0.1051
  587.5000   -51.4623    10.6906     9.9521    10.3256   108.7752     8.2455     2.4819    -0.0021     0.1010
  588.0000   -51.4049    10.7133     9.8410    10.1924   112.4077     8.2455     2.4807     0.0026     0.0970
  588.5000   -51.2056    10.6771     9.7311    10.0835   110.8488     8.2455     2.4727     0.0084     0.1032
  589.0000   -51.0698    10.6464     9.6223     9.9757   107.7370     8.2455     2.4665     0.0043     0.1090
  589.5000   -51.2630    10.6152     9.5149     9.8691   104.5689     8.2455     2.4603    -0.0041     0.1134
  590.0000   -51.6095    10.4719     9.4086     9.7636   103.6889     8.2455     2.4590    -0.0104     0.1111
  590.5000   -51.9565    10.3282     9.3035     9.6776   104.1344     8.2455     2.4686    -0.0055     0.1026
  591.0000   -52.3055    10.1865     9.1553     9.7626   105.4655     8.2455     2.4842     0.0009     0.0940
  591.5000   -52.5981    10.0423     9.3230     9.9142   108.0051     8.2455     2.4981     0.0072     0.0901
  592.0000   -52.8487    10.2283     9.6305    10.0678   110.5086     8.2455     2.4927     0.0127     0.0943
  592.5000   -53.0705    10.4241     9.9470    10.2234   111.4810     8.2455     2.4887     0.0092     0.0974
  593.0000   -53.0652    10.7128    10.2720    10.3816   107.4076     8.2455     2.4948     0.0117     0.0945
  593.5000   -53.0647    10.6374    10.4207    10.4207   103.9192     8.2455     2.4907     0.0136     0.0961
  594.0000   -53.0707    10.4952    10.0398    10.2065   105.7339     8.2455     2.4836     0.0048     0.1001
  594.5000   -52.7556    10.3564     9.8683    10.0510   107.9898     8.2455     2.4764     0.0026     0.1041
  595.0000   -52.3311    10.2198     9.6989     9.8979   110.2685     8.2455     2.4804     0.0083     0.1050
  595.5000   -51.8410    10.0849     9.5340     9.7471   112.5295     8.2455     2.4883     0.0140     0.1002
  596.0000   -51.9290     9.9518     9.3646     9.5986   113.3144     8.2455     2.4963     0.0202     0.0929
  596.5000   -52.4232     9.8205     9.2403     9.4524   109.9936     8.2455     2.5034     0.0233     0.0878
  597.0000   -52.5246     9.6909     9.1283     9.3860   107.4412     8.2455     2.5020     0.0226     0.0878
  597.5000   -52.2658     9.5630     9.0089     9.3038   105.4046     8.2455     2.5001     0.0251     0.0854
  598.0000   -52.0002     9.4368     8.9034     9.2224   105.9800     8.2455     2.4985     0.0276     0.0882
  598.5000   -51.9980     9.3262     9.1225     9.1417   106.3752     8.2455     2.5007     0.0202     0.0884
  599.0000   -52.2444     9.1087     9.5956     9.0617   105.9396     8.2455     2.5032     0.0212     0.0855
  599.5000   -52.4926     8.9597    10.1323     8.9824   105.6586     8.2455     2.5052     0.0260     0.0854
  600.0000   -52.7420     8.8131     9.6414     8.9038   107.2936     8.2455     2.5000     0.0153     0.0902
  600.5000   -53.0023     8.6690     9.0680     8.8259   108.9383     8.2455     2.4908     0.0050     0.0946
  601.0000   -53.0038     8.5271     9.3521     8.7487   109.4629     8.2455     2.4817     0.0023     0.0990
  601.5000   -52.9259     8.3876     9.6747     8.6721   109.6094     8.2455     2.4726     0.0039     0.1034
  602.0000   -53.0127     8.2504    10.0423     8.5962   109.7299     8.2455     2.4606     0.0054     0.1064
  602.5000   -53.5225     8.1154     8.7720     8.5210   110.4387     8.2455     2.4668     0.0068     0.1047
  603.0000   -54.0373     7.9695     7.8090     8.4464   111.4073     8.2455     2.4796     0.0083     0.1013
  603.5000   -54.2877     7.9695     7.6094     8.3466   109.8274     8.2455     2.4911     0.0098     0.0979
  604.0000   -54.3787     8.1174     8.0393     8.4632   108.6766     8.2455     2.5038     0.0096     0.0938
  604.5000   -54.1049     8.3683     8.3864     8.7224   110.3129     8.2455     2.5190     0.0090     0.0844
  605.0000   -53.8454     8.6270     8.7486     9.0112   111.8829     8.2455     2.5345     0.0005     0.0695
  605.5000   -53.8180     8.8938     9.1262     9.3096   111.5044     8.2455     2.5381    -0.0082     0.0707
  606.0000   -54.3218     9.1687     9.5200     9.6178   107.8654     8.2455     2.5265    -0.0025     0.0679
  606.5000   -54.6586     9.4522     9.9353     9.9363   104.2680     8.2442     2.5124     0.0048     0.0805
  607.0000   -54.3904     9.7445    10.3726    10.2653   102.7362     8.2405     2.5188     0.0120     0.0862
  607.5000   -54.1053    10.0442    10.6644    10.6052   101.1426     8.2369     2.5249     0.0193     0.0727
  608.0000   -53.8185    10.3754    10.8400    10.9564  -999.2500     8.2332     2.5178     0.0174     0.0827
  608.5000   -53.5181    10.7139    10.9819    11.3191  -999.2500     8.2296     2.5109     0.0072     0.0881
  609.0000   -53.7621    10.8134    11.1256    11.4874  -999.2500     8.2260     2.5040     0.0067     0.0890
  609.5000   -54.1588    10.9771    11.2712    11.5694  -999.2500     8.2224     2.4971     0.0064     0.0937
  610.0000   -54.5599    11.1047    11.4196    11.6437  -999.2500     8.2187     2.4926     0.0062     0.1014
  610.5000   -54.9691    11.2209    11.5671    11.6437  -999.2500     8.2151     2.4994     0.0065     0.0956
  611.0000   -55.1497    11.1095    11.6463    11.6437  -999.2500     8.2115     2.5059     0.0093     0.0898
  611.5000   -55.2756    11.0094    11.3793    11.5365  -999.2500     8.2079     2.5124     0.0121     0.0849
  612.0000   -55.3997    10.9099    11.2263    11.4303  -999.2500     8.2042     2.5138     0.0152     0.0779
