~VERSION INFORMATION
 VERS.                2.0:   CWLS LOG ASCII STANDARD - VERSION 2.0
 WRAP.                 NO:   ONE LINE PER DEPTH STEP
~WELL INFORMATION
#MNEM.UNIT      DATA TYPE    INFORMATION
#----------   ------------   ------------------------------
 STRT.F          100.0000:   START DEPTH
 STOP.F          780.0000:   STOP DEPTH
 STEP.F            0.5000:   STEP LENGTH
 NULL.          -999.2500:   NO VALUE
 COMP. U S NAVY-INTEX OIL:   COMPANY
 WELL.        NPR #34-S-2:   WELL
 FLD .             TEAPOT:   FIELD
 LOC .       S2 T38N R78W:   LOCATION
 CNTY.            NATRONA:   COUNTY
 STAT.            WYOMING:   STATE
 CTRY. UNITED STATES OF AMERICA:   COUNTRY
 SRVC.       Schlumberger:   SERVICE COMPANY
 DATE.        16-JUL-1962:   LOGDATE
 API .       490250644000:   API NUMBER
~CURVE INFORMATION
#MNEM.UNIT       API CODE    CURVE DESCRIPTION
#----------   ------------   ------------------------------
 DEPT.F                  :   
 ASN .OHMM   05 041 16 00:   AMPLIFIED SHORT NORMAL 16"
 CILD.MMHO   05 110 46 00:   CONDUCTIVITY INDUCTION LOG DEEP
 ILD .OHMM   05 120 46 00:   INDUCTION LOG DEEP
 SPR .MV     05 010 01 00:   SPONTANEOUS POTENTIAL FROM RES.
 CALM.IN     15 280 01 00:   CALIPER FROM MICRO LOG
 GR  .GAPI   30 310 01 00:   GAMMA RAY
~PARAMETER INFORMATION
#MNEM.UNIT          VALUE    DESCRIPTION
#----------   ------------   ------------------------------
 LMF .                 KB:   LOG MEASURED FROM
 DMF .                 KB:   DRILLING MEASURED FROM
 EKB .F              5130:   KELLING BUSHING
 EGL .F              5125:   GROUND LEVEL
 DATE.        16-JUL-1962:   RUN DATE
 RUN .                  1:   RUN NUMBER
 DD  .F               780:   DEPTH DRILLER
 DL  .F               781:   DEPTH LOGGER
 BLI .F               780:   BOTTOM LOG INTERVAL
 TLI .F               100:   TOP LOG INTERVAL
 CBD .F                10:   CASING BOTTOM DRILLER
 BS  .IN             6.75:   BIT SIZE
 BSD .F               780:   BIT SIZE AT DEPTH
 DFT .       OIL EMULSION:   DRILLING FLUID TYPE
 DFD .               10.3:   DRILLING FLUID DENSITY
 DFV .                 43:   DRILLING FLUID VISCOSITY
 DFL .                4.6:   DRILLING FLUID LOSS
 RMS .OHMM              4:   RESISTIVITY MUD SAMPLE
 MST .F                82:   MUD SAMPLE TEMPERATURE
 RMF .OHMM            3.1:   RESISTIVITY MUD FILTRATE SAMPLE
 MFST.F                82:   MUD FILTRATE SAMPLE TEMPERATURE
 RMC .OHMM            4.3:   RESISTIVITY MUD CAKE
 MCST.F                82:   MUD CAKE SAMPLE TEMPERATURE
 TCS .HRS             0.5:   TIME CURCULATED STOPPED
 LUN .               2503:   LOGGING UNIT NUMBER
 LUL .               CSPR:   LOGGING UNIT LOCATION
 ENGI.           ELLERMAN:   RECORDING ENGINEER
 WITN.          JORGENSON:   WITNESSED BY
 CLNT.            A2DTECH:   CLIENT CODE
 ORIG.           5" PRINT:   ORIGIN OF DATA
 UWI .       490250644000:   UNIQUE WELL ID
 DICO. A2D Technologies, Inc.:   DIGITIZING COMPANY
~OTHER INFORMATION
~A   DEPT       ASN       CILD         ILD      SPR       CALM         GR   
# ...
  204.0000     3.4703   455.6566     3.1699   -50.1008  -999.2500  -999.2500
  204.5000     3.2164   514.8353     2.8707   -49.7973  -999.2500  -999.2500
  205.0000     3.0214   547.2051     2.7970   -49.7915  -999.2500  -999.2500
  205.5000     2.9320   559.0194     2.7985   -49.6368  -999.2500  -999.2500
  206.0000     2.9034   552.3552     2.8752   -49.6309  -999.2500  -999.2500
  206.5000     2.9379   492.9505     3.0271   -49.6250  -999.2500  -999.2500
  207.0000     3.1294   425.0300     3.2544   -49.6309  -999.2500  -999.2500
  207.5000     3.5471   365.7905     3.5567   -49.7621  -999.2500  -999.2500
  208.0000     4.0856   294.6679     4.0093   -49.9325  -999.2500  -999.2500
  208.5000     5.1471   222.0483     4.9882   -50.3441  -999.2500  -999.2500
  209.0000     6.4329   153.9197     6.1175   -51.3799  -999.2500  -999.2500
  209.5000     7.5543   101.5096     7.5476   -52.1181  -999.2500  -999.2500
  210.0000     8.1824    82.0337     9.2784   -52.5586  -999.2500  -999.2500
  210.5000     8.8105    74.5338    11.5355   -52.7030  -999.2500  -999.2500
  211.0000     9.2592    73.7705    12.5896   -52.8460  -999.2500  -999.2500
  211.5000     9.3343    76.7497    11.9896   -52.8386  -999.2500  -999.2500
  212.0000     9.2897    81.9744    10.4122   -52.6840  -999.2500  -999.2500
  212.5000     9.1256    90.9416     9.2107   -52.5293  -999.2500  -999.2500
  213.0000     8.7671   103.6513     8.3099   -52.3746  -999.2500  -999.2500
  213.5000     8.3340   144.0556     7.5595   -52.0711  -999.2500  -999.2500
  214.0000     7.8260   164.2504     6.9595   -51.6188  -999.2500  -999.2500
  214.5000     6.8547   173.2176     6.6602   -51.3153  -999.2500  -999.2500
  215.0000     6.2123   179.9393     6.3610   -50.5654  -999.2500  -999.2500
  215.5000     5.6446   182.9184     6.1369   -49.6666  -999.2500  -999.2500
  216.0000     5.5683   183.6527     6.1384   -49.3632  -999.2500  -999.2500
  216.5000     6.3178   182.1403     6.2150   -49.9802  -999.2500  -999.2500
  217.0000     6.9907   176.1374     6.2937   -51.0317  -999.2500  -999.2500
  217.5000     7.6487   154.4160     6.5990   -52.1714  -999.2500  -999.2500
  218.0000     9.0392   131.9461     7.3123   -52.3158  -999.2500  -999.2500
  218.5000     9.3996   111.6344     8.6822   -52.3085  -999.2500  -999.2500
  219.0000     9.6870    98.8473    10.0100   -52.3026  -999.2500  -999.2500
  219.5000     9.9278    90.5889    10.5852   -52.2968  -999.2500  -999.2500
  220.0000    10.2910    85.3793    10.9627   -52.4752  -999.2500  -999.2500
  220.5000    10.9495    81.5943    11.2649   -52.8802  -999.2500  -999.2500
  221.0000    11.4476    77.9611    11.6423   -53.1735  -999.2500  -999.2500
  221.5000    11.8963    74.9523    12.0198   -53.1661  -999.2500  -999.2500
  222.0000    12.1208    72.6919    12.2468   -53.0114  -999.2500  -999.2500
  222.5000    12.2706    71.9286    12.3987   -53.0056  -999.2500  -999.2500
  223.0000    12.3456    71.9138    12.6257   -53.2973  -999.2500  -999.2500
  223.5000    12.4207    72.6511    12.7776   -53.7379  -999.2500  -999.2500
  224.0000    12.4957    72.6326    12.9295   -54.0298  -999.2500  -999.2500
  224.5000    12.4960    72.6178    13.0815   -54.1726  -999.2500  -999.2500
  225.0000    12.5897    71.8544    13.1579   -54.3155  -999.2500  -999.2500
  225.5000    12.6461    70.3426    13.2523   -54.4584  -999.2500  -999.2500
  226.0000    12.7211    69.5808    13.3866   -54.4524  -999.2500  -999.2500
  226.5000    12.7961    69.0775    13.4404   -54.4464  -999.2500  -999.2500
  227.0000    12.9459    68.8011    13.5399   -54.2905  -999.2500  -999.2500
  227.5000    13.0210    68.0377    13.6166   -53.9870  -999.2500  -999.2500
  228.0000    13.2455    66.5259    13.6933   -53.8323  -999.2500  -999.2500
  228.5000    13.3952    65.7626    13.7699   -53.6791  -999.2500  -999.2500
  229.0000    13.5450    65.7477    13.8466   -53.9709  -999.2500  -999.2500
  229.5000    13.6948    65.7329    13.9619   -53.9635  -999.2500  -999.2500
  230.0000    13.8446    65.7186    14.0752   -54.1079  -999.2500  -999.2500
  230.5000    13.9533    65.7036    14.1559   -54.2509  -999.2500  -999.2500
  231.0000    14.0694    65.6884    14.2717   -54.3938  -999.2500  -999.2500
  231.5000    14.2191    65.6736    14.4251   -54.6841  -999.2500  -999.2500
  232.0000    14.3689    65.6587    14.4657   -55.1246  -999.2500  -999.2500
  232.5000    14.4477    65.6344    14.6093   -55.4178  -999.2500  -999.2500
  233.0000    14.5937    64.8802    14.7612   -55.5595  -999.2500  -999.2500
  233.5000    14.6780    64.6551    14.8506   -55.2558  -999.2500  -999.2500
  234.0000    14.8185    63.3533    15.0040   -54.9523  -999.2500  -999.2500
  234.5000    14.9684    61.8383    15.2168   -54.7976  -999.2500  -999.2500
  235.0000    15.1181    61.0750    15.4438   -54.7917  -999.2500  -999.2500
  235.5000    15.2679    59.5632    15.6145   -54.8036  -999.2500  -999.2500
  236.0000    15.4924    58.7998    15.8979   -55.1032  -999.2500  -999.2500
  236.5000    15.7169    56.5395    16.2002   -55.5182  -999.2500  -999.2500
  237.0000    16.0909    55.0276    16.5776   -55.9573  -999.2500  -999.2500
  237.5000    16.6891    54.2665    17.0302   -56.5466  -999.2500  -999.2500
  238.0000    17.0631    53.3899    17.4076   -56.8399  -999.2500  -999.2500
  238.5000    17.2129    51.9891    17.7099   -57.1301  -999.2500  -999.2500
  239.0000    17.2879    51.2275    17.8617   -57.1243  -999.2500  -999.2500
  239.5000    17.3630    51.2110    18.0136   -56.9696  -999.2500  -999.2500
  240.0000    17.3633    50.4476    18.0903   -56.8149  -999.2500  -999.2500
  240.5000    17.4383    49.6843    18.2421   -56.5114  -999.2500  -999.2500
  241.0000    17.7375    48.1724    18.2436   -56.2079  -999.2500  -999.2500
  241.5000    17.8873    48.1576    18.1699   -56.7973  -999.2500  -999.2500
  242.0000    17.8876    47.3943    18.0942   -57.3591  -999.2500  -999.2500
  242.5000    17.6637    47.3794    17.9473   -57.9563  -999.2500  -999.2500
  243.0000    17.4398    48.1138    17.7985   -58.5654  -999.2500  -999.2500
  243.5000    17.2906    48.0983    17.6496   -59.6012  -999.2500  -999.2500
  244.0000    17.1414    48.8319    17.5619   -59.4385  -999.2500  -999.2500
  244.5000    16.9922    48.8171    17.4274   -58.5357  -999.2500  -999.2500
  245.0000    16.8431    49.5508    17.3533   -58.2242  -999.2500  -999.2500
  245.5000    16.7684    49.5359    17.2048   -57.9127  -999.2500  -999.2500
  246.0000    16.6912    49.5210    17.1311   -57.7846  -999.2500  -999.2500
  246.5000    16.6140    48.7575    17.0570   -57.7787  -999.2500  -999.2500
  247.0000    16.5453    48.7425    16.9085   -57.6240  -999.2500  -999.2500
  247.5000    16.5456    48.8398    16.7592   -57.6182  -999.2500  -999.2500
  248.0000    16.4711    49.4618    16.5355   -57.1659  -999.2500  -999.2500
  248.5000    16.4715    50.9402    16.3114   -56.4159  -999.2500  -999.2500
  249.0000    16.4718    52.4224    15.9370   -55.5172  -999.2500  -999.2500
  249.5000    16.3973    54.6531    15.3370   -55.0649  -999.2500  -999.2500
  250.0000    16.0987    57.6323    14.5114   -55.3581  -999.2500  -999.2500
  250.5000    15.6506    62.1084    13.7610   -55.5011  -999.2500  -999.2500
  251.0000    14.9782    69.5786    12.7851   -55.3449  -999.2500  -999.2500
  251.5000    14.0069    77.7973    11.4332   -55.1902  -999.2500  -999.2500
  252.0000    12.5872    88.2615    10.5324   -54.1427  -999.2500  -999.2500
  252.5000    10.6443   104.7138     9.1806   -52.8048  -999.2500  -999.2500
  253.0000     9.9552   119.6691     8.4302   -51.1635  -999.2500  -999.2500
  253.5000     9.0732   133.1276     7.9053   -50.2663  -999.2500  -999.2500
  254.0000     8.2810   142.0950     7.3805   -49.6666  -999.2500  -999.2500
  254.5000     7.8475   148.0684     7.0812   -49.5134  -999.2500  -999.2500
  255.0000     7.6383   149.5509     7.0827   -49.3601  -999.2500  -999.2500
  255.5000     7.4122   149.4885     7.0975   -49.3548  -999.2500  -999.2500
