~VERSION INFORMATION
 VERS.                2.0:   CWLS LOG ASCII STANDARD - VERSION 2.0
 WRAP.                 NO:   ONE LINE PER DEPTH STEP
~WELL INFORMATION
#MNEM.UNIT      DATA TYPE    INFORMATION
#----------   ------------   ------------------------------
 STRT.F          520.5000:   START DEPTH
 STOP.F         3119.5000:   STOP DEPTH
 STEP.F            0.5000:   STEP LENGTH
 NULL.          -999.2500:   NO VALUE
 COMP.   FLUOR DANIEL INC:   COMPANY
 WELL. NAVAL PETROLEUM RESERVE 3 X-10 #52-10:   WELL
 FLD .            WILDCAT:   FIELD
 LOC .      S10 T38N R78W:   LOCATION
 CNTY.            NATRONA:   COUNTY
 STAT.            WYOMING:   STATE
 CTRY. UNITED STATES OF AMERICA:   COUNTRY
 SRVC.            Unknown:   SERVICE COMPANY
 DATE.        16-AUG-1995:   LOGDATE
 API .       490252275200:   API NUMBER
~CURVE INFORMATION
#MNEM.UNIT       API CODE    CURVE DESCRIPTION
#----------   ------------   ------------------------------
 DEPT.F                  :   
 ROP .MIN/FT 91 810 01 00:   RAT OF DRILLING PENETRATION
 TGAS.UNITS  91 830 01 00:   TOTAL GAS FROM HOTWIRE
~PARAMETER INFORMATION
#MNEM.UNIT          VALUE    DESCRIPTION
#----------   ------------   ------------------------------
 EKB .F              5206:   KELLING BUSHING
 EGL .F              5196:   GROUND LEVEL
 DATE.            8-16-95:   RUN DATE
 DD  .F              3120:   DEPTH DRILLER
 CS  .IN            9.625:   CASING SIZE
 CBD .F               508:   CASING BOTTOM DRILLER
 BS  .IN             8.75:   BIT SIZE
 BSD .F              3120:   BIT SIZE AT DEPTH
 ENGI.               HUSK:   RECORDING ENGINEER
 WITN.              TOWER:   WITNESSED BY
 CLNT.            A2DTECH:   CLIENT CODE
 ORIG.           5" PRINT:   ORIGIN OF DATA
 UWI .       490252275200:   UNIQUE WELL ID
 DICO. A2D Technologies, Inc.:   DIGITIZING COMPANY
~OTHER INFORMATION
~A   DEPT        ROP     TGAS   
# ...
 1128.0000     0.3030    36.3697
 1128.5000     0.3132    36.3648
 1129.0000     0.3130    36.3599
 1129.5000     0.3127    36.3550
 1130.0000     0.3125    36.3500
 1130.5000     0.3122    36.3451
 1131.0000     0.3119    36.3402
 1131.5000     0.3117    36.3353
 1132.0000     0.4280    36.3304
 1132.5000     0.4383    36.3255
 1133.0000     0.4380    36.3206
 1133.5000     0.4378    36.3157
 1134.0000     0.4375    36.3108
 1134.5000     0.4372    36.3059
 1135.0000     0.4369    36.3009
 1135.5000     0.4367    36.2960
 1136.0000     0.4471    36.2911
 1136.5000     0.4467    36.2862
 1137.0000     0.4465    36.2813
 1137.5000     0.4462    36.2764
 1138.0000     0.4566    36.2715
 1138.5000     0.4563    36.2666
 1139.0000     0.4576    36.2617
 1139.5000     0.4664    36.2568
 1140.0000     0.4555    36.2518
 1140.5000     0.4552    36.2469
 1141.0000     0.4549    36.2420
 1141.5000     0.4547    36.2371
 1142.0000     0.4544    36.2322
 1142.5000     0.4542    36.2273
 1143.0000     0.4539    36.2224
 1143.5000     0.4537    36.2175
 1144.0000     0.4534    36.2126
 1144.5000     0.4531    36.2076
 1145.0000     0.4529    36.2027
 1145.5000     0.4526    36.1978
 1146.0000     0.4523    36.1929
 1146.5000     0.4520    36.1880
 1147.0000     0.4518    36.1831
 1147.5000     0.4515    36.1782
 1148.0000     0.4407    36.1733
 1148.5000     0.4404    36.1684
 1149.0000     0.4401    36.1635
 1149.5000     0.4391    36.1585
 1150.0000     0.4290    36.1536
 1150.5000     0.4287    36.1487
 1151.0000     0.4179    36.1438
 1151.5000     0.4176    36.1389
 1152.0000     0.4173    36.1340
 1152.5000     0.4171    36.1291
 1153.0000     0.4168    36.1242
 1153.5000     0.4166    36.1193
 1154.0000     0.4163    36.1144
 1154.5000     0.4160    36.1094
 1155.0000     0.4158    36.1045
 1155.5000     0.4155    36.0996
 1156.0000     0.4152    36.0947
 1156.5000     0.4149    36.0898
 1157.0000     0.4147    36.0849
 1157.5000     0.4144    36.0800
 1158.0000     0.4142    36.0751
 1158.5000     0.4139    36.0702
 1159.0000     0.4137    36.0653
 1159.5000     0.4134    36.0603
 1160.0000     0.4448    36.0554
 1160.5000     0.4439    36.0505
 1161.0000     0.4430    36.0456
 1161.5000     0.4421    36.0407
 1162.0000     0.4412    36.0358
 1162.5000     0.4403    36.0309
 1163.0000     0.4394    36.0260
 1163.5000     0.4382    36.0211
 1164.0000     0.4373    36.0162
 1164.5000     0.4364    36.0112
 1165.0000     0.4355    36.0063
 1165.5000     0.4454    36.0014
 1166.0000     0.4125    35.9965
 1166.5000     0.3692    35.9916
 1167.0000     0.3471    35.9867
 1167.5000     0.3356    35.9818
 1168.0000     0.3241    35.9769
 1168.5000     0.3232    35.9720
 1169.0000     0.3223    35.9670
 1169.5000     0.3214    35.9621
 1170.0000     0.3204    35.9572
 1170.5000     0.3193    35.9523
 1171.0000     0.3184    35.9474
 1171.5000     0.3283    35.9425
 1172.0000     0.3272    35.9376
 1172.5000     0.3263    35.9327
 1173.0000     0.3254    35.9278
 1173.5000     0.3353    35.9229
 1174.0000     0.3448    35.9179
 1174.5000     0.3438    35.9130
 1175.0000     0.3429    35.9081
 1175.5000     0.3420    35.9032
 1176.0000     0.3411    35.8983
 1176.5000     0.3508    35.8934
 1177.0000     0.3497    35.8885
 1177.5000     0.3488    35.8836
 1178.0000     0.3478    35.8787
 1178.5000     0.3469    35.8738
 1179.0000     0.3460    35.8688
 1179.5000     0.3451    35.8639
 1180.0000     0.3442    35.8590
 1180.5000     0.3541    35.8541
 1181.0000     0.3530    35.8492
 1181.5000     0.3627    35.8443
 1182.0000     0.3618    35.8394
 1182.5000     0.3714    35.8345
 1183.0000     0.3705    35.8296
 1183.5000     0.3694    35.8247
 1184.0000     0.3685    35.8197
 1184.5000     0.3676    35.8148
 1185.0000     0.3667    35.8099
 1185.5000     0.3657    35.8050
 1186.0000     0.3648    35.8001
 1186.5000     0.3639    35.7952
 1187.0000     0.3630    35.7903
 1187.5000     0.3621    35.7854
 1188.0000     0.3612    35.7805
 1188.5000     0.3603    35.7756
 1189.0000     0.3594    35.7706
 1189.5000     0.3584    35.7657
 1190.0000     0.3575    35.7608
 1190.5000     0.3458    35.7559
 1191.0000     0.3557    35.7510
 1191.5000     0.3546    35.7461
 1192.0000     0.3537    35.7412
 1192.5000     0.3528    35.7363
 1193.0000     0.3519    35.7314
 1193.5000     0.3510    35.7264
 1194.0000     0.3501    35.7215
 1194.5000     0.3491    35.7166
 1195.0000     0.3482    35.7117
 1195.5000     0.3473    35.7068
 1196.0000     0.3464    35.7019
 1196.5000     0.3455    35.6970
 1197.0000     0.3444    35.6921
 1197.5000     0.3435    35.6872
 1198.0000     0.3531    35.6823
 1198.5000     0.3522    35.6773
 1199.0000     0.3513    35.6724
 1199.5000     0.3612    35.6675
 1200.0000     0.3709    35.6626
 1200.5000     0.4022    35.6582
 1201.0000     0.4017    35.6540
 1201.5000     0.4013    35.6498
 1202.0000     0.4009    35.6456
 1202.5000     0.4005    35.6413
 1203.0000     0.4001    35.6371
 1203.5000     0.3997    35.6329
 1204.0000     0.3993    35.6287
 1204.5000     0.3989    35.6245
 1205.0000     0.3985    35.6203
 1205.5000     0.3982    35.6160
 1206.0000     0.3978    35.6118
 1206.5000     0.3974    35.6076
 1207.0000     0.3970    35.6034
 1207.5000     0.3966    35.5992
 1208.0000     0.3962    35.5949
 1208.5000     0.3957    35.5907
 1209.0000     0.3953    35.5865
 1209.5000     0.3949    35.5823
 1210.0000     0.3945    35.5781
 1210.5000     0.3942    35.5738
 1211.0000     0.3938    35.5696
 1211.5000     0.3934    35.5654
 1212.0000     0.3930    35.5612
 1212.5000     0.3926    35.5570
 1213.0000     0.3922    35.5527
 1213.5000     0.3918    35.5485
 1214.0000     0.3914    35.5443
 1214.5000     0.3910    35.5401
 1215.0000     0.3906    35.5359
 1215.5000     0.3902    35.5316
 1216.0000     0.3898    35.5274
 1216.5000     0.3894    35.5232
 1217.0000     0.3890    35.5190
 1217.5000     0.3886    35.5148
 1218.0000     0.3882    35.5105
 1218.5000     0.3878    35.5063
 1219.0000     0.3874    35.5021
 1219.5000     0.3977    35.4979
 1220.0000     0.3972    35.4937
 1220.5000     0.4075    35.4894
 1221.0000     0.4282    35.4852
 1221.5000     0.4278    35.4810
 1222.0000     0.4381    35.4768
 1222.5000     0.4588    35.4726
 1223.0000     0.4690    35.4683
 1223.5000     0.4686    35.4641
 1224.0000     0.4675    35.4599
 1224.5000     0.4572    35.4557
 1225.0000     0.4568    35.4515
 1225.5000     0.4564    35.4473
 1226.0000     0.4560    35.4430
 1226.5000     0.4556    35.4388
 1227.0000     0.4552    35.4346
 1227.5000     0.4548    35.4304
 1228.0000     0.4544    35.4262
 1228.5000     0.4540    35.4219
 1229.0000     0.4536    35.4177
 1229.5000     0.4532    35.4135
 1230.0000     0.4529    35.4093
 1230.5000     0.4525    35.4051
 1231.0000     0.4521    35.4008
 1231.5000     0.4517    35.3966
 1232.0000     0.4512    35.3924
 1232.5000     0.4615    35.3882
 1233.0000     0.4611    35.3840
 1233.5000     0.4606    35.3797
 1234.0000     0.4603    35.3755
 1234.5000     0.4598    35.3713
 1235.0000     0.4594    35.3671
 1235.5000     0.4591    35.3629
 1236.0000     0.4587    35.3586
 1236.5000     0.4583    35.3544
 1237.0000     0.4473    35.3502
 1237.5000     0.4469    35.3460
 1238.0000     0.4465    35.3418
 1238.5000     0.4567    35.3375
 1239.0000     0.4562    35.3333
 1239.5000     0.4558    35.3291
 1240.0000     0.4554    35.3249
 1240.5000     0.4551    35.3207
 1241.0000     0.4235    35.3164
 1241.5000     0.4233    35.3122
 1242.0000     0.4232    35.3080
 1242.5000     0.4230    35.3038
 1243.0000     0.4229    35.2996
 1243.5000     0.4334    35.2953
 1244.0000     0.4333    35.2911
 1244.5000     0.4331    35.2869
 1245.0000     0.4330    35.2827
 1245.5000     0.4329    35.2785
 1246.0000     0.4327    35.2742
 1246.5000     0.4326    35.2700
 1247.0000     0.4324    35.2658
 1247.5000     0.4323    35.2616
 1248.0000     0.4322    35.2574
 1248.5000     0.4321    35.2532
 1249.0000     0.4319    35.2489
