~VERSION INFORMATION
 VERS.                2.0:   CWLS LOG ASCII STANDARD - VERSION 2.0
 WRAP.                 NO:   ONE LINE PER DEPTH STEP
~WELL INFORMATION
#MNEM.UNIT      DATA TYPE    INFORMATION
#----------   ------------   ------------------------------
 STRT.F           61.0000:   START DEPTH
 STOP.F          527.0000:   STOP DEPTH
 STEP.F            0.5000:   STEP LENGTH
 NULL.          -999.2500:   NO VALUE
 COMP.       F D SERV INC:   COMPANY
 WELL.  82-5 SX 10 #82-10:   WELL
 FLD .             TEAPOT:   FIELD
 LOC .      S10 T38N R78W:   LOCATION
 CNTY.            NATRONA:   COUNTY
 STAT.            WYOMING:   STATE
 CTRY. UNITED STATES OF AMERICA:   COUNTRY
 SRVC.     Atlas Wireline:   SERVICE COMPANY
 DATE.        08-FEB-1993:   LOGDATE
 API .       490252258800:   API NUMBER
~CURVE INFORMATION
#MNEM.UNIT       API CODE    CURVE DESCRIPTION
#----------   ------------   ------------------------------
 DEPT.F                  :   
 C13 .IN     45 280 13 00:   CALIPER
 GRD .GAPI   45 310 01 00:   GAMMA RAY FROM DENSITY LOG
 NPHI.DEC    42 890 03 00:   NEUTRON POROSITY SANDSTONE
 PORZ.DEC    45 890 12 00:   DENSITY POROSITY SANDSTONE
 ZCOR.G/C3   45 356 01 00:   DENSITY CORRECTION
 ZDEN.G/C3   45 350 01 00:   BULK DENSITY
 RILD.OHMM   07 120 46 00:   INDUCTION LOG DEEP RESISTIVITY
 RILM.OHMM   07 120 44 00:   RESITIVITY LONG MEDIUM
~PARAMETER INFORMATION
#MNEM.UNIT          VALUE    DESCRIPTION
#----------   ------------   ------------------------------
 PD  .                 GL:   PERMANENT DATUM
 EPD .F              5166:   ELEVATION PERMANENT DATUM
 LMF .                 KB:   LOG MEASURED FROM
 DAPD.F                10:   FEET ABOVE PERMANENT DATUM
 DMF .                 KB:   DRILLING MEASURED FROM
 EKB .F              5176:   KELLING BUSHING
 EDF .F              5175:   DRILLING FLOOR
 EGL .F              5166:   GROUND LEVEL
 DATE.        08-FEB-1993:   RUN DATE
 RUN .                  1:   RUN NUMBER
 DD  .F               530:   DEPTH DRILLER
 DL  .F               532:   DEPTH LOGGER
 BLI .F               529:   BOTTOM LOG INTERVAL
 TLI .F                96:   TOP LOG INTERVAL
 CS  .IN            8.625:   CASING SIZE
 CBD .F                90:   CASING BOTTOM DRILLER
 CBL .F                96:   CASING BOTTOM LOGGER
 BS  .IN            7.875:   BIT SIZE
 BSD .F               530:   BIT SIZE AT DEPTH
 DFT .                AIR:   DRILLING FLUID TYPE
 MRT .F                60:   MAXIMUM RECORDED TEMPERATURE
 LUN .            HL 6274:   LOGGING UNIT NUMBER
 LUL .             CASPER:   LOGGING UNIT LOCATION
 ENGI.          V. RAUTIO:   RECORDING ENGINEER
 WITN.          G. STRONG:   WITNESSED BY
 CLNT.            A2DTECH:   CLIENT CODE
 ORIG.           5" PRINT:   ORIGIN OF DATA
 UWI .       490252258800:   UNIQUE WELL ID
 DICO. A2D Technologies, Inc.:   DIGITIZING COMPANY
~OTHER INFORMATION
~A   DEPT      C13        GRD       NPHI       PORZ       ZCOR       ZDEN       RILD       RILM   
# ...
  506.5000     7.8928   173.4940     0.3035     0.0792     0.0062     2.5181     9.3810     8.9287
  507.0000     7.8776    50.6452     0.3038     0.0798     0.0077     2.5196     9.1892     8.9293
  507.5000     7.8774    50.6452     0.3044     0.0785     0.0062     2.5226     9.0013     8.7460
  508.0000     7.8773    50.6452     0.3053     0.0755     0.0002     2.5249     8.8172     8.5667
  508.5000     7.8771  -999.2500     0.3081     0.0761    -0.0012     2.5219     8.6973     8.5081
  509.0000     7.8921  -999.2500     0.3113     0.0776    -0.0117     2.5167     8.6380     8.4499
  509.5000     7.8919  -999.2500     0.3104     0.0809    -0.0222     2.5077     8.5798     8.4506
  510.0000     7.8917  -999.2500     0.3092     0.0918    -0.0132     2.4521     8.4628     8.3348
  510.5000     7.8916  -999.2500     0.3080     0.1074     0.0294     2.3951     8.3474     8.2206
  511.0000     7.8914  -999.2500     0.3065     0.1357     0.0602     2.3868     8.1205     8.0521
  511.5000     7.8913  -999.2500  -999.2500     0.1570     0.0617     2.3951     7.6835     7.5657
  512.0000     7.8911  -999.2500  -999.2500     0.1594     0.0434     2.4176     6.9742     7.1581
  512.5000     7.8759  -999.2500  -999.2500     0.1501     0.0258     2.4484     6.8314     6.7259
  513.0000     7.8758  -999.2500  -999.2500     0.1413     0.0184     2.4807     6.8800     6.4972
  513.5000     7.8907  -999.2500  -999.2500     0.1202     0.0076     2.5175     6.9288     6.6341
  514.0000     7.8755  -999.2500  -999.2500     0.0947    -0.0041     2.5242     6.9297     6.9644
  514.5000     7.8753  -999.2500  -999.2500     0.0824    -0.0011     2.5257     6.9790     7.4132
  515.0000     7.8752  -999.2500  -999.2500     0.0752     0.0066     2.5258     7.0773     7.8363
  515.5000     7.8750  -999.2500  -999.2500     0.0742     0.0050     2.5265     7.1770     8.0015
  516.0000     7.8749  -999.2500  -999.2500     0.0739    -0.0070     2.5258     7.4953     8.3998
  516.5000     7.8747  -999.2500  -999.2500     0.0730     0.0010     2.5258     8.1330     8.9410
  517.0000     7.8746  -999.2500  -999.2500     0.0739     0.0170     2.5228     8.5977     9.3282
  517.5000     7.8744  -999.2500  -999.2500     0.0742     0.0200     2.5198     9.0263     9.7178
  518.0000     7.8743  -999.2500  -999.2500     0.0748     0.0170     2.5205     9.3458     9.9916
  518.5000     7.8741  -999.2500  -999.2500     0.0760     0.0140     2.5228     9.5437    10.0617
  519.0000     7.8740  -999.2500  -999.2500     0.0760     0.0110     2.5258     9.6781    10.1324
  519.5000     7.8738  -999.2500  -999.2500     0.0754     0.0113     2.5296     9.8827    10.2036
  520.0000     7.8737  -999.2500  -999.2500     0.0748     0.0156     2.5333     9.8841    10.1337
  520.5000     7.8735  -999.2500  -999.2500     0.0730     0.0186     2.5363     9.8856    10.1345
  521.0000     7.8734  -999.2500  -999.2500     0.0697     0.0231     2.5318     9.8869    10.1352
  521.5000     7.8732  -999.2500  -999.2500     0.0682     0.0201     2.5236     9.8882    10.1360
  522.0000     7.8731  -999.2500  -999.2500     0.0679     0.0081     2.5183     9.8895    10.1366
  522.5000     7.8468  -999.2500  -999.2500     0.0730     0.0007     2.5214     9.8911    10.0671
  523.0000     7.8492  -999.2500  -999.2500     0.0778     0.0022     2.5229     9.8924    10.0680
  523.5000     7.8517  -999.2500  -999.2500     0.0775     0.0052     2.5169     9.8937    10.0688
  524.0000     7.8542  -999.2500  -999.2500     0.0747     0.0052     2.5131     9.8950    10.1394
  524.5000     7.8567  -999.2500  -999.2500     0.0763     0.0067     2.5109  -999.2500  -999.2500
  525.0000     7.8592  -999.2500  -999.2500     0.0795     0.0082     2.5109  -999.2500  -999.2500
  525.5000     7.8617  -999.2500  -999.2500     0.0810    -0.4879     2.5109  -999.2500  -999.2500
  526.0000     7.8642  -999.2500  -999.2500     0.0811    -0.4947     2.5109  -999.2500  -999.2500
  526.5000     7.8667  -999.2500  -999.2500  -999.2500    -0.4917     2.5102  -999.2500  -999.2500
  527.0000     7.8692  -999.2500  -999.2500  -999.2500    -0.4925     2.5094  -999.2500  -999.2500
