~VERSION INFORMATION
 VERS.                2.0:   CWLS LOG ASCII STANDARD - VERSION 2.0
 WRAP.                 NO:   ONE LINE PER DEPTH STEP
~WELL INFORMATION
#MNEM.UNIT      DATA TYPE    INFORMATION
#----------   ------------   ------------------------------
 STRT.F           70.0000:   START DEPTH
 STOP.F          853.0000:   STOP DEPTH
 STEP.F            0.5000:   STEP LENGTH
 NULL.          -999.2500:   NO VALUE
 COMP. U S NAVY/INTEX OIL CO:   COMPANY
 WELL.     31S-2 NPR #3-2:   WELL
 FLD .             TEAPOT:   FIELD
 LOC .       S2 T38N R78W:   LOCATION
 CNTY.            NATRONA:   COUNTY
 STAT.            WYOMING:   STATE
 CTRY. UNITED STATES OF AMERICA:   COUNTRY
 SRVC.         Lane Wells:   SERVICE COMPANY
 DATE.        17-MAR-1960:   LOGDATE
 API .       490250648000:   API NUMBER
~CURVE INFORMATION
#MNEM.UNIT       API CODE    CURVE DESCRIPTION
#----------   ------------   ------------------------------
 DEPT.F                  :   
 ASN .OHMM   05 041 16 00:   AMPLIFIED SHORT NORMAL 16"
 CILD.MMHO   05 110 46 00:   CONDUCTIVITY INDUCTION LOG DEEP
 ILD .OHMM   05 120 46 00:   INDUCTION LOG DEEP
 SPR .MV     05 010 01 00:   SPONTANEOUS POTENTIAL FROM RES.
~PARAMETER INFORMATION
#MNEM.UNIT          VALUE    DESCRIPTION
#----------   ------------   ------------------------------
 PD  .                 GL:   PERMANENT DATUM
 EPD .F              5118:   ELEVATION PERMANENT DATUM
 LMF .                 KB:   LOG MEASURED FROM
 DAPD.F                 5:   FEET ABOVE PERMANENT DATUM
 DMF .                 KB:   DRILLING MEASURED FROM
 EKB .F              5123:   KELLING BUSHING
 EGL .F              5118:   GROUND LEVEL
 DATE.        17-MAR-1960:   RUN DATE
 RUN .                  1:   RUN NUMBER
 DD  .F               860:   DEPTH DRILLER
 DL  .F               855:   DEPTH LOGGER
 BLI .F               853:   BOTTOM LOG INTERVAL
 TLI .F                70:   TOP LOG INTERVAL
 CS  .IN            8.625:   CASING SIZE
 CBD .F                12:   CASING BOTTOM DRILLER
 BS  .IN            7.875:   BIT SIZE
 BSD .F               860:   BIT SIZE AT DEPTH
 DFT .  GEL- OIL EMULSION:   DRILLING FLUID TYPE
 DFD .                9.7:   DRILLING FLUID DENSITY
 DFV .                 40:   DRILLING FLUID VISCOSITY
 MSS .    CIRC.- FLOWLINE:   MUD SAMPLE SOURCE
 RMS .OHMM           1.75:   RESISTIVITY MUD SAMPLE
 MST .F                60:   MUD SAMPLE TEMPERATURE
 RMF .OHMM            1.2:   RESISTIVITY MUD FILTRATE SAMPLE
 MFST.F                60:   MUD FILTRATE SAMPLE TEMPERATURE
 RMC .OHMM            2.4:   RESISTIVITY MUD CAKE
 MCST.F                60:   MUD CAKE SAMPLE TEMPERATURE
 MFSS.                MUD:   MUD FILTRATE SAMPLE SOURCE
 MCSS.              PRESS:   MUD CAKE SAMPLE SOURCE
 RMB .OHMM            1.5:   RESISTIVITY MUD AT BHT
 BHT .F                70:   BOTTOM HOLE TEMPERATURE
 MRT .F                70:   MAXIMUM RECORDED TEMPERATURE
 LUN .            HL 4474:   LOGGING UNIT NUMBER
 LUL .             CASPER:   LOGGING UNIT LOCATION
 ENGI.             NELSON:   RECORDING ENGINEER
 WITN.   JORGENSEN-HUDSON:   WITNESSED BY
 CLNT.            A2DTECH:   CLIENT CODE
 ORIG.        2" 5" PRINT:   ORIGIN OF DATA
 UWI .       490250648000:   UNIQUE WELL ID
 DICO. A2D Technologies, Inc.:   DIGITIZING COMPANY
~OTHER INFORMATION
~A   DEPT        ASN      CILD         ILD      SPR   
# ...
  800.0000    13.1682    75.2338    12.9011   -38.6289
  800.5000    12.9644    78.1501    12.7513   -38.7809
  801.0000    12.7598    79.4338    12.5542   -38.9374
  801.5000    12.5440    80.9072    12.3583   -39.0044
  802.0000    12.3283    80.9605    12.3556   -39.0369
  802.5000    12.1623    81.0138    12.0851   -39.1724
  803.0000    12.0948    83.8195    11.8820   -39.1737
  803.5000    11.9605    85.2489    11.8794   -39.1750
  804.0000    11.8930    86.6789    11.9436   -39.0418
  804.5000    11.8255    85.3555    11.9410   -39.0434
  805.0000    11.8248    85.4222    11.8716   -38.9106
  805.5000    11.8242    84.0860    11.9358   -38.3624
  806.0000    11.7567    84.1526    11.9332   -37.8402
  806.5000    11.7560    83.7269    11.9300   -37.7073
  807.0000    11.7553    81.4937    11.9274   -37.8431
  807.5000    11.7546    80.9059    11.9248   -37.8444
  808.0000    11.7539    80.2385    11.8556   -37.8457
  808.5000    11.7533    80.3041    11.8528   -37.8470
  809.0000    11.7527    80.3574    11.8502   -37.8483
  809.5000    11.6851    80.4107    11.7807   -37.7155
  810.0000    11.7513    80.4641    11.7781   -37.7171
  810.5000    11.7507    80.5174    11.7749   -37.7184
  811.0000    11.6832    81.9468    11.7054   -37.8538
  811.5000    11.6824    82.0001    11.6890   -37.8551
  812.0000    11.6817    82.0550    11.6337   -37.9905
  812.5000    11.6811    82.1201    11.6308   -38.1260
  813.0000    11.6136    82.1734    11.4945   -38.2677
  813.5000    11.5461    83.6029    11.4919   -38.3971
  814.0000    11.5454    85.0323    11.4225   -38.3984
  814.5000    11.5448    85.0826    11.3530   -38.2361
  815.0000    11.5441    85.1389    11.4173   -37.9605
  815.5000    11.5433    85.1927    11.4140   -37.7317
  816.0000    11.5427    86.8438    11.3446   -37.3306
  816.5000    11.5420    88.0645    11.3422   -37.1978
  817.0000    11.5414    88.3991    11.2727   -37.1991
  817.5000    11.5408    90.9234    11.2487   -37.3348
  818.0000    11.5401    90.9725    11.2005   -37.3361
  818.5000    11.5394    91.0301    11.1979   -37.3374
  819.0000    11.5388    89.7072    11.1278   -37.2043
  819.5000    11.5381    89.7615    11.1252   -37.0718
  820.0000    11.4705    89.8272    11.0565   -37.0731
  820.5000    11.4030    89.8716    11.1207   -36.9402
  821.0000    11.4023    89.9266    11.1175   -36.9416
  821.5000    11.4017    89.9871    11.1149   -36.9432
  822.0000    11.4010    91.4166    11.1123   -37.0786
  822.5000    11.4004    91.4699    11.1096   -37.0799
  823.0000    11.3997    91.5232    11.1064   -36.9467
  823.5000    11.3991    91.5780    11.1038   -36.9484
  824.0000    11.3316    91.6432    11.1012   -36.9497
  824.5000    11.2639    91.6965    11.0318   -36.9510
  825.0000    11.1322    91.7431    11.0292   -36.9523
  825.5000    10.9332    91.8031    11.0266   -36.9338
  826.0000    10.7341    91.8564    11.0240   -36.8207
  826.5000    10.5350    91.9083    10.9545   -36.8223
  827.0000    10.3360    91.9723    10.9421   -36.6895
  827.5000    10.1369    93.6006    10.8819   -36.5567
  828.0000     9.9224    96.2114    10.8124   -36.5580
  828.5000     9.8950    97.6409    10.7430   -36.2910
  829.0000     9.8543    97.6942    10.6067   -36.2927
  829.5000     9.8132    99.1237    10.5373   -36.2940
  830.0000     9.7558   100.5531    10.4010   -36.2953
  830.5000     9.6516   100.6064    10.3315   -36.2966
  831.0000     9.5574   100.7431    10.1952   -36.2978
  831.5000     9.4230   103.4787    10.0583   -36.2992
  832.0000     9.3021   103.5320     9.9220   -36.4346
  832.5000     9.1945   103.7845     9.7189   -36.5857
  833.0000     9.1002   106.3909     9.5158   -36.8399
  833.5000     8.9793   109.1965     9.3126   -36.7071
  834.0000     8.8567   109.8258     9.1095   -36.7084
  834.5000     8.7065   112.0554     8.8395   -36.5755
  835.0000     8.5092   114.9998     8.6319   -36.4424
  835.5000     8.2679   120.4323     8.2989   -36.1757
  836.0000     8.0534   124.6140     8.0958   -36.0429
  836.5000     7.8789   130.1719     7.8927   -35.7760
  837.0000     7.6778   134.3537     7.6227   -35.7776
  837.5000     7.4097   142.6639     7.4864   -35.6444
  838.0000     7.0882   149.5979     7.2833   -35.5119
  838.5000     6.8295   157.9214     6.9465   -35.5132
  839.0000     6.5109   165.2297     6.6729   -35.5145
  839.5000     5.8695   173.1657     6.3298   -35.5158
  840.0000     5.2807   175.9713     6.0022   -35.2489
  840.5000     5.0260   177.4008     5.7322   -35.1160
  841.0000     4.9852   176.0646     5.5959   -35.1177
  841.5000     5.0381   169.2505     5.9276   -34.9848
  842.0000     5.5588   161.0469     6.2592   -35.1203
  842.5000     6.3469   148.6469     6.6577   -35.2557
  843.0000     7.1580   139.1485     7.0561   -35.3911
  843.5000     7.7492   132.3078     7.6693   -35.5265
  844.0000     7.9758   124.1176     8.1198   -35.7961
  844.5000     8.0420   117.2901     8.5183   -35.9318
  845.0000     8.0815   114.5912     8.7831   -36.0673
  845.5000     8.1610   111.8922     8.9810   -36.0686
  846.0000     8.2406   110.5688     9.1790   -36.0699
  846.5000     8.3202   107.8704     9.3769   -36.0712
  847.0000     8.4799   107.9370     9.5080   -36.0725
  847.5000     8.6290   106.6142     9.7059   -36.0738
  848.0000     8.8261   105.2780     9.7027   -35.9409
  848.5000     9.0393   105.3447     9.7001   -35.9426
  849.0000     9.2526   105.3980     9.6975   -35.9439
  849.5000     9.4525   105.4513     9.6949   -35.8107
  850.0000     9.6390   104.1284     9.6923   -35.8123
  850.5000     9.7854   105.5596     9.6897   -35.8136
  851.0000     9.9719   104.2351     9.6871   -35.5466
  851.5000    10.3688   105.6779     9.6845   -35.1380
  852.0000    10.7762   105.7312     9.6818   -34.7445
  852.5000    11.2265   105.7845     9.6787   -34.3434
  853.0000    11.2929   105.8349     9.6765   -34.2106
