~VERSION INFORMATION
 VERS.                2.0:   CWLS LOG ASCII STANDARD - VERSION 2.0
 WRAP.                 NO:   ONE LINE PER DEPTH STEP
~WELL INFORMATION
#MNEM.UNIT      DATA TYPE    INFORMATION
#----------   ------------   ------------------------------
 STRT.F           26.0000:   START DEPTH
 STOP.F          655.0000:   STOP DEPTH
 STEP.F            0.5000:   STEP LENGTH
 NULL.          -999.2500:   NO VALUE
 COMP. FENIX & SCISSON, INCORPORATED:   COMPANY
 WELL. RES 3 TEAPOT DOM #22S-11:   WELL
 FLD .             TEAPOT:   FIELD
 LOC .      S11 T38N R78W:   LOCATION
 CNTY.            NATRONA:   COUNTY
 STAT.            WYOMING:   STATE
 CTRY. UNITED STATES OF AMERICA:   COUNTRY
 SRVC.            Unknown:   SERVICE COMPANY
 DATE.        03-FEB-1978:   LOGDATE
 API .       490251057200:   API NUMBER
~CURVE INFORMATION
#MNEM.UNIT       API CODE    CURVE DESCRIPTION
#----------   ------------   ------------------------------
 DEPT.F                  :   
 ILD .OHMM   05 120 46 00:   INDUCTION LOG DEEP
 SN  .OHMM   05 040 16 00:   SHORT NORMAL 16"
 SPR .MV     05 010 01 00:   SPONTANEOUS POTENTIAL.
 CALD.IN     45 280 60 00:   CALIPER FROM DENSITY LOG
 CORR.G/C3   45 356 01 00:   DENSITY CORRECTION
 DPHI.DEC    45 890 12 00:   DENSITY POROSITY SANDSTONE
 GRD .GAPI   45 310 01 00:   GAMMA RAY FROM DENSITY LOG
 RHOB.G/C3   45 350 01 00:   BULK DENSITY
~PARAMETER INFORMATION
#MNEM.UNIT          VALUE    DESCRIPTION
#----------   ------------   ------------------------------
 PD  .                 GL:   PERMANENT DATUM
 EPD .F              5168:   ELEVATION PERMANENT DATUM
 LMF .                 KB:   LOG MEASURED FROM
 DMF .                 KB:   DRILLING MEASURED FROM
 EKB .F              5171:   KELLING BUSHING
 EGL .F              5168:   GROUND LEVEL
 DATE.        03-FEB-1978:   RUN DATE
 RUN .                  1:   RUN NUMBER
 DD  .F               650:   DEPTH DRILLER
 DL  .F               655:   DEPTH LOGGER
 BLI .F               655:   BOTTOM LOG INTERVAL
 TLI .F                40:   TOP LOG INTERVAL
 CS  .IN            8.625:   CASING SIZE
 CBD .F                39:   CASING BOTTOM DRILLER
 CBL .F                40:   CASING BOTTOM LOGGER
 BS  .IN            7.875:   BIT SIZE
 BSD .F               650:   BIT SIZE AT DEPTH
 DFT .                KCL:   DRILLING FLUID TYPE
 DFD .                8.6:   DRILLING FLUID DENSITY
 DFV .                 31:   DRILLING FLUID VISCOSITY
 DFPH.                9.5:   DRILLING FLUID PH
 DFL .               12.8:   DRILLING FLUID LOSS
 MSS .           FLOWLINE:   MUD SAMPLE SOURCE
 RMS .OHMM           0.38:   RESISTIVITY MUD SAMPLE
 MST .F                62:   MUD SAMPLE TEMPERATURE
 RMF .OHMM            4.4:   RESISTIVITY MUD FILTRATE SAMPLE
 MFST.F                62:   MUD FILTRATE SAMPLE TEMPERATURE
 RMC .OHMM            0.8:   RESISTIVITY MUD CAKE
 MCST.F                62:   MUD CAKE SAMPLE TEMPERATURE
 MFSS.               MEAS:   MUD FILTRATE SAMPLE SOURCE
 RMB .OHMM           0.35:   RESISTIVITY MUD AT BHT
 BHT .F                68:   BOTTOM HOLE TEMPERATURE
 TCS .HRS               1:   TIME CURCULATED STOPPED
 MRT .F                68:   MAXIMUM RECORDED TEMPERATURE
 LUN .               2958:   LOGGING UNIT NUMBER
 LUL .             CASPER:   LOGGING UNIT LOCATION
 ENGI.           REYNOLDS:   RECORDING ENGINEER
 WITN.         HARRINGTON:   WITNESSED BY
 CLNT.            A2DTECH:   CLIENT CODE
 ORIG.           5" PRINT:   ORIGIN OF DATA
 UWI .       490251057200:   UNIQUE WELL ID
 DICO. A2D Technologies, Inc.:   DIGITIZING COMPANY
~OTHER INFORMATION
~A   DEPT      ILD         SN        SPR       CALD       CORR       DPHI         GRD      RHOB   
# ...
  350.0000     7.1049     7.3132   -70.4097     8.0106     0.0328     0.1297   104.4758     2.4381
  350.5000     7.1525     7.1694   -70.2123     8.0091     0.0357     0.1237   102.0342     2.4471
  351.0000     7.0515     7.0317   -69.9808     8.0076     0.0401     0.1331    99.9581     2.4410
  351.5000     6.9523     6.9324   -69.9926     8.0061     0.0429     0.1316   106.4262     2.4335
  352.0000     6.7600     6.7873   -70.0043     8.0045     0.0396     0.1259   107.9149     2.4320
  352.5000     6.5275     6.6131   -70.1678     8.0027     0.0382     0.1292   107.8927     2.4447
  353.0000     6.3030     6.3715   -70.1795     8.0013     0.0485     0.1380   107.1104     2.4416
  353.5000     6.0840     6.1950   -70.3429     8.0000     0.0559     0.1350   105.2758     2.4263
  354.0000     5.6759     5.9403   -70.3551     7.9985     0.0632     0.1326   103.5923     2.4228
  354.5000     5.2937     5.6961   -70.3693     8.0120     0.0661     0.1327   102.8152     2.4348
  355.0000     5.0762     5.5383   -70.3810     8.0105     0.0660     0.1350   101.1317     2.4355
  355.5000     5.1106     5.3106   -70.3927     8.0019     0.0673     0.1375    99.5992     2.4362
  356.0000     5.1448     5.2356   -70.0980     7.9924     0.0687     0.1423    99.2749     2.4317
  356.5000     5.1431     5.2334   -69.8088     7.9909     0.0671     0.1474    98.9458     2.4226
  357.0000     5.1417     5.2685   -69.6682     7.9740     0.0565     0.1489    97.7154     2.4136
  357.5000     5.1762     5.4523   -69.3551     7.9726     0.0460     0.1484    94.8235     2.4023
  358.0000     5.3573     5.7218   -69.0886     7.9713     0.0563     0.1472    93.1454     2.4015
  358.5000     5.7411     6.0886   -68.9456     7.9696     0.0606     0.1400   100.2178     2.4135
  359.0000     6.1524     6.4341   -68.9603     7.9681     0.0605     0.1277   106.0871     2.4134
  359.5000     6.5022     6.7575   -68.8173     7.9667     0.0619     0.1244   103.1521     2.4284
  360.0000     6.8243     7.1347   -68.8319     7.9652     0.0633     0.1262    99.8446     2.4434
  360.5000     6.9700     7.2830   -68.9955     7.9334     0.0677     0.1317   101.6354     2.4478
  361.0000     7.1605     7.4849   -69.0076     7.9316     0.0765     0.1338   103.2806     2.4418
  361.5000     7.2587     7.5869   -69.0218     7.9150     0.0853     0.1305    99.3258     2.4305
  362.0000     7.3583     7.5844   -69.0335     7.8984     0.0897     0.1275    97.4930     2.4327
  362.5000     7.4592     7.6879   -69.0440     7.8516     0.0851     0.1260   100.4868     2.4395
  363.0000     7.5615     7.6853   -69.0561     7.8350     0.0790     0.1249   104.9967     2.4446
  363.5000     7.6117     7.7362   -69.0687     7.8184     0.0774     0.1243   105.2824     2.4461
  364.0000     7.7699     7.7330   -69.0825     7.8018     0.0788     0.1225   105.4061     2.4498
  364.5000     7.8759     7.7842   -69.3321     7.8003     0.0756     0.1192   106.7437     2.4580
  365.0000     7.9292     7.7816   -69.4102     7.7988     0.0695     0.1162   108.3835     2.4662
  365.5000     7.9824     7.7790   -69.4203     7.7970     0.0635     0.1127   109.7538     2.4737
  366.0000     7.9797     7.7764   -69.4337     7.7955     0.0572     0.1097   110.2980     2.4767
  366.5000     7.9776     7.8279   -69.4446     7.7943     0.0453     0.1094   110.7293     2.4759
  367.0000     7.9754     7.8798   -69.4567     7.7927     0.0392     0.1175   110.5564     2.4665
  367.5000     7.9732     7.8765   -69.4689     7.8064     0.0361     0.1212   107.2113     2.4495
  368.0000     7.9706     7.8739   -69.4810     7.7897     0.0330     0.1165   105.6788     2.4525
  368.5000     7.9688     7.8712   -69.4952     7.7882     0.0180     0.1116   113.6630     2.4645
  369.0000     7.9663     7.8142   -69.6587     7.7867     0.0119     0.1170   113.4723     2.4689
  369.5000     7.9644     7.8116   -69.7140     7.7852     0.0118     0.1245   112.8585     2.4531
  370.0000     7.9621     7.8089   -69.8331     7.7837     0.0116     0.1210   112.5345     2.4441
  370.5000     7.9599     7.8057   -69.8456     7.7819     0.0115     0.1183   110.0957     2.4471
  371.0000     7.9577     7.8035   -69.8574     7.7903     0.0099     0.1165   102.6720     2.4538
  371.5000     7.9001     7.8004   -69.8695     7.7945     0.0083     0.1144   102.0459     2.4614
  372.0000     7.8433     7.7439   -69.8837     7.8079    -0.0008     0.1123   100.9666     2.4725
  372.5000     7.8412     7.7413   -69.8954     7.8064    -0.0143     0.1112    99.5494     2.4484
  373.0000     7.8391     7.7387   -69.9071     7.8048     0.0094     0.1196    98.8026     2.4581
  373.5000     7.8370     7.6294   -69.9188     7.8034     0.0183     0.1220   100.8955     2.4664
  374.0000     7.7526     7.5211   -69.9305     7.8169     0.0196     0.1238   105.8585     2.4581
  374.5000     7.6707     7.4150   -69.9423     7.8224     0.0195     0.1254   109.7642     2.4498
  375.0000     7.5629     7.3103   -70.1062     7.8306     0.0194     0.1275   107.0233     2.4452
  375.5000     7.4049     7.2071   -70.2721     7.8577     0.0193     0.1287   105.9440     2.4437
  376.0000     7.1503     7.0074   -70.2838     7.8562     0.0162     0.1296   105.8852     2.4317
  376.5000     6.9044     6.8607   -70.5991     7.8548     0.0131     0.1311   101.9673     2.4385
  377.0000     6.7134     6.6178   -70.9152     7.8684     0.0070     0.1336    99.2264     2.4376
  377.5000     6.4346     6.2641   -70.9270     7.8669     0.0009     0.1378   100.1127     2.4323
  378.0000     6.0876     5.9238   -70.9387     7.8806     0.0008     0.1465   107.3616     2.4210
  378.5000     5.7570     5.5247   -70.9504     7.8787     0.0006     0.1541   109.1323     2.4030
  379.0000     5.4444     5.0815   -71.2656     7.8959     0.0005     0.1559   106.9902     2.3977
  379.5000     5.0777     4.6415   -71.4294     7.9064     0.0004     0.1661   105.1556     2.3714
  380.0000     4.7029     4.2396   -71.5955     7.9046    -0.0027     0.1772   103.0190     2.3496
  380.5000     4.2364     3.7566   -71.6072     7.9032    -0.0028     0.1950   101.0333     2.3397
  381.0000     3.7233     3.0785   -71.6189     7.9168    -0.0014     0.2112   103.2773     2.3271
  381.5000     2.9709     2.7350   -71.4789     7.9153     0.0074     0.2281   107.6585     2.2962
  382.0000     2.6211     2.5685   -71.4203     7.9138     0.0198     0.2407   110.0312     2.2662
  382.5000     2.4616     2.4628   -71.3505     7.9275     0.0325     0.2533   104.7168     2.2466
  383.0000     2.4102     2.3616   -71.0588     7.9256     0.0414     0.2587   101.3717     2.2301
  383.5000     2.4263     2.3938   -70.7700     7.9244     0.0472     0.2591    97.8755     2.2158
  384.0000     2.4596     2.4947   -70.4753     7.9227     0.0516     0.2558    94.0772     2.2098
  384.5000     2.6082     2.6000   -70.1864     7.9365     0.0440     0.2462    96.3193     2.2322
  385.0000     2.9446     2.8472   -69.8947     7.9501     0.0364     0.2051   101.5845     2.2589
  385.5000     3.2899     3.5259   -69.7546     7.9486     0.0363     0.1690   106.3964     2.3291
  386.0000     3.7012     4.2218   -69.6146     7.9471     0.0255     0.1406   109.2446     2.3971
  386.5000     4.3112     4.9166   -69.6267     7.9452     0.0256     0.1322   106.7462     2.4151
  387.0000     4.9869     5.3419   -69.6410     7.9438     0.0270     0.1310   105.5700     2.4233
  387.5000     5.3814     5.7239   -69.4980     7.9425     0.0224     0.1319   110.2309     2.4300
  388.0000     5.5815     5.9653   -69.5127     7.9408     0.0193     0.1346   114.4387     2.4338
  388.5000     5.6858     6.0887   -69.5235     7.9394     0.0311     0.1368   115.7818     2.4367
  389.0000     5.7239     6.0862   -69.5357     7.9379     0.0459     0.1323   112.2801     2.4217
  389.5000     5.6431     6.0842   -69.6996     7.9395     0.0488     0.1239   108.0286     2.4429
  390.0000     5.6025     6.0824   -69.7117     7.9503     0.0487     0.1185   107.2515     2.4608
