~VERSION INFORMATION
 VERS.                2.0:   CWLS LOG ASCII STANDARD - VERSION 2.0
 WRAP.                 NO:   ONE LINE PER DEPTH STEP
~WELL INFORMATION
#MNEM.UNIT      DATA TYPE    INFORMATION
#----------   ------------   ------------------------------
 STRT.F           42.0000:   START DEPTH
 STOP.F          866.0000:   STOP DEPTH
 STEP.F            0.5000:   STEP LENGTH
 NULL.          -999.2500:   NO VALUE
 COMP. FENIX & SCISSON INC:   COMPANY
 WELL.      NPR-SX #47-11:   WELL
 FLD .             TEAPOT:   FIELD
 LOC .      S11 T38N R78W:   LOCATION
 CNTY.            NATRONA:   COUNTY
 STAT.            WYOMING:   STATE
 CTRY. UNITED STATES OF AMERICA:   COUNTRY
 SRVC.            Unknown:   SERVICE COMPANY
 DATE.        25-FEB-1978:   LOGDATE
 API .       490251058700:   API NUMBER
~CURVE INFORMATION
#MNEM.UNIT       API CODE    CURVE DESCRIPTION
#----------   ------------   ------------------------------
 DEPT.F                  :   
 SPR .MV     07 010 01 00:   SPONTANEOUS POTENTIAL
 SN  .OHMM   07 040 16 00:   SHORT NORMAL 16'
 ILD .OHMM   07 120 46 00:   INDUCTION LOG DEEP
 CORR.G/C3   45 356 01 00:   DENSITY CORRECTION
 RHOB.G/C3   45 350 01 00:   BULK DENSITY
 DPHI.DEC    45 890 12 00:   DENSITY POROSITY SANDSTONE
 CALD.IN     45 280 60 00:   CALIPER FROM DENSITY LOG
 GRD .GAPI   45 310 01 00:   GAMMA RAY FROM DENSITY LOG
~PARAMETER INFORMATION
#MNEM.UNIT          VALUE    DESCRIPTION
#----------   ------------   ------------------------------
 PD  .                 GL:   PERMANENT DATUM
 EPD .F              5202:   ELEVATION PERMANENT DATUM
 LMF .                 KB:   LOG MEASURED FROM
 DAPD.F                 4:   FEET ABOVE PERMANENT DATUM
 DMF .                 KB:   DRILLING MEASURED FROM
 EKB .F              5206:   KELLING BUSHING
 EGL .F              5202:   GROUND LEVEL
 DATE.            2-25-78:   RUN DATE
 RUN .                  1:   RUN NUMBER
 DD  .F               870:   DEPTH DRILLER
 DL  .F               870:   DEPTH LOGGER
 BLI .F               865:   BOTTOM LOG INTERVAL
 TLI .F                47:   TOP LOG INTERVAL
 CS  .IN            8.625:   CASING SIZE
 CBD .F                40:   CASING BOTTOM DRILLER
 CBL .F                47:   CASING BOTTOM LOGGER
 BS  .IN            7.875:   BIT SIZE
 BSD .F               870:   BIT SIZE AT DEPTH
 DFT .                KCL:   DRILLING FLUID TYPE
 DFD .                8.7:   DRILLING FLUID DENSITY
 DFV .                 35:   DRILLING FLUID VISCOSITY
 DFL .                4.8:   DRILLING FLUID LOSS
 MSS .         CIRCULATED:   MUD SAMPLE SOURCE
 RMS .OHMM            1.5:   RESISTIVITY MUD SAMPLE
 MST .F                70:   MUD SAMPLE TEMPERATURE
 RMF .OHMM            .75:   RESISTIVITY MUD FILTRATE SAMPLE
 MFST.F                74:   MUD FILTRATE SAMPLE TEMPERATURE
 RMC .OHMM            1.8:   RESISTIVITY MUD CAKE
 MCST.F                68:   MUD CAKE SAMPLE TEMPERATURE
 MFSS.              PRESS:   MUD FILTRATE SAMPLE SOURCE
 RMB .OHMM            1.5:   RESISTIVITY MUD AT BHT
 BHT .F                70:   BOTTOM HOLE TEMPERATURE
 TCS .HRS               2:   TIME CURCULATED STOPPED
 MRT .F                70:   MAXIMUM RECORDED TEMPERATURE
 LUN .               2958:   LOGGING UNIT NUMBER
 LUL .               CASP:   LOGGING UNIT LOCATION
 CLNT.            A2DTECH:   CLIENT CODE
 ORIG.        2" 5" PRINT:   ORIGIN OF DATA
 UWI .       490251058700:   UNIQUE WELL ID
 DICO. A2D Technologies, Inc.:   DIGITIZING COMPANY
~OTHER INFORMATION
~A   DEPT      SPR         SN        ILD       CORR       RHOB       DPHI         CALD      GRD   
# ...
  406.5000   -21.3856     8.2380     8.1634     0.0411     2.4889     0.1143     8.6011   100.0249
  407.0000   -21.4754     8.2581     8.1625     0.0253     2.4799     0.1189     8.6093   100.3907
  407.5000   -21.5637     8.2999     8.0962     0.0091     2.4709     0.1217     8.6091   101.1073
  408.0000   -21.6049     8.3916     8.0206     0.0038     2.4619     0.1227     8.6091   101.9255
  408.5000   -21.5680     8.3837     7.9457     0.0016     2.4561     0.1197     8.6091   102.3243
  409.0000   -21.5319     8.3714     7.8716     0.0039     2.4600     0.1181     8.6091   102.7605
  409.5000   -21.4958     8.3592     7.7983     0.0040     2.4648     0.1175     8.6092   101.4066
  410.0000   -21.4592     8.3469     7.7257     0.0032     2.4674     0.1181     8.6039   101.5959
  410.5000   -21.4185     8.3347     7.6511     0.0025     2.4641     0.1182     8.5956   103.1303
  411.0000   -21.5468     8.3225     7.6511     0.0036     2.4670     0.1134     8.5873    99.0371
  411.5000   -21.7185     8.3144     7.8102     0.0059     2.4680     0.0997     8.5791    98.0059
  412.0000   -21.8908     8.3786     7.9819     0.0189     2.4711     0.0958     8.5708    99.0128
  412.5000   -22.0150     8.4481     8.1573     0.0306     2.4962     0.0935     8.5625    95.4261
  413.0000   -21.9970     8.4694     8.3365     0.0317     2.5080     0.0899     8.5542    95.1683
  413.5000   -21.9758     8.8477     8.5547     0.0354     2.5107     0.0874     8.5459    94.3790
  414.0000   -21.9546     9.3295     8.5421     0.0431     2.5162     0.1009     8.5376    96.8599
  414.5000   -21.9332     9.8185     8.6258     0.0487     2.5122     0.1129     8.5293    93.5497
  415.0000   -21.9119     9.9035     8.5912     0.0526     2.4998     0.1249     8.5210    92.6863
  415.5000   -21.8906    10.0105     8.5717     0.0522     2.4773     0.1213     8.5122    93.4769
  416.0000   -21.8693    10.0890     8.5480     0.0471     2.4595     0.1285     8.5193    95.7672
  416.5000   -21.8480     9.5634     8.7074     0.0387     2.4507     0.1327     8.5331   100.5399
  417.0000   -21.8267     9.2037     8.5900     0.0304     2.4443     0.1337     8.5471   102.6715
  417.5000   -21.8054     8.9687     8.4395     0.0282     2.4373     0.1343     8.5609   103.8566
  418.0000   -21.7841     8.6274     8.2916     0.0244     2.4382     0.1348     8.5694   104.8153
  418.5000   -21.7628     8.6951     8.1599     0.0186     2.4383     0.1341     8.5694   104.1967
  419.0000   -21.7415     8.7882     8.1386     0.0176     2.4357     0.1253     8.5695   100.3522
  419.5000   -21.7202     8.7539     8.1175     0.0266     2.4360     0.1159     8.5695    93.5901
  420.0000   -21.6989     8.7155     8.0965     0.0500     2.4525     0.1170     8.5695    94.8531
  420.5000   -21.6775     8.6772     8.0755     0.0700     2.4693     0.1037     8.5705    96.5435
  421.0000   -21.6560     8.6391     8.0546     0.0719     2.4771     0.1099     8.5724    98.8083
  421.5000   -21.6348     8.6012     8.0337     0.0464     2.4804     0.1160     8.5744   101.0601
  422.0000   -21.6150     8.5635     8.0129     0.0359     2.4741     0.1235     8.5764    96.7856
  422.5000   -21.6907     8.5259     7.9921     0.0215     2.4674     0.1181     8.5783    98.9692
  423.0000   -21.8969     8.4885     7.9714     0.0147     2.4609     0.1272     8.5803   100.5245
  423.5000   -22.1011     8.4512     7.9507     0.0098     2.4563     0.1185     8.5822   101.1354
  424.0000   -22.3039     8.4142     7.9300     0.0058     2.4601     0.1136     8.5842   103.5904
  424.5000   -22.5072     8.3772     7.9095     0.0074     2.4637     0.1192     8.5861   101.5669
  425.0000   -22.4825     8.3405     7.8890     0.0036     2.4645     0.1246     8.5881   102.2648
  425.5000   -22.2384     8.3092     7.8685     0.0019     2.4589     0.1168     8.5898   102.2220
  426.0000   -22.0132     8.2912     7.8007     0.0076     2.4577     0.1137     8.5909    99.7485
  426.5000   -22.1413     8.2733     7.7272     0.0115     2.4696     0.1106     8.5921   101.5577
  427.0000   -22.3385     8.2554     7.6544     0.0135     2.4748     0.1083     8.5933   102.7923
  427.5000   -22.3339     8.2380     7.5826     0.0154     2.4793     0.1106     8.5945   100.4804
  428.0000   -22.1559     8.2215     7.5117     0.0133     2.4813     0.1132     8.5956   103.1290
  428.5000   -21.9779     8.1949     7.6178     0.0115     2.4781     0.1097     8.5968   101.5411
  429.0000   -21.7981     8.1622     7.7245     0.0121     2.4754     0.1056     8.5980    99.3456
  429.5000   -21.6204     8.2403     7.7819     0.0124     2.4772     0.1077     8.5992    99.9382
  430.0000   -21.6495     8.2553     7.6504     0.0088     2.4846     0.1146     8.6004    98.0728
  430.5000   -21.6899     8.2703     7.5468     0.0051     2.4810     0.1220     8.6015   102.8684
  431.0000   -21.7294     8.2854     7.4442     0.0013     2.4736     0.1204     8.6027   103.4317
  431.5000   -21.7689     8.3005     7.3732     0.0005     2.4645     0.1183     8.6039   102.8672
  432.0000   -21.8077     8.3144     7.3722     0.0014     2.4577     0.1194     8.6051    99.0848
  432.5000   -21.7852     8.2133     7.3750     0.0032     2.4868     0.1224     8.6062    94.5344
  433.0000   -21.7536     8.1205     7.4420     0.0055     2.4916     0.1258     8.6074    97.4071
  433.5000   -21.7218     8.0787     7.4420     0.0074     2.4760     0.1258     8.6086    99.3255
  434.0000   -21.6900     8.0594     7.4420     0.0051     2.4661     0.1189     8.6098    97.5529
  434.5000   -21.6598     8.0402     7.4420     0.0027     2.4578     0.1139     8.6110    95.7751
  435.0000   -21.6286     8.0128     7.5230     0.0067     2.4556     0.1098     8.6121    98.0346
  435.5000   -21.8056     8.0651     7.5542     0.0135     2.4619     0.1008     8.6133   100.6542
  436.0000   -22.1288     8.1573     7.5855     0.0171     2.4795     0.1057     8.6145    99.4782
  436.5000   -22.3987     8.2505     7.6169     0.0167     2.4901     0.1026     8.6157    97.2954
  437.0000   -22.3189     8.3144     7.6511     0.0215     2.4864     0.1004     8.6168    96.2870
  437.5000   -22.2361     8.2380     7.7425     0.0264     2.4910     0.1046     8.6180    97.2423
  438.0000   -22.1544     8.3947     7.8437     0.0282     2.4943     0.1054     8.6192    98.0999
  438.5000   -22.0727     8.3889     7.9391     0.0314     2.4867     0.0998     8.6204   100.6618
  439.0000   -21.9911     8.3932     7.9217     0.0417     2.4861     0.0984     8.6216   101.0478
  439.5000   -21.9092     8.3917     7.8956     0.0473     2.4931     0.1148     8.6228    99.3629
  440.0000   -21.8270     8.3916     7.8695     0.0322     2.4903     0.1207     8.6239    98.6828
  440.5000   -21.8129     8.3916     7.8436     0.0093     2.4686     0.1193     8.6251    98.7877
  441.0000   -21.8126     8.3916     7.8177     0.0035     2.4609     0.1231     8.6263    99.8760
  441.5000   -21.8127     8.3915     7.7919     0.0020     2.4568     0.1276     8.6275    98.3328
  442.0000   -21.8127     8.3916     7.7662    -0.0022     2.4541     0.1284     8.6287    97.0298
  442.5000   -21.8127     8.3916     7.7405    -0.0034     2.4496     0.1236     8.6285    98.8031
  443.0000   -21.8127     8.3537     7.7150     0.0008     2.4448     0.1211     8.6280    99.6369
  443.5000   -21.8127     8.3026     7.6895     0.0046     2.4510     0.1256     8.6274    99.8266
  444.0000   -21.8127     8.2517     7.6642     0.0044     2.4581     0.1276     8.6269    99.8153
  444.5000   -21.8127     8.2012     7.6039     0.0063     2.4506     0.1205     8.6263    98.5657
  445.0000   -21.8127     8.1510     7.5073     0.0099     2.4552     0.1147     8.6257    97.8629
  445.5000   -21.8131     8.1011     7.4120     0.0158     2.4609     0.1102     8.6252   101.2357
  446.0000   -21.8068     8.0520     7.3179     0.0213     2.4685     0.1145     8.6246   106.0902
  446.5000   -21.6672     7.9742     7.2249     0.0201     2.4757     0.1273     8.6240   102.3414
