~VERSION INFORMATION
 VERS.                2.0:   CWLS LOG ASCII STANDARD - VERSION 2.0
 WRAP.                 NO:   ONE LINE PER DEPTH STEP
~WELL INFORMATION
#MNEM.UNIT      DATA TYPE    INFORMATION
#----------   ------------   ------------------------------
 STRT.F           85.0000:   START DEPTH
 STOP.F          780.0000:   STOP DEPTH
 STEP.F            0.5000:   STEP LENGTH
 NULL.          -999.2500:   NO VALUE
 COMP. U S NAVY-INTEX OIL:   COMPANY
 WELL.        NPR #47-S-2:   WELL
 FLD .             TEAPOT:   FIELD
 LOC .       S2 T38N R78W:   LOCATION
 CNTY.            NATRONA:   COUNTY
 STAT.            WYOMING:   STATE
 CTRY. UNITED STATES OF AMERICA:   COUNTRY
 SRVC.       Schlumberger:   SERVICE COMPANY
 DATE.        30-JUN-1962:   LOGDATE
 API .       490250640200:   API NUMBER
~CURVE INFORMATION
#MNEM.UNIT       API CODE    CURVE DESCRIPTION
#----------   ------------   ------------------------------
 DEPT.F                  :   
 SPR .MV     05 010 01 00:   SPONTANEOUS POTENTIAL FROM RES.
 ASN .OHMM   05 041 18 00:   AMPLIFIED SHORT NORMAL 18"
 ILD .OHMM   05 120 46 00:   INDUCTION LOG DEEP
 CILD.MMHO   05 110 46 00:   CONDUCTIVITY INDUCTION LOG DEEP
 CALM.IN     15 280 01 00:   CALIPER FROM MICRO LOG
 GR  .GAPI   30 310 01 00:   GAMMA RAY
~PARAMETER INFORMATION
#MNEM.UNIT          VALUE    DESCRIPTION
#----------   ------------   ------------------------------
 PD  .                 KB:   PERMANENT DATUM
 LMF .                 KB:   LOG MEASURED FROM
 DMF .                 KB:   DRILLING MEASURED FROM
 EKB .F              5175:   KELLING BUSHING
 EGL .F              5170:   GROUND LEVEL
 DATE.          6-30-1962:   RUN DATE
 RUN .                  1:   RUN NUMBER
 DD  .F               775:   DEPTH DRILLER
 DL  .F               781:   DEPTH LOGGER
 BLI .F               780:   BOTTOM LOG INTERVAL
 TLI .F                86:   TOP LOG INTERVAL
 BS  .IN             6.75:   BIT SIZE
 BSD .F               775:   BIT SIZE AT DEPTH
 DFT .            GEL-OIL:   DRILLING FLUID TYPE
 DFD .                 10:   DRILLING FLUID DENSITY
 DFV .                 50:   DRILLING FLUID VISCOSITY
 DFL .                3.6:   DRILLING FLUID LOSS
 MSS .           FLOWLINE:   MUD SAMPLE SOURCE
 RMS .OHMM           5.75:   RESISTIVITY MUD SAMPLE
 MST .F                69:   MUD SAMPLE TEMPERATURE
 RMF .OHMM           4.96:   RESISTIVITY MUD FILTRATE SAMPLE
 MFST.F                69:   MUD FILTRATE SAMPLE TEMPERATURE
 RMC .OHMM           4.80:   RESISTIVITY MUD CAKE
 MCST.F                69:   MUD CAKE SAMPLE TEMPERATURE
 RMB .OHMM           5.13:   RESISTIVITY MUD AT BHT
 BHT .F                78:   BOTTOM HOLE TEMPERATURE
 TCS .HRS               1:   TIME CURCULATED STOPPED
 MRT .F                78:   MAXIMUM RECORDED TEMPERATURE
 LUN .               2503:   LOGGING UNIT NUMBER
 LUL .              CSPR.:   LOGGING UNIT LOCATION
 ENGI.             KNOBEL:   RECORDING ENGINEER
 WITN.          JORGENSEN:   WITNESSED BY
 CLNT.            A2DTECH:   CLIENT CODE
 ORIG.      2" & 5" PRINT:   ORIGIN OF DATA
 UWI .       490250640200:   UNIQUE WELL ID
 DICO. A2D Technologies, Inc.:   DIGITIZING COMPANY
~OTHER INFORMATION
~A   DEPT      SPR        ASN        ILD         CILD     CALM         GR   
# ...
  605.0000   -20.2381     4.9536     4.3946   247.6693     6.8732   102.4331
  605.5000   -20.2381     4.8187     4.6173   248.2850     6.9187    99.3033
  606.0000   -19.7917     5.2826     4.8400   241.1431     6.9344   100.3526
  606.5000   -19.3452     5.3274     5.0627   232.1650     6.9351   103.9392
  607.0000   -19.0476     5.3572     5.3602   220.1810     6.9359   104.3903
  607.5000   -19.6429     5.5965     5.6576   209.5990     6.9366   103.7990
  608.0000   -19.7917     5.8658     5.9551   198.4659     6.9222   100.6691
  608.5000   -19.6429     6.1052     6.1778   188.6554     6.9081   101.8677
  609.0000   -19.6429     6.3015     6.4005   177.5035     6.8941   104.2602
  609.5000   -19.6429     6.6133     6.6233   169.3386     6.8799   107.3991
  610.0000   -19.6429     6.9701     6.9207   162.6059     6.8806   107.7021
  610.5000   -19.7917     7.2140     7.0691   156.5861     6.8814   108.7503
  611.0000   -19.6429     7.3332     7.2170   149.8948     6.8821   106.5171
  611.5000   -19.6429     7.3926     7.2903   146.1900     6.8828   106.2219
  612.0000   -19.7917     7.4066     7.2884   143.9699     6.8836   106.9739
  612.5000   -19.9405     7.3915     7.2869   144.7368     6.8843   106.6799
  613.0000   -20.0893     7.3314     7.2854   146.2557     6.8851   104.8933
  613.5000   -20.0893     7.2864     7.2092   148.5264     6.8858   106.3904
  614.0000   -20.3869     7.1964     7.1329   151.5490     6.8866   104.9023
  614.5000   -20.6845     7.0915     7.0567   154.5716     6.8873   102.5188
  615.0000   -20.9821     6.9566     6.9805   159.0980     6.8880   100.6420
  615.5000   -21.4286     6.8666     6.8295   162.8725     6.8888    99.4901
  616.0000   -21.5774     6.7617     6.6785   166.6470     6.8895    94.9371
  616.5000   -21.5774     6.6567     6.3781   174.1808     6.8904    93.7297
  617.0000   -21.7262     6.5218     5.8534   183.2185     6.8912    95.4039
  617.5000   -21.8750     6.3271     5.4782   193.7599     6.8768    97.2116
  618.0000   -21.8750     6.0874     5.1777   207.3088     6.8626   102.2690
  618.5000   -21.7058     5.7729     5.1015   214.0908     6.8484   102.5537
  619.0000   -21.5774     5.5632     5.1000   218.6172     6.8343   100.1702
  619.5000   -21.1175     5.3385     5.0985   220.8879     6.8053   100.4732
  620.0000   -20.3769     5.5629     5.2465   216.3917     6.7760   101.0747
  620.5000   -20.2381     5.6226     5.3945   212.6474     6.7322   101.0931
  621.0000   -20.3931     5.6224     5.6172   208.1512     6.7178   103.1733
  621.5000   -21.1310     5.9217     5.9146   200.6475     6.6889   102.8791
  622.0000   -21.7262     6.5353     6.2868   192.3919     6.6745   103.4808
  622.5000   -22.3214     6.6998     6.5843   177.3694     6.6603   103.7838
  623.0000   -22.6190     6.8643     6.7326   160.8432     6.6613   105.7286
  623.5000   -22.7679     7.0139     6.8806   153.3394     6.6620   106.7768
  624.0000   -22.4702     7.1036     7.0286   150.3432     6.6628   105.8857
  624.5000   -22.1726     7.1783     7.1762   151.1140     6.6635   107.2347
  625.0000   -22.1726     7.2530     7.2498   151.8810     6.6642   109.1795
  625.5000   -22.3214     7.3277     7.3227   151.1404     6.6650   109.7810
  626.0000   -22.6190     7.3874     7.3959   148.8998     6.6657   109.4870
  626.5000   -22.9167     7.4471     7.3944   146.6631     6.6665   107.4008
  627.0000   -23.0655     7.4919     7.3929   145.9225     6.6672   108.6005
  627.5000   -23.2143     7.5247     7.3914   145.9414     6.6978   113.2319
  628.0000   -23.0655     7.5691     7.3899   146.7083     6.7284   114.2812
  628.5000   -22.9167     7.5813     7.3884   148.2272     6.7441   113.9860
  629.0000   -22.7679     7.5793     7.3122   148.9941     6.7448   112.2006
  629.5000   -22.6190     7.5197     7.3107   150.5130     6.7455   115.9365
  630.0000   -22.4702     7.4601     7.3092   151.2800     6.7463   116.8365
  630.5000   -22.3214     7.4154     7.3077   151.2950     6.7470   119.6768
  631.0000   -22.4702     7.3710     7.3062   151.3101     6.7478   120.7261
  631.5000   -22.6190     7.3409     7.3047   151.3252     6.7485   122.8190
  632.0000   -23.0655     7.3407     7.3032   150.5884     6.7492   122.5250
  632.5000   -23.5119     7.3256     7.3017   150.6035     6.7351   117.9038
  633.0000   -23.9583     7.3404     7.2255   149.8629     6.7358   116.1161
  633.5000   -24.2560     7.3552     7.1492   148.3781     6.7365   116.7188
  634.0000   -24.4048     7.2802     6.6993   150.6488     6.7202   117.6456
  634.5000   -24.4048     7.2052     6.3241   156.6789     6.7082   118.2432
  635.0000   -23.8095     7.0853     5.7994   164.9647     6.7091   117.0597
  635.5000   -22.9167     6.9355     5.4242   187.5361     6.7098   112.2264
  636.0000   -22.0238     6.7706     5.1238   203.3407     6.7106   109.8029
  636.5000   -21.4286     6.3962     5.0476   210.1227     6.7113   108.6850
  637.0000   -21.7262     5.6177     5.0461   213.8972     6.7121   109.0042
  637.5000   -22.3214     5.7073     5.1197   217.6717     6.6382   111.5299
  638.0000   -22.4702     5.7671     5.1929   219.1905     6.5641   113.3254
  638.5000   -21.0705     5.2429     4.9668   221.4613     6.5352   111.6881
  639.0000   -20.6845     5.4075     4.8906   222.2245     6.5059   109.6031
  639.5000   -21.7495     6.1409     4.8891   216.2283     6.3874   110.0553
  640.0000   -22.0238     6.2306     4.9627   209.4765     6.3135   110.5076
  640.5000   -21.8587     6.1555     5.0359   202.7246     6.2844   109.4673
  641.0000   -21.4157     5.9608     5.1092   206.4991     6.2852   112.7554
  641.5000   -20.9726     5.7810     5.1076   204.2586     6.3307   113.5062
  642.0000   -20.5298     5.4814     5.1928   203.5180     6.5702   113.5107
  642.5000   -20.0893     5.7208     5.3289   203.5339     6.6904   111.9424
  643.0000   -19.9405     6.0051     5.4769   202.6568     6.6314   106.0264
  643.5000   -19.7917     5.7804     5.6346   201.3076     6.4829   102.7776
  644.0000   -19.4940     5.7353     6.0150   197.3236     6.6329   102.3351
  644.5000   -19.6429     6.3040     6.3774   192.0956     6.7381    96.2202
  645.0000   -20.2381     6.5733     6.6741   184.3107     6.7538    94.7322
  645.5000   -20.9821     6.7229     6.8894   169.5185     6.7394    92.9456
  646.0000   -21.1310     6.7976     6.8879   161.4533     6.6508    90.7113
  646.5000   -20.6845     6.8274     6.8864   155.2529     6.5172    88.4759
  647.0000   -20.0893     6.8273     6.8057   154.7967     6.5030    93.7998
  647.5000   -20.3869     6.8251     6.3566   164.1372     6.5038    94.9030
  648.0000   -20.9821     6.8104     5.8296   177.5445     6.5194    94.0020
  648.5000   -21.2798     6.7196     5.3835   189.5514     6.5649    88.9955
  649.0000   -21.2798     6.4201     5.0837   209.8235     6.6105    88.9462
  649.5000   -21.2798     6.0739     4.8595   216.5359     6.5813    89.6970
  650.0000   -20.7732     5.5539     4.7833   218.0451     6.4627    90.5970
  650.5000   -20.4151     5.6286     4.7818   220.2845     6.4637    92.0958
  651.0000   -20.0570     5.5985     4.8550   220.2694     6.4797    90.3141
  651.5000   -19.9359     5.4337     5.0495   219.5025     6.4658    95.0978
  652.0000   -20.3808     5.6431     5.3749   216.4799     6.4071    96.8963
  652.5000   -20.6773     6.3032     5.8219   206.6905     6.4105    96.3068
  653.0000   -21.1219     6.7375     6.3435   181.1115     6.5069    93.1800
  653.5000   -20.9716     7.2316     6.8652   166.8108     6.7687    90.7994
  654.0000   -20.8213     7.5162     7.1627   152.5100     6.9190    90.0607
  654.5000   -20.5222     7.6810     7.4605   141.9687     6.9947    89.7678
  655.0000   -19.9255     7.8309     7.6832   137.4424     6.9808    90.0757
  655.5000   -19.4775     7.9807     7.9056   134.4198     6.9517    87.2474
  656.0000   -18.8808     8.1156     7.9041   134.4048     6.8930    89.1952
  656.5000   -18.5817     8.1906     7.9026   134.3897     6.8642    90.6934
