~VERSION INFORMATION
 VERS.                2.0:   CWLS LOG ASCII STANDARD - VERSION 2.0
 WRAP.                 NO:   ONE LINE PER DEPTH STEP
~WELL INFORMATION
#MNEM.UNIT      DATA TYPE    INFORMATION
#----------   ------------   ------------------------------
 STRT.F            0.0000:   START DEPTH
 STOP.F          556.0000:   STOP DEPTH
 STEP.F            0.5000:   STEP LENGTH
 NULL.          -999.2500:   NO VALUE
 COMP.       F D SERV INC:   COMPANY
 WELL. NAVAL PETROLEUM RESERVE NPR #3 #86-3 SX 3:   WELL
 FLD .             TEAPOT:   FIELD
 LOC .       S3 T38N R78W:   LOCATION
 CNTY.            NATRONA:   COUNTY
 STAT.            WYOMING:   STATE
 CTRY. UNITED STATES OF AMERICA:   COUNTRY
 SRVC.      Western Atlas:   SERVICE COMPANY
 DATE.        24-OCT-1992:   LOGDATE
 API .       490252255300:   API NUMBER
~CURVE INFORMATION
#MNEM.UNIT       API CODE    CURVE DESCRIPTION
#----------   ------------   ------------------------------
 DEPT.F                  :   
 GRR .GAPI   07 310 01 00:   GAMMA RAY
 RILD.OHMM   07 120 46 00:   INDUCTION LOG DEEP RESISTIVITY
 RILM.OHMM   07 120 44 00:   RESITIVITY LONG MEDIUM
~PARAMETER INFORMATION
#MNEM.UNIT          VALUE    DESCRIPTION
#----------   ------------   ------------------------------
 PD  .                 GL:   PERMANENT DATUM
 EPD .F              5157:   ELEVATION PERMANENT DATUM
 LMF .                 KB:   LOG MEASURED FROM
 DAPD.F                10:   FEET ABOVE PERMANENT DATUM
 DMF .                 KB:   DRILLING MEASURED FROM
 EKB .F              5167:   KELLING BUSHING
 EDF .F              5166:   DRILLING FLOOR
 EGL .F              5157:   GROUND LEVEL
 DATE.        24-OCT-1992:   RUN DATE
 RUN .                  1:   RUN NUMBER
 DD  .F               565:   DEPTH DRILLER
 DL  .F               564:   DEPTH LOGGER
 BLI .F               564:   BOTTOM LOG INTERVAL
 TLI .F                 0:   TOP LOG INTERVAL
 CS  .IN            8.625:   CASING SIZE
 CBD .F                85:   CASING BOTTOM DRILLER
 CBL .F                56:   CASING BOTTOM LOGGER
 BS  .IN            7.875:   BIT SIZE
 BSD .F               565:   BIT SIZE AT DEPTH
 DFT .           AIR FOAM:   DRILLING FLUID TYPE
 DFD .                   :   DRILLING FLUID DENSITY
 DFV .                   :   DRILLING FLUID VISCOSITY
 DFPH.                   :   DRILLING FLUID PH
 DFL .                   :   DRILLING FLUID LOSS
 MSS .                   :   MUD SAMPLE SOURCE
 RMS .OHMM               :   RESISTIVITY MUD SAMPLE
 MST .F                  :   MUD SAMPLE TEMPERATURE
 RMF .OHMM               :   RESISTIVITY MUD FILTRATE SAMPLE
 MFST.F                  :   MUD FILTRATE SAMPLE TEMPERATURE
 RMC .OHMM               :   RESISTIVITY MUD CAKE
 MCST.F                  :   MUD CAKE SAMPLE TEMPERATURE
 MFSS.                   :   MUD FILTRATE SAMPLE SOURCE
 MCSS.                   :   MUD CAKE SAMPLE SOURCE
 RMB .OHMM               :   RESISTIVITY MUD AT BHT
 BHT .F                  :   BOTTOM HOLE TEMPERATURE
 TCS .HRS               1:   TIME CURCULATED STOPPED
 TLAB.HRS                :   TIME LOGGER AT BOTTOM
 MRT .F                76:   MAXIMUM RECORDED TEMPERATURE
 LUN .            HL-6274:   LOGGING UNIT NUMBER
 LUL .             CASPER:   LOGGING UNIT LOCATION
 ENGI.             RAUTIO:   RECORDING ENGINEER
 WITN.        GARY STRONG:   WITNESSED BY
 CLNT.            A2DTECH:   CLIENT CODE
 ORIG.           5" PRINT:   ORIGIN OF DATA
 UWI .       490252255300:   UNIQUE WELL ID
 DICO. A2D Technologies, Inc.:   DIGITIZING COMPANY
 OS  .                   :   OTHER SERVICES
 PWI .                   :   PRIMARY WELL IDENTIFIER
 R1  .                   :   REMARKS 1
 R2  .                   :   REMARKS 2
 LSRV.                   :   LOG MNEMONIC
~OTHER INFORMATION
~A    DEPT      GRR      RILD       RILM   
# ...
   91.0000   131.0136     9.5726     9.3376
   91.5000   130.7110     9.5069     9.3348
   92.0000   131.9213     9.4414     9.3370
   92.5000   132.8290     9.4421     9.3366
   93.0000   133.7368     9.5088     9.3363
   93.5000   133.7045     9.4433     9.3360
   94.0000   132.5265     9.4440     9.2709
   94.5000   132.8290     9.4447     9.2706
   95.0000   133.1316     9.3796     9.2703
   95.5000   134.6445     9.3151     9.2699
   96.0000   136.7625     9.3159     9.2696
   96.5000   140.3933     9.2516     9.2049
   97.0000   143.1165     9.2524     9.1408
   97.5000   144.9319     9.2530     9.0771
   98.0000   144.6293     9.1894     9.0138
   98.5000   145.5371     9.1261     9.0135
   99.0000   146.4448     9.0005     8.9467
   99.5000   147.0499     8.8148     8.7653
  100.0000   144.0242     8.6329     8.5243
  100.5000   140.6959     8.3371     8.0625
  101.0000   140.9985     8.1078     7.8411
  101.5000   142.8139     7.8848     7.6728
  102.0000   145.8396     7.7216     7.5729
  102.5000   149.2436     7.7216     7.5729
  103.0000   152.1936     7.7216     7.6791
  103.5000   151.2859     7.7756     7.7327
  104.0000   149.1679     7.8848     7.8649
  104.5000   146.4448     7.9955     8.0075
  105.0000   143.4191     8.1645     8.1283
  105.5000   139.7882     8.2792     8.3481
  106.0000   135.4312     8.3954     8.5243
  106.5000   131.9213     8.5795     8.7042
  107.0000   129.8033     8.7541     8.7650
  107.5000   127.0802     8.8153     8.7650
  108.0000   126.4750     8.8153     8.7042
  108.5000   128.5930     8.8153     8.6438
  109.0000   131.3363     8.7541     8.5839
  109.5000   131.6188     8.6933     8.5839
  110.0000   128.5930     8.6933     8.6438
  110.5000   126.7776     8.6994     8.7042
  111.0000   126.1725     8.8153     8.7650
  111.5000   127.0802     8.8770     8.8879
  112.0000   130.7110     8.9391     9.0125
  112.5000   134.1150     9.0017     9.0755
  113.0000   137.0650     9.0646     9.2027
  113.5000   136.4599     9.1281     9.3318
  114.0000   133.4342     9.1281     9.5287
  114.5000   131.0136     9.2562     9.5287
  115.0000   130.9632     9.3210     9.4626
  115.5000   131.6188     9.3210     9.3318
  116.0000   130.0252     9.2562     9.2027
  116.5000   127.9879     9.1281     9.1389
  117.0000   128.2905     9.0646     9.0125
  117.5000   130.7110     9.0017     8.8879
  118.0000   130.4085     9.0017     8.8879
  118.5000   129.5008     8.9391     8.8263
  119.0000   130.1160     8.8770     8.8263
  119.5000   130.4085     8.8770     8.8263
  120.0000   128.8956     8.9391     8.8879
  120.5000   128.8956     8.9391     8.8879
  121.0000   129.5008     8.9391     8.8879
  121.5000   131.9213     9.0017     8.8903
  122.0000   134.9471     9.0646     8.9500
  122.5000   138.6283     9.1281     9.0125
  123.0000   142.2088     9.1919     8.9500
  123.5000   143.4191     9.1919     9.0125
  124.0000   142.2088     9.2562     9.0755
  124.5000   142.8139     9.2562     9.0755
  125.0000   141.6036     9.2562     9.1389
  125.5000   138.2753     9.2562     9.0755
  126.0000   133.0509     9.2562     9.0125
  126.5000   132.2239     9.1919     8.9500
  127.0000   133.1316     9.0646     8.9500
  127.5000   132.2239     9.0017     8.9500
  128.0000   128.2905     8.9391     9.0125
  128.5000   127.3828     9.0017     9.0755
  129.0000   128.9158     9.1281     9.2027
  129.5000   135.8548     9.2562     9.3318
  130.0000   139.4856     9.3862     9.5287
  130.5000   140.0908     9.5846     9.7978
  131.0000   140.6959     9.7872    10.1448
  131.5000   142.8139     9.9246    10.4398
  132.0000   143.4191    10.1344    10.6515
  132.5000   141.2254    10.2053    10.6515
  133.0000   139.1831    10.2053    10.4313
  133.5000   137.3676    10.2053    10.3589
  134.0000   136.7625    10.2053    10.2157
  134.5000   134.9471    10.1344    10.2145
  135.0000   130.1059    10.1344    10.0745
  135.5000   129.5008    10.0640     9.9352
  136.0000   127.6046     9.9246     9.7298
  136.5000   126.1725     9.7872     9.7298
  137.0000   127.3828     9.5846     9.7978
  137.5000   130.1059     9.3862     9.8662
  138.0000   132.8290     9.3862     9.7253
  138.5000   135.5522     9.3862     9.4626
  139.0000   137.9728     9.4519     9.3318
  139.5000   137.0650     9.3777     9.2670
  140.0000   137.9728     9.1919     9.1389
  140.5000   140.6959     9.1281     9.0755
  141.0000   140.3933     9.1281     9.0755
  141.5000   138.8805     9.0646     9.0125
  142.0000   135.2496     9.0017     8.8879
  142.5000   132.7534     8.9391     8.8263
  143.0000   129.1982     8.8153     8.7650
  143.5000   129.5008     8.6329     8.6438
  144.0000   131.9213     8.5133     8.5243
  144.5000   134.9471     8.3954     8.4642
  145.0000   137.9728     8.2216     8.3481
  145.5000   139.4856     8.1078     8.2327
  146.0000   139.7882     8.0515     8.1756
  146.5000   137.0650     8.0515     8.1189
  147.0000   135.5522     8.0515     8.0625
  147.5000   134.9471     8.0515     8.0625
  148.0000   135.8548     8.0515     8.0625
  148.5000   139.1831     8.1078     8.0625
  149.0000   138.5578     8.1078     8.0625
  149.5000   135.2496     8.1078     8.0625
  150.0000   133.4337     8.1645     8.1189
  150.5000   133.1282     8.2216     8.1746
  151.0000   133.1253     8.2792     8.2306
  151.5000   134.0301     8.3954     8.2870
  152.0000   137.6580     8.4542     8.3434
  152.5000   139.4705     8.5133     8.4006
  153.0000   138.5134     8.6329     8.5172
  153.5000   136.1356     8.6933     8.6352
  154.0000   135.2250     8.6933     8.6946
  154.5000   135.8272     8.7541     8.7542
  155.0000   137.3372     8.6933     8.8142
  155.5000   137.9395     8.6933     8.7515
  156.0000   137.9364     8.6329     8.6896
  156.5000   136.9924     8.5729     8.6282
  157.0000   134.6016     8.5729     8.5672
  157.5000   130.9678     8.5133     8.5063
  158.0000   128.2417     8.4542     8.5052
  158.5000   130.6594     8.4542     8.5040
  159.0000   135.1950     8.4542     8.5029
  159.5000   137.9152     8.5133     8.5614
  160.0000   139.1226     8.5729     8.6479
  160.5000   135.7906     8.5930     8.7394
  161.0000   132.4594     8.7081     8.8337
  161.5000   131.5488     8.8349     8.9835
  162.0000   133.3613     8.9391     9.0570
  162.5000   133.0558     9.1281     9.1709
  163.0000   129.4220     9.3022     9.2979
  163.5000   126.3933     9.5180     9.4273
  164.0000   126.7413     9.7192     9.5580
  164.5000   128.8074     9.9246     9.7588
  165.0000   127.8967    10.1569     9.9629
  165.5000   125.1706    10.3486    10.1715
  166.0000   122.1420    10.4940    10.3268
  166.5000   123.0468    10.7158    10.4748
  167.0000   123.3464    10.8662    10.6751
  167.5000   121.4574    11.0959    10.8233
  168.0000   119.7090    11.2517    10.9736
  168.5000   120.9164    11.4097    11.2037
  169.0000   122.1244    11.5699    11.3708
  169.5000   121.8182    11.7324    11.6780
  170.0000   124.2359    11.8200    11.8401
  170.5000   128.4689    11.9804    12.0045
  171.0000   126.5397    12.0642    12.1716
  171.5000   118.7801    12.0642    12.3402
  172.0000   117.2643    12.1486    12.3385
  172.5000   118.1691    12.2336    12.2513
  173.0000   119.6790    12.2336    12.1601
  173.5000   121.7941    12.2336    12.0782
  174.0000   123.9092    12.0642    11.9928
  174.5000   122.9712    11.8145    11.8254
  175.0000   119.2133    11.7324    11.6603
  175.5000   117.8482    11.6509    11.5778
  176.0000   114.8196    11.6509    11.4162
  176.5000   111.7909    11.5699    11.3318
  177.0000   112.6957    11.4097    11.2552
  177.5000   116.3236    11.3305    11.2534
  178.0000   119.6490    11.3305    11.3309
  178.5000   121.8013    11.4097    11.4882
  179.0000   122.6689    11.4896    11.6473
  179.5000   122.9685    11.5699    11.8915
  180.0000   122.0571    11.7324    12.1408
  180.5000   120.8439    11.7324    12.2240
  181.0000   119.0256    11.7324    12.1372
  181.5000   114.1815    11.6509    11.8847
