~VERSION INFORMATION
 VERS.                2.0:   CWLS LOG ASCII STANDARD - VERSION 2.0
 WRAP.                 NO:   ONE LINE PER DEPTH STEP
~WELL INFORMATION
#MNEM.UNIT      DATA TYPE    INFORMATION
#----------   ------------   ------------------------------
 STRT.F           80.0000:   START DEPTH
 STOP.F         1056.0000:   STOP DEPTH
 STEP.F            0.5000:   STEP LENGTH
 NULL.          -999.2500:   NO VALUE
 COMP. U S NAVY-INTEX OIL:   COMPANY
 WELL.      NPR 3 #68-S-2:   WELL
 FLD .        TEAPOT DOME:   FIELD
 LOC .       S2 T38N R78W:   LOCATION
 CNTY.            NATRONA:   COUNTY
 STAT.            WYOMING:   STATE
 CTRY. UNITED STATES OF AMERICA:   COUNTRY
 SRVC.       Schlumberger:   SERVICE COMPANY
 DATE.        21-JUL-1964:   LOGDATE
 API .       490250638800:   API NUMBER
~CURVE INFORMATION
#MNEM.UNIT       API CODE    CURVE DESCRIPTION
#----------   ------------   ------------------------------
 DEPT.F                  :   
 SPR .MV     05 010 01 00:   SPONTANEOUS POTENTIAL FROM RES.
 ASN .OHMM   05 041 16 00:   AMPLIFIED SHORT NORMAL 16"
 ILD .OHMM   05 120 46 00:   INDUCTION LOG DEEP
 CILD.MMHO   05 110 46 00:   CONDUCTIVITY INDUCTION LOG DEEP
 GR  .GAPI   30 310 01 00:   GAMMA RAY
 CALS.IN     60 280 50 00:   CALIPER FROM SONIC LOG
 DT  .US/F   60 520 00 00:   INTERVAL TRANSIT TIME
~PARAMETER INFORMATION
#MNEM.UNIT          VALUE    DESCRIPTION
#----------   ------------   ------------------------------
 PD  .                 GL:   PERMANENT DATUM
 EPD .F              5201:   ELEVATION PERMANENT DATUM
 LMF .                 KB:   LOG MEASURED FROM
 DAPD.F                 5:   FEET ABOVE PERMANENT DATUM
 DMF .                 KB:   DRILLING MEASURED FROM
 EKB .F              5206:   KELLING BUSHING
 EGL .F              5201:   GROUND LEVEL
 DATE.          8-12-1964:   RUN DATE
 RUN .                  1:   RUN NUMBER
 DD  .F              1055:   DEPTH DRILLER
 DL  .F              1057:   DEPTH LOGGER
 BLI .F              1055:   BOTTOM LOG INTERVAL
 TLI .F               450:   TOP LOG INTERVAL
 CS  .IN              4.5:   CASING SIZE
 BS  .IN             6.75:   BIT SIZE
 DFT .            GEL OIL:   DRILLING FLUID TYPE
 DFD .                9.3:   DRILLING FLUID DENSITY
 DFV .                 48:   DRILLING FLUID VISCOSITY
 DFPH.                 10:   DRILLING FLUID PH
 DFL .                 10:   DRILLING FLUID LOSS
 MSS .           FLOWLINE:   MUD SAMPLE SOURCE
 RMS .OHMM           1.07:   RESISTIVITY MUD SAMPLE
 MST .F                95:   MUD SAMPLE TEMPERATURE
 RMF .OHMM            .67:   RESISTIVITY MUD FILTRATE SAMPLE
 MFST.F                95:   MUD FILTRATE SAMPLE TEMPERATURE
 RMC .OHMM           1.44:   RESISTIVITY MUD CAKE
 MCST.F                95:   MUD CAKE SAMPLE TEMPERATURE
 MFSS.                 FP:   MUD FILTRATE SAMPLE SOURCE
 MCSS.                 FP:   MUD CAKE SAMPLE SOURCE
 TCS .HRS               1:   TIME CURCULATED STOPPED
 LUN .               4507:   LOGGING UNIT NUMBER
 LUL .               CSPR:   LOGGING UNIT LOCATION
 ENGI.             DANNER:   RECORDING ENGINEER
 WITN.         JORGENESEN:   WITNESSED BY
 CLNT.            A2DTECH:   CLIENT CODE
 ORIG.           2" PRINT:   ORIGIN OF DATA
 UWI .       490250638800:   UNIQUE WELL ID
 DICO. A2D Technologies, Inc.:   DIGITIZING COMPANY
~OTHER INFORMATION
~A   DEPT      SPR          ASN        ILD      CILD        GR       CALS         DT   
# ...
  671.5000   -32.5737     8.8634     7.0315   147.7975    62.8062     6.7650    99.5489
  672.0000   -32.6498     8.7886     7.0899   145.5060    62.2116     6.7801    99.7022
  672.5000   -32.7347     8.7774     7.0902   144.5435    62.5112     6.7653    99.0977
  673.0000   -32.8674     8.8348     7.1654   143.0878    69.6525     6.7058    98.4211
  673.5000   -32.9046     8.8976     7.2087   141.7625    71.4560     6.6464    99.1729
  674.0000   -33.0134     8.9838     7.2410   140.7094    68.3278     6.6167    98.9474
  674.5000   -33.1610     9.0553     7.2415   140.2604    70.4158     6.6019    98.8717
  675.0000   -33.3085     9.1380     7.2418   140.2530    73.1742     6.6021    98.1955
  675.5000   -33.3070     9.1431     7.2422   140.2455    74.1445     6.6023    99.0240
  676.0000   -33.3055     9.1682     7.2046   140.2370    71.7485     6.6024    99.7002
  676.5000   -33.3038     9.1684     7.1610   141.2339    69.9655     6.6175    99.7022
  677.0000   -33.3025     9.1358     7.0935   141.7113    66.5484     6.6176   100.0000
  677.5000   -33.3009     9.0783     7.0740   142.4479    69.6945     6.6178    99.6216
  678.0000   -33.2996     9.0033     7.0195   142.5249    72.2146     6.6179    99.4737
  678.5000   -33.2980     8.8991     7.0198   143.1771    71.4785     6.6330    99.8532
  679.0000   -33.2966     8.8392     6.9454   143.3855    67.8092     6.6480   100.3048
  679.5000   -33.2951     8.8851     6.9457   143.9063    67.1519     6.6631   100.6015
  680.0000   -33.1444     8.9566     6.9461   144.9901    69.0912     6.6781   100.6767
  680.5000   -33.1431     9.0046     6.8717   145.3797    71.6262     6.6783   100.6015
  681.0000   -33.1415     9.0048     6.8720   145.8508    73.4157     6.6784   100.5203
  681.5000   -33.1401     8.9696     6.8724   147.0250    72.3744     6.6636   100.2943
  682.0000   -33.1386     8.9151     6.8728   148.3325    69.6933     6.6787   100.3078
  682.5000   -33.1368     8.8846     6.8731   148.6297    69.8438     6.6938   100.3759
  683.0000   -33.0939     8.8555     6.8736   149.0625    63.7350     6.7386   100.0752
  683.5000   -32.9850     8.8706     6.8739   149.0551    61.5007     6.7686   100.0838
  684.0000   -32.9836     8.9091     6.8743   149.0476    61.6516     6.7538   100.3849
  684.5000   -32.9821     8.9179     6.7998   149.0391    64.6337     6.7540   100.4511
  685.0000   -32.9806     8.8658     6.8001   148.7723    63.7410     6.7392    98.4514
  685.5000   -32.9791     8.7803     6.8005   148.2810    67.1702     6.7543    96.7564
  686.0000   -32.9774     8.7700     6.8009   148.2738    72.6855     6.7544    96.3910
  686.5000   -32.9762     8.8357     6.8013   148.2664    66.8747     6.7546    96.8652
  687.0000   -32.9746     8.9017     6.7707   147.5135    71.7946     6.7249    97.7926
  687.5000   -32.9731     8.8700     6.7272   147.5074    79.3967     6.6953    99.3359
  688.0000   -32.9717     8.7220     6.7275   147.4994    81.7823     6.6805   102.4845
  688.5000   -32.9702     8.6473     6.7150   147.8409    81.1877     6.6807   103.4106
  689.0000   -32.9687     8.6624     6.6535   148.2713    77.3147     6.6808   103.6231
  689.5000   -32.9670     8.7075     6.5790   149.4457    75.2298     6.6809   103.5193
  690.0000   -32.9657     8.7406     6.5045   151.3641    70.3132     6.6662   102.7820
  690.5000   -32.9642     8.8727     6.5049   153.4143    68.2283     6.6514   102.1805
  691.0000   -32.9627     8.5105     6.5052   154.1518    72.8497     6.6069   101.8045
  691.5000   -32.9821     8.4232     6.5057   154.8884    81.0476     6.5623   102.4812
  692.0000   -33.1088     8.4780     6.5269   154.8809    75.0882     6.6072   101.9549
  692.5000   -33.1073     8.5319     6.5812   154.8735    74.0461     6.6371   101.2782
  693.0000   -33.2547     8.4987     6.6564   154.1209    74.1970     6.3988   100.7519
  693.5000   -33.2533     8.4301     6.7317   153.8529    74.1985     6.1456   100.1504
  694.0000   -33.2459     8.3340     6.7790   152.6188    71.2193     6.1756    99.3985
  694.5000   -33.1013     8.3062     6.8072   150.7305    69.1344     6.3248    98.6466
  695.0000   -33.0700     8.4250     6.8825   149.4545    67.3475     6.5932    97.8195
  695.5000   -32.9491     8.6194     6.9118   148.1311    65.2626     6.7423    97.0677
  696.0000   -32.7988     8.7382     7.0329   146.9446    68.5427     6.7574    96.9173
  696.5000   -32.7973     8.8595     7.0753   145.1408    77.1880     6.7277    96.8421
  697.0000   -32.7958     8.9267     7.1085   142.9465    79.4246     6.7428    96.6165
  697.5000   -32.7794     8.9832     7.1838   141.3629    73.6143     6.7877    96.6917
  698.0000   -32.6438     9.0447     7.1842   140.1736    70.6348     6.8474    97.3684
  698.5000   -32.4933     9.0924     7.1845   139.9033    74.2134     6.8178    97.8195
  699.0000   -32.3426     9.1451     7.1849   140.6391    76.4503     6.7732    98.1203
  699.5000   -32.2787     9.1390     7.1792   141.6828    80.9228     6.7435    98.6466
  700.0000   -32.1908     9.0855     7.0896   142.1131    84.9481     6.6623    99.2487
  700.5000   -32.2432     9.0139     7.0396   143.2873    85.2473     6.5950   100.2248
  701.0000   -32.2957     8.9452     6.9897   144.4616    81.8214     6.6105   101.5774
  701.5000   -32.3331     8.8913     6.8898   145.0558    78.2461     6.6258   101.8024
  702.0000   -32.3309     8.8501     6.8638   146.0665    75.8631     6.6411   102.8541
  702.5000   -32.4205     8.8017     6.8170   148.0094    80.1865     6.6565   103.5301
  703.0000   -32.5062     8.7784     6.7028   148.8317    79.5919     6.6420   103.7549
  703.5000   -32.6222     8.7247     6.5850   151.3064    76.4637     6.4314   104.1301
  704.0000   -32.8266     8.6675     6.4463   154.6708    71.3982     6.3001   104.5815
  704.5000   -33.0648     8.6014     6.3492   157.3996    69.7729     6.2857   104.8848
  705.0000   -33.2961     8.5030     6.2239   159.8582    74.9928     6.2862   105.0301
  705.5000   -33.3586     8.3874     6.1882   162.4714    77.5293     6.2867   104.8681
  706.0000   -33.2068     8.3001     6.1511   164.3014    82.0032     6.3020   104.5494
  706.5000   -33.1548     8.1889     6.1022   164.2874    82.8996     6.4366   103.9750
  707.0000   -33.0536     8.1591     6.0784   163.8217    74.1105     6.5264   103.2976
  707.5000   -32.9024     8.1593     6.0798   161.2902    72.4734     6.5418   102.5450
  708.0000   -32.9002     8.1673     6.1557   159.4246    68.0054     6.4975   101.4164
  708.5000   -32.8975     8.1949     6.2316   156.7398    69.6478     6.2595   100.8142
  709.0000   -32.8957     8.2650     6.2792   155.0372    67.4160     6.1555   100.5127
  709.5000   -32.7442     8.3917     6.3836   153.3989    69.8035     6.1411   100.2112
  710.0000   -32.7421     8.6102     6.4597   150.8175    74.2766     6.1416    99.9849
  710.5000   -32.7399     8.7226     6.5356   149.7211    73.2372     6.1421    99.6834
  711.0000   -32.7377     8.7755     6.6115   148.5244    72.4950     6.1425    99.3067
  711.5000   -32.7355     8.7159     6.7302   147.8088    71.6038     6.1578    99.1558
  712.0000   -32.7330     8.6669     6.8383   146.8750    74.5866     6.2634    99.3804
  712.5000   -32.7310     8.6413     6.8396   144.8091    75.3355     6.2630    99.3797
  713.0000   -32.7288     8.6336     6.9154   144.7991    72.3579     6.3702    99.2285
  713.5000   -32.7266     8.6756     6.9914   144.0292    68.3370     6.5487    99.0774
  714.0000   -32.7243     8.7814     6.9925   143.2887    67.1477     6.6071    99.0015
  714.5000   -32.7217     8.8897     6.9937   143.2776    68.9391     6.6226    99.0007
  715.0000   -32.8689     8.9573     6.9950   144.0090    78.6291     6.6379    99.0000
  715.5000   -32.8666     9.0008     6.9959   144.2918    81.6119     6.6384    99.1496
  716.0000   -32.8644     9.0177     6.9971   144.7321    74.6112     6.6239    99.3033
  716.5000   -32.8621     8.9989     6.9233   144.7209    72.9748     6.6244    99.4562
