~VERSION INFORMATION
 VERS.                2.0:   CWLS LOG ASCII STANDARD - VERSION 2.0
 WRAP.                 NO:   ONE LINE PER DEPTH STEP
~WELL INFORMATION
#MNEM.UNIT      DATA TYPE    INFORMATION
#----------   ------------   ------------------------------
 STRT.F            0.0000:   START DEPTH
 STOP.F          962.0000:   STOP DEPTH
 STEP.F            0.5000:   STEP LENGTH
 NULL.          -999.2500:   NO VALUE
 COMP. FENIX & SCISSON INC:   COMPANY
 WELL.      NPR #3 #51-14:   WELL
 FLD .             TEAPOT:   FIELD
 LOC .      S14 T38N R78W:   LOCATION
 CNTY.            NATRONA:   COUNTY
 STAT.            WYOMING:   STATE
 CTRY. UNITED STATES OF AMERICA:   COUNTRY
 SRVC.              Welex:   SERVICE COMPANY
 DATE.        03-MAR-1977:   LOGDATE
 API .       490251029700:   API NUMBER
~CURVE INFORMATION
#MNEM.UNIT       API CODE    CURVE DESCRIPTION
#----------   ------------   ------------------------------
 DEPT.F                  :   
 SGRD.OHMM   07 220 05 00:   SHALLOW RESISTIVITY
 ILM .OHMM   07 120 44 00:   INDUCTION LOG MEDIUM
 ILD .OHMM   07 120 46 00:   INDUCTION LOG DEEP
 SPR .MV     07 010 01 00:   SPONTANEOUS POTENTIAL
 DPHI.DEC    45 890 12 00:   DENSITY POROSITY SANDSTONE
 RHOB.G/C3   45 350 01 00:   BULK DENSITY
 CORR.G/C3   45 356 01 00:   DENSITY CORRECTION
 CALD.IN     45 280 60 00:   CALIPER
 GRD .GAPI   45 310 01 00:   GAMMA RAY FROM DENSITY LOG
~PARAMETER INFORMATION
#MNEM.UNIT          VALUE    DESCRIPTION
#----------   ------------   ------------------------------
 PD  .                 GL:   PERMANENT DATUM
 EPD .F            5221.8:   ELEVATION PERMANENT DATUM
 LMF .                 GL:   LOG MEASURED FROM
 DMF .                 GL:   DRILLING MEASURED FROM
 EGL .F            5221.8:   GROUND LEVEL
 DATE.             3-3-77:   RUN DATE
 RUN .                  1:   RUN NUMBER
 DD  .F               967:   DEPTH DRILLER
 DL  .F               964:   DEPTH LOGGER
 BLI .F               962:   BOTTOM LOG INTERVAL
 TLI .F                42:   TOP LOG INTERVAL
 CS  .IN            8.625:   CASING SIZE
 CBD .F                42:   CASING BOTTOM DRILLER
 CBL .F                42:   CASING BOTTOM LOGGER
 BS  .IN            7.875:   BIT SIZE
 BSD .F               967:   BIT SIZE AT DEPTH
 DFT .           CHEM-GEL:   DRILLING FLUID TYPE
 DFD .                8.7:   DRILLING FLUID DENSITY
 DFV .                 33:   DRILLING FLUID VISCOSITY
 DFPH.                7.2:   DRILLING FLUID PH
 DFL .                 10:   DRILLING FLUID LOSS
 MSS .          FLOW LINE:   MUD SAMPLE SOURCE
 RMS .OHMM           .422:   RESISTIVITY MUD SAMPLE
 MST .F                56:   MUD SAMPLE TEMPERATURE
 RMF .OHMM           .372:   RESISTIVITY MUD FILTRATE SAMPLE
 MFST.F                56:   MUD FILTRATE SAMPLE TEMPERATURE
 RMC .OHMM           .484:   RESISTIVITY MUD CAKE
 MCST.F                56:   MUD CAKE SAMPLE TEMPERATURE
 MFSS.           MEASURED:   MUD FILTRATE SAMPLE SOURCE
 MCSS.           MEASURED:   MUD CAKE SAMPLE SOURCE
 RMB .OHMM           .284:   RESISTIVITY MUD AT BHT
 BHT .F                83:   BOTTOM HOLE TEMPERATURE
 TCS .HRS               2:   TIME CURCULATED STOPPED
 MRT .F                83:   MAXIMUM RECORDED TEMPERATURE
 LUN .               8611:   LOGGING UNIT NUMBER
 LUL .           GILLETTE:   LOGGING UNIT LOCATION
 ENGI.          D. LAWSON:   RECORDING ENGINEER
 WITN.         STUEBINGER:   WITNESSED BY
 CLNT.            A2DTECH:   CLIENT CODE
 ORIG.        2" 5" PRINT:   ORIGIN OF DATA
 UWI .       490251029700:   UNIQUE WELL ID
 DICO. A2D Technologies, Inc.:   DIGITIZING COMPANY
~OTHER INFORMATION
~A    DEPT    SGRD        ILM        ILD        SPR       DPHI       RHOB       CORR       CALD        GRD   
# ...
  730.0000     7.8720     5.8664     4.3698   -46.7454     0.1041     2.4757     0.0630     8.1307   128.8813
  730.5000     7.2836     6.2102     4.5972   -46.4554     0.1015     2.4808     0.0640     8.1253   127.5473
  731.0000     9.4835     6.5707     4.8365   -46.1646     0.0988     2.4860     0.0650     8.1198   128.5202
  731.5000     9.8172     6.9089     5.0882   -46.0168     0.0961     2.4912     0.0660     8.1144   129.5152
  732.0000    10.0833     7.2389     5.3531   -45.8978     0.0934     2.4964     0.0670     8.1089   129.9606
  732.5000    10.1989     7.5847     5.6325   -45.7790     0.0926     2.5002     0.0672     8.1034   128.9867
  733.0000    10.3250     7.8616     5.9235   -45.6598     0.0961     2.4928     0.0655     8.0980   128.0339
  733.5000    10.5229     7.9397     6.0863   -45.5387     0.0996     2.4852     0.0638     8.0979   127.0704
  734.0000    10.8102     8.0185     6.1252   -45.5177     0.1021     2.4800     0.0621     8.0987   126.1654
  734.5000    10.6999     8.0981     6.1666   -45.5176     0.1027     2.4806     0.0604     8.0995   129.0305
  735.0000    10.5425     8.2288     6.2083   -45.5179     0.1033     2.4809     0.0586     8.1002   131.1278
  735.5000    10.3874     8.4003     6.2805   -45.5179     0.1044     2.4771     0.0569     8.1010   132.0296
  736.0000    10.2306     8.5750     6.4641   -45.5179     0.1071     2.4728     0.0552     8.1017   132.0031
  736.5000    10.3669     8.7533     6.6445   -45.5179     0.1098     2.4685     0.0535     8.1025   131.9408
  737.0000    10.5087     8.9142     6.6018   -45.5179     0.1126     2.4640     0.0518     8.1033   131.8789
  737.5000    10.6525     8.6746     6.5613   -45.5179     0.1085     2.4700     0.0558     8.1040   131.8128
  738.0000    10.7982     8.5107     6.5205   -45.5179     0.1023     2.4800     0.0606     8.1048   131.5205
  738.5000    10.9459     8.2836     6.4642   -45.5179     0.0969     2.4887     0.0652     8.1055   130.4772
  739.0000    11.0966     8.3770     6.5027   -45.5179     0.0978     2.4870     0.0657     8.1063   129.4459
  739.5000    11.3174     8.5459     6.5713   -45.5179     0.0988     2.4851     0.0657     8.1070   128.4138
  740.0000    11.1840     8.7166     6.6400   -45.5183     0.0997     2.4832     0.0657     8.1078   127.3840
  740.5000    10.9337     8.8907     6.7095   -45.5156     0.1007     2.4825     0.0657     8.1086   126.3227
  741.0000    10.6904     9.0681     6.7797   -45.5026     0.0986     2.4881     0.0657     8.1093   127.2308
  741.5000    10.4487     9.2477     6.8509   -45.7586     0.0960     2.4938     0.0657     8.1101   127.6400
  742.0000    10.3250     8.9760     6.9221   -45.8515     0.0921     2.4994     0.0667     8.1109   124.7796
  742.5000    11.0500     8.6553     6.9567   -45.9393     0.0883     2.5051     0.0679     8.1116   122.3454
  743.0000    11.5794     8.3606     6.8301   -46.0252     0.0861     2.5091     0.0690     8.1124   122.9337
  743.5000    12.1808     8.6413     6.6105   -46.1117     0.0919     2.5031     0.0701     8.1131   122.7120
  744.0000    12.0695     8.9233     6.2918   -46.1981     0.0976     2.4913     0.0713     8.1139   121.6143
  744.5000    11.9187     9.2145     5.9771   -46.2845     0.1033     2.4796     0.0724     8.1146   121.9886
  745.0000    11.8498     9.4191     5.6715   -46.3710     0.1091     2.4678     0.0736     8.1154   124.0865
  745.5000    11.9339     8.7627     5.3815   -46.4574     0.1197     2.4522     0.0747     8.1162   128.2393
  746.0000    11.9591     7.7620     5.1063   -46.5443     0.1309     2.4327     0.0756     8.1169   132.4352
  746.5000     9.4066     6.6270     4.8451   -46.6338     0.1421     2.4131     0.0743     8.1168   136.6349
  747.0000     6.9505     5.6579     4.5974   -46.6967     0.1566     2.3952     0.0731     8.1150   140.2668
  747.5000     5.1357     4.7741     4.5182   -46.2948     0.1455     2.3948     0.0719     8.1132   139.6710
  748.0000     4.0098     5.3144     4.5632   -45.8862     0.1141     2.4433     0.0751     8.1115   126.6238
  748.5000     7.6636     6.1432     4.6925   -45.4806     0.0827     2.5110     0.0789     8.1097   120.1590
  749.0000    12.3770     7.1511     4.9147   -45.0753     0.0785     2.5216     0.0827     8.1079   117.8167
  749.5000    12.7234     7.7631     5.2195   -44.6694     0.0798     2.5184     0.0842     8.1061   116.9227
  750.0000    12.9465     8.4627     5.6291   -44.2639     0.0785     2.5229     0.0849     8.1044   117.4059
  750.5000    13.1735     9.2477     6.0708   -43.8760     0.0787     2.5214     0.0856     8.1026   119.2023
  751.0000    13.3670     9.5386     6.5472   -43.6237     0.0828     2.5140     0.0825     8.1008   120.4200
  751.5000    13.4329     9.8475     7.0610   -43.3651     0.0868     2.5066     0.0780     8.0990   119.3409
  752.0000    13.4755    10.1664     7.6258   -43.1062     0.0893     2.5000     0.0751     8.0973   117.4560
  752.5000    13.2266    10.4956     7.6962   -42.8476     0.0904     2.4993     0.0738     8.0955   116.0021
  753.0000    13.0459    10.8359     7.7195   -42.5902     0.0916     2.4989     0.0726     8.0937   117.4314
  753.5000    12.8677    11.1879     7.7418   -42.3233     0.0927     2.4959     0.0715     8.0920   118.6365
  754.0000    12.6365    11.5273     7.7642   -41.8248     0.0952     2.4915     0.0707     8.0902   117.8586
  754.5000    12.7785    11.3793     7.8338   -41.3178     0.0978     2.4871     0.0699     8.0884   113.4311
  755.0000    12.9895    11.2404     7.9111   -40.8084     0.1004     2.4828     0.0714     8.0866   109.1245
  755.5000    13.2040    11.1121     7.9841   -40.2929     0.0994     2.4796     0.0738     8.0849   104.0536
  756.0000    13.4220    11.7357     8.3940   -39.7593     0.0969     2.4855     0.0762     8.0831    97.9728
  756.5000    13.6938    12.6094     8.7979   -39.2174     0.1010     2.4912     0.0786     8.0813    91.8821
  757.0000    14.1828    13.4755     9.2212   -38.4630     0.1118     2.4706     0.0789     8.0797    86.0874
  757.5000    16.1726    14.9013     9.6648   -37.4474     0.1227     2.4475     0.0771     8.0792    77.2203
  758.0000    18.4047    16.3630    10.2183   -36.4353     0.1335     2.4266     0.0753     8.0295    69.9796
  758.5000    20.9447    17.9681    10.8322   -35.3871     0.1423     2.4104     0.0733     7.9740    63.2752
  759.0000    23.8124    19.4626    11.6342   -35.0805     0.1491     2.4011     0.0691     7.9184    59.6489
  759.5000    23.4091    19.5443    11.4873   -34.9872     0.1559     2.3914     0.0649     7.8630    62.8626
  760.0000    23.1653    19.6356    11.3181   -34.4006     0.1601     2.3852     0.0606     7.8074    65.4069
  760.5000    25.1612    20.8655    12.1434   -33.7609     0.1534     2.3920     0.0576     7.7515    67.9574
  761.0000    21.9638    22.3113    12.9509   -33.1481     0.1478     2.3987     0.0577     7.7027    70.5045
  761.5000    17.9948    22.9536    13.8120   -32.5931     0.1439     2.4054     0.0577     7.7484    73.0528
  762.0000    18.8083    22.3966    14.7304   -32.0571     0.1434     2.4121     0.0577     7.7957    75.6064
  762.5000    19.4566    21.5864    15.7099   -31.5244     0.1377     2.4188     0.0577     7.8425    78.1528
  763.0000    19.4219    19.1802    16.3323   -30.9862     0.1319     2.4254     0.0577     7.8892    79.1125
  763.5000    19.3939    16.3815    16.7753   -30.7313     0.1326     2.4251     0.0577     7.9358    79.0659
  764.0000    19.3659    13.9911    17.1171   -30.6077     0.1380     2.4178     0.0577     7.9825    79.0010
  764.5000    19.3379    12.1003    16.3163   -30.4887     0.1416     2.4133     0.0576     8.0292    78.8688
  765.0000    19.3100    11.4575    15.5910   -30.3847     0.1370     2.4198     0.0594     8.0759    77.4217
  765.5000    19.2821    11.1121    14.9020   -30.4954     0.1338     2.4263     0.0618     8.1228    75.9545
  766.0000    17.8548    11.9262    14.2435   -30.6090     0.1331     2.4327     0.0642     8.1702    75.2406
