~VERSION INFORMATION
 VERS.                2.0:   CWLS LOG ASCII STANDARD - VERSION 2.0
 WRAP.                 NO:   ONE LINE PER DEPTH STEP
~WELL INFORMATION
#MNEM.UNIT      DATA TYPE    INFORMATION
#----------   ------------   ------------------------------
 STRT.F           14.0000:   START DEPTH
 STOP.F          549.0000:   STOP DEPTH
 STEP.F            0.5000:   STEP LENGTH
 NULL.          -999.2500:   NO VALUE
 COMP.   LAWRENCE-ALLISON:   COMPANY
 WELL.    NPR 3 #58-64SX3:   WELL
 FLD .           NPR NO 3:   FIELD
 LOC .       S3 T38N R78W:   LOCATION
 CNTY.            NATRONA:   COUNTY
 STAT.            WYOMING:   STATE
 CTRY. UNITED STATES OF AMERICA:   COUNTRY
 SRVC.      Dresser Atlas:   SERVICE COMPANY
 DATE.        05-DEC-1984:   LOGDATE
 API .       490251099700:   API NUMBER
~CURVE INFORMATION
#MNEM.UNIT       API CODE    CURVE DESCRIPTION
#----------   ------------   ------------------------------
 DEPT.F                  :   
 RFOC.OHMM   07 220 04 00:   RESISTIVITY FOCUSED LOG
 RILD.OHMM   07 120 46 00:   INDUCTION LOG DEEP RESISTIVITY
 RILM.OHMM   07 120 44 00:   INDUCTION LOG MEDIUM RESISTIVITY
 SPR .MV     07 010 01 00:   SPONTANEOUS POTENTIAL
 DT  .US/F   60 520 00 00:   INTERVAL TRANSIT TIME
 CALD.IN     45 280 60 00:   CALIPER FROM DENSITY LOG
 CORR.G/C3   45 356 01 00:   DENSITY CORRECTION
 CNC .DEC    42 890 03 00:   NEUTRON POROSITY SANDSTONE
 DEN .G/C3   45 350 01 00:   COMPENSATED BULK DENSTIY
 GRD .GAPI   45 310 01 00:   GAMMA RAY FROM DENSITY LOG
 PORD.DEC    45 890 12 00:   POROSITY DENSITY SANDSTONE
~PARAMETER INFORMATION
#MNEM.UNIT          VALUE    DESCRIPTION
#----------   ------------   ------------------------------
 PD  .                 GL:   PERMANENT DATUM
 EPD .F              5188:   ELEVATION PERMANENT DATUM
 LMF .                 KB:   LOG MEASURED FROM
 DMF .                 KB:   DRILLING MEASURED FROM
 EGL .F              5188:   GROUND LEVEL
 DATE.        05-DEC-1984:   RUN DATE
 RUN .                  1:   RUN NUMBER
 DD  .F               556:   DEPTH DRILLER
 DL  .F               551:   DEPTH LOGGER
 BLI .F               548:   BOTTOM LOG INTERVAL
 CS  .IN            8.625:   CASING SIZE
 CBD .F                20:   CASING BOTTOM DRILLER
 CBL .F                20:   CASING BOTTOM LOGGER
 BS  .IN            7.875:   BIT SIZE
 BSD .F               556:   BIT SIZE AT DEPTH
 DFT .          KCL WATER:   DRILLING FLUID TYPE
 MSS .           FLOWLINE:   MUD SAMPLE SOURCE
 RMS .OHMM            .36:   RESISTIVITY MUD SAMPLE
 MST .F                70:   MUD SAMPLE TEMPERATURE
 RMF .OHMM            .26:   RESISTIVITY MUD FILTRATE SAMPLE
 MFST.F                70:   MUD FILTRATE SAMPLE TEMPERATURE
 RMC .OHMM            .46:   RESISTIVITY MUD CAKE
 MCST.F                70:   MUD CAKE SAMPLE TEMPERATURE
 MFSS.               CALC:   MUD FILTRATE SAMPLE SOURCE
 MCSS.               CALC:   MUD CAKE SAMPLE SOURCE
 RMB .OHMM            .29:   RESISTIVITY MUD AT BHT
 BHT .F                85:   BOTTOM HOLE TEMPERATURE
 TCS .HRS               3:   TIME CURCULATED STOPPED
 MRT .F               100:   MAXIMUM RECORDED TEMPERATURE
 LUN .               6274:   LOGGING UNIT NUMBER
 LUL .               GLTE:   LOGGING UNIT LOCATION
 ENGI.             PAUTIO:   RECORDING ENGINEER
 WITN.       GROONS/LUERS:   WITNESSED BY
 CLNT.            A2DTECH:   CLIENT CODE
 ORIG.           5" PRINT:   ORIGIN OF DATA
 UWI .       490251099700:   UNIQUE WELL ID
 DICO. A2D Technologies, Inc.:   DIGITIZING COMPANY
~OTHER INFORMATION
~A   DEPT     RFOC       RILD       RILM        SPR         DT       CALD       CORR          CNC      DEN         GRD      PORD   
# ...
  471.5000    10.3036    10.9359    10.1213   -59.8708    93.7993     8.0024     0.0561     0.2528     2.5398   114.9889     0.0829
  472.0000    10.3740    10.8451    10.0396   -59.8910    93.7217     8.0012     0.0496     0.2584     2.5342   116.5017     0.0861
  472.5000    10.5197    10.8340    10.1071   -59.9094    93.5751     8.0066     0.0478     0.2617     2.5333   116.1688     0.0874
  473.0000    10.6656    10.8229    10.1710   -59.7694    93.5027     8.0296     0.0461     0.2633     2.5333   113.6754     0.0881
  473.5000    10.6587    10.5000    10.3887   -59.7924    93.5114     8.0284     0.0475     0.2605     2.5324   110.5647     0.0891
  474.0000    10.6517    10.5663    10.6124   -59.6524    93.5184     8.0272     0.0505     0.2484     2.5339   105.6021     0.0882
  474.5000    10.6447    10.6329    10.5246   -59.6754    93.6047     8.0260     0.0599     0.2462     2.5386   105.5778     0.0866
  475.0000    10.6378    10.6221    10.2134   -59.6938    93.6911     8.0247     0.0725     0.2498     2.5409   106.1708     0.0844
  475.5000    10.5535    10.5338     9.6965   -59.7108    93.8568     8.0235     0.0656     0.2511     2.5377   107.3811     0.0822
  476.0000    10.5466    10.4464     9.4098   -59.7307    93.9431     8.0220     0.0476     0.2552     2.5297   110.1346     0.0869
  476.5000    10.5397    10.3596     9.3338   -59.7491    94.1882     8.0208     0.0400     0.2651     2.5256   112.2708     0.0896
  477.0000    10.3802    10.2736     9.1241   -59.7676    94.4439     8.0198     0.0446     0.2706     2.5247   114.7156     0.0909
  477.5000    10.2980    10.1882     8.8543   -59.7860    95.1019     8.0184     0.0493     0.2744     2.5263   114.6914     0.0916
  478.0000    10.0684    10.0300     8.5299   -59.9583    95.8775     8.0172     0.0555     0.2735     2.5262   112.4856     0.0929
  478.5000     9.9160     9.5894     8.1576   -59.9767    96.5987     8.0314     0.0585     0.2720     2.5245   110.9383     0.0936
  479.0000     9.6244     8.9692     7.8016   -60.1490    97.4787     8.0302     0.0631     0.2707     2.5229   111.5260     0.0949
  479.5000     9.2060     8.0878     7.2462   -60.1674    98.6761     8.0290     0.0677     0.2717     2.5212   113.6622     0.0955
  480.0000     8.8058     7.0310     6.7304   -60.1858    99.0006     8.0278     0.0627     0.2769     2.5188   117.6503     0.0962
  480.5000     8.4220     6.2024     6.0713   -60.5108    99.2456     8.0265     0.0546     0.2929     2.5138   120.4038     0.0998
  481.0000     8.1139     5.2365     5.4768   -61.1692    99.4113     8.0253     0.0401     0.2977     2.4963   121.6140     0.1077
  481.5000     7.7574     4.2936     4.8334   -61.9456   100.2120     8.0241     0.0256     0.3176     2.4589   121.9045     0.1281
  482.0000     7.2577     3.7876     4.0827   -62.7344   101.8380     8.0229     0.0190     0.3409     2.4111   120.6395     0.1499
  482.5000     6.3789     3.5426     3.4235   -63.0462   107.3690     8.0216     0.0221     0.4169     2.3467   119.3807     0.1880
  483.0000     4.8833     3.3623     3.0657   -62.9103   111.7426     8.0204     0.0332     0.4265     2.2949   117.5046     0.2289
  483.5000     3.5484     3.1912     2.9751   -62.7580   118.0194     8.0189     0.0442     0.4113     2.2535   115.6284     0.2492
  484.0000     3.3428     3.0960     3.0385   -61.8338   125.9628     8.0335     0.0518     0.3923     2.2598   114.0609     0.2494
  484.5000     3.5017     3.2316     3.3630   -60.6195   130.7317     8.0320     0.0436     0.2963     2.3416   112.1848     0.2133
  485.0000     3.8306     3.6558     4.4678   -59.5795   130.1038     8.0309     0.0339     0.2863     2.4139   113.7037     0.1726
  485.5000     4.9578     4.3850     5.6809   -59.1563   127.5710     8.0295     0.0194     0.2770     2.4965   116.8066     0.1469
  486.0000     7.0692     5.3763     6.8135   -59.1747   119.2447     8.0283     0.0161     0.2805     2.5092   117.0502     0.1176
  486.5000     9.3908     6.6888     7.6520   -59.0164   108.6167     8.0271     0.0207     0.2818     2.5107   109.9211     0.1010
  487.0000     9.6642     7.6224     8.0470   -58.8800   102.9359     8.0259     0.0236     0.2796     2.5106   108.0449     0.0980
  487.5000     9.3785     8.0736     8.3396   -58.6146   100.0860     8.0247     0.0282     0.2768     2.5089   110.7984     0.0983
  488.0000     9.2366     8.3658     8.5175   -58.3254    99.3537     8.0234     0.0424     0.2781     2.5081   114.4778     0.1000
  488.5000     9.2305     8.6686     8.6359   -58.0092    99.1188     8.0222     0.0550     0.2820     2.5088   117.8486     0.1004
  489.0000     9.2245     8.7873     8.6295   -57.5651    98.5518     8.0210     0.0612     0.2839     2.5103   116.5898     0.0994
  489.5000     9.2185     8.9077     8.6214   -57.1499    97.8672     8.0198     0.0514     0.2785     2.5134   115.3370     0.0988
  490.0000     9.2124     8.8986     8.6794   -56.7114    97.9535     8.0185     0.0385     0.2725     2.5150   117.1585     0.0979
  490.5000     9.2064     8.8895     8.8628   -56.2637    98.5954     8.0173     0.0383     0.2719     2.5149   118.3688     0.0966
  491.0000     9.1335     8.9456     8.9224   -55.9790    98.9199     8.0158     0.0332     0.2760     2.5156   119.2704     0.0957
  491.5000     9.0611     9.0021     8.9134   -55.6897    99.1649     8.0146     0.0236     0.2804     2.5171   118.9375     0.0970
  492.0000     8.9894     9.1254     8.8414   -55.5543    99.4100     8.0134     0.0314     0.2841     2.5162   118.2959     0.0977
  492.5000     8.9835     9.2504     8.7062   -55.2651    99.4963     8.0122     0.0488     0.2835     2.5146   118.8889     0.0973
  493.0000     8.7867     9.2409     8.6359   -55.1250    99.5827     8.0110     0.0534     0.2804     2.5129   121.3337     0.0965
  493.5000     8.5249     9.2315     8.5662   -54.8404    99.5897     8.0097     0.0405     0.2785     2.5113   121.3086     0.0969
  494.0000     8.4574     9.2220     8.6238   -54.7004    99.7556     8.0085     0.0339     0.2849     2.5096   122.8223     0.0991
  494.5000     8.4519     9.1454     8.6151   -54.5650    99.8434     8.0073     0.0290     0.2897     2.5095   125.2672     0.1010
  495.0000     8.5705     9.0695     8.6731   -54.4295    99.8504     8.0216     0.0272     0.2964     2.5110   127.4034     0.0998
  495.5000     8.6909     9.0602     8.7936   -54.4526    99.7780     8.0263     0.0318     0.2952     2.5143   125.2186     0.0970
  496.0000     8.6220     8.9195     8.6574   -54.3126    99.6245     8.0191     0.0412     0.2918     2.5190   123.6511     0.0941
  496.5000     8.4915     8.7809     8.4630   -54.3356    99.4744     8.0179     0.0506     0.2889     2.5164   123.9354     0.0999
  497.0000     8.1224     8.7080     8.2729   -54.0417    99.4814     8.0167     0.0504     0.2863     2.5100   124.8431     0.1044
  497.5000     7.9995     8.6357     8.0871   -54.0648    99.6471     8.0155     0.0455     0.2829     2.5027   125.1275     0.1086
  498.0000     7.9942     8.5640     8.1995   -54.0832    99.8128     8.0142     0.0357     0.2820     2.4995   123.5539     0.1073
  498.5000     8.1078     8.4928     8.2546   -54.1016    99.9812     8.0285     0.0290     0.2808     2.4994   121.6778     0.1061
  499.0000     8.2216     8.4841     8.3694   -54.1201   100.2344     8.0270     0.0226     0.2789     2.5009   121.0362     0.1045
  499.5000     8.3981     8.5377     8.5479   -54.1385   100.4704     8.0257     0.0193     0.2758     2.5032   121.3206     0.1049
  500.0000     8.5770     8.5916     8.6667   -54.4615   100.0805     7.9936     0.0207     0.2711     2.5024   120.9861     0.1065
  500.5000     8.7611     8.7101     8.6582   -54.7943    99.6907     7.9925     0.0285     0.2733     2.4991   121.8929     0.1082
  501.0000     8.8210     8.8921     8.6502   -55.2809    99.3802     8.0071     0.0410     0.2753     2.4943   121.8738     0.1098
  501.5000     8.7615     9.0825     8.5793   -55.6137    98.9903     8.0214     0.0441     0.2779     2.4871   121.2374     0.1104
