~VERSION INFORMATION
 VERS.                2.0:   CWLS LOG ASCII STANDARD - VERSION 2.0
 WRAP.                 NO:   ONE LINE PER DEPTH STEP
~WELL INFORMATION
#MNEM.UNIT      DATA TYPE    INFORMATION
#----------   ------------   ------------------------------
 STRT.F           11.0000:   START DEPTH
 STOP.F          915.0000:   STOP DEPTH
 STEP.F            0.5000:   STEP LENGTH
 NULL.          -999.2500:   NO VALUE
 COMP. U S NAVY/INTEX OIL CO:   COMPANY
 WELL.       N.P.R. #3-35:   WELL
 FLD .           TEAPOT E:   FIELD
 LOC .      S35 T39N R78W:   LOCATION
 CNTY.            NATRONA:   COUNTY
 STAT.            WYOMING:   STATE
 CTRY. UNITED STATES OF AMERICA:   COUNTRY
 SRVC.       Schlumberger:   SERVICE COMPANY
 DATE.        25-JUL-1953:   LOGDATE
 API .       490250653700:   API NUMBER
~CURVE INFORMATION
#MNEM.UNIT       API CODE    CURVE DESCRIPTION
#----------   ------------   ------------------------------
 DEPT.F                  :   
 SPR .MV     05 010 01 00:   SPONTANEOUS POTENTIAL FROM RES.
 CILD.MMHO   05 110 46 00:   CONDUCTIVITY INDUCTION LOG DEEP
 ILD .OHMM   05 120 46 00:   INDUCTION LOG DEEP
 ASN .OHMM   05 041 16 00:   AMPLIFIED SHORT NORMAL 16"
 GR  .GAPI   30 310 01 00:   GAMMA RAY
~PARAMETER INFORMATION
#MNEM.UNIT          VALUE    DESCRIPTION
#----------   ------------   ------------------------------
 EPD .F              5097:   ELEVATION PERMANENT DATUM
 LMF .                 KB:   LOG MEASURED FROM
 DMF .                 KB:   DRILLING MEASURED FROM
 EKB .F              5102:   KELLING BUSHING
 EGL .F              5097:   GROUND LEVEL
 DATE.           7-2-1963:   RUN DATE
 RUN .                  1:   RUN NUMBER
 DD  .F               916:   DEPTH DRILLER
 DL  .F               916:   DEPTH LOGGER
 BLI .F               915:   BOTTOM LOG INTERVAL
 TLI .F                90:   TOP LOG INTERVAL
 CS  .IN            8.625:   CASING SIZE
 CBD .F                10:   CASING BOTTOM DRILLER
 BS  .IN             6.75:   BIT SIZE
 BSD .F               916:   BIT SIZE AT DEPTH
 DFT .            GEL/OIL:   DRILLING FLUID TYPE
 DFD .                9.6:   DRILLING FLUID DENSITY
 DFV .                 67:   DRILLING FLUID VISCOSITY
 DFPH.                  9:   DRILLING FLUID PH
 DFL .                4.2:   DRILLING FLUID LOSS
 MSS .          FLOW LINE:   MUD SAMPLE SOURCE
 RMS .OHMM           2.92:   RESISTIVITY MUD SAMPLE
 MST .F                86:   MUD SAMPLE TEMPERATURE
 RMF .OHMM            2.6:   RESISTIVITY MUD FILTRATE SAMPLE
 MFST.F                86:   MUD FILTRATE SAMPLE TEMPERATURE
 RMC .OHMM           2.49:   RESISTIVITY MUD CAKE
 MCST.F                86:   MUD CAKE SAMPLE TEMPERATURE
 MFSS.                  M:   MUD FILTRATE SAMPLE SOURCE
 MCSS.                  M:   MUD CAKE SAMPLE SOURCE
 TCS .HRS              .5:   TIME CURCULATED STOPPED
 LUN .               4507:   LOGGING UNIT NUMBER
 ENGI.             KNOBEL:   RECORDING ENGINEER
 WITN.          JORGENSON:   WITNESSED BY
 CLNT.            A2DTECH:   CLIENT CODE
 ORIG.       2", 5" PRINT:   ORIGIN OF DATA
 UWI .       490250653700:   UNIQUE WELL ID
 DICO. A2D Technologies, Inc.:   DIGITIZING COMPANY
~OTHER INFORMATION
~A   DEPT      SPR       CILD        ILD        ASN          GR  
# ...
  133.0000   -39.8572   176.0587     5.6255     6.2865    49.1633
  133.5000   -40.0298   174.7570     5.6758     6.2469    45.2235
  134.0000   -39.8623   173.4530     5.7140     6.3793    47.0115
  134.5000   -39.9286   173.8911     5.6708     6.5587    45.2983
  135.0000   -40.0094   175.4761     5.6289     6.5855    48.2750
  135.5000   -40.0895   177.0636     5.5872     6.4874    39.4676
  136.0000   -40.1696   178.6475     5.5455     6.3871    36.4679
  136.5000   -40.2471   180.2345     5.5120     6.2878    43.1070
  137.0000   -40.4824   180.6742     5.5364     6.1886    48.5788
  137.5000   -40.6574   180.0236     5.5614     6.1706    48.9340
  138.0000   -40.5099   179.3730     5.5868     6.2325    50.8399
  138.5000   -40.3717   179.8731     5.6105     6.2644    51.9420
  139.0000   -40.2334   183.3537     5.5047     6.2636    50.3819
  139.5000   -40.0945   186.8351     5.3808     6.2294    47.0450
  140.0000   -39.9576   190.3015     5.2567     6.0819    45.9525
  140.5000   -39.8724   193.7810     5.1320     5.9377    47.7996
  141.0000   -39.9717   195.0507     5.0324     5.7938    49.6596
  141.5000   -40.0663   193.6050     4.9467     5.6605    51.5082
  142.0000   -40.1605   192.1593     4.9033     5.6189    52.2621
  142.5000   -40.2549   190.7399     5.0307     5.6168    45.5729
  143.0000   -40.3491   187.5912     5.1543     5.7256    44.6467
  143.5000   -40.4444   184.0585     5.2774     6.0867    41.9801
  144.0000   -40.4529   180.5278     5.4008     6.4467    39.4037
  144.5000   -40.4074   177.0070     5.5242     6.4519    39.0942
  145.0000   -40.3614   173.4862     5.6469     6.3931    43.5890
  145.5000   -40.3151   169.9654     5.7705     6.7447    43.1502
  146.0000   -40.2690   166.3169     5.7657     6.9694    43.3385
  146.5000   -40.2229   170.9468     5.6680     6.7433    49.3694
  147.0000   -40.1768   175.7511     5.5695     6.5232    53.9802
  147.5000   -40.1305   180.5553     5.4698     6.3032    55.6168
  148.0000   -40.0841   185.3616     5.3783     6.1506    60.1870
  148.5000   -40.0033   190.1653     5.2941     6.0555    58.4761
  149.0000   -39.8922   193.0480     5.2122     5.9602    59.0670
  149.5000   -39.7809   194.0036     5.1304     5.8642    54.3057
  150.0000   -39.6692   194.1194     5.1035     5.7650    48.7261
  150.5000   -39.5561   192.3700     5.1309     5.7473    45.2400
  151.0000   -39.4408   188.9444     5.1582     5.7198    47.6087
  151.5000   -39.5318   183.8625     5.1829     5.7837    45.2568
  152.0000   -39.6417   178.7807     5.3519     5.9869    45.4107
  152.5000   -39.7511   173.6989     5.5734     6.1947    42.3982
  153.0000   -39.8601   168.6170     5.7963     6.4014    44.0200
  153.5000   -39.9691   163.5352     6.0180     6.6066    45.5888
  154.0000   -40.0780   159.9423     6.2400     6.7711    44.8704
  154.5000   -40.1872   157.7518     6.2864     6.7586    44.4221
  155.0000   -40.2964   156.2734     6.1707     6.7221    47.1923
  155.5000   -40.4041   160.0285     6.0549     6.6865    46.6598
  156.0000   -40.4654   166.7556     5.9382     6.6369    47.0180
  156.5000   -40.3963   174.6505     5.8209     6.5384    47.9073
  157.0000   -40.3317   182.5437     5.6660     6.3516    45.4069
  157.5000   -40.2670   189.9280     5.2595     6.1518    47.5470
  158.0000   -40.1377   193.9270     4.9467     5.9513    52.5674
  158.5000   -40.0136   197.9323     4.8382     5.7485    49.6416
  159.0000   -39.8904   201.9377     4.7284     5.5999    45.6385
  159.5000   -39.7673   206.1910     4.6202     5.4658    44.4434
  160.0000   -39.6440   206.1910     4.5112     5.4050    43.4862
  160.5000   -39.5219   202.5493     4.6380     5.4821    41.7068
  161.0000   -39.4423   198.6756     4.9614     5.6229    39.9267
  161.5000   -39.4797   194.8020     5.2882     5.7644    38.7035
  162.0000   -39.5141   190.7610     5.3749     5.9069    36.3924
  162.5000   -39.5483   185.7543     5.4511     5.9942    34.1246
  163.0000   -39.5826   180.7475     5.5285     6.0376    36.6189
  163.5000   -39.6169   175.7559     5.6064     6.0809    40.4044
  164.0000   -39.6512   170.5342     5.6843     6.1361    43.0456
  164.5000   -39.6855   168.0143     5.7621     6.2481    42.2595
  165.0000   -39.7198   165.3749     5.8400     6.3615    43.7380
  165.5000   -39.7541   162.7485     5.9181     6.4750    46.0044
  166.0000   -39.7887   160.1318     5.9965     6.5891    44.3123
  166.5000   -39.8240   160.4841     6.0734     6.7017    43.4485
  167.0000   -39.8479   163.1163     6.1170     6.7056    46.0732
  167.5000   -39.7198   166.9098     5.9659     6.6635    47.4847
  168.0000   -39.5953   171.6411     5.8170     6.5461    44.2928
  168.5000   -39.4678   176.3725     5.6689     6.4296    38.0958
  169.0000   -39.4538   181.1039     5.5205     6.3126    35.1866
  169.5000   -39.4781   185.8353     5.3721     6.1944    35.7038
  170.0000   -39.5039   190.5666     5.2238     6.0605    34.7689
  170.5000   -39.5295   195.2980     5.0761     5.8753    32.6796
  171.0000   -39.5551   200.0294     4.9834     5.6878    33.7120
  171.5000   -39.5806   201.9937     4.9848     5.5717    36.3687
  172.0000   -39.6061   201.3361     5.0554     5.6265    35.3094
  172.5000   -39.6316   197.8314     5.1729     5.6820    33.9764
  173.0000   -39.6571   194.3267     5.2912     5.7377    36.2486
  173.5000   -39.6826   189.4334     5.4101     5.7608    39.9002
  174.0000   -39.7081   184.1763     5.5288     5.8067    47.2721
  174.5000   -39.7337   178.9192     5.6472     6.0592    44.0302
  175.0000   -39.7592   173.6621     5.7425     6.3105    41.9981
  175.5000   -39.7848   171.4974     5.8004     6.5535    40.3068
  176.0000   -39.8105   169.3328     5.8591     6.6242    43.5992
  176.5000   -39.8352   167.1681     5.9190     6.6429    44.7355
  177.0000   -39.8329   166.8621     5.9002     6.5918    44.1797
  177.5000   -39.7515   167.7638     5.8656     6.5415    44.8619
  178.0000   -39.6730   168.6650     5.8303     6.4907    44.4834
  178.5000   -39.5947   169.5681     5.7953     6.4397    43.7672
  179.0000   -39.5162   170.4686     5.7600     6.3916    47.9360
  179.5000   -39.4375   171.3698     5.7227     6.4041    47.2599
  180.0000   -39.3587   172.2710     5.7796     6.4754    48.6161
  180.5000   -39.2818   170.3012     5.8530     6.5591    47.9458
  181.0000   -39.2598   166.5775     5.9274     6.6455    44.7031
  181.5000   -39.3960   162.8537     6.0015     6.6734    47.6411
  182.0000   -39.5270   159.1299     6.0756     6.7287    39.2662
  182.5000   -39.6573   155.4062     6.1496     6.8345    40.6340
  183.0000   -39.7873   153.7812     6.2236     6.9334    42.7597
  183.5000   -39.8365   152.5868     6.2977     7.1405    44.8543
  184.0000   -39.7733   151.3940     6.3717     7.3619    42.0680
  184.5000   -39.7121   150.2021     6.4458     7.4029    38.9305
  185.0000   -39.6506   148.6314     6.5198     7.3485    39.0236
  185.5000   -39.5890   146.5780     6.5938     7.2937    39.7368
  186.0000   -39.5274   144.5247     6.6679     7.2599    37.8586
  186.5000   -39.4659   142.4724     6.7413     7.3644    36.7211
  187.0000   -39.4044   140.4207     6.8533     7.5068    40.4227
  187.5000   -39.3428   138.3692     6.9846     7.6459    39.7572
  188.0000   -39.2813   136.3177     7.1163     7.7676    41.4727
  188.5000   -39.2197   134.2661     7.2476     7.8795    40.1655
  189.0000   -39.1583   132.7894     7.3777     7.9673    38.9188
  189.5000   -39.0967   138.5555     7.2577     7.9646    37.3860
  190.0000   -39.0299   144.1238     6.9517     7.7922    36.1722
  190.5000   -39.1574   149.7048     6.6579     7.5915    37.4097
  191.0000   -39.3552   155.3011     6.3849     7.4549    35.8266
  191.5000   -39.5540   160.8973     6.1205     7.3037    39.6996
  192.0000   -39.7527   166.4936     5.8583     7.0091    38.5124
  192.5000   -39.8082   169.4648     5.7611     6.7789    37.0746
  193.0000   -39.7202   169.4648     5.6891     6.6206    38.1388
  193.5000   -39.6550   169.4648     5.6184     6.5854    36.2441
