~VERSION INFORMATION
 VERS.                2.0:   CWLS LOG ASCII STANDARD - VERSION 2.0
 WRAP.                 NO:   ONE LINE PER DEPTH STEP
~WELL INFORMATION
#MNEM.UNIT      DATA TYPE    INFORMATION
#----------   ------------   ------------------------------
 STRT.F           28.5000:   START DEPTH
 STOP.F          781.0000:   STOP DEPTH
 STEP.F            0.5000:   STEP LENGTH
 NULL.          -999.2500:   NO VALUE
 COMP. FENIX & SCISSON INC:   COMPANY
 WELL. NPR 3 23 SX 14 #23-14:   WELL
 FLD .        TEAPOT DOME:   FIELD
 LOC .      S14 T38N R78W:   LOCATION
 CNTY.            NATRONA:   COUNTY
 STAT.            WYOMING:   STATE
 CTRY. UNITED STATES OF AMERICA:   COUNTRY
 SRVC.            Unknown:   SERVICE COMPANY
 DATE.        13-MAY-1978:   LOGDATE
 API .       490251063400:   API NUMBER
~CURVE INFORMATION
#MNEM.UNIT       API CODE    CURVE DESCRIPTION
#----------   ------------   ------------------------------
 DEPT.F                  :   
 RHOB.G/C3   45 350 01 00:   BULK DENSITY
 DPHI.DEC    45 890 12 00:   DENSITY POROSITY SANDSTONE
 GRD .GAPI   45 310 01 00:   GAMMA RAY FROM DENSITY LOG
 CALD.IN     45 280 60 00:   CALIPER FROM DENSITY LOG
 CORR.G/C3   45 356 01 00:   DENSITY CORRECTION
 SN  .OHMM   05 040 16 00:   SHORT NORMAL 16"
 SPR .MV     05 010 01 00:   SPONTANEOUS POTENTIAL FROM RES.
 ILD .OHMM   05 120 46 00:   INDUCTION LOG DEEP
~PARAMETER INFORMATION
#MNEM.UNIT          VALUE    DESCRIPTION
#----------   ------------   ------------------------------
 PD  .                 GL:   PERMANENT DATUM
 EPD .F              5202:   ELEVATION PERMANENT DATUM
 LMF .                 KB:   LOG MEASURED FROM
 DMF .                 KB:   DRILLING MEASURED FROM
 EKB .F              5206:   KELLING BUSHING
 EGL .F              5202:   GROUND LEVEL
 DATE.          5-13-1978:   RUN DATE
 RUN .                  1:   RUN NUMBER
 DD  .F               785:   DEPTH DRILLER
 DL  .F               776:   DEPTH LOGGER
 BLI .F               770:   BOTTOM LOG INTERVAL
 TLI .F                50:   TOP LOG INTERVAL
 CS  .IN            8.625:   CASING SIZE
 CBD .F                40:   CASING BOTTOM DRILLER
 CBL .F                40:   CASING BOTTOM LOGGER
 BS  .IN            7.875:   BIT SIZE
 BSD .F               785:   BIT SIZE AT DEPTH
 DFT .                KCL:   DRILLING FLUID TYPE
 DFD .                8.6:   DRILLING FLUID DENSITY
 DFV .                 30:   DRILLING FLUID VISCOSITY
 DFPH.                 10:   DRILLING FLUID PH
 DFL .                 14:   DRILLING FLUID LOSS
 MSS .           FLOWLINE:   MUD SAMPLE SOURCE
 RMS .OHMM             .4:   RESISTIVITY MUD SAMPLE
 MST .F                69:   MUD SAMPLE TEMPERATURE
 RMF .OHMM            .36:   RESISTIVITY MUD FILTRATE SAMPLE
 MFST.F                72:   MUD FILTRATE SAMPLE TEMPERATURE
 RMC .OHMM            .56:   RESISTIVITY MUD CAKE
 MCST.F                73:   MUD CAKE SAMPLE TEMPERATURE
 MFSS.               MEAS:   MUD FILTRATE SAMPLE SOURCE
 RMB .OHMM            .35:   RESISTIVITY MUD AT BHT
 BHT .F                79:   BOTTOM HOLE TEMPERATURE
 TCS .HRS               2:   TIME CURCULATED STOPPED
 MRT .F                79:   MAXIMUM RECORDED TEMPERATURE
 LUN .               3006:   LOGGING UNIT NUMBER
 LUL .              CASP.:   LOGGING UNIT LOCATION
 ENGI.             MILLER:   RECORDING ENGINEER
 WITN.           MCGINLEY:   WITNESSED BY
 CLNT.            A2DTECH:   CLIENT CODE
 ORIG.           5" PRINT:   ORIGIN OF DATA
 UWI .       490251063400:   UNIQUE WELL ID
 DICO. A2D Technologies, Inc.:   DIGITIZING COMPANY
~OTHER INFORMATION
~A   DEPT     RHOB       DPHI         GRD      CALD       CORR         SN        SPR        ILD   
   28.5000  -999.2500  -999.2500    56.5242  -999.2500  -999.2500  -999.2500  -999.2500  -999.2500
   29.0000  -999.2500  -999.2500    53.0970  -999.2500  -999.2500  -999.2500  -999.2500  -999.2500
   29.5000  -999.2500  -999.2500    49.1406  -999.2500  -999.2500  -999.2500  -999.2500  -999.2500
   30.0000  -999.2500  -999.2500    43.3329  -999.2500  -999.2500  -999.2500  -999.2500  -999.2500
   30.5000  -999.2500  -999.2500    38.4207  -999.2500  -999.2500  -999.2500  -999.2500  -999.2500
   31.0000  -999.2500  -999.2500    38.4606  -999.2500  -999.2500  -999.2500  -999.2500  -999.2500
   31.5000  -999.2500  -999.2500    39.0955  -999.2500  -999.2500  -999.2500  -999.2500  -999.2500
   32.0000  -999.2500  -999.2500    41.4248  -999.2500  -999.2500  -999.2500  -999.2500  -999.2500
   32.5000  -999.2500  -999.2500    46.2321  -999.2500  -999.2500  -999.2500  -999.2500  -999.2500
   33.0000  -999.2500  -999.2500    50.9987  -999.2500  -999.2500  -999.2500  -999.2500  -999.2500
   33.5000  -999.2500  -999.2500    55.8116  -999.2500  -999.2500  -999.2500  -999.2500  -999.2500
   34.0000  -999.2500  -999.2500    58.1343  -999.2500  -999.2500  -999.2500  -999.2500  -999.2500
   34.5000  -999.2500  -999.2500    59.1826  -999.2500  -999.2500  -999.2500  -999.2500  -999.2500
   35.0000  -999.2500  -999.2500    59.9270  -999.2500  -999.2500  -999.2500  -999.2500  -999.2500
   35.5000  -999.2500  -999.2500    59.9084  -999.2500  -999.2500  -999.2500  -999.2500  -999.2500
   36.0000  -999.2500  -999.2500    59.8987  -999.2500  -999.2500  -999.2500  -999.2500  -999.2500
   36.5000  -999.2500  -999.2500    59.9057  -999.2500  -999.2500  -999.2500   -48.5050  -999.2500
   37.0000  -999.2500  -999.2500    59.4069  -999.2500  -999.2500     0.2130   -50.1915     3.8132
   37.5000  -999.2500  -999.2500    58.6898  -999.2500  -999.2500     0.2349   -51.8781     3.5585
   38.0000  -999.2500  -999.2500    60.5490  -999.2500  -999.2500     0.2363   -53.2324     3.3823
   38.5000  -999.2500  -999.2500    64.2019  -999.2500  -999.2500     0.2363   -54.8569     3.1415
   39.0000  -999.2500  -999.2500    64.1080  -999.2500  -999.2500     0.2371   -56.0335     2.9934
   39.5000  -999.2500  -999.2500    64.2583  -999.2500  -999.2500     0.2475   -56.1814     2.9924
   40.0000  -999.2500  -999.2500    65.4676  -999.2500  -999.2500     0.2817   -56.3667     3.1042
   40.5000     2.0045  -999.2500    66.5043     9.7100     0.1579     0.3207   -57.0736     3.0094
   41.0000     2.1168     0.2881    66.2976     9.0839     0.1827     0.3577   -57.8352     2.9395
   41.5000     2.2252     0.2458    66.1134     8.2775     0.1864     0.3927   -57.9348     3.1189
   42.0000     2.2995     0.2034    65.8598     7.9198     0.0680     0.5172   -57.3815     3.3173
   42.5000     2.3406     0.1900    71.2337     7.9152     0.0698     0.6980   -56.9433     3.4353
   43.0000     2.3393     0.1904    70.3062     7.8787     0.0713     0.8744   -57.6834     3.4072
   43.5000     2.3372     0.1859    68.9991     7.7257     0.0737     1.0796   -58.9210     3.3874
   44.0000     2.3457     0.1824    69.1786     7.8164     0.0768     1.9952   -60.1457     3.3731
   44.5000     2.3551     0.1795    70.3316     7.9584     0.0789     3.5520   -61.4195     3.4056
   45.0000     2.3642     0.1764    71.5257     8.0721     0.0799     4.3628   -61.9748     3.4312
   45.5000     2.3693     0.1759    71.0647     8.0231     0.0683     4.4030   -62.3269     3.4569
   46.0000     2.3602     0.1735    70.2899     7.8910     0.0558     4.4437   -62.6717     3.4829
   46.5000     2.3574     0.1785    69.6623     7.7614     0.0434     4.4455   -63.0194     3.4994
   47.0000     2.3500     0.1848    70.5478     7.6612     0.0348     4.4447   -63.3673     3.4994
   47.5000     2.3426     0.1900    71.5590     7.5977     0.0322     4.3659   -63.7141     3.4994
   48.0000     2.3353     0.1949    72.5677     7.5340     0.0348     4.2371   -63.9664     3.5000
   48.5000     2.3280     0.1996    73.6016     7.4701     0.0375     4.0998   -64.0806     3.5009
   49.0000     2.3210     0.1997    72.0447     7.4291     0.0402     3.9506   -64.1964     3.4994
   49.5000     2.3201     0.2005    69.9149     7.4009     0.0416     3.8068   -64.3118     3.3478
   50.0000     2.3157     0.2127    69.7518     7.2857     0.0393     3.6683   -64.4275     3.1809
   50.5000     2.2975     0.2242    69.6241     7.1397     0.0371     3.5348   -64.5427     3.0223
   51.0000     2.2799     0.2378    69.5262     6.8203     0.0382     3.4062   -64.6589     2.8717
   51.5000     2.2626     0.2346    70.6422     6.2521     0.0497     3.2823   -64.6906     2.7761
   52.0000     2.2631     0.2317    71.8972     6.5419     0.0672     3.1629   -64.6543     2.7214
   52.5000     2.2647     0.2383    70.6191     7.0368     0.0660     3.0489   -64.6171     2.6677
   53.0000     2.2555     0.2431    68.2229     7.5396     0.0608     2.9616   -64.5810     2.6151
   53.5000     2.2463     0.2531    66.9115     7.5630     0.0639     2.8776   -64.5421     2.5635
   54.0000     2.2234     0.2692    67.3066     7.5117     0.0726     2.7959   -64.3873     2.5130
   54.5000     2.1950     0.2853    67.6800     7.4995     0.0887     2.7166   -63.7358     2.4681
   55.0000     2.1661     0.3014    68.0571     7.4792     0.1110     2.6396   -63.4000     2.4316
   55.5000     2.1356     0.3118    68.5541     7.4422     0.1377     2.5605   -63.2201     2.3916
   56.0000     2.1567     0.2705    74.8433     7.4095     0.2079     2.4442   -63.3920     2.3523
   56.5000     2.2118     0.2613    88.7824     7.4093     0.2644     2.3266   -63.9552     2.3136
   57.0000     2.2270     0.2537    97.7118     7.4040     0.2281     2.2147   -64.5146     2.2756
   57.5000     2.2310     0.2559    61.4788     7.6170     0.1677     2.1112   -65.0777     2.2382
   58.0000     2.2280     0.2593    54.5130     7.8676     0.1069     2.1635   -65.6385     2.2105
   58.5000     2.2211     0.2609    57.1835     8.1375     0.0634     2.2397   -66.1241     2.2315
   59.0000     2.2354     0.2450    60.4105     8.4345     0.0742     2.3185   -66.1629     2.2306
   59.5000     2.2584     0.2185    63.6879     8.5903     0.0854     2.4002   -66.2113     2.3277
   60.0000     2.3215     0.1903    66.9828     8.3932     0.0877     2.5898   -66.2608     2.3958
   60.5000     2.3618     0.1777    67.9456     8.0516     0.0728     2.8390   -66.3105     2.4681
   61.0000     2.3608     0.1760    67.4079     7.8273     0.0637     3.1121   -66.3601     2.6199
   61.5000     2.3620     0.1727    67.1608     7.8135     0.0758     3.4116   -66.4098     2.7874
   62.0000     2.3658     0.1723    68.5967     7.9283     0.0899     3.6639   -66.4595     2.9656
   62.5000     2.3655     0.1739    69.9162     8.0302     0.1046     3.6978   -66.5091     3.1552
   63.0000     2.3624     0.1756    70.4122     8.0127     0.1102     3.7319   -66.5588     3.3435
   63.5000     2.3596     0.1877    70.8966     7.7761     0.1007     3.6627   -66.6085     3.3436
   64.0000     2.3408     0.2083    71.7096     7.4844     0.0831     3.5984   -66.6582     3.1855
   64.5000     2.3110     0.2068    72.5637     7.1829     0.0710     3.5357   -66.7066     3.0770
   65.0000     2.3086     0.2125    72.5823     6.8782     0.0679     3.4738   -66.7433     3.0438
   65.5000     2.3012     0.2227    71.8105     6.8295     0.0586     3.4071   -66.7806     3.0296
   66.0000     2.2850     0.2328    71.6992     6.8488     0.0493     3.2508   -66.8181     2.9245
   66.5000     2.2690     0.2423    71.6959     6.8663     0.0481     3.1017   -66.8561     2.6938
   67.0000     2.2529     0.2511    71.6914     6.9842     0.0481     2.9595   -66.8976     2.4813
   67.5000     2.2351     0.2631    71.6095     7.1121     0.0481     2.8237   -66.7473     2.2856
   68.0000     2.2091     0.2779    75.8518     7.2400     0.0480     2.6942   -66.5677     2.1902
   68.5000     2.1874     0.2838    81.3554     7.3683     0.0540     2.6321   -66.3876     2.1902
