~VERSION INFORMATION
 VERS.                2.0:   CWLS LOG ASCII STANDARD - VERSION 2.0
 WRAP.                 NO:   ONE LINE PER DEPTH STEP
~WELL INFORMATION
#MNEM.UNIT      DATA TYPE    INFORMATION
#----------   ------------   ------------------------------
 STRT.F           32.0000:   START DEPTH
 STOP.F          697.0000:   STOP DEPTH
 STEP.F            0.5000:   STEP LENGTH
 NULL.          -999.2500:   NO VALUE
 COMP.    FENIX & SCISSON:   COMPANY
 WELL.      NPR-3 #81S3-3:   WELL
 FLD .        TEAPOT DOME:   FIELD
 LOC .       S3 T38N R78W:   LOCATION
 CNTY.            NATRONA:   COUNTY
 STAT.            WYOMING:   STATE
 CTRY. UNITED STATES OF AMERICA:   COUNTRY
 SRVC.           BIRDWELL:   SERVICE COMPANY
 DATE.        11-JAN-1978:   LOGDATE
 API .       490251055400:   API NUMBER
~CURVE INFORMATION
#MNEM.UNIT       API CODE    CURVE DESCRIPTION
#----------   ------------   ------------------------------
 DEPT.F                  :   
 ILD .OHMM   05 120 46 00:   INDUCTION LOG DEEP
 SN  .OHMM   05 040 16 00:   SHORT NORMAL 16"
 SPR .MV     05 010 01 00:   SPONTANEOUS POTENTIAL FROM RES.
 CALD.IN     45 280 60 00:   CALIPER FROM DENSITY LOG
 DPHI.DEC    45 890 12 00:   DENSITY POROSITY SANDSTONE
 DRHO.G/C3   45 356 01 00:   DENSITY CORRECTION
 GRD .GAPI   45 310 01 00:   GAMMA RAY FROM DENSITY LOG
 RHOB.G/C3   45 350 01 00:   BULK DENSITY
~PARAMETER INFORMATION
#MNEM.UNIT          VALUE    DESCRIPTION
#----------   ------------   ------------------------------
 PD  .                 GL:   PERMANENT DATUM
 EPD .F              5119:   ELEVATION PERMANENT DATUM
 LMF .                 KB:   LOG MEASURED FROM
 DAPD.F                 4:   FEET ABOVE PERMANENT DATUM
 DMF .                 KB:   DRILLING MEASURED FROM
 EKB .F              5123:   KELLING BUSHING
 EGL .F              5119:   GROUND LEVEL
 DATE.        11-JAN-1978:   RUN DATE
 RUN .                  1:   RUN NUMBER
 DD  .F               695:   DEPTH DRILLER
 DL  .F               704:   DEPTH LOGGER
 BLI .F               697:   BOTTOM LOG INTERVAL
 TLI .F                40:   TOP LOG INTERVAL
 CS  .IN            8.625:   CASING SIZE
 CBD .F                40:   CASING BOTTOM DRILLER
 CBL .F                40:   CASING BOTTOM LOGGER
 BS  .IN            7.875:   BIT SIZE
 BSD .F               695:   BIT SIZE AT DEPTH
 DFT .                KCL:   DRILLING FLUID TYPE
 DFD .                8.6:   DRILLING FLUID DENSITY
 DFV .                 31:   DRILLING FLUID VISCOSITY
 DFPH.                9.5:   DRILLING FLUID PH
 DFL .                7.6:   DRILLING FLUID LOSS
 MSS .           FLOWLINE:   MUD SAMPLE SOURCE
 RMS .OHMM           0.32:   RESISTIVITY MUD SAMPLE
 MST .F                62:   MUD SAMPLE TEMPERATURE
 RMF .OHMM           0.32:   RESISTIVITY MUD FILTRATE SAMPLE
 MFST.F                62:   MUD FILTRATE SAMPLE TEMPERATURE
 RMC .OHMM            0.8:   RESISTIVITY MUD CAKE
 MCST.F                63:   MUD CAKE SAMPLE TEMPERATURE
 MFSS.               MEAS:   MUD FILTRATE SAMPLE SOURCE
 MCSS.               MEAS:   MUD CAKE SAMPLE SOURCE
 TCS .HRS               2:   TIME CURCULATED STOPPED
 LUN .               2958:   LOGGING UNIT NUMBER
 LUL .             CASPER:   LOGGING UNIT LOCATION
 ENGI.           REYNOLDS:   RECORDING ENGINEER
 WITN.         HARRINGTON:   WITNESSED BY
 CLNT.            A2DTECH:   CLIENT CODE
 ORIG.           5" PRINT:   ORIGIN OF DATA
 UWI .       490251055400:   UNIQUE WELL ID
 DICO. A2D Technologies, Inc.:   DIGITIZING COMPANY
~OTHER INFORMATION
~A   DEPT      ILD         SN        SPR       CALD       DPHI       DRHO         GRD      RHOB   
# ...
   72.5000     8.8383     8.9727   -38.8352     8.6118     0.2072     0.1545    71.8104     2.3046
   73.0000     7.7497     8.6105   -39.2770     8.6124     0.2195     0.1335    73.3062     2.2899
   73.5000     5.9978     8.0930   -40.0174     8.6428     0.2330     0.1035    76.4403     2.2606
   74.0000     4.7395     7.2467   -41.3547     8.6630     0.2545     0.0871    80.7667     2.2246
   74.5000     4.0702     6.0130   -42.5428     8.7035     0.2788     0.0826    90.1601     2.1818
   75.0000     3.3998     5.2735   -43.1353     8.7339     0.3053     0.0872    98.0631     2.1450
   75.5000     3.0633     4.8211   -42.9786     8.7643     0.3062     0.0964    99.4089     2.1368
   76.0000     2.9207     4.7232   -42.6742     8.8096     0.2959     0.1069    99.8604     2.1428
   76.5000     3.0056     4.7252   -42.5190     8.8399     0.2742     0.0738    99.5667     2.1699
   77.0000     3.1835     4.7597   -42.5130     8.8703     0.2477     0.0725    97.4847     2.2127
   77.5000     3.5391     4.9291   -41.7608     8.8858     0.1947     0.0974    94.2105     2.3232
   78.0000     4.0000     5.2117   -39.5160     8.8864     0.1374     0.1087    88.9988     2.3999
   78.5000     4.9268     5.7046   -39.2116     8.8721     0.1287     0.1163    72.7588     2.4187
   79.0000     6.5892     6.4642   -39.0564     8.8276     0.1262     0.1224    70.0796     2.4270
   79.5000     8.8817     8.0705   -37.7071     8.7841     0.1235     0.1270    70.2342     2.4338
   80.0000    11.3258     9.4673   -37.1042     8.7682     0.1166     0.1301    70.2386     2.4451
   80.5000    13.4747    10.5802   -37.3967     8.7407     0.1051     0.1257    65.7721     2.4639
   81.0000    14.5480    11.4216   -37.3908     8.7264     0.0961     0.0987    62.3488     2.4805
   81.5000    14.4524    11.9103   -37.2356     8.7121     0.0936     0.0972    62.1938     2.4887
   82.0000    14.5567    12.2491   -36.9311     8.6830     0.0973     0.0838    63.2538     2.4925
   82.5000    14.3624    12.5105   -37.2239     8.6540     0.1102     0.0778    63.5618     2.4881
   83.0000    13.4047    12.3427   -37.2177     8.6396     0.1269     0.0734    64.3428     2.4475
   83.5000    11.0425    12.1770   -37.0625     8.5956     0.1375     0.0735    66.5807     2.4115
   84.0000     9.3525    11.9309   -37.0428     8.5517     0.1574     0.0781    67.5142     2.3702
   84.5000     8.2577    11.5288   -38.2447     8.5224     0.1787     0.0796    71.3228     2.3499
   85.0000     7.8691    10.5399   -38.6865     8.4783     0.1935     0.0812    77.1394     2.3394
   85.5000     7.7091     9.2437   -39.5760     8.4641     0.2005     0.0512    93.3883     2.3176
   86.0000     7.7661     8.6881   -40.3164     8.4351     0.1887     0.0438   101.1423     2.3162
   86.5000     7.8228     8.2799   -39.4149     8.4207     0.1621     0.0423    99.6565     2.3406
   87.0000     7.8800     8.2827   -37.6179     8.4214     0.1546     0.0439    93.6996     2.3742
   87.5000     7.9928     8.6971   -36.7164     8.4220     0.1560     0.0455    80.0298     2.3869
   88.0000     8.1637     9.3905   -36.2627     8.4524     0.1600     0.0486    75.9734     2.3795
   88.5000     8.9992    10.2825   -35.9542     8.4828     0.1579     0.0486    75.0837     2.3750
   89.0000    11.2393    11.3397   -35.6478     8.5132     0.1491     0.0487    75.3861     2.3855
   89.5000    14.3321    12.5853   -35.1920     8.5584     0.1470     0.0473    76.4338     2.3916
   90.0000    15.2605    12.9287   -34.7463     8.6037     0.1464     0.0429    77.4814     2.3938
   90.5000    15.3720    13.2047   -34.1313     8.6341     0.1443     0.0354    78.6781     2.4021
   91.0000    15.2708    13.4022   -33.0647     8.6793     0.1433     0.0325    78.5315     2.4029
   91.5000    15.2762    13.6794   -32.7881     8.7098     0.1466     0.0372    77.1903     2.4007
   92.0000    15.3879    13.8866   -32.2985     8.7550     0.1523     0.0509    75.1565     2.3970
   92.5000    15.8262    14.0864   -31.1144     8.7705     0.1584     0.0615    73.1817     2.3827
   93.0000    16.3903    14.3884   -30.9572     8.7711     0.1596     0.0734    73.8053     2.3745
   93.5000    16.8571    14.6969   -30.4776     8.7717     0.1595     0.0825    74.3830     2.3700
   94.0000    17.3373    15.0121   -29.8965     8.7724     0.1595     0.0901    74.5363     2.3715
   94.5000    17.4640    15.2281   -29.6179     8.7879     0.1598     0.0962    73.9457     2.3716
   95.0000    17.4782    15.4269   -29.3122     8.8034     0.1607     0.1008    71.7146     2.3716
   95.5000    17.7318    15.5394   -29.0078     8.8189     0.1625     0.1084    70.0797     2.3709
   96.0000    17.9740    15.5448   -28.7033     8.8344     0.1646     0.1175    69.4869     2.3694
   96.5000    18.2500    15.5502   -28.6974     8.8350     0.1658     0.1311    72.3241     2.3687
   97.0000    18.4924    15.4469   -28.6914     8.8357     0.1630     0.1417    74.2659     2.3710
   97.5000    18.8891    15.3455   -28.8347     8.8363     0.1606     0.1508    75.4626     2.3778
   98.0000    19.1595    15.3522   -29.1273     8.8369     0.1591     0.1629    75.4670     2.3800
   98.5000    19.5691    15.4642   -29.2721     8.8375     0.1603     0.1705    74.2792     2.3793
   99.0000    19.7120    15.5770   -29.2646     8.8381     0.1588     0.1720    72.4952     2.3794
   99.5000    20.1334    15.7997   -29.2587     8.8387     0.1548     0.1751    69.3700     2.3824
  100.0000    20.5638    16.2491   -29.2527     8.8393     0.1536     0.1782    67.8830     2.3892
  100.5000    21.0034    16.7113   -29.3975     8.8400     0.1533     0.1828    71.1672     2.3892
  101.0000    21.3041    17.1866   -29.2408     8.8406     0.1521     0.1813    74.5994     2.3893
  101.5000    21.6091    17.1925   -28.9364     8.8255     0.1505     0.1799    75.9451     2.3908
  102.0000    21.9185    17.3180   -28.4827     8.8222     0.1483     0.1770    81.7618     2.3939
  102.5000    22.2323    17.4443   -28.0290     8.8189     0.1443     0.1726    83.4055     2.4001
  103.0000    22.3947    17.4503   -27.5752     8.8156     0.1391     0.1696    83.5758     2.4059
  103.5000    22.4024    17.5777   -27.2708     8.8123     0.1366     0.1682    81.9241     2.4067
  104.0000    22.2553    17.5837   -26.9663     8.8090     0.1345     0.1623    78.2027     2.4165
  104.5000    22.4179    17.7120   -26.9604     8.8057     0.1318     0.1563    75.2265     2.4233
  105.0000    23.0564    17.8413   -26.6559     8.8024     0.1309     0.1554    72.8316     2.4233
  105.5000    23.7132    18.0963   -26.2022     8.8014     0.1300     0.1561    70.4996     2.4248
  106.0000    24.0527    18.3551   -25.5992     8.8021     0.1281     0.1607    70.8050     2.4309
  106.5000    24.2284    18.8771   -25.1455     8.8027     0.1317     0.1698    71.1105     2.4362
  107.0000    24.2203    19.1470   -25.1396     8.8033     0.1329     0.1788    71.7140     2.4219
  107.5000    24.1912    19.2867   -25.4336     8.8039     0.1299     0.1864    72.4665     2.4204
  108.0000    24.1622    19.5624   -26.0232     8.8046     0.1272     0.1895    70.8345     2.4302
  108.5000    24.1331    19.8190   -26.4659     8.8052     0.1220     0.1790    71.5976     2.4506
  109.0000    24.1041    20.1009   -26.6092     8.7878     0.1133     0.1760    71.5609     2.4754
  109.5000    24.4160    20.8148   -26.7526     8.7436     0.0847     0.1776    70.3865     2.5085
  110.0000    25.6376    21.5540   -26.8960     8.7143     0.0843     0.1761    68.9285     2.5250
  110.5000    27.1077    22.3194   -27.1872     8.7296     0.0837     0.1716    66.4023     2.5243
  111.0000    29.0624    23.2726   -27.3306     8.7301     0.0825     0.1476    61.3426     2.5146
  111.5000    31.8132    24.0991   -27.1754     8.7305     0.0756     0.1025    54.3455     2.5033
  112.0000    33.4049    24.7828   -27.1696     8.7012     0.0695     0.0981    52.2646     2.5222
  112.5000    33.1831    25.1352   -27.4622     8.6422     0.0740     0.1162    52.8699     2.5297
