~VERSION INFORMATION
 VERS.                2.0:   CWLS LOG ASCII STANDARD - VERSION 2.0
 WRAP.                 NO:   ONE LINE PER DEPTH STEP
~WELL INFORMATION
#MNEM.UNIT      DATA TYPE    INFORMATION
#----------   ------------   ------------------------------
 STRT.F           30.0000:   START DEPTH
 STOP.F          506.0000:   STOP DEPTH
 STEP.F            0.5000:   STEP LENGTH
 NULL.          -999.2500:   NO VALUE
 COMP. FENIX & SCISSON INC:   COMPANY
 WELL.    42 SX-3F1 #55-3:   WELL
 FLD .             TEAPOT:   FIELD
 LOC .       S3 T38N R78W:   LOCATION
 CNTY.            NATRONA:   COUNTY
 STAT.            WYOMING:   STATE
 CTRY. UNITED STATES OF AMERICA:   COUNTRY
 SRVC.              Welex:   SERVICE COMPANY
 DATE.        26-MAY-1980:   LOGDATE
 API .       490251082900:   API NUMBER
~CURVE INFORMATION
#MNEM.UNIT       API CODE    CURVE DESCRIPTION
#----------   ------------   ------------------------------
 DEPT.F                  :   
 GRD .GAPI   45 310 01 00:   GAMMA RAY FROM DENSITY LOG
 CALD.IN     45 280 60 00:   CALIPER
 RHOB.G/C3   45 350 01 00:   BULK DENSITY
 CORR.G/C3   45 356 01 00:   DENSITY CORRECTION
 DPHI.DEC    45 890 12 00:   DENSITY POROSITY SANDSTONE
 NPHI.DEC    42 890 03 00:   NEUTRON POROSITY SANDSTONE
 GURD.OHMM   07 220 05 00:   GUARD RESISTIVITY
 ILD .OHMM   07 120 46 00:   INDUCTION LOG DEEP
 ILM .OHMM   07 120 44 00:   INDUCTION LOG MEDIUM
 SPR .MV     07 010 01 00:   SPONTANEOUS POTENTIAL
~PARAMETER INFORMATION
#MNEM.UNIT          VALUE    DESCRIPTION
#----------   ------------   ------------------------------
 PD  .                 GL:   PERMANENT DATUM
 EPD .F              5161:   ELEVATION PERMANENT DATUM
 LMF .                 KB:   LOG MEASURED FROM
 DAPD.F                 4:   FEET ABOVE PERMANENT DATUM
 DMF .                 KB:   DRILLING MEASURED FROM
 EKB .F              5165:   KELLING BUSHING
 EGL .F              5161:   GROUND LEVEL
 DATE.            5-26-80:   RUN DATE
 RUN .                  1:   RUN NUMBER
 DD  .F               500:   DEPTH DRILLER
 DL  .F               502:   DEPTH LOGGER
 BLI .F               500:   BOTTOM LOG INTERVAL
 TLI .F                34:   TOP LOG INTERVAL
 BS  .IN            9.875:   BIT SIZE
 BSD .F               500:   BIT SIZE AT DEPTH
 DFT .          KCL WATER:   DRILLING FLUID TYPE
 DFD .                9.5:   DRILLING FLUID DENSITY
 DFV .                 45:   DRILLING FLUID VISCOSITY
 MSS .            MUD PIT:   MUD SAMPLE SOURCE
 RMS .OHMM            .39:   RESISTIVITY MUD SAMPLE
 MST .F                75:   MUD SAMPLE TEMPERATURE
 RMF .OHMM           .312:   RESISTIVITY MUD FILTRATE SAMPLE
 MFST.F                75:   MUD FILTRATE SAMPLE TEMPERATURE
 RMC .OHMM           .468:   RESISTIVITY MUD CAKE
 MCST.F                75:   MUD CAKE SAMPLE TEMPERATURE
 MFSS.           MEASURED:   MUD FILTRATE SAMPLE SOURCE
 MCSS.           MEASURED:   MUD CAKE SAMPLE SOURCE
 RMB .OHMM            .39:   RESISTIVITY MUD AT BHT
 BHT .F                75:   BOTTOM HOLE TEMPERATURE
 TCS .HRS               2:   TIME CURCULATED STOPPED
 MRT .F                75:   MAXIMUM RECORDED TEMPERATURE
 LUN .               9685:   LOGGING UNIT NUMBER
 LUL .             CASPER:   LOGGING UNIT LOCATION
 ENGI.            TOTHILL:   RECORDING ENGINEER
 WITN.            RHOADES:   WITNESSED BY
 CLNT.            A2DTECH:   CLIENT CODE
 ORIG.           5" PRINT:   ORIGIN OF DATA
 UWI .       490251082900:   UNIQUE WELL ID
 DICO. A2D Technologies, Inc.:   DIGITIZING COMPANY
~OTHER INFORMATION
~A   DEPT      GRD       CALD       RHOB       CORR         DPHI       NPHI      GURD        ILD        ILM       SPR   
# ...
  365.0000    88.3452     9.8167     2.4640     0.0387     0.1310     0.2314    13.5382    12.0299    11.5872   -27.8058
  365.5000    87.7539     9.8130     2.4572     0.0457     0.1300     0.2312    13.4816    11.8323    11.3728   -27.8054
  366.0000    86.9606     9.7795     2.4683     0.0599     0.1446     0.2305    13.4191    11.6940    11.2726   -27.8080
  366.5000    86.1638     9.7456     2.4458     0.0575     0.1564     0.2288    13.5200    11.7939    11.5074   -27.6416
  367.0000    85.3663     9.7118     2.4218     0.0433     0.1599     0.2289    13.6339    11.8719    11.6409   -27.3866
  367.5000    84.5703     9.6779     2.4130     0.0402     0.1490     0.2292    13.9171    11.9867    11.7488   -27.1292
  368.0000    83.3795     9.6440     2.4311     0.0585     0.1567     0.2297    14.3091    12.1385    11.8577   -26.8717
  368.5000    81.7941     9.6101     2.4214     0.0593     0.1645     0.2322    14.4442    12.4109    11.9105   -26.6143
  369.0000    80.2097     9.5823     2.4103     0.0653     0.1728     0.2307    14.5740    12.9510    11.9105   -26.3570
  369.5000    78.6230     9.6038     2.3939     0.0605     0.1825     0.2253    15.3758    13.5145    12.1345   -26.0996
  370.0000    77.0322     9.6294     2.3803     0.0711     0.1862     0.2205    16.8869    14.4037    12.4671   -25.8423
  370.5000    75.4599     9.6637     2.3695     0.0766     0.1899     0.2203    19.9040    15.4683    13.2829   -25.5840
  371.0000    75.3773     9.6978     2.3639     0.0846     0.1930     0.2229    23.4603    16.7020    14.2067   -25.3648
  371.5000    75.5014     9.7319     2.3583     0.0872     0.1878     0.2256    27.2053    18.1010    15.1953   -25.1877
  372.0000    75.6103     9.7663     2.3573     0.0842     0.1873     0.2266    28.9082    19.6302    16.2522   -25.0109
  372.5000    75.7717     9.8066     2.3740     0.0904     0.2148     0.2247    30.7207    21.1338    17.3826   -24.8339
  373.0000    75.9368     9.8213     2.3467     0.0606     0.2157     0.2291    32.6550    22.4996    18.5915   -24.6568
  373.5000    76.1011     9.8266     2.3189     0.0478     0.2153     0.2331    33.9123    23.9536    20.0919   -24.4797
  374.0000    76.4298     9.8316     2.3291     0.0554     0.2035     0.2358    33.6653    25.0126    18.2733   -24.3027
  374.5000    76.9238     9.8368     2.3183     0.0499     0.1931     0.2371    33.4274    25.7461    16.5713   -24.1226
  375.0000    77.4197     9.8420     2.3476     0.0619     0.1930     0.2428    32.6268    25.7382    16.2700   -24.1076
  375.5000    77.9054     9.8472     2.3597     0.0724     0.1970     0.2466    30.9532    25.7385    16.6174   -24.1554
  376.0000    77.6480     9.8524     2.3489     0.0720     0.2022     0.2496    30.6400    25.7424    16.8782   -24.2050
  376.5000    77.2988     9.8561     2.3515     0.0779     0.2026     0.2526    33.0280    25.2218    16.3381   -24.2565
  377.0000    76.9493     9.8560     2.3412     0.0659     0.1978     0.2553    35.1601    24.8601    16.1215   -24.2685
  377.5000    76.6010     9.8561     2.3515     0.0635     0.1981     0.2522    32.8939    24.5513    16.7424   -24.2689
  378.0000    76.2517     9.8562     2.3493     0.0601     0.1930     0.2489    30.3421    24.4039    17.3491   -24.2712
  378.5000    75.9027     9.8521     2.3552     0.0560     0.1897     0.2429    27.9883    24.2575    18.4680   -24.1386
  379.0000    75.6310     9.8155     2.3571     0.0603     0.1909     0.2415    27.1954    24.1125    19.6167   -23.9586
  379.5000    75.9855     9.7394     2.3617     0.0627     0.1875     0.2425    28.6784    23.9660    20.2771   -23.9657
  380.0000    76.3489     9.6241     2.3570     0.0558     0.1897     0.2407    29.9263    23.7459    17.5566   -24.1281
  380.5000    76.7102     9.5088     2.3634     0.0513     0.1865     0.2400    30.3602    23.4865    15.3445   -24.2652
  381.0000    77.0710     9.3946     2.3674     0.0486     0.1919     0.2408    28.3780    23.2298    14.5581   -24.2100
  381.5000    77.4318     9.4452     2.3617     0.0388     0.1933     0.2388    28.2119    22.9760    14.9030   -24.1574
  382.0000    77.7924     9.5716     2.3548     0.0276     0.1850     0.2343    28.2119    22.6770    15.6006   -24.1052
  382.5000    78.1499     9.6981     2.3630     0.0337     0.1782     0.2353    28.2119    22.3309    15.9742   -24.0267
  383.0000    78.5446     9.8232     2.3788     0.0457     0.1765     0.2349    26.9966    21.9900    15.3138   -23.8973
  383.5000    78.5782     9.8345     2.3867     0.0582     0.1796     0.2324    25.6943    21.6219    14.8386   -23.7685
  384.0000    78.2183     9.8313     2.3793     0.0516     0.1750     0.2342    24.5851    21.2927    15.0822   -23.6397
  384.5000    77.8484     9.8280     2.3846     0.0540     0.1648     0.2365    24.4916    20.9338    15.3952   -23.5073
  385.0000    77.4778     9.8249     2.4001     0.0679     0.1542     0.2386    24.3606    20.5809    15.0511   -23.5464
  385.5000    77.1080     9.8218     2.4234     0.0727     0.1622     0.2368    24.7307    20.2771    14.8439   -23.6551
  386.0000    76.7379     9.8187     2.4093     0.0802     0.1562     0.2306    25.5040    20.2771    14.8439   -23.7649
  386.5000    76.3677     9.8156     2.4203     0.0552     0.1440     0.2237    25.2120    20.2769    14.8439   -23.8747
  387.0000    75.9880     9.8126     2.4379     0.0791     0.1330     0.2143    24.6748    20.2771    14.9323   -23.9844
  387.5000    76.1686     9.8095     2.4535     0.0784     0.1284     0.2056    24.1492    20.2771    15.0526   -24.0940
  388.0000    76.5634     9.8064     2.4676     0.0818     0.1380     0.1987    23.9177    20.2771    15.1739   -24.2025
  388.5000    76.9622     9.8033     2.4563     0.0684     0.1492     0.2049    25.2711    20.2771    15.2958   -24.2446
  389.0000    77.3612     9.8001     2.4399     0.0552     0.1594     0.2208    29.0145    20.2771    15.4109   -24.1812
  389.5000    77.7592     9.7973     2.4146     0.0503     0.1664     0.2295    32.6721    20.2771    15.4743   -24.1203
  390.0000    78.3919     9.8285     2.4013     0.0694     0.1730     0.2379    28.1258    20.2773    15.5406   -24.0938
  390.5000    79.2594     9.8639     2.3924     0.0663     0.1603     0.2446    24.5746    20.2774    14.8439   -24.2160
  391.0000    80.1262     9.8922     2.4128     0.0793     0.1525     0.2472    23.3460    20.2771    15.3631   -24.3348
  391.5000    80.9939     9.8632     2.4262     0.0942     0.1509     0.2464    22.6511    20.1412    15.8284   -24.4538
  392.0000    81.8614     9.8333     2.4296     0.0921     0.1618     0.2488    23.7603    19.8017    15.5674   -24.5713
  392.5000    82.7381     9.8036     2.4101     0.0756     0.1696     0.2505    24.1414    19.4679    15.1421   -24.6342
  393.0000    83.0774     9.7774     2.3953     0.0637     0.1699     0.2516    23.5426    19.1397    14.7287   -24.4874
  393.5000    83.2112     9.7863     2.3966     0.0642     0.1628     0.2538    23.1285    18.9153    14.5724   -24.3462
  394.0000    83.3410     9.7957     2.4090     0.0502     0.1698     0.2541    22.4278    18.7534    14.8367   -24.2547
  394.5000    83.4711     9.7255     2.3973     0.0454     0.1587     0.2617    21.6877    18.5932    14.9807   -24.2252
  395.0000    83.6013     9.5799     2.4214     0.0601     0.1535     0.2720    21.4012    18.4343    14.5562   -24.1952
  395.5000    83.7299     9.4426     2.4263     0.0588     0.1686     0.2771    21.3647    18.2768    14.4818   -24.1654
  396.0000    83.8650     9.4235     2.3912     0.0427     0.1687     0.2793    21.3282    18.1205    14.4077   -24.1355
  396.5000    84.4399     9.4043     2.4104     0.0567     0.1603     0.2756    21.2918    17.9656    14.3340   -24.1049
  397.0000    85.0693     9.3846     2.4142     0.0680     0.1513     0.2751    21.2554    17.8121    14.1358   -24.0715
  397.5000    85.6988     9.3649     2.4281     0.0783     0.1426     0.2767    21.0489    17.6684    13.8781   -24.2156
  398.0000    86.3276     9.3451     2.4432     0.0886     0.1485     0.2767    20.3916    17.3518    13.6206   -24.3800
