~VERSION INFORMATION
 VERS.                2.0:   CWLS LOG ASCII STANDARD - VERSION 2.0
 WRAP.                 NO:   ONE LINE PER DEPTH STEP
~WELL INFORMATION
#MNEM.UNIT      DATA TYPE    INFORMATION
#----------   ------------   ------------------------------
 STRT.F           26.0000:   START DEPTH
 STOP.F          476.0000:   STOP DEPTH
 STEP.F            0.5000:   STEP LENGTH
 NULL.          -999.2500:   NO VALUE
 COMP. FENIX & SCISSON INC:   COMPANY
 WELL.         SX-3 #66-3:   WELL
 FLD .             TEAPOT:   FIELD
 LOC .       S3 T38N R78W:   LOCATION
 CNTY.            NATRONA:   COUNTY
 STAT.            WYOMING:   STATE
 CTRY. UNITED STATES OF AMERICA:   COUNTRY
 SRVC.              Welex:   SERVICE COMPANY
 DATE.        02-APR-1977:   LOGDATE
 API .       490251032800:   API NUMBER
~CURVE INFORMATION
#MNEM.UNIT       API CODE    CURVE DESCRIPTION
#----------   ------------   ------------------------------
 DEPT.F                  :   
 CALD.IN     45 280 60 00:   CALIPER FROM DENSITY LOG
 GRD .GAPI   45 310 01 00:   GAMMA RAY FROM DENSITY LOG
 CORR.G/C3   45 356 01 00:   DENSITY CORRECTION
 DPHI.DEC    45 890 12 00:   DENSITY POROSITY SANDSTONE
 RHOB.G/C3   45 350 01 00:   BULK DENSITY
~PARAMETER INFORMATION
#MNEM.UNIT          VALUE    DESCRIPTION
#----------   ------------   ------------------------------
 PD  .                 GL:   PERMANENT DATUM
 LMF .                 GL:   LOG MEASURED FROM
 DMF .                 GL:   DRILLING MEASURED FROM
 EGL .F              5152:   GROUND LEVEL
 DATE.        02-APR-1977:   RUN DATE
 RUN .                  1:   RUN NUMBER
 DD  .F               485:   DEPTH DRILLER
 DL  .F               480:   DEPTH LOGGER
 BLI .F               478:   BOTTOM LOG INTERVAL
 TLI .F                34:   TOP LOG INTERVAL
 CS  .IN            8.625:   CASING SIZE
 BS  .IN            7.875:   BIT SIZE
 BSD .F               485:   BIT SIZE AT DEPTH
 DFT .                KCL:   DRILLING FLUID TYPE
 DFD .                8.9:   DRILLING FLUID DENSITY
 BHT .F                61:   BOTTOM HOLE TEMPERATURE
 TCS .HRS            0300:   TIME CURCULATED STOPPED
 MRT .F                61:   MAXIMUM RECORDED TEMPERATURE
 ENGI.            C. DOAK:   RECORDING ENGINEER
 WITN.   R. B. HARRINGTON:   WITNESSED BY
 CLNT.            A2DTECH:   CLIENT CODE
 ORIG.           5" PRINT:   ORIGIN OF DATA
 UWI .       490251032800:   UNIQUE WELL ID
 DICO. A2D Technologies, Inc.:   DIGITIZING COMPANY
~OTHER INFORMATION
~A   DEPT       CALD      GRD       CORR       DPHI       RHOB   
# ...
   87.0000     7.9535   111.0197     0.0014     0.1230     2.4449
   87.5000     7.9550   110.1414     0.0000     0.1203     2.4494
   88.0000     7.9563   112.5321     0.0001     0.1284     2.4300
   88.5000     7.9576   114.4770    -0.0012     0.1299     2.4240
   89.0000     7.9589   112.8449    -0.0011     0.1307     2.4255
   89.5000     7.9603   110.0406    -0.0025     0.1268     2.4331
   90.0000     7.9616   109.7620    -0.0039     0.1307     2.4211
   90.5000     7.9629   109.6267    -0.0038     0.1340     2.4099
   91.0000     7.9643   109.4730    -0.0021     0.1354     2.4092
   91.5000     7.9654   107.5360     0.0010     0.1321     2.4213
   92.0000     7.9668   105.7761     0.0041     0.1250     2.4461
   92.5000     7.9682   105.3708     0.0087     0.1166     2.4604
   93.0000     7.9696   107.0218     0.0133     0.1085     2.4684
   93.5000     7.9709   108.5210     0.0164     0.1007     2.4706
   94.0000     7.9723   108.9767     0.0180     0.1067     2.4691
   94.5000     7.9584   106.9131     0.0166     0.1114     2.4646
   95.0000     7.9600   107.2235     0.0138     0.1159     2.4602
   95.5000     7.9614   108.1250     0.0079     0.1191     2.4512
   96.0000     7.9627   106.3585     0.0050     0.1218     2.4378
   96.5000     7.9640   106.2199     0.0020     0.1257     2.4251
   97.0000     7.9653   106.5336    -0.0007     0.1283     2.4162
   97.5000     7.9667   106.9927    -0.0004     0.1328     2.4080
   98.0000     7.9680   106.5569     0.0010     0.1397     2.4005
   98.5000     7.9693   105.3848     0.0027     0.1375     2.4080
   99.0000     7.9706   103.6150     0.0073     0.1354     2.4118
   99.5000     7.9720   104.8170     0.0119     0.1360     2.4088
  100.0000     7.9733   102.8964     0.0099     0.1390     2.3983
  100.5000     7.9544   101.8710     0.0027     0.1426     2.3857
  101.0000     7.9356   102.1799    -0.0028     0.1437     2.3985
  101.5000     7.9167   103.6775    -0.0026     0.1386     2.4127
  102.0000     7.8979   104.2807    -0.0025     0.1330     2.4263
  102.5000     7.8770   101.3236     0.0007     0.1260     2.4465
  103.0000     7.8785   102.5240     0.0053     0.1161     2.4563
  103.5000     7.8799   100.7526     0.0115     0.1080     2.4638
  104.0000     7.8814    98.8327     0.0192     0.1059     2.4668
  104.5000     7.8829    95.8727     0.0222     0.1113     2.4639
  105.0000     7.8843    93.2098     0.0163     0.1115     2.4587
  105.5000     7.8709    92.1813     0.0105     0.1115     2.4566
  106.0000     7.8576    92.4923     0.0196     0.1106     2.4648
  106.5000     7.8146    93.0966     0.0242     0.1106     2.4709
  107.0000     7.7418    94.5399     0.0154     0.1123     2.4605
  107.5000     7.6835    97.9717     0.0020     0.1198     2.4336
  108.0000     7.6558   102.4955    -0.0009     0.1287     2.4204
  108.5000     7.7036   104.8847    -0.0022     0.1371     2.4091
  109.0000     7.7974   104.4506    -0.0036     0.1410     2.4032
  109.5000     7.8831   102.6793    -0.0034     0.1453     2.3994
  110.0000     7.8994   101.5023    -0.0033     0.1492     2.3958
  110.5000     7.9157   100.3253    -0.0032     0.1537     2.3921
  111.0000     7.9320    99.2969    -0.0015     0.1500     2.3930
  111.5000     7.9335    98.7143     0.0001     0.1431     2.4042
  112.0000     7.9349   100.3605     0.0032     0.1368     2.4170
  112.5000     7.9364   103.6412     0.0064     0.1308     2.4275
  113.0000     7.9379   104.2472     0.0111     0.1269     2.4358
  113.5000     7.9393   102.9212     0.0141     0.1239     2.4381
  114.0000     7.9256   104.1221     0.0187     0.1323     2.4225
  114.5000     7.9274   104.4310     0.0189     0.1391     2.4083
  115.0000     7.9289   103.5364     0.0175     0.1430     2.4002
  115.5000     7.9303   101.1322     0.0117     0.1435     2.4077
  116.0000     7.9318   101.4552     0.0088     0.1348     2.4219
  116.5000     7.9481   103.4407     0.0120     0.1281     2.4355
  117.0000     7.9496   104.0438     0.0166     0.1244     2.4452
  117.5000     7.9511   102.8668     0.0197     0.1207     2.4520
  118.0000     7.9525   103.1787     0.0243     0.1201     2.4536
  118.5000     7.9540   103.6361     0.0245     0.1219     2.4483
  119.0000     7.9555   104.2422     0.0261     0.1230     2.4446
  119.5000     7.9570   104.6997     0.0262     0.1236     2.4403
  120.0000     7.9439   104.2657     0.0248     0.1257     2.4344
  120.5000     7.9454   102.1942     0.0250     0.1289     2.4240
  121.0000     7.9468   102.0603     0.0236     0.1313     2.4188
  121.5000     7.9483   100.5861     0.0238     0.1328     2.4181
  122.0000     7.9498   101.1922     0.0239     0.1330     2.4189
  122.5000     7.9512   104.0271     0.0225     0.1330     2.4190
  123.0000     7.9675   106.4162     0.0212     0.1327     2.4198
  123.5000     7.9690   109.6969     0.0195     0.1317     2.4214
  124.0000     7.9705   105.9624     0.0169     0.1311     2.4229
  124.5000     7.9719   104.5037     0.0156     0.1302     2.4252
  125.0000     7.9734   104.3829     0.0142     0.1295     2.4275
  125.5000     7.9749   105.4376     0.0128     0.1277     2.4291
  126.0000     7.9763   106.4895     0.0145     0.1256     2.4336
  126.5000     7.9779   108.1357     0.0161     0.1232     2.4426
  127.0000     7.9793   110.2276     0.0163     0.1217     2.4411
  127.5000     7.9658   110.9823     0.0179     0.1250     2.4357
  128.0000     7.9525   110.2511     0.0165     0.1279     2.4298
  128.5000     7.9540   108.1826     0.0152     0.1291     2.4272
  129.0000     7.9406   107.8942     0.0123     0.1276     2.4317
  129.5000     7.9421   107.0173     0.0109     0.1287     2.4333
  130.0000     7.9436   104.9488     0.0111     0.1314     2.4236
  130.5000     7.9451   103.0288     0.0112     0.1344     2.4170
  131.0000     7.9469   102.0000     0.0099     0.1370     2.4118
  131.5000     7.9483   101.5661     0.0085     0.1397     2.4059
  132.0000     7.9498   102.0239     0.0071     0.1414     2.4014
  132.5000     7.9361   103.3779     0.0073     0.1338     2.4127
  133.0000     7.9231   104.2982     0.0089     0.1302     2.4262
  133.5000     7.9093   106.9495     0.0105     0.1273     2.4345
  134.0000     7.8960   111.9237     0.0122     0.1315     2.4248
  134.5000     7.8978   114.5669     0.0123     0.1350     2.4144
  135.0000     7.8696   115.3215     0.0124     0.1311     2.4182
  135.5000     7.8562   115.7790     0.0126     0.1287     2.4265
  136.0000     7.8577   112.2246     0.0142     0.1311     2.4257
  136.5000     7.8439   113.7222     0.0128     0.1337     2.4205
  137.0000     7.8458   115.3684     0.0130     0.1355     2.4118
  137.5000     7.8323   115.8230     0.0086     0.1370     2.4051
  138.0000     7.8190   114.9461     0.0057     0.1387     2.3999
  138.5000     7.8205   113.6205     0.0014     0.1390     2.4007
  139.0000     7.8516   111.2548     0.0000     0.1393     2.4053
  139.5000     7.8679   109.1863    -0.0013     0.1382     2.4113
  140.0000     7.8922   110.5353     0.0003     0.1371     2.4173
  140.5000     7.9154   109.3703     0.0034     0.1365     2.4167
  141.0000     7.9169   108.0337     0.0081     0.1341     2.4182
  141.5000     7.9335   108.7884     0.0142     0.1299     2.4325
  142.0000     7.9350   111.3261     0.0188     0.1269     2.4385
  142.5000     7.9365   112.9723     0.0220     0.1247     2.4445
  143.0000     7.9379   110.0123     0.0236     0.1232     2.4431
  143.5000     7.9394   108.8353     0.0207     0.1292     2.4327
  144.0000     7.9409   109.5899     0.0134     0.1360     2.4163
  144.5000     7.9423   110.6483     0.0075     0.1402     2.4037
  145.0000     7.9438   111.0993     0.0077     0.1387     2.4061
  145.5000     7.9453   110.2754     0.0093     0.1354     2.4133
  146.0000     7.9468   107.5595     0.0124     0.1325     2.4232
  146.5000     7.9482   105.7882     0.0155     0.1287     2.4327
  147.0000     7.9497   105.3512     0.0217     0.1245     2.4384
  147.5000     7.9511   108.9320     0.0263     0.1236     2.4332
