~VERSION INFORMATION
 VERS.                2.0:   CWLS LOG ASCII STANDARD - VERSION 2.0
 WRAP.                 NO:   ONE LINE PER DEPTH STEP
~WELL INFORMATION
#MNEM.UNIT      DATA TYPE    INFORMATION
#----------   ------------   ------------------------------
 STRT.F           95.0000:   START DEPTH
 STOP.F          862.0000:   STOP DEPTH
 STEP.F            0.5000:   STEP LENGTH
 NULL.          -999.2500:   NO VALUE
 COMP. U S NAVY INTEX OIL:   COMPANY
 WELL. RES 3 TEAMPT DOME #13-S-35:   WELL
 FLD .        TEAPOT DOME:   FIELD
 LOC .      S35 T39N R78W:   LOCATION
 CNTY.            NATRONA:   COUNTY
 STAT.            WYOMING:   STATE
 CTRY. UNITED STATES OF AMERICA:   COUNTRY
 SRVC.       Schlumberger:   SERVICE COMPANY
 DATE.        27-JUL-1963:   LOGDATE
 API .       490250655000:   API NUMBER
~CURVE INFORMATION
#MNEM.UNIT       API CODE    CURVE DESCRIPTION
#----------   ------------   ------------------------------
 DEPT.F                  :   
 SPR .MV     05 010 01 00:   SPONTANEOUS POTENTIAL FROM RES.
 ILD .OHMM   05 120 46 00:   INDUCTION LOG DEEP
 ASN .OHMM   05 041 18 00:   AMPLIFIED SHORT NORMAL 18"
 CILD.MMHO   05 110 46 00:   CONDUCTIVITY INDUCTION LOG DEEP
 GR  .GAPI   30 310 01 00:   GAMMA RAY
~PARAMETER INFORMATION
#MNEM.UNIT          VALUE    DESCRIPTION
#----------   ------------   ------------------------------
 PD  .                 GL:   PERMANENT DATUM
 EPD .F              5100:   ELEVATION PERMANENT DATUM
 LMF .                 KB:   LOG MEASURED FROM
 DAPD.F               5.0:   FEET ABOVE PERMANENT DATUM
 DMF .                 KB:   DRILLING MEASURED FROM
 EKB .F              5105:   KELLING BUSHING
 EGL .F              5100:   GROUND LEVEL
 DATE.        27-JUL-1963:   RUN DATE
 RUN .                  1:   RUN NUMBER
 DD  .F               862:   DEPTH DRILLER
 DL  .F               863:   DEPTH LOGGER
 BLI .F               862:   BOTTOM LOG INTERVAL
 TLI .F               100:   TOP LOG INTERVAL
 CS  .IN            8.625:   CASING SIZE
 CBD .F                10:   CASING BOTTOM DRILLER
 BS  .IN             6.75:   BIT SIZE
 BSD .F               862:   BIT SIZE AT DEPTH
 DFT . NATURAL- GEL ADDED:   DRILLING FLUID TYPE
 DFD .                9.0:   DRILLING FLUID DENSITY
 DFV .                 38:   DRILLING FLUID VISCOSITY
 DFPH.                8.5:   DRILLING FLUID PH
 DFL .                5.6:   DRILLING FLUID LOSS
 MSS .           FLOWLINE:   MUD SAMPLE SOURCE
 RMS .OHMM            4.6:   RESISTIVITY MUD SAMPLE
 MST .F                83:   MUD SAMPLE TEMPERATURE
 RMF .OHMM            3.8:   RESISTIVITY MUD FILTRATE SAMPLE
 MFST.F                83:   MUD FILTRATE SAMPLE TEMPERATURE
 RMC .OHMM            4.8:   RESISTIVITY MUD CAKE
 MCST.F                83:   MUD CAKE SAMPLE TEMPERATURE
 MFSS.                 FP:   MUD FILTRATE SAMPLE SOURCE
 MCSS.                 FP:   MUD CAKE SAMPLE SOURCE
 TCS .HRS               1:   TIME CURCULATED STOPPED
 LUN .               2523:   LOGGING UNIT NUMBER
 LUL .               CSPR:   LOGGING UNIT LOCATION
 ENGI.            GIFFORD:   RECORDING ENGINEER
 WITN.          JORGENSON:   WITNESSED BY
 CLNT.            A2DTECH:   CLIENT CODE
 ORIG.           5" PRINT:   ORIGIN OF DATA
 UWI .       490250655000:   UNIQUE WELL ID
 DICO. A2D Technologies, Inc.:   DIGITIZING COMPANY
~OTHER INFORMATION
~A   DEPT      SPR        ILD        ASN       CILD         GR   
   95.0000   -39.7602  -999.2500  -999.2500  -999.2500  -999.2500
   95.5000   -39.7631  -999.2500  -999.2500  -999.2500  -999.2500
   96.0000   -39.7659  -999.2500  -999.2500  -999.2500  -999.2500
   96.5000   -39.7688  -999.2500  -999.2500  -999.2500  -999.2500
   97.0000   -39.9219  -999.2500  -999.2500  -999.2500  -999.2500
   97.5000   -39.9255  -999.2500  -999.2500  -999.2500  -999.2500
   98.0000   -39.9284  -999.2500  -999.2500  -999.2500  -999.2500
   98.5000   -39.6310  -999.2500  -999.2500  -999.2500  -999.2500
   99.0000   -39.3328     2.2623  -999.2500    32.2409  -999.2500
   99.5000   -39.1862     3.9171  -999.2500    69.0493  -999.2500
  100.0000   -39.1892     7.2289     8.5608   133.6354  -999.2500
  100.5000   -39.5160     7.6040     8.4248   139.6630  -999.2500
  101.0000   -40.0966     7.3010     8.3490   140.4354  -999.2500
  101.5000   -40.2496     7.4501     8.2132   140.4623  -999.2500
  102.0000   -40.4027     7.5997     8.0920   141.9854  -999.2500
  102.5000   -40.4056     7.3719     8.2781   142.0069  -999.2500
  103.0000   -40.1082     7.1400     8.0754   140.5216  -999.2500
  103.5000   -40.2613     6.8416     7.7147   142.0501  -999.2500
  104.0000   -40.7153     6.6895     7.7289   146.6367  -999.2500
  104.5000   -41.0184     6.4622     7.8329   151.1076  -999.2500
  105.0000   -41.0213     6.4608     7.8920   154.8829  -999.2500
  105.5000   -40.7239     6.3840     7.7035   157.1568  -999.2500
  106.0000   -40.5766     6.3826     7.4253   159.4306  -999.2500
  106.5000   -40.5796     6.3808     7.3345   160.2029  -999.2500
  107.0000   -40.1320     6.4550     7.2887   160.3305  -999.2500
  107.5000   -39.5350     6.3026     7.2878   161.7529  -999.2500
  108.0000   -39.3870     6.2258     7.3169   161.7745  -999.2500
  108.5000   -39.3906     6.2244     7.3311   162.5468  -999.2500
  109.0000   -39.5437     6.2983     7.1801   162.5684  -999.2500
  109.5000   -39.8469     6.3721     6.9843   163.3408  -999.2500
  110.0000   -40.0000     6.3703     7.0584   163.3677  -999.2500
  110.5000   -40.0035     6.3689     7.2374   164.1400  -999.2500
  111.0000   -39.8555     6.3674     7.3426   165.6631  -999.2500
  111.5000   -39.4087     6.2907     7.0627   167.9369  -999.2500
  112.0000   -38.9611     5.9124     6.7998   170.9615  -999.2500
  112.5000   -38.8138     5.6097     6.6940   175.6134  -999.2500
  113.0000   -38.6666     5.4577     6.4983   183.7728  -999.2500
  113.5000   -38.6702     5.3809     6.3175   186.7973  -999.2500
  114.0000   -38.6731     5.3795     6.1817   187.5697  -999.2500
  114.5000   -38.6760     5.3781     6.3488   187.5912  -999.2500
  115.0000   -38.6789     5.4519     6.4348   187.6128  -999.2500
  115.5000   -38.6818     5.5258     6.3288   186.8836  -999.2500
  116.0000   -38.8348     5.5240     6.3132   186.1544  -999.2500
  116.5000   -38.9886     5.5225     6.4920   185.4252  -999.2500
  117.0000   -39.1416     5.5964     6.5961   183.9507  -999.2500
  117.5000   -39.2947     5.5946     6.5929   181.7192  -999.2500
  118.0000   -39.4477     5.6688     6.4442   177.2172  -999.2500
  118.5000   -39.4506     5.7427     6.3684   174.2610  -999.2500
  119.0000   -39.3033     5.7409     6.3525   172.7757  -999.2500
  119.5000   -39.0059     5.8147     6.3966   172.8027  -999.2500
  120.0000   -39.1597     5.8886     6.5007   172.8243  -999.2500
  120.5000   -39.4629     5.9624     6.6052   173.5966  -999.2500
  121.0000   -39.6159     6.0363     6.6639   175.1854  -999.2500
  121.5000   -39.7690     6.1102     6.6029   181.9034  -999.2500
  122.0000   -39.7719     6.0331     6.4221   187.9309  -999.2500
  122.5000   -39.6172     5.8810     6.2263   191.7063  -999.2500
  123.0000   -38.8774     5.7289     6.1205   193.9801  -999.2500
  123.5000   -38.4292     5.5013     6.0295   194.0017  -999.2500
  124.0000   -38.2819     5.3492     5.9387   194.7748  -999.2500
  124.5000   -38.2855     5.2725     6.0577   194.0448  -999.2500
  125.0000   -38.2884     5.1957     5.9669   191.8195  -999.2500
  125.5000   -38.2913     5.0429     5.7711   191.0849  -999.2500
  126.0000   -38.5946     5.1172     6.1151   190.3604  -999.2500
  126.5000   -39.0486     5.7181     6.5640   188.1081  -999.2500
  127.0000   -39.3517     5.8673     6.6231   183.6529  -999.2500
  127.5000   -39.5048     6.0165     6.4571   182.1676  -999.2500
  128.0000   -39.5077     5.7138     6.3663   182.9453  -999.2500
  128.5000   -39.5106     5.4865     6.3055   184.4684  -999.2500
  129.0000   -39.0501     5.4847     6.2896   186.7422  -999.2500
  129.5000   -38.3159     5.4832     6.2588   188.2658  -999.2500
  130.0000   -37.8676     5.4065     6.2579   186.0400  -999.2500
  130.5000   -37.7203     5.4050     6.2570   183.0586  -999.2500
  131.0000   -37.7239     5.4036     6.2880   181.5786  -999.2500
  131.5000   -37.8770     5.4021     6.3750   179.3479  -999.2500
  132.0000   -38.0300     5.4004     6.4793   177.1172  -999.2500
  132.5000   -38.1838     5.4746     6.2233   178.1163  -999.2500
  133.0000   -38.4870     5.4728     6.1327   180.9195  -999.2500
  133.5000   -38.7902     5.3960     6.4465   180.9411  -999.2500
  134.0000   -38.9432     5.3946     6.6705   179.4612  -999.2500
  134.5000   -39.0962     5.4684     6.4445   174.9782  -999.2500
  135.0000   -39.2493     5.5419     6.3989   171.2461  -999.2500
  135.5000   -39.2523     6.2182     6.6227   170.5169  -999.2500
  136.0000   -39.2558     6.2924     6.8767   170.5438  -999.2500
  136.5000   -39.1078     6.1400     6.7859   172.0669  -999.2500
  137.0000   -39.1114     5.9880     6.6951   174.3407  -999.2500
  137.5000   -38.9634     5.8356     6.3941   177.3653  -999.2500
  138.0000   -38.8169     5.6835     6.0185   182.7831  -999.2500
  138.5000   -38.3599     5.4562     6.1525   189.4259  -999.2500
  139.0000   -37.7723     5.1535     6.3466   194.7027  -999.2500
  139.5000   -37.3248     5.0015     6.0908   197.7273  -999.2500
  140.0000   -37.0266     4.8494     5.9550   200.7518  -999.2500
  140.5000   -36.7300     4.7723     6.1039   203.0257  -999.2500
  141.0000   -36.7328     4.7709     6.1332   202.1820  -999.2500
  141.5000   -36.7357     4.8448     5.9972   198.5697  -999.2500
  142.0000   -36.9130     4.8433     5.9366   194.8375  -999.2500
  142.5000   -37.3428     4.9927     6.2503   191.8561  -999.2500
  143.0000   -37.7962     5.0663     6.3694   188.8746  -999.2500
  143.5000   -38.0994     5.2151     6.2034   185.1150  -999.2500
  144.0000   -38.4026     5.3647     6.0826   181.4156  -999.2500
  144.5000   -38.2553     5.4385     6.2017   179.1850  -999.2500
  145.0000   -37.6427     5.5120     6.3358   177.6996  -999.2500
  145.5000   -37.2100     5.5106     6.4998   176.9705  -999.2500
  146.0000   -37.2136     5.5088     6.4686   176.2463  -999.2500
  146.5000   -37.6670     5.5073     6.3929   176.3415  -999.2500
  147.0000   -37.8200     5.5812     6.4670   177.0421  -999.2500
  147.5000   -37.9731     5.6550     6.5711   177.0675  -999.2500
  148.0000   -37.9759     5.6536     6.6754   177.0891  -999.2500
  148.5000   -37.9796     5.6521     6.5844   177.1107  -999.2500
  149.0000   -37.9824     5.4998     6.5234   178.6337  -999.2500
  149.5000   -37.9853     5.2724     6.4475   180.9084  -999.2500
  150.0000   -38.2885     5.4966     6.4243   183.4343  -999.2500
  150.5000   -37.8410     5.4192     6.3112   186.2197  -999.2500
  151.0000   -37.3914     5.3417     6.1157   186.9991  -999.2500
  151.5000   -36.9458     5.2642     5.9652   187.0279  -999.2500
  152.0000   -36.6484     5.1868     6.1611   186.3058  -999.2500
  152.5000   -36.9523     5.1087     6.3239   186.3417  -999.2500
  153.0000   -37.5558     5.1066     6.3082   185.6125  -999.2500
  153.5000   -37.7088     5.1044     6.3227   185.6484  -999.2500
  154.0000   -37.2532     5.1022     6.3970   184.9263  -999.2500
  154.5000   -36.6635     5.1001     6.5013   184.2042  -999.2500
  155.0000   -36.6671     5.1732     6.5627   181.9880  -999.2500
  155.5000   -36.8201     5.1705     6.6501   180.5080  -999.2500
