~VERSION INFORMATION
 VERS.                2.0:   CWLS LOG ASCII STANDARD - VERSION 2.0
 WRAP.                 NO:   ONE LINE PER DEPTH STEP
~WELL INFORMATION
#MNEM.UNIT      DATA TYPE    INFORMATION
#----------   ------------   ------------------------------
 STRT.F            8.0000:   START DEPTH
 STOP.F          500.0000:   STOP DEPTH
 STEP.F            0.5000:   STEP LENGTH
 NULL.          -999.2500:   NO VALUE
 COMP. FENIX & SCISSON INC:   COMPANY
 WELL. 65 12 SX 3FI #65-3:   WELL
 FLD .             TEAPOT:   FIELD
 LOC .       S3 T38N R78W:   LOCATION
 CNTY.            NATRONA:   COUNTY
 STAT.            WYOMING:   STATE
 CTRY. UNITED STATES OF AMERICA:   COUNTRY
 SRVC.              Welex:   SERVICE COMPANY
 DATE.        01-JUN-1980:   LOGDATE
 API .       490251082400:   API NUMBER
~CURVE INFORMATION
#MNEM.UNIT       API CODE    CURVE DESCRIPTION
#----------   ------------   ------------------------------
 DEPT.F                  :   
 GRD .GAPI   45 310 01 00:   GAMMA RAY FROM DENSITY LOG
 CALD.IN     45 280 60 00:   CALIPER
 RHOB.G/C3   45 350 01 00:   BULK DENSITY
 CORR.G/C3   45 356 01 00:   DENSITY CORRECTION
 DPHI.DEC    45 890 12 00:   DENSITY POROSITY SANDSTONE
 NPHI.DEC    42 890 03 00:   NEUTRON POROSITY SANDSTONE
 SPR .MV     07 010 01 00:   SPONTANEOUS POTENTIAL
 SGRD.OHMM   07 220 05 00:   SHALLOW GUARD RESISTIVITY
 ILD .OHMM   07 120 46 00:   INDUCTION LOG DEEP
 ILM .OHMM   07 120 44 00:   INDUCTION LOG MEDIUM
~PARAMETER INFORMATION
#MNEM.UNIT          VALUE    DESCRIPTION
#----------   ------------   ------------------------------
 PD  .                 GL:   PERMANENT DATUM
 EPD .F              5155:   ELEVATION PERMANENT DATUM
 LMF .                 KB:   LOG MEASURED FROM
 DAPD.F                 4:   FEET ABOVE PERMANENT DATUM
 DMF .                 KB:   DRILLING MEASURED FROM
 EKB .F              5159:   KELLING BUSHING
 EGL .F              5155:   GROUND LEVEL
 DATE.             6-1-80:   RUN DATE
 RUN .                  1:   RUN NUMBER
 DD  .F               505:   DEPTH DRILLER
 DL  .F               502:   DEPTH LOGGER
 BLI .F               500:   BOTTOM LOG INTERVAL
 TLI .F                20:   TOP LOG INTERVAL
 BS  .IN            9.875:   BIT SIZE
 BSD .F               505:   BIT SIZE AT DEPTH
 DFT .      OIL BASED MUD:   DRILLING FLUID TYPE
 MSS .            MUD PIT:   MUD SAMPLE SOURCE
 RMS .OHMM             .9:   RESISTIVITY MUD SAMPLE
 MST .F                65:   MUD SAMPLE TEMPERATURE
 RMF .OHMM            .72:   RESISTIVITY MUD FILTRATE SAMPLE
 MFST.F                65:   MUD FILTRATE SAMPLE TEMPERATURE
 RMC .OHMM           1.08:   RESISTIVITY MUD CAKE
 MCST.F                65:   MUD CAKE SAMPLE TEMPERATURE
 MFSS.           MEASURED:   MUD FILTRATE SAMPLE SOURCE
 MCSS.           MEASURED:   MUD CAKE SAMPLE SOURCE
 RMB .OHMM            .71:   RESISTIVITY MUD AT BHT
 BHT .F                76:   BOTTOM HOLE TEMPERATURE
 TCS .HRS               2:   TIME CURCULATED STOPPED
 MRT .F                76:   MAXIMUM RECORDED TEMPERATURE
 LUN .               9685:   LOGGING UNIT NUMBER
 LUL .             CASPER:   LOGGING UNIT LOCATION
 ENGI.               REIN:   RECORDING ENGINEER
 WITN.            RHOADES:   WITNESSED BY
 CLNT.            A2DTECH:   CLIENT CODE
 ORIG.        2" 5" PRINT:   ORIGIN OF DATA
 UWI .       490251082400:   UNIQUE WELL ID
 DICO. A2D Technologies, Inc.:   DIGITIZING COMPANY
~OTHER INFORMATION
~A    DEPT     GRD       CALD       RHOB       CORR       DPHI       NPHI        SPR        SGRD         ILD        ILM 
# ...
  376.5000    70.6674    10.1769     2.3286     0.0139     0.2068     0.2440    -0.6992    29.4311    22.0223    22.8454
  377.0000    71.1095    10.1751     2.3341     0.0257     0.2229     0.2552    -0.7759    28.9568    24.0232    22.7974
  377.5000    71.5695    10.1749     2.3122     0.0158     0.2127     0.2609    -0.8526    28.4719    26.4572    22.6701
  378.0000    70.3844    10.1727     2.3034     0.0079     0.2019     0.2550    -0.9291    28.8553    26.4956    22.5370
  378.5000    69.5523    10.1678     2.3295     0.0219     0.1974     0.2576    -1.0056    29.2599    26.9471    22.3042
  379.0000    71.1340    10.1628     2.3422     0.0307     0.1932     0.2627    -1.0821    29.6702    26.5360    21.6246
  379.5000    72.6800    10.1579     2.3508     0.0365     0.1904     0.2717    -1.1588    30.0830    26.0224    20.8429
  380.0000    72.9121    10.1530     2.3594     0.0364     0.1999     0.2735    -1.2354    29.1547    25.5190    21.0151
  380.5000    72.5303    10.1480     2.3572     0.0419     0.1930     0.2741    -1.2787    28.0485    25.0248    21.2261
  381.0000    72.1377    10.1431     2.3514     0.0396     0.1880     0.2760    -1.1341    27.3902    24.5406    21.4424
  381.5000    72.4765    10.1382     2.3588     0.0332     0.1991     0.2738    -0.9829    27.2634    24.0659    21.6599
  382.0000    73.4752    10.1401     2.3620     0.0374     0.1893     0.2648    -0.8320    27.1371    23.5969    21.8212
  382.5000    74.3016    10.1495     2.3512     0.0163     0.1854     0.2609    -0.6811    27.0114    23.1052    21.7785
  383.0000    73.2861    10.1589     2.3649     0.0263     0.1933     0.2704    -0.5306    26.8869    22.5005    21.7449
  383.5000    72.2583    10.1682     2.3715     0.0354     0.2015     0.2720    -0.3820    26.7636    21.9198    21.7113
  384.0000    72.8102    10.1750     2.3428     0.0216     0.1966     0.2655    -0.3740    26.3872    21.3535    21.6779
  384.5000    73.5063    10.1748     2.3410     0.0086     0.1918     0.2629    -0.5566    25.7821    20.7967    21.6450
  385.0000    74.1980    10.1749     2.3533     0.0224     0.1928     0.2649    -0.7371    25.1901    19.7783    21.5009
  385.5000    74.8726    10.1749     2.3565     0.0350     0.1910     0.2680    -0.9189    24.6122    18.1689    21.1446
  386.0000    75.0646    10.1749     2.3539     0.0362     0.1880     0.2708    -1.0857    24.1381    18.3114    20.7942
  386.5000    74.1429    10.1749     2.3603     0.0343     0.1868     0.2693    -0.9891    24.4501    18.6056    20.4496
  387.0000    73.2423    10.1749     2.3632     0.0385     0.1837     0.2702    -0.8780    24.7218    18.8964    20.1107
  387.5000    72.3357    10.1751     2.3661     0.0428     0.1944     0.2733    -0.7671    24.9966    19.1934    19.9085
  388.0000    71.4081    10.1739     2.3707     0.0422     0.1907     0.2777    -0.6566    25.2711    19.3680    19.9715
  388.5000    70.7579    10.1277     2.3564     0.0331     0.1959     0.2797    -0.5461    24.7490    19.2419    20.0167
  389.0000    71.7650    10.0782     2.3575     0.0398     0.1922     0.2768    -0.4353    24.3276    19.1528    20.0621
  389.5000    72.7636    10.0376     2.3504     0.0331     0.1851     0.2706    -0.3179    24.1869    19.0641    20.1076
  390.0000    73.7525    10.0470     2.3685     0.0358     0.1694     0.2645    -0.4466    24.0469    18.9758    20.1532
  390.5000    74.7407    10.0556     2.3867     0.0501     0.1711     0.2619    -0.6501    23.9078    18.8880    20.1989
  391.0000    75.7289    10.0640     2.3915     0.0624     0.1665     0.2614    -0.8553    23.7695    18.8005    20.2446
  391.5000    76.7177    10.0724     2.3923     0.0524     0.1622     0.2590    -1.0601    23.6320    18.7134    20.2906
  392.0000    77.7044    10.0808     2.4003     0.0631     0.1686     0.2583    -1.2651    23.4953    18.6268    20.3365
  392.5000    78.7025    10.0892     2.4026     0.0710     0.1694     0.2594    -1.4713    23.3593    18.5405    20.3826
  393.0000    78.9724    10.0977     2.3941     0.0528     0.1680     0.2573    -1.6680    23.2242    18.4546    20.4289
  393.5000    78.8207    10.1061     2.3942     0.0474     0.1698     0.2536    -1.6069    23.0898    18.3692    20.4752
  394.0000    78.6610    10.1144     2.3970     0.0475     0.1720     0.2532    -1.5332    22.9562    18.2249    20.5219
  394.5000    78.5002    10.1221     2.3885     0.0375     0.1781     0.2550    -1.4605    22.8454    18.0336    20.5676
  395.0000    78.3411    10.1295     2.3801     0.0273     0.1749     0.2544    -1.3882    22.7712    17.8444    20.6406
  395.5000    78.1876    10.1370     2.3771     0.0320     0.1831     0.2553    -1.3159    22.6753    17.6571    20.8335
  396.0000    78.3898    10.1445     2.3734     0.0217     0.1900     0.2580    -1.2436    22.5798    17.5032    20.6837
  396.5000    79.0590    10.1519     2.3619     0.0014     0.1831     0.2603    -1.1713    22.4848    17.4742    20.5156
  397.0000    79.6096    10.1594     2.3686     0.0086     0.1829     0.2661    -1.0990    22.4301    17.4452    20.3525
  397.5000    78.6974    10.1669     2.3741     0.0135     0.1817     0.2667    -1.0264    22.2635    17.4165    20.1912
  398.0000    79.0688    10.1743     2.3697     0.0133     0.1729     0.2665    -0.9533    22.0644    17.3876    20.0312
  398.5000    79.4393    10.1819     2.3877     0.0221     0.1650     0.2614    -0.8935    21.8671    17.3589    19.8724
  399.0000    79.8160    10.1891     2.4012     0.0343     0.1703     0.2617    -1.0050    21.6716    17.3302    19.7267
  399.5000    79.9682    10.1887     2.3929     0.0264     0.1745     0.2646    -1.1155    21.4778    17.3015    18.6346
  400.0000    80.0820    10.1636     2.3870     0.0159     0.1600     0.2661    -1.2377    21.2288    17.2729    17.6733
  400.5000    80.1973    10.1397     2.4099     0.0212     0.1662     0.2627    -1.3563    21.7273    17.2442    17.0337
  401.0000    79.2021    10.1158     2.4039     0.0132     0.1614     0.2567    -1.4748    22.7534    17.2155    18.3645
  401.5000    77.5234    10.0922     2.4024     0.0026     0.1575     0.2511    -1.5933    23.4829    17.1644    19.5465
  402.0000    78.0444    10.0829     2.4148     0.0061     0.1590     0.2483    -1.7119    22.1705    16.9499    19.5465
  402.5000    78.5293    10.1021     2.4089    -0.0025     0.1589     0.2486    -1.8307    21.2319    16.7368    18.9208
  403.0000    79.0066    10.1207     2.4126     0.0002     0.1555     0.2521    -1.9504    20.2771    16.5264    18.4608
  403.5000    79.4830    10.1395     2.4125     0.0113     0.1661     0.2604    -2.0642    20.2698    16.3188    18.0121
  404.0000    79.3758    10.1582     2.3959     0.0113     0.1727     0.2704    -1.9650    20.1787    16.1138    17.5742
  404.5000    78.6788    10.1770     2.3895     0.0061     0.1698     0.2749    -1.8533    20.0763    15.9113    17.1470
  405.0000    77.9755    10.1941     2.3966     0.0191     0.1694     0.2720    -1.7421    19.9735    15.7114    16.8801
  405.5000    78.4124    10.1908     2.3955     0.0218     0.1618     0.2727    -1.6320    19.8714    15.5141    16.9732
  406.0000    79.0189    10.1871     2.4043     0.0272     0.1654     0.2694    -1.5178    19.7698    15.3192    17.0461
  406.5000    79.6247    10.1835     2.4028     0.0211     0.1622     0.2645    -1.6411    19.4684    15.1267    17.1176
  407.0000    78.8637    10.1799     2.4085     0.0114     0.1493     0.2609    -1.8936    19.0233    14.9367    17.1907
  407.5000    78.1635    10.1763     2.4293     0.0292     0.1411     0.2588    -2.1491    18.5892    14.7491    16.6465
  408.0000    78.8465    10.1726     2.4384     0.0491     0.1381     0.2609    -2.4048    18.1651    14.5640    16.1112
  408.5000    79.5147    10.1690     2.4314     0.0400     0.1491     0.2652    -2.6602    17.7508    14.3806    15.5932
  409.0000    80.1920    10.1654     2.4245     0.0238     0.1516     0.2649    -2.9157    17.3459    14.1607    15.0917
  409.5000    79.9107    10.1618     2.4216     0.0172     0.1539     0.2671    -3.1731    16.9503    13.9173    14.6604
