~VERSION INFORMATION
 VERS.                2.0:   CWLS LOG ASCII STANDARD - VERSION 2.0
 WRAP.                 NO:   ONE LINE PER DEPTH STEP
~WELL INFORMATION
#MNEM.UNIT      DATA TYPE    INFORMATION
#----------   ------------   ------------------------------
 STRT.F           25.0000:   START DEPTH
 STOP.F          832.0000:   STOP DEPTH
 STEP.F            0.5000:   STEP LENGTH
 NULL.          -999.2500:   NO VALUE
 COMP.          U.S. NAVY:   COMPANY
 WELL. RES 3 TEAPOT DOM #32-S-2:   WELL
 FLD .        TEAPOT DOME:   FIELD
 LOC .       S2 T38N R78W:   LOCATION
 CNTY.            NATRONA:   COUNTY
 STAT.            WYOMING:   STATE
 CTRY. UNITED STATES OF AMERICA:   COUNTRY
 SRVC. Schlumberger Well Surveying Corp:   SERVICE COMPANY
 DATE.        03-AUG-1959:   LOGDATE
 API .       490250646800:   API NUMBER
~CURVE INFORMATION
#MNEM.UNIT       API CODE    CURVE DESCRIPTION
#----------   ------------   ------------------------------
 DEPT.F                  :   
 SPR .MV     05 010 01 00:   SPONTANEOUS POTENTIAL FROM RES.
 ILD .OHMM   05 120 46 00:   INDUCTION LOG DEEP
 CILD.MMHO   05 110 46 00:   CONDUCTIVITY INDUCTION LOG DEEP
 ASN .OHMM   05 041 16 00:   AMPLIFIED SHORT NORMAL 16"
~PARAMETER INFORMATION
#MNEM.UNIT          VALUE    DESCRIPTION
#----------   ------------   ------------------------------
 LMF .                 KB:   LOG MEASURED FROM
 DMF .                 KB:   DRILLING MEASURED FROM
 EKB .F              5126:   KELLING BUSHING
 EGL .F              5122:   GROUND LEVEL
 DATE.           8-3-1959:   RUN DATE
 RUN .                  1:   RUN NUMBER
 DD  .F               840:   DEPTH DRILLER
 DL  .F               841:   DEPTH LOGGER
 BLI .F               835:   BOTTOM LOG INTERVAL
 TLI .F                17:   TOP LOG INTERVAL
 CBD .F                17:   CASING BOTTOM DRILLER
 CBL .F                17:   CASING BOTTOM LOGGER
 BS  .IN             6.75:   BIT SIZE
 BSD .F               840:   BIT SIZE AT DEPTH
 DFT .                GEL:   DRILLING FLUID TYPE
 DFD .                9.5:   DRILLING FLUID DENSITY
 DFV .                100:   DRILLING FLUID VISCOSITY
 DFPH.                9.5:   DRILLING FLUID PH
 DFL .                  4:   DRILLING FLUID LOSS
 RMS .OHMM              4:   RESISTIVITY MUD SAMPLE
 MST .F                73:   MUD SAMPLE TEMPERATURE
 RMF .OHMM            3.9:   RESISTIVITY MUD FILTRATE SAMPLE
 MFST.F                73:   MUD FILTRATE SAMPLE TEMPERATURE
 RMC .OHMM            4.1:   RESISTIVITY MUD CAKE
 MCST.F                73:   MUD CAKE SAMPLE TEMPERATURE
 RMB .OHMM              4:   RESISTIVITY MUD AT BHT
 BHT .F                73:   BOTTOM HOLE TEMPERATURE
 TCS .HRS               1:   TIME CURCULATED STOPPED
 LUN .               2523:   LOGGING UNIT NUMBER
 LUL .              CSPR.:   LOGGING UNIT LOCATION
 ENGI.             ATWOOD:   RECORDING ENGINEER
 WITN.             MARTIN:   WITNESSED BY
 CLNT.            A2DTECH:   CLIENT CODE
 ORIG.           5" PRINT:   ORIGIN OF DATA
 UWI .       490250646800:   UNIQUE WELL ID
 DICO. A2D Technologies, Inc.:   DIGITIZING COMPANY
~OTHER INFORMATION
~A   DEPT      SPR        ILD       CILD        ASN   
# ...
   98.0000  -108.8537     3.9482   223.4496     1.0041
   98.5000  -108.8303     3.9612   222.0695     1.0047
   99.0000  -108.8336     3.9740   220.6894     0.9897
   99.5000  -108.8321     3.9868   219.3093     0.9798
  100.0000  -108.8330     3.9997   217.9292     0.9651
  100.5000  -108.8326     4.0122   216.2041     0.9586
  101.0000  -108.8329     4.0249   215.7565     0.9664
  101.5000  -108.8329     4.0375   215.1597     0.9782
  102.0000  -108.8330     4.0500   214.5628     0.9916
  102.5000  -108.8330     4.0635   214.0122     1.0107
  103.0000  -108.8330     4.0849   213.4306     1.0067
  103.5000  -108.8330     4.2148   212.6921     0.9694
  104.0000  -108.8330     4.3091   211.1843     0.9500
  104.5000  -108.8330     4.5192   209.1537     2.3107
  105.0000  -108.8332     4.8192   207.1072     4.1546
  105.5000  -108.8331     5.1080   205.0720     5.5167
  106.0000  -108.8337     5.1435   203.5632     5.4048
  106.5000  -108.8329     5.1060   200.2116     5.5263
  107.0000  -108.8346     5.0862   197.4444     5.6065
  107.5000  -108.8318     5.0683   194.6773     5.6418
  108.0000  -108.8381     4.9812   191.9102     5.2731
  108.5000  -108.8125     4.8466   188.4512     4.9640
  109.0000  -108.6458     4.7172   186.6607     4.3908
  109.5000  -108.4970     4.7095   184.8702     4.8108
  110.0000  -108.3462     4.8460   183.7511     5.8742
  110.5000  -108.1966     4.9448   184.4226     5.6540
  111.0000  -108.0465     5.0819   189.1227     5.6453
  111.5000  -107.8966     5.1320   194.7180     5.5354
  112.0000  -107.7465     4.9390   199.6419     5.4393
  112.5000  -107.5965     4.7827   204.5658     5.0404
  113.0000  -107.4465     4.6112   211.7278     4.6797
  113.5000  -107.2968     4.4557   221.8605     4.3300
  114.0000  -107.1464     4.2709   235.3707     4.3927
  114.5000  -106.9973     4.1373   248.8809     4.2080
  115.0000  -106.8454     4.0388   262.3911     4.0141
  115.5000  -106.6849     3.9272   275.9014     3.7779
  116.0000  -106.6121     3.8230   286.0340     3.8943
  116.5000  -106.5443     3.7912   290.5103     4.1307
  117.0000  -106.4765     3.8676   289.8388     4.3422
  117.5000  -106.4152     3.9597   288.7198     4.5063
  118.0000  -106.3373     4.1133   281.5577     4.5351
  118.5000  -106.3025     4.3423   268.8614     4.7038
  119.0000  -106.3841     4.5337   251.9329     4.9479
  119.5000  -106.4487     4.7405   235.0045     5.1709
  120.0000  -106.5187     4.9403   218.0760     5.3829
  120.5000  -106.5856     5.1415   201.1476     5.6385
  121.0000  -106.6542     5.3466   188.4512     5.7126
  121.5000  -106.7220     5.5597   181.7368     5.7937
  122.0000  -106.7901     5.6825   174.8534     5.8626
  122.5000  -106.8580     5.8174   173.1492     5.9403
  123.0000  -106.9261     5.9403   170.7271     6.0061
  123.5000  -106.9938     6.0663   168.2288     6.1266
  124.0000  -107.0625     6.2052   165.7045     6.3102
  124.5000  -107.1291     6.2266   163.1932     6.3624
  125.0000  -107.1996     6.2225   160.6942     6.4124
  125.5000  -107.2630     6.2225   158.8226     6.4152
  126.0000  -107.3426     6.2259   160.3999     6.3323
  126.5000  -107.3827     6.2181   161.5936     6.2252
  127.0000  -107.3262     6.2354   162.7872     6.1091
  127.5000  -107.2842     6.0967   164.2793     6.0284
  128.0000  -107.2369     5.8711   169.0753     5.9084
  128.5000  -107.1926     5.6849   175.4700     5.7278
  129.0000  -107.1467     5.4819   181.8647     5.5811
  129.5000  -107.1016     5.2877   186.6607     5.4195
  130.0000  -107.0561     5.0890   198.3286     5.2657
  130.5000  -107.0108     4.8921   207.2841     5.1080
  131.0000  -106.9654     4.6950   216.1969     4.9516
  131.5000  -106.9203     4.4964   225.1473     4.7958
  132.0000  -106.8744     4.2832   236.4733     4.6374
  132.5000  -106.8301     4.2108   240.5157     4.4843
  133.0000  -106.7829     4.1652   245.9766     4.3062
  133.5000  -106.7410     4.1015   251.5667     4.3104
  134.0000  -106.6873     4.0838   256.9382     4.3660
  134.5000  -106.6629     4.2018   263.6526     4.4173
  135.0000  -106.7158     4.3023   263.6526     4.5875
  135.5000  -106.7575     4.4051   252.9096     4.7405
  136.0000  -106.8028     4.5098   238.5855     4.9097
  136.5000  -106.8460     4.6074   224.2614     4.9597
  137.0000  -106.8904     4.7242   206.3563     4.9990
  137.5000  -106.9342     4.7992   204.1182     5.0275
  138.0000  -106.9782     4.8173   201.8800     5.0300
  138.5000  -107.0221     4.8400   201.8800     5.0433
  139.0000  -107.0660     4.8696   201.8800     5.0172
  139.5000  -107.1097     4.8627   201.8800     4.9721
  140.0000  -107.1539     4.7217   201.8800     4.8945
  140.5000  -107.1968     4.5885   203.2229     4.8058
  141.0000  -107.2424     4.4617   204.5658     4.7356
  141.5000  -107.2828     4.3081   213.5184     4.5881
  142.0000  -107.3330     4.0977   218.8899     4.4651
  142.5000  -107.3682     3.9176   249.4778     4.2501
  143.0000  -107.4819     3.7245   273.9481     3.9218
  143.5000  -107.6529     3.5391   298.4184     3.6698
  144.0000  -107.7963     3.3478   329.0063     3.3352
  144.5000  -107.9513     3.1635   344.9716     3.1537
  145.0000  -108.1002     2.9682   366.2588     3.2644
  145.5000  -108.2525     2.7916   387.5460     3.3399
  146.0000  -108.4030     2.5617   408.8332     3.3217
  146.5000  -108.5550     2.6939   424.7986     3.2017
  147.0000  -108.7047     2.9716   408.0125     3.3776
  147.5000  -108.8582     3.1865   397.9409     3.6681
  148.0000  -109.0051     3.4356   351.4374     3.9129
  148.5000  -109.1791     3.6548   314.2346     4.1951
  149.0000  -109.1571     3.9205   277.0317     4.3201
  149.5000  -109.0730     4.1059   230.5282     4.3650
  150.0000  -109.0117     4.2285   218.8899     4.3912
  150.5000  -108.9400     4.2839   222.1228     4.4195
  151.0000  -108.8738     4.3140   224.7090     4.4501
  151.5000  -108.8048     4.3544   227.2953     4.4710
  152.0000  -108.7371     4.3858   230.5282     4.4639
  152.5000  -108.6689     4.4318   229.8568     4.4341
  153.0000  -108.6010     4.4145   228.5548     4.4000
  153.5000  -108.5327     4.2634   230.7338     4.2859
  154.0000  -108.4650     4.1310   232.8289     4.1856
  154.5000  -108.3959     3.9944   238.0222     4.0778
  155.0000  -108.3299     3.8623   251.4746     3.9388
  155.5000  -108.2580     3.7241   269.5449     3.8123
  156.0000  -108.1968     3.5956   287.7440     3.6912
  156.5000  -108.1082     3.4443   310.6448     3.5412
  157.0000  -108.1986     3.3379   319.1584     3.4670
  157.5000  -108.3673     3.2803   327.2158     3.5240
  158.0000  -108.5029     3.2577   332.8111     3.6039
  158.5000  -108.6530     3.2758   337.2874     3.5934
  159.0000  -108.7952     3.2474   341.7636     3.6000
  159.5000  -108.9422     3.4463   345.1208     3.3890
  160.0000  -109.0861     3.7581   341.5398     4.2525
  160.5000  -109.2333     4.0290   296.4573     5.1155
  161.0000  -109.3751     4.2982   260.5443     4.9016
  161.5000  -109.5262     4.6125   215.7005     4.9103
  162.0000  -109.6602     4.8068   209.4702     4.8311
  162.5000  -109.8325     4.8063   203.0233     4.9292
  163.0000  -109.9084     4.8618   199.1817     4.9481
  163.5000  -109.7257     4.8856   200.8369     4.9608
  164.0000  -109.5804     4.8559   202.1927     4.9007
  164.5000  -109.4231     4.6562   203.6705     4.8282
  165.0000  -109.2728     4.4771   211.7278     4.6754
  165.5000  -109.1181     4.2990   222.6289     4.4398
  166.0000  -108.9670     4.1155   237.1636     4.2456
  166.5000  -108.8113     3.9441   251.6983     4.0318
  167.0000  -108.6630     3.7425   266.2331     3.8309
  167.5000  -108.4865     3.5998   280.7678     3.5983
  168.0000  -108.5142     3.4996   295.3026     3.5718
  168.5000  -108.6078     3.3939   309.8373     3.5866
  169.0000  -108.6773     3.2774   324.3720     3.5977
  169.5000  -108.7574     3.2846   335.2730     3.5969
  170.0000  -108.8326     3.4645   338.6302     3.6992
  170.5000  -108.9086     3.6174   340.6446     3.8618
