~VERSION INFORMATION
 VERS.                2.0:   CWLS LOG ASCII STANDARD - VERSION 2.0
 WRAP.                 NO:   ONE LINE PER DEPTH STEP
~WELL INFORMATION
#MNEM.UNIT      DATA TYPE    INFORMATION
#----------   ------------   ------------------------------
 STRT.F           34.0000:   START DEPTH
 STOP.F          614.0000:   STOP DEPTH
 STEP.F            0.5000:   STEP LENGTH
 NULL.          -999.2500:   NO VALUE
 COMP. FENIX & SCISSON INC:   COMPANY
 WELL.      71-SX-3 #71-3:   WELL
 FLD .             TEAPOT:   FIELD
 LOC .       S3 T38N R78W:   LOCATION
 CNTY.            NATRONA:   COUNTY
 STAT.            WYOMING:   STATE
 CTRY. UNITED STATES OF AMERICA:   COUNTRY
 SRVC.              Welex:   SERVICE COMPANY
 DATE.        10-MAR-1977:   LOGDATE
 API .       490251028900:   API NUMBER
~CURVE INFORMATION
#MNEM.UNIT       API CODE    CURVE DESCRIPTION
#----------   ------------   ------------------------------
 DEPT.F                  :   
 CALD.IN     45 280 60 00:   CALIPER
 GRD .GAPI   45 310 01 00:   GAMMA RAY FROM DENSITY LOG
 RHOB.G/C3   45 350 01 00:   BULK DENSITY
 DPHI.DEC    45 890 12 00:   DENSITY POROSITY SANDSTONE
 CORR.G/C3   45 356 01 00:   DENSITY CORRECTION
 SGRD.OHMM   07 220 05 00:   SHALLOW RESISTIVITY
 ILD .OHMM   07 120 46 00:   INDUCTION LOG DEEP
 ILM .OHMM   07 120 44 00:   INDUCTION LOG MEDIUM
 SPR .MV     07 010 01 00:   SPONTANEOUS POTENTIAL
~PARAMETER INFORMATION
#MNEM.UNIT          VALUE    DESCRIPTION
#----------   ------------   ------------------------------
 PD  .                 GL:   PERMANENT DATUM
 EPD .F              5117:   ELEVATION PERMANENT DATUM
 LMF .                 GL:   LOG MEASURED FROM
 DMF .                 GL:   DRILLING MEASURED FROM
 EGL .F              5117:   GROUND LEVEL
 DATE.          3-10-1977:   RUN DATE
 RUN .                  1:   RUN NUMBER
 DD  .F               630:   DEPTH DRILLER
 DL  .F               619:   DEPTH LOGGER
 BLI .F               617:   BOTTOM LOG INTERVAL
 TLI .F                34:   TOP LOG INTERVAL
 CS  .IN            8.625:   CASING SIZE
 CBD .F                40:   CASING BOTTOM DRILLER
 CBL .F                41:   CASING BOTTOM LOGGER
 BS  .IN            7.875:   BIT SIZE
 BSD .F               630:   BIT SIZE AT DEPTH
 DFT .            KCL MUD:   DRILLING FLUID TYPE
 DFD .                  9:   DRILLING FLUID DENSITY
 DFV .                 33:   DRILLING FLUID VISCOSITY
 MSS .            MUD PIT:   MUD SAMPLE SOURCE
 RMS .OHMM           2.33:   RESISTIVITY MUD SAMPLE
 MST .F                57:   MUD SAMPLE TEMPERATURE
 RMF .OHMM           1.83:   RESISTIVITY MUD FILTRATE SAMPLE
 MFST.F                57:   MUD FILTRATE SAMPLE TEMPERATURE
 RMC .OHMM           2.53:   RESISTIVITY MUD CAKE
 MCST.F                57:   MUD CAKE SAMPLE TEMPERATURE
 MFSS.           FANN KIT:   MUD FILTRATE SAMPLE SOURCE
 MCSS.           FANN KIT:   MUD CAKE SAMPLE SOURCE
 RMB .OHMM            2.1:   RESISTIVITY MUD AT BHT
 BHT .F                63:   BOTTOM HOLE TEMPERATURE
 TCS .HRS             1.5:   TIME CURCULATED STOPPED
 MRT .F                63:   MAXIMUM RECORDED TEMPERATURE
 LUN .               8611:   LOGGING UNIT NUMBER
 LUL .           GILLETTE:   LOGGING UNIT LOCATION
 ENGI.               DOAK:   RECORDING ENGINEER
 WITN.              BURKE:   WITNESSED BY
 CLNT.            A2DTECH:   CLIENT CODE
 ORIG.       2", 5" PRINT:   ORIGIN OF DATA
 UWI .       490251028900:   UNIQUE WELL ID
 DICO. A2D Technologies, Inc.:   DIGITIZING COMPANY
~OTHER INFORMATION
~A   DEPT     CALD        GRD       RHOB       DPHI       CORR       SGRD        ILD        ILM        SPR   
# ...
  289.5000     7.8421    88.2061     2.4056     0.1466     0.0642     8.4117     6.1631     7.1832   -43.0518
  290.0000     7.8066    88.8341     2.4093     0.1453     0.0631     8.3506     6.0578     7.1175   -42.9808
  290.5000     7.7713    88.3841     2.4144     0.1421     0.0603     8.3865     5.9333     7.0524   -43.1231
  291.0000     7.7622    84.7868     2.4196     0.1389     0.0576     8.2093     5.8026     6.9814   -43.2645
  291.5000     7.7926    80.8598     2.4248     0.1356     0.0548     8.0528     5.6747     6.6985   -43.4072
  292.0000     7.8139    80.8056     2.4300     0.1324     0.0521     7.7700     5.5496     6.3996   -43.5486
  292.5000     7.7912    86.0148     2.4351     0.1299     0.0493     7.2286     5.4273     6.0843   -43.4333
  293.0000     7.7660    89.6707     2.4327     0.1303     0.0466     6.4865     5.3077     5.9698   -43.2988
  293.5000     7.7402    90.8034     2.4293     0.1322     0.0438     6.6533     5.2024     6.0122   -43.1651
  294.0000     7.7563    90.8081     2.4260     0.1341     0.0417     7.0000     5.2024     6.0947   -43.0318
  294.5000     7.7883    89.6566     2.4226     0.1360     0.0410     7.3648     5.2982     6.1782   -42.8984
  295.0000     7.8207    88.3104     2.4197     0.1379     0.0404     7.7486     5.4067     6.2629   -42.7657
  295.5000     7.8531    86.9623     2.4214     0.1378     0.0406     8.0135     5.5174     6.3488   -42.6327
  296.0000     7.8854    85.6139     2.4249     0.1350     0.0428     8.0875     5.6305     6.4271   -42.5890
  296.5000     7.9178    84.2653     2.4285     0.1321     0.0462     7.9676     5.7459     6.5363   -42.6280
  297.0000     7.9324    82.8997     2.4320     0.1292     0.0507     7.8676     5.8639     6.6372   -42.6672
  297.5000     7.9178    82.4998     2.4355     0.1289     0.0551     7.9876     5.9714     6.7397   -42.7062
  298.0000     7.9031    83.4999     2.4390     0.1279     0.0596     8.1622     6.0474     6.8438   -42.7447
  298.5000     7.8885    84.8990     2.4426     0.1264     0.0616     8.3407     6.1173     6.9494   -42.6725
  299.0000     7.8738    86.3378     2.4427     0.1270     0.0610     8.4679     6.1951     7.0459   -42.4968
  299.5000     7.8592    85.7617     2.4339     0.1326     0.0604     8.2625     6.3683     7.0028   -42.4259
  300.0000     7.8445    84.3993     2.4275     0.1346     0.0599     8.0167     6.2913     6.9638   -42.6510
  300.5000     7.8299    84.8458     2.4286     0.1332     0.0606     8.2282     6.2743     6.9251   -42.8659
  301.0000     7.8152    87.0682     2.4305     0.1330     0.0622     8.3865     6.2573     6.8866   -43.0809
  301.5000     7.8008    89.2961     2.4292     0.1338     0.0637     8.1487     6.1719     6.8480   -43.3049
  302.0000     7.8042    87.6071     2.4276     0.1347     0.0653     7.9985     5.9566     6.8095   -43.2623
  302.5000     7.8324    85.5612     2.4260     0.1361     0.0668     7.8518     5.7489     6.6708   -43.1325
  303.0000     7.8155    85.3667     2.4237     0.1383     0.0678     7.7052     5.5484     6.4873   -42.9996
  303.5000     7.7991    86.7135     2.4165     0.1413     0.0670     7.5367     5.3549     6.3086   -42.8672
  304.0000     7.7828    86.8984     2.4092     0.1442     0.0662     7.3720     5.1681     6.1347   -42.7348
  304.5000     7.7665    84.0194     2.4020     0.1472     0.0654     7.2108     4.9879     5.9655   -42.5965
  305.0000     7.7503    82.0248     2.4046     0.1485     0.0647     7.0532     4.8139     5.8010   -42.6733
  305.5000     7.7340    84.3855     2.4132     0.1431     0.0639     6.9176     4.6460     5.5506   -42.8134
  306.0000     7.7178    87.2773     2.4216     0.1374     0.0631     6.1063     4.4840     5.0070   -42.9550
  306.5000     7.7015    88.5536     2.4301     0.1317     0.0623     5.3337     4.4090     4.6755   -43.0972
  307.0000     7.6852    86.8828     2.4384     0.1289     0.0605     4.4908     4.4299     4.5318   -43.1186
  307.5000     7.6690    85.2041     2.4415     0.1274     0.0568     5.3436     4.4497     4.9291   -43.0462
  308.0000     7.6526    86.9426     2.4391     0.1285     0.0531     7.5835     4.6381     5.2897   -42.9729
  308.5000     7.6359    90.3583     2.4367     0.1278     0.0493     7.5463     4.8495     5.7032   -42.8984
  309.0000     7.6343    89.5561     2.4420     0.1257     0.0487     7.3406     5.0705     5.8906   -42.8262
  309.5000     7.6665    88.0778     2.4474     0.1237     0.0499     7.6310     5.3015     6.0792   -42.8188
  310.0000     7.6958    90.7460     2.4529     0.1217     0.0511     7.9273     5.5432     6.2738   -43.1543
  310.5000     7.7467    91.5855     2.4583     0.1197     0.0498     8.3141     5.7958     6.4865   -43.4835
  311.0000     7.7996    89.5033     2.4638     0.1182     0.0448     8.2006     5.9842     6.6768   -43.7679
  311.5000     7.8522    87.4468     2.4591     0.1190     0.0407     7.9976     6.1519     6.8674   -43.7902
  312.0000     7.9047    87.2063     2.4505     0.1253     0.0367     7.7956     6.3242     6.9584   -43.8206
  312.5000     7.9344    89.4945     2.4502     0.1226     0.0328     8.0412     6.4504     7.0505   -43.8521
  313.0000     7.9228    91.7362     2.4571     0.1185     0.0300     8.3815     6.4929     7.1336   -43.8827
  313.5000     7.9099    93.9688     2.4696     0.1143     0.0338     8.7362     6.5358     7.2845   -43.9141
  314.0000     7.8968    96.2526     2.4846     0.1101     0.0376     9.1982     6.5789     7.4454   -43.9508
  314.5000     7.8838    95.7517     2.4996     0.1060     0.0413     9.0709     6.6148     7.4281   -43.7887
  315.0000     7.8708    94.0453     2.5126     0.1038     0.0450     8.9589     6.6658     7.3816   -43.5920
  315.5000     7.8575    92.2994     2.5010     0.1038     0.0488     8.8634     6.7171     7.4513   -43.3924
  316.0000     7.8622    90.5441     2.4833     0.1085     0.0497     8.7843     6.7689     7.6600   -43.1909
  316.5000     7.8739    89.2210     2.4705     0.1146     0.0488     9.1220     6.8211     7.8747   -43.2194
  317.0000     7.8860    90.0963     2.4736     0.1140     0.0479     9.4838     6.8736     7.9865   -43.2892
  317.5000     7.8980    91.4576     2.4758     0.1134     0.0470     9.7198     6.9266     7.6981   -43.3607
  318.0000     7.9100    91.3711     2.4762     0.1144     0.0461     9.1982     6.9814     7.5132   -43.4319
  318.5000     7.9220    88.8214     2.4716     0.1156     0.0452     9.2366     6.9706     7.7410   -43.5023
  319.0000     7.9340    88.6921     2.4671     0.1167     0.0444     9.3040     6.9567     7.9832   -43.5571
  319.5000     7.9458    89.7999     2.4625     0.1195     0.0435     9.3719     6.9428     8.0875   -43.5556
  320.0000     7.9498    87.8177     2.4535     0.1260     0.0426     9.4554     6.9289     7.9297   -43.5555
  320.5000     7.9366    85.8621     2.4372     0.1293     0.0417     9.4305     6.9150     7.7716   -43.5556
  321.0000     7.9237    83.9049     2.4369     0.1298     0.0408     9.3656     6.9012     7.5835   -43.5548
  321.5000     7.9108    81.9935     2.4333     0.1304     0.0399     9.3012     6.8874     7.7309   -43.5948
  322.0000     7.8979    81.9206     2.4254     0.1355     0.0413     9.2371     6.8736     7.9402   -43.6528
  322.5000     7.8849    85.4348     2.4165     0.1421     0.0432     9.1141     6.8599     7.7700   -43.7112
  323.0000     7.8720    87.8650     2.4156     0.1407     0.0450     9.0240     6.7801     7.6015   -43.7696
  323.5000     7.8589    87.2527     2.4190     0.1381     0.0469     8.9114     6.6563     7.4366   -43.8280
  324.0000     7.8594    85.6011     2.4178     0.1404     0.0487     8.8002     6.5348     7.2753   -43.8869
  324.5000     7.8689    87.0022     2.4090     0.1454     0.0493     8.6904     6.4156     7.1200   -43.9438
  325.0000     7.8785    88.5595     2.3993     0.1503     0.0476     8.5986     6.2984     6.9696   -43.8703
  325.5000     7.8881    88.7335     2.3896     0.1552     0.0459     8.4677     6.1835     6.8218   -43.7774
