~VERSION INFORMATION
 VERS.                2.0:   CWLS LOG ASCII STANDARD - VERSION 2.0
 WRAP.                 NO:   ONE LINE PER DEPTH STEP
~WELL INFORMATION
#MNEM.UNIT      DATA TYPE    INFORMATION
#----------   ------------   ------------------------------
 STRT.F           34.0000:   START DEPTH
 STOP.F          510.0000:   STOP DEPTH
 STEP.F            0.5000:   STEP LENGTH
 NULL.          -999.2500:   NO VALUE
 COMP. LAWRENCE/ALLISON INC:   COMPANY
 WELL.      58-36 SX #3-3:   WELL
 FLD .             TEAPOT:   FIELD
 LOC .       S3 T38N R78W:   LOCATION
 CNTY.            NATRONA:   COUNTY
 STAT.            WYOMING:   STATE
 CTRY. UNITED STATES OF AMERICA:   COUNTRY
 SRVC.           Gearhart:   SERVICE COMPANY
 DATE.        17-SEP-1987:   LOGDATE
 API .       490251116300:   API NUMBER
~CURVE INFORMATION
#MNEM.UNIT       API CODE    CURVE DESCRIPTION
#----------   ------------   ------------------------------
 DEPT.F                  :   
 SPR .MV     07 010 01 00:   SPONTANEOUS POTENTIAL
 RLL .OHMM   07 220 00 00:   LATEROLOG RESISTIVITY
 RILD.OHMM   07 120 46 00:   INDUCTION LOG DEEP RESISTIVITY
 RILM.OHMM   07 120 44 00:   INDUCTION LOG MEDIUM RESISTIVITY
 GRR .GAPI   07 310 01 00:   GAMMA RAY FROM RES. LOG.
~PARAMETER INFORMATION
#MNEM.UNIT          VALUE    DESCRIPTION
#----------   ------------   ------------------------------
 PD  .                 GL:   PERMANENT DATUM
 EPD .F              5205:   ELEVATION PERMANENT DATUM
 LMF .                 KB:   LOG MEASURED FROM
 DAPD.F                 8:   FEET ABOVE PERMANENT DATUM
 DMF .                 KB:   DRILLING MEASURED FROM
 EKB .F              5213:   KELLING BUSHING
 EDF .F              5211:   DRILLING FLOOR
 EGL .F              5205:   GROUND LEVEL
 DATE.            9-17-87:   RUN DATE
 RUN .                  1:   RUN NUMBER
 DD  .F               521:   DEPTH DRILLER
 DL  .F               512:   DEPTH LOGGER
 BLI .F               510:   BOTTOM LOG INTERVAL
 TLI .F                30:   TOP LOG INTERVAL
 CS  .IN            8.625:   CASING SIZE
 CBD .F                52:   CASING BOTTOM DRILLER
 CBL .F                52:   CASING BOTTOM LOGGER
 BS  .IN            7.875:   BIT SIZE
 BSD .F               521:   BIT SIZE AT DEPTH
 DFT .          KCL WATER:   DRILLING FLUID TYPE
 DFD .                8.8:   DRILLING FLUID DENSITY
 MSS .            MUD PIT:   MUD SAMPLE SOURCE
 RMS .OHMM            .60:   RESISTIVITY MUD SAMPLE
 MST .F                41:   MUD SAMPLE TEMPERATURE
 TCS .HRS            0630:   TIME CURCULATED STOPPED
 TLAB.HRS            0918:   TIME LOGGER AT BOTTOM
 MRT .F                80:   MAXIMUM RECORDED TEMPERATURE
 LUN .               7650:   LOGGING UNIT NUMBER
 LUL .           GILLETTE:   LOGGING UNIT LOCATION
 ENGI.         WEATHERMON:   RECORDING ENGINEER
 WITN.             STRONG:   WITNESSED BY
 CLNT.            A2DTECH:   CLIENT CODE
 ORIG. 1", 2.5", 5" PRINT:   ORIGIN OF DATA
 UWI .       490251116300:   UNIQUE WELL ID
 DICO. A2D Technologies, Inc.:   DIGITIZING COMPANY
~OTHER INFORMATION
~A   DEPT      SPR        RLL       RILD       RILM        GRR   
# ...
  278.0000   -69.7996    10.3015     7.9917     7.7139   109.1227
  278.5000   -70.9639    10.5695     7.6299     7.4014   105.6413
  279.0000   -72.2399    10.2227     7.2845     6.8846   104.0783
  279.5000   -72.8189     9.2331     7.1012     6.4038   107.3074
  280.0000   -72.7673     8.0973     7.0520     5.9566   111.0475
  280.5000   -72.3066     7.3523     7.2110     5.6985   114.7867
  281.0000   -71.8244     7.7322     7.4444     6.0308   114.0310
  281.5000   -71.0403     8.1036     7.6853     6.4245   110.1957
  282.0000   -70.2195     9.2533     7.9259     6.8442   106.3473
  282.5000   -69.3961    10.7230     8.3292     7.2907   102.5702
  283.0000   -68.5544    11.2270     8.7531     7.7661   102.7089
  283.5000   -68.1996    11.2544     9.1377     8.2725   104.7880
  284.0000   -67.8737    11.2818     9.7091     8.7420   106.7853
  284.5000   -67.5514    11.3122    10.3154     9.0677   106.2392
  285.0000   -67.2277    11.2208    10.6658     9.4055   104.4454
  285.5000   -66.8963    11.1044    10.8797     9.7558   102.6905
  286.0000   -66.5101    11.2681    11.0971     9.9989   101.2497
  286.5000   -65.8158    11.6027    11.2991    10.2117   103.9118
  287.0000   -65.1306    11.9472    11.6086    10.4481   107.7585
  287.5000   -64.4444    12.3020    11.9266    10.8678   110.1220
  288.0000   -63.7588    13.3499    12.8428    11.3043   105.5025
  288.5000   -63.0735    14.8166    14.0330    11.7583    95.9128
  289.0000   -62.3744    16.4445    15.3344    12.2746    86.3772
  289.5000   -61.7518    18.6141    16.7577    13.2344    76.8248
  290.0000   -60.8327    21.4890    18.4895    14.2830    67.2658
  290.5000   -60.2978    23.0889    18.4187    15.4296    58.0208
  291.0000   -60.3041    21.9621    18.3242    16.6040    53.4791
  291.5000   -60.3000    21.7106    18.1458    17.2575    51.9410
  292.0000   -60.4805    20.8516    17.9951    17.3476    53.8195
  292.5000   -60.7546    18.6573    17.8291    17.3736    57.2692
  293.0000   -61.0308    19.0774    17.6647    17.3995    60.7149
  293.5000   -61.3033    19.7026    17.4856    17.4256    64.1715
  294.0000   -61.5446    20.2819    17.7050    17.4516    66.9882
  294.5000   -62.1287    19.6966    18.1523    17.4777    69.0128
  295.0000   -62.7197    19.0063    18.6105    17.8502    69.8532
  295.5000   -63.3064    19.4195    19.0809    18.3843    69.9988
  296.0000   -63.8120    20.2732    19.5627    18.9344    67.7378
  296.5000   -64.0976    21.1644    20.0862    19.5027    64.4233
  297.0000   -64.3814    22.0948    20.6935    20.0033    61.7206
  297.5000   -64.6654    23.0660    21.3190    20.0957    60.8376
  298.0000   -64.9485    24.1838    21.8923    19.0468    61.5396
  298.5000   -65.1712    23.1023    22.4061    18.3998    63.0303
  299.0000   -65.2335    23.2116    22.6546    18.0339    66.8787
  299.5000   -65.2972    23.2913    22.4690    16.9524    67.6949
  300.0000   -65.3528    22.5223    21.6365    15.9357    68.4618
  300.5000   -65.2627    21.9380    20.5174    15.0763    67.7733
  301.0000   -65.1606    21.3694    19.3618    15.0763    66.7615
  301.5000   -65.0582    20.8155    19.6616    15.0763    65.7354
  302.0000   -64.9574    20.6593    19.9970    14.8883    66.3172
  302.5000   -64.8079    21.8665    20.2799    14.3063    68.3472
  303.0000   -64.6152    23.0870    19.5420    13.7472    69.4552
  303.5000   -64.4207    23.5299    19.5973    13.4897    69.8131
  304.0000   -64.2314    21.9906    19.7027    13.7408    70.1553
  304.5000   -64.3022    20.6992    19.8088    14.7322    70.4946
  305.0000   -64.7444    19.9155    19.9154    15.8075    70.3799
  305.5000   -65.1614    21.4393    20.0225    16.5518    70.2045
  306.0000   -65.5795    21.0457    20.0929    16.5400    69.8591
  306.5000   -65.9980    21.1807    20.4611    16.0270    69.1550
  307.0000   -66.4170    21.4284    20.8568    15.5033    70.7644
  307.5000   -66.8349    21.6690    21.2601    15.0019    73.6812
  308.0000   -67.2144    21.8588    21.4393    14.5596    75.2714
  308.5000   -67.4036    22.0503    21.1624    14.1279    76.5992
  309.0000   -67.5963    22.2488    20.9617    13.7087    76.3491
  309.5000   -67.7887    21.9865    20.7624    13.6153    75.1259
  310.0000   -67.9879    21.5367    20.5652    13.6153    73.9242
  310.5000   -68.3603    21.0960    20.3699    13.6152    72.7211
  311.0000   -68.7365    20.8516    20.1765    13.6153    72.2868
  311.5000   -69.1090    20.4687    19.9849    13.6153    72.4106
  312.0000   -69.3934    20.7542    19.9076    13.6151    73.3042
  312.5000   -69.6516    20.9970    19.9076    13.6157    75.0548
  313.0000   -69.9556    21.2416    19.9076    13.6134    76.7679
  313.5000   -70.2611    21.0437    19.9076    13.8713    78.4743
  314.0000   -70.5665    20.8004    19.9076    14.1326    79.3226
  314.5000   -70.8687    20.5599    19.9074    14.3937    79.1542
  315.0000   -71.1618    20.3222    19.9076    14.2915    78.9078
  315.5000   -71.4392    20.0929    19.9076    14.1675    77.3932
  316.0000   -71.4874    20.3441    20.0065    13.9973    77.2196
  316.5000   -71.5330    20.5924    20.2405    14.0930    77.0870
  317.0000   -71.5764    20.8438    20.4772    14.3130    77.0388
  317.5000   -71.6098    21.0983    20.6593    14.5367    77.7160
  318.0000   -71.9798    21.3765    20.5543    14.7638    78.4434
  318.5000   -72.5046    21.6846    20.4539    15.1040    77.4835
  319.0000   -72.7193    22.0436    20.3540    15.5884    75.9892
  319.5000   -72.9012    21.8065    20.2799    16.0882    74.9264
  320.0000   -73.0791    21.5316    20.4607    16.6042    76.1730
  320.5000   -73.2583    21.4393    20.6723    17.1366    78.5000
  321.0000   -73.4375    21.7733    20.8929    17.6483    78.9619
  321.5000   -73.6162    22.0047    21.2416    18.1301    77.9197
  322.0000   -73.7911    22.2386    21.3082    18.6573    76.9080
  322.5000   -74.2920    22.4560    21.4076    18.0098    79.0520
  323.0000   -74.8793    22.3337    21.5074    17.4281    81.9807
  323.5000   -75.3273    22.1956    21.6077    16.8652    83.4937
  324.0000   -75.7506    22.0584    21.6389    16.6940    81.0012
  324.5000   -76.1761    21.9426    21.3048    16.8601    78.5662
  325.0000   -76.5993    21.7394    21.0835    16.9725    78.3993
  325.5000   -77.0227    21.5381    20.8645    17.0062    79.2626
  326.0000   -77.4461    21.3386    20.6478    16.3952    79.9379
  326.5000   -77.8695    21.1411    20.4333    15.8581    80.6254
  327.0000   -78.2930    20.9453    20.2210    15.3363    81.5613
  327.5000   -78.7165    20.7513    20.0110    14.7994    82.8470
  328.0000   -79.1420    20.5592    19.8031    14.9587    83.3462
  328.5000   -79.4104    20.3688    19.5974    15.1336    80.7581
  329.0000   -79.5959    20.1802    19.4429    15.3107    78.2208
  329.5000   -79.7801    19.9933    19.3077    15.3582    77.5523
  330.0000   -79.9612    19.8091    19.1734    14.3525    77.7895
  330.5000   -80.1254    19.7220    19.0401    13.7088    78.0453
  331.0000   -80.5971    19.7233    19.0063    13.4788    78.3004
  331.5000   -81.0694    19.7239    19.0063    13.2421    78.5460
  332.0000   -81.5391    19.8806    19.0063    13.6542    78.9499
  332.5000   -82.0066    20.0464    19.0063    14.2214    79.3419
  333.0000   -82.4548    20.2136    19.0063    14.8121    78.9333
  333.5000   -83.1991    20.3822    19.0063    15.2313    77.0498
  334.0000   -83.9513    20.5522    19.0064    15.5071    75.6933
  334.5000   -84.7055    20.6593    19.0061    15.3596    77.4515
  335.0000   -85.4583    20.2390    19.0111    15.2069    78.9099
  335.5000   -86.2110    19.9387    18.8612    15.0132    79.6149
  336.0000   -86.9637    19.6428    18.6111    14.8223    80.9116
  336.5000   -87.7164    19.3513    18.3649    14.6339    82.4276
  337.0000   -88.4692    19.0641    18.1228    14.4479    83.9657
  337.5000   -89.2229    19.0063    17.9785    14.2643    84.3185
  338.0000   -89.9750    19.4152    18.2354    14.0830    83.5036
  338.5000   -90.6950    19.7911    18.5614    13.8700    81.2940
