~VERSION INFORMATION
 VERS.                2.0:   CWLS LOG ASCII STANDARD - VERSION 2.0
 WRAP.                 NO:   ONE LINE PER DEPTH STEP
~WELL INFORMATION
#MNEM.UNIT      DATA TYPE    INFORMATION
#----------   ------------   ------------------------------
 STRT.F           70.0000:   START DEPTH
 STOP.F          960.0000:   STOP DEPTH
 STEP.F            0.5000:   STEP LENGTH
 NULL.          -999.2500:   NO VALUE
 COMP. U S NAVY/INTEX OIL CO:   COMPANY
 WELL.      NPR 3 #26S-35:   WELL
 FLD .             TEAPOT:   FIELD
 LOC .      S35 T39N R78W:   LOCATION
 CNTY.            NATRONA:   COUNTY
 STAT.            WYOMING:   STATE
 CTRY. UNITED STATES OF AMERICA:   COUNTRY
 SRVC.         Lane Wells:   SERVICE COMPANY
 DATE.        19-MAR-1960:   LOGDATE
 API .       490250651600:   API NUMBER
~CURVE INFORMATION
#MNEM.UNIT       API CODE    CURVE DESCRIPTION
#----------   ------------   ------------------------------
 DEPT.F                  :   
 ASN .OHMM   05 041 16 00:   AMPLIFIED SHORT NORMAL 16"
 ILD .OHMM   05 120 46 00:   INDUCTION LOG DEEP
 CILD.MMHO   05 110 00 00:   CONDUCTIVITY INDUCTION LOG
 SPR .MV     05 010 01 00:   SPONTANEOUS POTENTIAL FROM RES.
~PARAMETER INFORMATION
#MNEM.UNIT          VALUE    DESCRIPTION
#----------   ------------   ------------------------------
 PD  .                 GL:   PERMANENT DATUM
 EPD .F              5095:   ELEVATION PERMANENT DATUM
 LMF .                 KB:   LOG MEASURED FROM
 DAPD.F                 5:   FEET ABOVE PERMANENT DATUM
 DMF .                 KB:   DRILLING MEASURED FROM
 EKB .F              5101:   KELLING BUSHING
 EGL .F              9096:   GROUND LEVEL
 DATE.          3-19-1960:   RUN DATE
 RUN .                  1:   RUN NUMBER
 DD  .F               977:   DEPTH DRILLER
 DL  .F               959:   DEPTH LOGGER
 BLI .F               957:   BOTTOM LOG INTERVAL
 TLI .F                70:   TOP LOG INTERVAL
 CS  .IN            8.625:   CASING SIZE
 CBD .F                12:   CASING BOTTOM DRILLER
 BS  .IN            7.875:   BIT SIZE
 BSD .F               977:   BIT SIZE AT DEPTH
 DFT .   GEL-OIL EMULSION:   DRILLING FLUID TYPE
 DFD .                9.4:   DRILLING FLUID DENSITY
 DFV .                 40:   DRILLING FLUID VISCOSITY
 DFPH.                7.5:   DRILLING FLUID PH
 DFL .                8.2:   DRILLING FLUID LOSS
 MSS .           FLOWLINE:   MUD SAMPLE SOURCE
 RMS .OHMM            2.2:   RESISTIVITY MUD SAMPLE
 MST .F                64:   MUD SAMPLE TEMPERATURE
 RMF .OHMM            1.5:   RESISTIVITY MUD FILTRATE SAMPLE
 MFST.F                64:   MUD FILTRATE SAMPLE TEMPERATURE
 RMC .OHMM            3.1:   RESISTIVITY MUD CAKE
 MCST.F                64:   MUD CAKE SAMPLE TEMPERATURE
 MFSS.                MUD:   MUD FILTRATE SAMPLE SOURCE
 MCSS.              PRESS:   MUD CAKE SAMPLE SOURCE
 RMB .OHMM            2.0:   RESISTIVITY MUD AT BHT
 BHT .F                71:   BOTTOM HOLE TEMPERATURE
 MRT .F                71:   MAXIMUM RECORDED TEMPERATURE
 LUN .             L-4474:   LOGGING UNIT NUMBER
 LUL .             CASPER:   LOGGING UNIT LOCATION
 ENGI.             NELSON:   RECORDING ENGINEER
 WITN.          JORGENSBN:   WITNESSED BY
 CLNT.            A2DTECH:   CLIENT CODE
 ORIG.      2" & 5" PRINT:   ORIGIN OF DATA
 UWI .       490250651600:   UNIQUE WELL ID
 DICO. A2D Technologies, Inc.:   DIGITIZING COMPANY
~OTHER INFORMATION
~A   DEPT        ASN        ILD      CILD       SPR   
# ...
  289.0000     5.2397     4.3508   256.9508   -42.1017
  289.5000     5.0522     4.2553   265.5638   -42.3124
  290.0000     4.8327     4.1592   274.1767   -42.5172
  290.5000     4.6621     4.0641   282.7897   -42.4166
  291.0000     4.4599     3.9668   291.5528   -42.2205
  291.5000     4.2688     3.8740   300.2475   -42.0462
  292.0000     4.0555     3.7727   308.9214   -41.8618
  292.5000     3.8703     3.6875   315.3196   -41.6808
  293.0000     3.9475     3.5522   316.1761   -41.4998
  293.5000     4.0989     3.4854   314.8979   -41.3077
  294.0000     4.2392     3.5662   308.2813   -41.4200
  294.5000     4.3887     3.6281   301.5991   -41.6268
  295.0000     4.5260     3.7007   295.0438   -41.8163
  295.5000     4.6882     3.7676   288.4885   -42.0090
  296.0000     4.8060     3.8374   280.4217   -42.2095
  296.5000     4.8504     3.9060   280.4217   -42.3879
  297.0000     4.9192     3.9747   280.4217   -42.6205
  297.5000     4.8995     4.0443   280.4217   -42.6656
  298.0000     4.8625     4.1118   281.3373   -42.3604
  298.5000     4.8250     4.1859   282.5392   -42.0805
  299.0000     4.7930     4.1116   284.0361   -41.7829
  299.5000     4.7488     3.9828   288.8227   -41.4962
  300.0000     4.7310     3.8653   295.1676   -41.2019
  300.5000     4.5862     3.7422   301.5125   -40.9141
  301.0000     4.3772     3.6221   309.3373   -40.5947
  301.5000     4.1858     3.5003   322.5536   -40.6111
  302.0000     3.9667     3.3792   339.7904   -40.7178
  302.5000     3.7211     3.2578   356.9989   -40.8021
  303.0000     3.4437     3.1369   374.3822   -40.8975
  303.5000     3.1844     3.0154   391.7913   -40.9868
  304.0000     2.8848     2.8944   409.2013   -41.0794
  304.5000     2.8344     2.7694   426.5701   -41.1704
  305.0000     2.9038     2.8106   438.2760   -41.2621
  305.5000     2.9688     2.8956   438.1939   -41.3535
  306.0000     3.0712     2.9705   431.4684   -41.4449
  306.5000     3.1922     3.0505   411.5271   -41.5365
  307.0000     3.5090     3.1275   391.9951   -41.6279
  307.5000     3.9104     3.2067   372.4630   -41.7193
  308.0000     3.9972     3.2836   352.9310   -41.8110
  308.5000     4.0384     3.3640   331.0241   -41.9019
  309.0000     4.0903     3.4381   327.4096   -41.9864
  309.5000     4.0886     3.5255   325.7967   -41.7895
  310.0000     4.0814     3.5608   323.8714   -41.5187
  310.5000     4.0734     3.5329   326.2469   -41.2468
  311.0000     4.0677     3.5110   328.9337   -41.0002
  311.5000     4.0516     3.4915   331.6571   -40.6869
  312.0000     3.9608     3.4262   334.5888   -40.6562
  312.5000     3.8076     3.3009   342.5197   -40.9818
  313.0000     3.6056     3.1818   351.0219   -41.3111
  313.5000     3.4044     3.0589   359.9162   -41.5281
  314.0000     3.2020     2.9380   375.9012   -41.1940
  314.5000     3.0006     2.8160   392.6524   -41.0324
  315.0000     2.7977     2.6949   409.4036   -40.8433
  315.5000     2.5964     2.5746   426.1548   -40.6546
  316.0000     2.3919     2.5009   442.9060   -40.5355
  316.5000     2.4402     2.4218   459.6572   -40.6329
  317.0000     2.5559     2.3980   476.4084   -40.8267
  317.5000     2.6680     2.5334   484.6385   -41.0196
  318.0000     2.7664     2.6756   462.9775   -41.2145
  318.5000     2.9884     2.8202   438.0938   -41.4063
  319.0000     3.3267     2.9613   413.7103   -41.6016
  319.5000     3.6451     3.1080   389.3109   -41.7920
  320.0000     3.9725     3.2430   364.8719   -41.9942
  320.5000     4.2953     3.4323   340.3854   -42.1241
  321.0000     4.5850     4.0618   315.8930   -41.4966
  321.5000     4.6240     4.6282   303.7423   -40.8055
  322.0000     4.6565     4.8139   301.4398   -40.8731
  322.5000     4.6884     4.9702   301.3629   -41.0373
  323.0000     4.7042     5.0765   303.1837   -41.1862
  323.5000     4.6967     4.9032   305.0045   -41.3377
  324.0000     4.6382     4.7250   317.7492   -41.4956
  324.5000     4.2991     4.5262   337.6123   -41.6079
  325.0000     3.9602     4.1325   357.4754   -41.3688
  325.5000     3.6192     3.7413   377.3174   -41.0715
  326.0000     3.2862     3.3660   397.2590   -40.8019
  326.5000     2.9420     2.9686   414.2204   -40.4927
  327.0000     2.8251     2.8688   420.4217   -40.4025
  327.5000     2.8850     2.9693   424.9105   -40.5176
  328.0000     3.0307     3.0298   417.7397   -40.5972
  328.5000     3.1842     3.1094   411.5873   -40.6948
  329.0000     3.3301     3.1795   406.6051   -40.7827
  329.5000     3.4794     3.2533   386.4541   -40.8761
  330.0000     3.6283     3.3283   369.1566   -40.9666
  330.5000     3.7754     3.3828   351.8592   -41.0588
  331.0000     3.9274     3.3848   338.2530   -41.1331
  331.5000     4.0457     3.3849   332.5087   -41.1945
  332.0000     4.1373     3.3848   327.7747   -41.2540
  332.5000     4.2079     3.3848   323.0406   -41.3180
  333.0000     4.3023     3.3850   318.3066   -41.3730
  333.5000     4.3122     3.3845   316.3450   -41.4456
  334.0000     4.1545     3.3854   323.6420   -41.3982
  334.5000     4.0086     3.3838   330.9350   -41.2537
  335.0000     3.8510     3.3873   338.2282   -41.1317
  335.5000     3.7060     3.3622   347.0998   -40.9986
  336.0000     3.5384     3.2847   355.6920   -40.8723
  336.5000     3.4021     3.2070   366.6453   -40.7411
  337.0000     3.3094     3.1295   377.5815   -40.6147
  337.5000     3.1988     3.0497   388.4884   -40.4807
  338.0000     3.0968     2.9754   399.3854   -40.3823
  338.5000     2.9813     2.8882   412.1702   -40.4127
  339.0000     2.9051     2.8366   414.9678   -40.4500
  339.5000     2.8180     2.8059   418.3696   -40.4866
  340.0000     2.8239     2.7534   421.7746   -40.5233
  340.5000     2.8433     2.7077   425.1603   -40.5603
  341.0000     2.8668     2.6588   428.5199   -40.5963
  341.5000     2.8156     2.6108   431.8831   -40.6343
  342.0000     2.6719     2.5640   439.2537   -40.6687
  342.5000     2.5356     2.5135   453.2667   -40.7103
  343.0000     2.3951     2.4703   467.3271   -40.7211
  343.5000     2.2551     2.4117   481.4129   -40.6042
  344.0000     2.1211     2.4304   495.4919   -40.4908
  344.5000     2.1416     2.5471   509.5262   -40.3800
  345.0000     2.1999     2.6521   513.7892   -40.2640
  345.5000     2.3300     2.7640   505.7777   -40.1578
  346.0000     2.4344     2.8718   497.2892   -40.0350
  346.5000     2.5403     2.9826   478.4533   -40.0802
  347.0000     2.6122     3.0900   458.4247   -40.2228
  347.5000     2.7987     3.2026   438.3961   -40.3365
  348.0000     3.0197     3.3063   418.3675   -40.4621
  348.5000     3.2481     3.4274   398.3389   -40.5833
  349.0000     3.3801     3.4522   378.0121   -40.7031
  349.5000     3.4046     3.3759   379.2078   -40.8317
  350.0000     3.4387     3.3166   380.4217   -40.9083
  350.5000     3.3851     3.2480   381.6355   -40.8475
  351.0000     3.3255     3.1857   382.8494   -40.7925
  351.5000     3.2674     3.1177   387.5256   -40.7354
  352.0000     3.2014     3.0575   395.4156   -40.6796
  352.5000     3.0726     2.9645   403.3057   -40.6232
  353.0000     2.9385     2.8418   415.9016   -40.5667
  353.5000     2.8061     2.7259   432.4910   -40.5106
  354.0000     2.6726     2.6069   449.0803   -40.4534
  354.5000     2.5401     2.4893   465.6697   -40.3989
  355.0000     2.4064     2.3719   482.2590   -40.3393
  355.5000     2.2836     2.2524   498.8484   -40.2891
  356.0000     2.1966     2.1369   515.4377   -40.2190
  356.5000     2.1197     2.0279   532.0271   -40.2331
  357.0000     2.1664     2.1089   555.1205   -40.3848
  357.5000     2.3281     2.2762   545.1581   -40.5265
  358.0000     2.4923     2.4214   519.0942   -40.6754
  358.5000     2.6269     2.5767   486.9822   -40.8200
  359.0000     2.8688     2.7265   454.8702   -40.9680
  359.5000     3.1581     2.8793   422.7582   -41.1120
  360.0000     3.4744     3.0306   390.6462   -41.2621
  360.5000     4.0113     3.1826   363.5542   -41.4016
  361.0000     4.1449     3.3341   343.9036   -41.5643
  361.5000     4.2627     3.4859   326.9096   -41.6440
