~VERSION INFORMATION
 VERS.                2.0:   CWLS LOG ASCII STANDARD - VERSION 2.0
 WRAP.                 NO:   ONE LINE PER DEPTH STEP
~WELL INFORMATION
#MNEM.UNIT      DATA TYPE    INFORMATION
#----------   ------------   ------------------------------
 STRT.F            0.0000:   START DEPTH
 STOP.F          547.0000:   STOP DEPTH
 STEP.F            0.1000:   STEP LENGTH
 NULL.          -999.2500:   NO VALUE
 COMP.       F D SERV INC:   COMPANY
 WELL.    87-5 SX 3 #87-3:   WELL
 FLD .             TEAPOT:   FIELD
 LOC .       S3 T38N R78W:   LOCATION
 CNTY.            NATRONA:   COUNTY
 STAT.            WYOMING:   STATE
 CTRY. UNITED STATES OF AMERICA:   COUNTRY
 SRVC.     Atlas Wireline:   SERVICE COMPANY
 DATE.        31-OCT-1992:   LOGDATE
 API .       490252254800:   API NUMBER
~CURVE INFORMATION
#MNEM.UNIT       API CODE    CURVE DESCRIPTION
#----------   ------------   ------------------------------
 DEPT.F                  :   
 GRR .GAPI   07 310 01 00:   GAMMA RAY
 RILD.OHMM   07 120 46 00:   INDUCTION LOG DEEP RESISTIVITY
 RILM.OHMM   07 120 44 00:   INDUCTION LOG MEDIUM RESISTIVITY
~PARAMETER INFORMATION
#MNEM.UNIT          VALUE    DESCRIPTION
#----------   ------------   ------------------------------
 PD  .                 GL:   PERMANENT DATUM
 EPD .F              5119:   ELEVATION PERMANENT DATUM
 LMF .                 KB:   LOG MEASURED FROM
 DAPD.F                10:   FEET ABOVE PERMANENT DATUM
 DMF .                 KB:   DRILLING MEASURED FROM
 EKB .F              5129:   KELLING BUSHING
 EDF .F              5128:   DRILLING FLOOR
 EGL .F              5119:   GROUND LEVEL
 DATE.        31-OCT-1992:   RUN DATE
 RUN .                  1:   RUN NUMBER
 DD  .F               568:   DEPTH DRILLER
 DL  .F               555:   DEPTH LOGGER
 BLI .F               547:   BOTTOM LOG INTERVAL
 TLI .F                71:   TOP LOG INTERVAL
 CS  .IN            8.625:   CASING SIZE
 CBD .F                70:   CASING BOTTOM DRILLER
 CBL .F                71:   CASING BOTTOM LOGGER
 BS  .IN            7.875:   BIT SIZE
 BSD .F               568:   BIT SIZE AT DEPTH
 DFT .           AIR FOAM:   DRILLING FLUID TYPE
 TCS .HRS               2:   TIME CURCULATED STOPPED
 MRT .F                64:   MAXIMUM RECORDED TEMPERATURE
 LUN .            HL-6274:   LOGGING UNIT NUMBER
 LUL .             CASPER:   LOGGING UNIT LOCATION
 ENGI.        P.RASHUSSEN:   RECORDING ENGINEER
 WITN.     BRUCE ANDERSON:   WITNESSED BY
 CLNT.            A2DTECH:   CLIENT CODE
 ORIG.           5" PRINT:   ORIGIN OF DATA
 UWI .       490252254800:   UNIQUE WELL ID
 DICO. A2D Technologies, Inc.:   DIGITIZING COMPANY
~OTHER INFORMATION
~A    DEPT      GRR      RILD       RILM   
# ...
  400.4000    98.7257    16.5252    16.8098
  400.5000    99.0774    16.3335    16.6918
  400.6000    99.3279    16.2199    16.4960
  400.7000    99.5784    16.2001    16.3993
  400.8000    99.8288    16.1050    16.3026
  400.9000   100.0793    15.8825    16.0959
  401.0000   100.3298    15.8078    15.8876
  401.1000   100.5803    15.7156    15.7765
  401.2000   100.9319    15.6240    15.5906
  401.3000   101.3847    15.5329    15.4996
  401.4000   101.6352    15.4422    15.4083
  401.5000   101.6323    15.3354    15.2655
  401.6000   101.8327    15.2628    15.1212
  401.7000   102.0831    15.1201    15.0483
  401.8000   102.3336    14.9805    15.0468
  401.9000   102.5340    14.8931    14.9595
  402.0000   102.5311    14.8049    14.8713
  402.1000   102.5282    14.6019    14.7837
  402.2000   102.7286    14.5324    14.7292
  402.3000   102.8273    14.4996    14.7122
  402.4000   102.8249    14.4291    14.6238
  402.5000   102.8225    14.2616    14.6224
  402.6000   102.8200    14.0994    14.5549
  402.7000   102.8176    14.0989    14.5178
  402.8000   102.8152    14.0986    14.4846
  402.9000   102.6610    14.0982    14.3992
  403.0000   102.3045    14.0978    14.3122
  403.1000   101.8468    14.0974    14.2299
  403.2000   101.5915    14.0949    14.2099
  403.3000   101.3362    13.9985    14.2085
  403.4000   100.6762    13.9982    14.2380
  403.5000   100.2185    13.9978    14.3055
  403.6000   100.4690    13.9974    14.3038
  403.7000   101.3771    13.9970    14.3025
  403.8000   101.8805    13.9991    14.2372
  403.9000   102.4845    14.0942    14.2002
  404.0000   102.6849    14.0939    14.1988
  404.1000   103.0871    14.0935    14.1974
  404.2000   103.5905    14.0931    14.1959
  404.3000   104.1445    14.0927    14.1946
  404.4000   104.9008    14.0952    14.1932
  404.5000   105.2013    14.1905    14.1918
  404.6000   105.4018    14.1902    14.1904
  404.7000   105.6523    14.2426    14.2025
  404.8000   105.7003    14.2887    14.2870
  404.9000   105.4450    14.3083    14.2857
  405.0000   105.1897    14.3880    14.3477
  405.1000   105.1868    14.3875    14.3830
  405.2000   104.9825    14.3872    14.4117
  405.3000   104.5754    14.3868    14.4812
  405.4000   104.1683    14.3864    14.4795
  405.5000   103.9636    14.4064    14.4781
  405.6000   103.9610    14.4863    14.5405
  405.7000   103.3513    14.4858    14.5298
  405.8000   102.9446    14.4855    14.4147
  405.9000   102.7399    14.3233    14.2591
  406.0000   102.6363    14.1478    14.1710
  406.1000   102.3810    14.0451    14.1696
  406.2000   102.1256    13.8820    14.1683
  406.3000   101.8703    13.6971    14.1669
  406.4000   101.6150    13.6968    14.1655
  406.5000   101.5114    13.6964    14.1641
  406.6000   101.5090    13.7322    14.1626
  406.7000   101.5065    13.8119    14.1613
  406.8000   101.5041    13.8921    14.2216
  406.9000   101.5017    13.9845    14.2578
  407.0000   101.4992    14.0540    14.2564
  407.1000   101.3451    14.0817    14.2550
  407.2000   101.1909    14.1189    14.2535
  407.3000   101.1885    14.2224    14.2522
  407.4000   101.1860    14.3784    14.2508
  407.5000   101.1836    14.3779    14.2048
  407.6000   101.1812    14.1639    14.1489
  407.7000   101.3305    13.9718    14.1248
  407.8000   101.4798    13.8097    13.9498
  407.9000   101.4774    13.6701    13.8728
  408.0000   101.4750    13.5904    13.7910
  408.1000   101.4720    13.5005    13.7524
  408.2000   101.4701    13.4325    13.6980
  408.3000   101.4677    13.3542    13.5486
  408.4000   101.4653    13.2763    13.4633
  408.5000   101.5134    13.2194    13.3893
  408.6000   101.7639    13.2086    13.3104
  408.7000   102.0144    13.0354    13.2319
  408.8000   102.2648    12.9694    13.1539
  408.9000   102.5153    12.9441    13.0861
  409.0000   102.7658    12.9438    13.0848
  409.1000   103.0668    12.9434    13.0133
  409.2000   103.5703    12.9375    12.9913
  409.3000   103.8207    12.8526    12.9900
  409.4000   104.0712    12.8523    12.9887
  409.5000   104.4734    12.8520    12.9875
  409.6000   104.8757    12.8516    12.9861
  409.7000   105.0756    12.8512    13.1820
  409.8000   105.0731    12.8955    13.1105
  409.9000   105.4258    13.1224    13.1094
  410.0000   105.3111    13.1220    13.1086
  410.1000   105.2165    13.1216    13.1077
  410.2000   104.9602    13.1213    13.1068
  410.3000   104.6949    13.1209    13.1275
  410.4000   104.4475    13.1205    13.1969
  410.5000   104.1912    13.1202    13.1958
  410.6000   103.9348    13.1198    13.2631
  410.7000   103.6785    13.1194    13.3397
  410.8000   103.4222    13.1191    13.3409
  410.9000   103.1593    13.0427    13.2625
  411.0000   102.9095    12.9667    13.1913
  411.1000   102.8498    12.8912    13.1903
  411.2000   102.8467    12.8161    13.1214
  411.3000   102.8437    12.7414    13.0967
  411.4000   102.9789    12.6671    13.0585
  411.5000   103.7481    12.5934    12.9818
  411.6000   103.9943    12.5200    12.9055
  411.7000   104.8418    12.4471    12.8216
  411.8000   105.8521    12.4034    12.8208
  411.9000   106.7636    12.4030    12.8199
  412.0000   107.4234    12.4027    12.8190
  412.1000   107.6752    12.4022    12.7960
  412.2000   108.1756    12.3445    12.7280
  412.3000   108.6791    12.3154    12.7270
  412.4000   109.3340    12.3150    12.7262
  412.5000   109.6864    12.3291    12.7253
  412.6000   109.3790    12.4006    12.7244
  412.7000   108.8694    12.4002    12.7236
  412.8000   108.2604    12.3999    12.7227
  412.9000   107.8501    12.3995    12.7217
  413.0000   107.4942    12.3992    12.7209
  413.1000   107.0307    12.3989    12.6680
  413.2000   106.4279    12.3985    12.6306
  413.3000   106.4121    12.3263    12.6073
  413.4000   105.2073    12.3116    12.5410
  413.5000   104.7921    12.3113    12.5400
  413.6000   104.4386    12.3109    12.5392
  413.7000   104.2883    12.3106    12.4868
  413.8000   104.4528    12.3102    12.4502
  413.9000   105.2097    12.2242    12.4494
  414.0000   106.0996    12.2240    12.4485
  414.1000   106.7235    12.2236    12.4475
  414.2000   107.6389    12.2233    12.4467
  414.3000   108.5408    12.2229    12.4978
  414.4000   109.2978    12.2226    12.5322
  414.5000   110.0466    12.2222    12.5313
  414.6000   110.6338    12.2219    12.5220
  414.7000   111.0537    12.2216    12.4423
  414.8000   111.3963    12.2212    12.4415
  414.9000   111.6465    12.2209    12.4407
  415.0000   111.8361    12.2205    12.4398
  415.1000   111.8121    12.2201    12.4389
  415.2000   111.2226    12.2199    12.4381
  415.3000   110.5789    12.2195    12.4371
  415.4000   109.8160    12.2192    12.4363
  415.5000   109.0530    12.2188    12.4355
  415.6000   108.2270    12.2185    12.4727
  415.7000   107.2236    12.2182    12.5208
  415.8000   106.3486    12.2749    12.5200
  415.9000   105.2656    12.3030    12.5190
  416.0000   104.3277    12.3027    12.5861
  416.1000   103.7962    12.3167    12.6051
  416.2000   103.6055    12.3881    12.6431
  416.3000   103.6178    12.3877    12.6916
  416.4000   103.9025    12.3874    12.6907
  416.5000   104.1184    12.3871    12.6898
  416.6000   104.7054    12.4157    12.7581
  416.7000   105.3441    12.4732    12.7770
  416.8000   105.8476    12.4728    12.7761
  416.9000   106.3158    12.5597    12.7752
  417.0000   106.3122    12.5594    12.7743
  417.1000   106.5306    12.6030    12.7733
  417.2000   106.7808    12.6762    12.7725
  417.3000   107.0311    12.7348    12.7716
  417.4000   107.2814    12.7345    12.8109
  417.5000   107.5116    12.7341    12.8593
  417.6000   107.5080    12.7338    12.8690
  417.7000   107.9521    12.7334    12.9476
  417.8000   107.7629    12.7628    12.9467
  417.9000   107.1302    12.8219    12.9458
  418.0000   106.2945    12.8215    12.9449
  418.1000   105.2556    12.8959    12.9701
  418.2000   103.8479    12.9106    13.0339
  418.3000   102.9422    12.9102    13.0328
  418.4000   101.9259    12.9400    13.0320
  418.5000   101.1605    12.9999    13.0311
