~VERSION INFORMATION
 VERS.                2.0:   CWLS LOG ASCII STANDARD - VERSION 2.0
 WRAP.                 NO:   ONE LINE PER DEPTH STEP
~WELL INFORMATION
#MNEM.UNIT      DATA TYPE    INFORMATION
#----------   ------------   ------------------------------
 STRT.F           95.0000:   START DEPTH
 STOP.F          914.0000:   STOP DEPTH
 STEP.F            0.5000:   STEP LENGTH
 NULL.          -999.2500:   NO VALUE
 COMP. LAWRENCE/ALLISON INC:   COMPANY
 WELL. NPR ##3 31-61 SX 2:   WELL
 FLD .             TEAPOT:   FIELD
 LOC .       S2 T38N R78W:   LOCATION
 CNTY.            NATRONA:   COUNTY
 STAT.            WYOMING:   STATE
 CTRY. UNITED STATES OF AMERICA:   COUNTRY
 SRVC.      Dresser Atlas:   SERVICE COMPANY
 DATE.        30-JAN-1986:   LOGDATE
 API .       490251106800:   API NUMBER
~CURVE INFORMATION
#MNEM.UNIT       API CODE    CURVE DESCRIPTION
#----------   ------------   ------------------------------
 DEPT.F                  :   
 RILD.OHMM   07 120 46 00:   INDUCTION LOG DEEP RESISTIVITY
 RILM.OHMM   07 120 44 00:   INDUCTION LOG MEDIUM RESISTIVITY
 CALD.IN     45 280 60 00:   CALIPER FROM DENSITY
 GRD .GAPI   45 310 01 00:   GAMMA RAY FROM DENSITY LOG
 CORR.G/C3   45 356 01 00:   DENSITY CORRECTION
 PORD.DEC    45 890 10 00:   POROSITY DENSITY LIMESTONE
 DEN .G/C3   45 350 01 00:   COMPENSATED BULK DENSITY
~PARAMETER INFORMATION
#MNEM.UNIT          VALUE    DESCRIPTION
#----------   ------------   ------------------------------
 PD  .                 GL:   PERMANENT DATUM
 EPD .F              5126:   ELEVATION PERMANENT DATUM
 LMF .                 GL:   LOG MEASURED FROM
 DMF .                 GL:   DRILLING MEASURED FROM
 EGL .F              5126:   GROUND LEVEL
 DATE.        30-JAN-1986:   RUN DATE
 RUN .                  1:   RUN NUMBER
 DD  .F               925:   DEPTH DRILLER
 DL  .F               918:   DEPTH LOGGER
 BLI .F               910:   BOTTOM LOG INTERVAL
 CS  .IN            8.625:   CASING SIZE
 CBD .F               127:   CASING BOTTOM DRILLER
 CBL .F               127:   CASING BOTTOM LOGGER
 BS  .IN             6.25:   BIT SIZE
 BSD .F               925:   BIT SIZE AT DEPTH
 DFT .                AIR:   DRILLING FLUID TYPE
 LUN .            HL-6264:   LOGGING UNIT NUMBER
 LUL .           GILLETTE:   LOGGING UNIT LOCATION
 ENGI.     P. M. FAHLSING:   RECORDING ENGINEER
 WITN.        LINOA FIVAS:   WITNESSED BY
 CLNT.            A2DTECH:   CLIENT CODE
 ORIG.           5" PRINT:   ORIGIN OF DATA
 UWI .       490251106800:   UNIQUE WELL ID
 DICO. A2D Technologies, Inc.:   DIGITIZING COMPANY
~OTHER INFORMATION
~A   DEPT     RILD       RILM       CALD         GRD      CORR       PORD        DEN   
# ...
  413.5000     7.3982     6.9729     6.7265   132.4122     0.1432     0.0866     2.5307
  414.0000     7.1959     6.8284     6.7270   130.3099     0.1582     0.0936     2.5209
  414.5000     6.9992     6.7335     6.7274   128.2077     0.1702     0.0942     2.5156
  415.0000     6.8552     6.6399     6.7279   127.3084     0.1704     0.0966     2.5081
  415.5000     6.7608     6.5476     6.7283   127.9129     0.1567     0.1042     2.4960
  416.0000     6.6678     6.5467     6.7288   127.3145     0.1582     0.1205     2.4749
  416.5000     6.5760     6.4557     6.7292   128.2197     0.1822     0.1223     2.4704
  417.0000     6.5760     6.4548     6.7297   131.2303     0.2093     0.1220     2.4764
  417.5000     6.5760     6.3651     6.7150   129.1280     0.2140     0.1190     2.4854
  418.0000     6.5306     6.3202     6.7155   127.9280     0.1461     0.1093     2.4952
  418.5000     6.4855     6.2757     6.7160   128.8333     0.1265     0.1039     2.5020
  419.0000     6.4855     6.2748     6.7164   131.5430     0.1175     0.1033     2.5035
  419.5000     6.3962     6.2740     6.7169   134.2528     0.1145     0.1087     2.4929
  420.0000     6.3962     6.2733     6.7173   136.9626     0.1159     0.1145     2.4846
  420.5000     6.3520     6.2724     6.7178   136.3641     0.1234     0.1175     2.4816
  421.0000     6.3520     6.3236     6.7182   133.9611     0.1294     0.1181     2.4809
  421.5000     6.3962     6.3666     6.7187   131.2574     0.1249     0.1199     2.4733
  422.0000     6.4407     6.4544     6.7191   130.0574     0.1054     0.1305     2.4598
  422.5000     6.5306     6.5889     6.7196   130.3611     0.0873     0.1353     2.4507
  423.0000     6.6217     6.7179     6.7200   129.7626     0.0858     0.1359     2.4484
  423.5000     6.7608     6.8190     6.7205   125.5551     0.0933     0.1326     2.4588
  424.0000     6.9509     6.9131     6.7209   123.1521     0.1113     0.1232     2.4716
  424.5000     7.0479     7.0002     6.7214   124.6589     0.1338     0.1172     2.4826
  425.0000     7.1959     7.0560     6.7218   126.1657     0.1398     0.1160     2.4853
  425.5000     7.2460     7.1453     6.7223   126.7702     0.1353     0.1184     2.4792
  426.0000     7.2460     7.1940     6.7227   123.1642     0.0977     0.1172     2.4872
  426.5000     7.2964     7.2430     6.7382   121.3627     0.1218     0.1103     2.4975
  427.0000     7.2964     7.2420     6.7387   121.3657     0.1443     0.1027     2.5083
  427.5000     7.2964     7.1835     6.7391   121.6694     0.1533     0.0931     2.5178
  428.0000     7.2460     7.0910     6.7396   123.7777     0.1608     0.0919     2.5207
  428.5000     7.1959     6.9924     6.7400   125.8860     0.1593     0.0973     2.5152
  429.0000     7.1410     6.8885     6.7405   127.9943     0.1488     0.1006     2.5100
  429.5000     7.0420     6.7058     6.7409   129.8018     0.1292     0.1003     2.5055
  430.0000     6.9509     6.6065     6.7414   130.7067     0.1126     0.1021     2.5033
  430.5000     6.8552     6.4756     6.7418   132.5142     0.1186     0.1040     2.5010
  431.0000     6.8003     6.4300     6.7423   134.3217     0.1291     0.1043     2.4995
  431.5000     6.7527     6.3847     6.7427   135.8285     0.1397     0.1055     2.4987
  432.0000     6.7141     6.4335     6.7432   135.5308     0.1487     0.1076     2.4973
  432.5000     6.7608     6.5676     6.7436   135.3835     0.1547     0.1079     2.4972
  433.0000     6.8078     6.7045     6.7591   135.5368     0.1516     0.1088     2.4965
  433.5000     6.9992     6.8919     6.7596   133.8857     0.1231     0.1127     2.4897
  434.0000     7.1959     7.0844     6.7600   131.0316     0.1095     0.1161     2.4814
  434.5000     7.3471     7.2824     6.7605   128.6285     0.1110     0.1148     2.4837
  435.0000     7.5015     7.4807     6.7459   124.8721     0.1170     0.1158     2.4814
  435.5000     7.7123     7.6419     6.7313   120.5143     0.1230     0.1194     2.4799
  436.0000     7.8743     7.8012     6.7317   121.2691     0.1275     0.1179     2.4836
  436.5000     7.9842     7.9088     6.7322   123.5278     0.1305     0.1137     2.4919
  437.0000     7.9842     7.9578     6.7326   125.0346     0.1335     0.1082     2.4987
  437.5000     7.9291     7.8381     6.7331   123.2331     0.1335     0.1022     2.5047
  438.0000     7.7123     7.4662     6.7335   122.9353     0.1349     0.0992     2.5107
  438.5000     7.5015     7.1653     6.7340   124.7429     0.1349     0.1010     2.5108
  439.0000     7.2460     6.9721     6.7344   127.4527     0.1244     0.1028     2.5069
  439.5000     7.0969     6.8244     6.7349   129.2601     0.1078     0.1040     2.5054
  440.0000     6.9992     6.6370     6.7504   130.3159     0.1048     0.1031     2.5069
  440.5000     6.8552     6.4548     6.7508   131.0707     0.1379     0.1016     2.5084
  441.0000     6.7608     6.3213     6.7513   131.2241     0.1559     0.0995     2.5114
  441.5000     6.7141     6.2360     6.7668   131.5279     0.1634     0.0983     2.5137
  442.0000     6.6678     6.2351     6.7672   130.9294     0.1544     0.0989     2.5114
  442.5000     6.6678     6.2364     6.7526   126.7219     0.1384     0.1022     2.5061
  443.0000     6.7141     6.3664     6.7380   125.0707     0.1240     0.1074     2.5009
  443.5000     6.8078     6.5443     6.7385   126.4272     0.1182     0.1086     2.4986
  444.0000     6.9029     6.7721     6.7389   128.9865     0.1282     0.1065     2.5016
  444.5000     7.0479     6.8674     6.7243   128.3881     0.1457     0.1037     2.5061
  445.0000     7.1462     6.9621     6.7099   127.4888     0.1528     0.1010     2.5069
  445.5000     7.1959     7.0581     6.7103   127.7922     0.1543     0.1016     2.5084
  446.0000     7.2460     7.2039     6.6957   128.6974     0.1606     0.1007     2.5106
  446.5000     7.2964     7.2530     6.6962   127.7982     0.1663     0.1004     2.5083
  447.0000     7.3471     7.2520     6.6966   124.7937     0.1541     0.1062     2.4963
  447.5000     7.3471     7.2510     6.6971   121.1877     0.1527     0.1234     2.4684
  448.0000     7.4497     7.2500     6.6975   121.1907     0.1620     0.1330     2.4541
  448.5000     7.5015     7.2994     6.6980   122.6975     0.1647     0.1337     2.4556
  449.0000     7.5536     7.3491     6.7285   123.6028     0.1586     0.1294     2.4699
  449.5000     7.6062     7.3481     6.7590   123.9065     0.1587     0.1165     2.4872
  450.0000     7.6591     7.3982     6.7754   124.5110     0.1632     0.1066     2.5015
  450.5000     7.5525     7.3466     6.7880   126.5891     0.1525     0.0990     2.5068
  451.0000     7.5515     7.3461     6.8005   129.3112     0.1328     0.0960     2.5120
  451.5000     7.5504     7.3455     6.8045   130.5226     0.1209     0.0942     2.5158
  452.0000     7.4454     7.2943     6.8045   126.9003     0.1349     0.0930     2.5188
  452.5000     7.3419     7.2434     6.8195   125.6948     0.1479     0.0918     2.5233
  453.0000     7.2399     7.0939     6.8195   125.3957     0.1244     0.0836     2.5361
  453.5000     7.1392     6.9475     6.8195   125.7008     0.0952     0.0725     2.5541
  454.0000     7.0400     6.8040     6.8195   129.3292     0.0711     0.0682     2.5812
  454.5000     6.9904     6.7566     6.8195   134.1661     0.0982     0.0885     2.5435
  455.0000     6.9412     6.6631     6.8045   137.7944     0.1356     0.0985     2.5149
  455.5000     6.8923     6.6166     6.8045   139.0059     0.1401     0.1078     2.5066
  456.0000     6.8437     6.6162     6.7895   135.0815     0.1401     0.1112     2.4998
  456.5000     6.8428     6.5700     6.7886   127.5316     0.1490     0.1112     2.4960
  457.0000     6.8418     6.5696     6.7744   126.9304     0.1565     0.1100     2.4959
  457.5000     6.8409     6.6148     6.7895   128.1418     0.1459     0.1037     2.5005
  458.0000     6.8399     6.6144     6.8218   130.5618     0.1414     0.0985     2.5073
  458.5000     6.8390     6.6599     6.8647   127.8457     0.1534     0.0958     2.5133
