~VERSION INFORMATION
 VERS.                2.0:   CWLS LOG ASCII STANDARD - VERSION 2.0
 WRAP.                 NO:   ONE LINE PER DEPTH STEP
~WELL INFORMATION
#MNEM.UNIT      DATA TYPE    INFORMATION
#----------   ------------   ------------------------------
 STRT.F           27.0000:   START DEPTH
 STOP.F          760.0000:   STOP DEPTH
 STEP.F            0.5000:   STEP LENGTH
 NULL.          -999.2500:   NO VALUE
 COMP. FENIX & SCISSON INC:   COMPANY
 WELL.    NPR #3 #33-S-14:   WELL
 FLD .             TEAPOT:   FIELD
 LOC .      S14 T38N R78W:   LOCATION
 CNTY.            NATRONA:   COUNTY
 STAT.            WYOMING:   STATE
 CTRY. UNITED STATES OF AMERICA:   COUNTRY
 SRVC.              Welex:   SERVICE COMPANY
 DATE.        02-FEB-1977:   LOGDATE
 API .       490251027700:   API NUMBER
~CURVE INFORMATION
#MNEM.UNIT       API CODE    CURVE DESCRIPTION
#----------   ------------   ------------------------------
 DEPT.F                  :   
 SPR .MV     07 010 01 00:   SPONTANEOUS POTENTIAL
 SGRD.OHMM   07 220 05 00:   SHALLOW RESISTIVITY
 ILD .OHMM   07 120 46 00:   INDUCTION LOG DEEP
 ILM .OHMM   07 120 44 00:   INDUCTION LOG MEDIUM
 GRD .GAPI   45 310 01 00:   GAMMA RAY FROM DENSITY LOG
 CALD.IN     45 280 60 00:   CALIPER
 RHOB.G/C3   45 350 01 00:   BULK DENSITY
 CORR.G/C3   45 356 01 00:   DENSITY CORRECTION
 DPHI.DEC    45 890 00 00:   DENSITY POROSITY
~PARAMETER INFORMATION
#MNEM.UNIT          VALUE    DESCRIPTION
#----------   ------------   ------------------------------
 PD  .                 GL:   PERMANENT DATUM
 EPD .F              5219:   ELEVATION PERMANENT DATUM
 LMF .                 GL:   LOG MEASURED FROM
 DMF .                 GL:   DRILLING MEASURED FROM
 EKB .F              5224:   KELLING BUSHING
 EGL .F              5219:   GROUND LEVEL
 DATE.           2-2-1977:   RUN DATE
 RUN .                  1:   RUN NUMBER
 DD  .F               761:   DEPTH DRILLER
 DL  .F               762:   DEPTH LOGGER
 BLI .F               760:   BOTTOM LOG INTERVAL
 TLI .F                25:   TOP LOG INTERVAL
 CS  .IN            8.625:   CASING SIZE
 CBD .F              42.5:   CASING BOTTOM DRILLER
 CBL .F                46:   CASING BOTTOM LOGGER
 BS  .IN            7.875:   BIT SIZE
 BSD .F               761:   BIT SIZE AT DEPTH
 DFT .           CHEM-GEL:   DRILLING FLUID TYPE
 DFD .                8.9:   DRILLING FLUID DENSITY
 DFV .                 37:   DRILLING FLUID VISCOSITY
 DFPH.                  7:   DRILLING FLUID PH
 DFL .                8.4:   DRILLING FLUID LOSS
 MSS .          FLOW LINE:   MUD SAMPLE SOURCE
 RMS .OHMM           .231:   RESISTIVITY MUD SAMPLE
 MST .F                45:   MUD SAMPLE TEMPERATURE
 RMF .OHMM           .322:   RESISTIVITY MUD FILTRATE SAMPLE
 MFST.F                45:   MUD FILTRATE SAMPLE TEMPERATURE
 RMC .OHMM           .439:   RESISTIVITY MUD CAKE
 MCST.F                45:   MUD CAKE SAMPLE TEMPERATURE
 MFSS.           MEASURED:   MUD FILTRATE SAMPLE SOURCE
 MCSS.           MEASURED:   MUD CAKE SAMPLE SOURCE
 RMB .OHMM           .182:   RESISTIVITY MUD AT BHT
 BHT .F                57:   BOTTOM HOLE TEMPERATURE
 TCS .HRS             5.5:   TIME CURCULATED STOPPED
 MRT .F                57:   MAXIMUM RECORDED TEMPERATURE
 LUN .               8611:   LOGGING UNIT NUMBER
 LUL .           GILLETTE:   LOGGING UNIT LOCATION
 ENGI.             LAWSON:   RECORDING ENGINEER
 WITN. VOORHEES/RHOADES/JAPP/PETTINGILL/STUEBINGER:   WITNESSED BY
 CLNT.            A2DTECH:   CLIENT CODE
 ORIG.     1", 2.5" PRINT:   ORIGIN OF DATA
 UWI .       490251027700:   UNIQUE WELL ID
 DICO. A2D Technologies, Inc.:   DIGITIZING COMPANY
~OTHER INFORMATION
~A   DEPT      SPR       SGRD        ILD        ILM        GRD       CALD         RHOB      CORR      DPHI   
# ...
  574.5000   -32.4019    10.2411     6.0142     6.8893   126.1055     8.2988     2.5237     0.0966     0.0716
  575.0000   -32.5737    10.1217     6.2228     7.0527   124.6915     8.2524     2.5178     0.1001     0.0768
  575.5000   -32.7388     9.9175     6.0360     7.0328   126.5804     8.3151     2.5101     0.0962     0.0809
  576.0000   -32.9072     9.6625     5.8549     6.7898   128.3711     8.3853     2.5024     0.0925     0.0850
  576.5000   -33.0726     9.4141     5.6791     6.5552   129.1444     8.3186     2.4946     0.0887     0.0892
  577.0000   -33.2411     9.1834     5.5087     6.3287   126.6135     8.2015     2.5001     0.0851     0.0923
  577.5000   -33.4130     8.8151     5.3433     6.1100   123.8411     8.0794     2.5080     0.0813     0.0869
  578.0000   -33.4770     8.4774     5.1829     5.8989   126.9165     8.1283     2.5000     0.0777     0.0823
  578.5000   -33.2568     6.5479     5.0274     5.6950   129.6182     8.2714     2.4871     0.0740     0.0890
  579.0000   -33.0437     4.7126     4.8906     5.3654   128.5301     8.4152     2.4764     0.0702     0.0961
  579.5000   -32.8226     9.3551     4.9750     5.4306   127.9990     8.3384     2.4824     0.0665     0.1014
  580.0000   -32.6035     9.0332     5.0533     5.6503   130.0661     8.2535     2.4912     0.0627     0.0933
  580.5000   -32.3851     8.1954     5.1958     5.8790   132.1751     8.3164     2.5001     0.0652     0.0869
  581.0000   -32.1654     7.4360     5.3672     6.1169   129.6347     8.3875     2.5089     0.0683     0.0804
  581.5000   -31.9460     8.6300     5.5443     6.3645   126.4949     8.3790     2.5178     0.0714     0.0716
  582.0000   -31.7280     9.6762     5.7272     6.6221   123.3264     8.3479     2.5215     0.0698     0.0745
  582.5000   -31.5068     9.8985     5.9162     6.8900   121.9305     8.3834     2.5125     0.0658     0.0791
  583.0000   -31.2895    10.1290     6.1114     7.1689   121.5982     8.4220     2.5021     0.0617     0.0837
  583.5000   -31.0742    10.3644     6.3130     7.4590   121.2891     8.4191     2.4918     0.0576     0.0883
  584.0000   -30.8379    10.5067     6.5213     7.7609   120.9793     8.3722     2.4813     0.0536     0.0931
  584.5000   -30.8212    10.5914     6.7364     8.0661   120.6694     8.3286     2.4813     0.0495     0.0991
  585.0000   -30.9956    10.6769     6.9587     8.1967   120.3520     8.3617     2.4867     0.0475     0.0993
  585.5000   -31.1455    10.7631     7.1344     8.3258   119.7890     8.3975     2.4893     0.0514     0.0966
  586.0000   -31.2964    10.8499     7.2468     8.3855   119.2279     8.4189     2.4852     0.0551     0.0984
  586.5000   -31.4681    10.9375     7.3609     8.4083   118.6685     8.4035     2.4854     0.0588     0.1002
  587.0000   -31.5080    11.0258     7.4769     8.4310   118.1062     8.3906     2.4925     0.0625     0.0950
  587.5000   -31.3639    11.1147     7.6279     8.4539   117.5250     8.3736     2.4998     0.0662     0.0897
  588.0000   -31.2367    11.2044     7.6231     8.4768   118.2272     8.4220     2.5003     0.0699     0.0843
  588.5000   -31.1070    11.2949     7.6135     8.4997   119.1186     8.4602     2.4981     0.0738     0.0869
  589.0000   -30.9747    11.3860     7.6042     8.5227   120.0127     8.4404     2.4958     0.0703     0.0897
  589.5000   -30.8439    11.4779     7.5945     8.5458   120.9073     8.4217     2.4936     0.0652     0.0922
  590.0000   -30.7146    11.5705     7.5848     8.5690   121.8182     8.4008     2.4916     0.0601     0.0875
  590.5000   -30.5824    11.6639     7.5751     8.5922   121.1835     8.3250     2.4964     0.0565     0.0837
  591.0000   -30.4473    11.4331     7.5654     8.6155   120.3323     8.3070     2.5018     0.0566     0.0854
  591.5000   -30.4037    11.1206     7.5559     8.6388   119.4795     8.3067     2.5072     0.0595     0.0871
  592.0000   -30.5844    10.8133     7.5464     8.6622   118.6311     8.3069     2.5127     0.0626     0.0841
  592.5000   -30.7586    10.4611     7.5367     8.6850   117.7788     8.3069     2.5136     0.0657     0.0804
  593.0000   -30.9388    10.9185     7.5271     8.7086   116.9026     8.3069     2.5115     0.0658     0.0778
  593.5000   -31.1183    11.5023     7.5176     8.7315   116.2791     8.3069     2.5055     0.0648     0.0827
  594.0000   -31.2963    12.1171     7.5081     8.7564   116.3166     8.3069     2.4993     0.0638     0.0876
  594.5000   -31.4764    12.5703     7.4985     8.7802   118.0317     8.3069     2.4912     0.0628     0.0925
  595.0000   -31.6557    12.4954     7.4898     8.8039   119.8379     8.3069     2.4802     0.0618     0.0977
  595.5000   -31.8313    12.4189     7.0978     8.8278   121.6453     8.3069     2.4696     0.0608     0.1075
  596.0000   -32.0183    12.3497     6.7529     8.8492   123.4500     8.3069     2.4455     0.0567     0.1235
  596.5000   -32.1898    12.5854     6.4247     8.2081   125.2562     8.3069     2.4171     0.0515     0.1412
  597.0000   -32.3158    12.9624     6.1110     7.6670   127.0783     8.3069     2.3886     0.0463     0.1590
  597.5000   -31.9853     9.7111     5.8137     7.1616   128.8533     8.3069     2.3484     0.0411     0.1737
  598.0000   -31.7129     6.2274     5.4988     6.5786   125.6326     8.3069     2.3919     0.0375     0.1800
  598.5000   -31.3872     3.9268     5.5597     6.7134   121.7611     8.3069     2.4763     0.0451     0.0947
  599.0000   -31.1118     6.9402     5.6905     7.1028   117.8931     8.3069     2.5123     0.0525     0.0777
  599.5000   -30.5032    12.6042     5.8250     7.5149   115.2085     8.3069     2.5067     0.0600     0.0763
  600.0000   -29.9845    13.1809     6.1040     7.9508   114.5914     8.3069     2.5119     0.0673     0.0729
  600.5000   -29.4356    13.3741     6.5049     8.4120   115.5728     8.3070     2.5248     0.0732     0.0673
  601.0000   -28.8979    13.5815     6.9261     8.9000   116.4465     8.3071     2.5390     0.0753     0.0643
  601.5000   -28.3716    13.8026     7.3745     9.4163   115.3411     8.3082     2.5336     0.0776     0.0682
  602.0000   -27.8604    14.0596     7.8520     9.9626   114.2669     8.2609     2.5250     0.0754     0.0728
  602.5000   -27.3616    13.8521     8.3604    10.3070   115.6948     8.2037     2.5164     0.0706     0.0785
  603.0000   -26.8630    13.6079     8.6565    10.3998   117.1757     8.1527     2.5078     0.0659     0.0834
  603.5000   -26.3631    13.3671     8.8488    10.4935   118.1841     8.1605     2.4992     0.0611     0.0871
  604.0000   -25.8581    13.1318     9.0453    10.5880   116.1504     8.1698     2.4909     0.0563     0.0907
  604.5000   -25.3745    12.9003     9.2462    10.6833   112.9315     8.1789     2.5050     0.0539     0.0848
  605.0000   -24.8522    12.5862     9.4516    10.7795   109.4217     8.1880     2.5253     0.0615     0.0764
  605.5000   -24.3508    12.6985     9.6615    10.8766   105.9611     8.1970     2.5125     0.0689     0.0721
  606.0000   -23.2040    12.9157    10.0324    10.9746   102.5615     8.2059     2.4924     0.0650     0.0868
  606.5000   -22.1423    13.1332    10.4640    11.1243    98.9913     8.2110     2.4726     0.0620     0.0981
  607.0000   -21.0310    13.3764    10.9141    11.4790    92.6531     8.2547     2.4766     0.0718     0.1019
  607.5000   -19.9437    14.1688    11.3835    11.9036    86.0222     8.3015     2.4815     0.0817     0.1000
  608.0000   -18.6858    17.1042    11.8732    13.1443    76.2228     8.3505     2.4668     0.0916     0.0980
  608.5000   -17.3409    21.1434    12.3839    14.7857    67.1838     8.2711     2.4276     0.0991     0.1230
  609.0000   -15.9999    20.8554    12.9166    16.1505    65.5063     8.1319     2.3886     0.0866     0.1529
  609.5000   -14.8732    20.3741    13.4923    17.5668    63.7580     7.9913     2.3496     0.0742     0.1915
  610.0000   -14.4166    24.9810    14.1425    17.2407    63.4953     7.8574     2.2977     0.0619     0.1909
  610.5000   -14.0953    21.9190    14.3717    16.6209    68.3204     7.7379     2.3239     0.0541     0.1821
