~VERSION INFORMATION
 VERS.                2.0:   CWLS LOG ASCII STANDARD - VERSION 2.0
 WRAP.                 NO:   ONE LINE PER DEPTH STEP
~WELL INFORMATION
#MNEM.UNIT      DATA TYPE    INFORMATION
#----------   ------------   ------------------------------
 STRT.F          588.0000:   START DEPTH
 STOP.F         1583.5000:   STOP DEPTH
 STEP.F            0.5000:   STEP LENGTH
 NULL.          -999.2500:   NO VALUE
 COMP.   FENIX & SCISSONS:   COMPANY
 WELL.   NPR 3 #23STX1-11:   WELL
 FLD .             TEAPOT:   FIELD
 LOC .      S11 T38N R78W:   LOCATION
 CNTY.            NATRONA:   COUNTY
 STAT.            WYOMING:   STATE
 CTRY. UNITED STATES OF AMERICA:   COUNTRY
 SRVC.            Unknown:   SERVICE COMPANY
 DATE.        15-JUN-1979:   LOGDATE
 API .       490251078300:   API NUMBER
~CURVE INFORMATION
#MNEM.UNIT       API CODE    CURVE DESCRIPTION
#----------   ------------   ------------------------------
 DEPT.F                  :   
 RHOB.G/C3   45 350 01 00:   BULK DENSITY
 DPHI.DEC    45 890 10 00:   DENSITY POROSITY LIMESTONE
 CORR.G/C3   45 356 01 00:   DENSITY CORRECTION
 GRD .GAPI   45 310 01 00:   GAMMA RAY FROM DENSITY LOG
 CALD.IN     45 280 60 00:   CALIPER FROM DENSITY LOG
~PARAMETER INFORMATION
#MNEM.UNIT          VALUE    DESCRIPTION
#----------   ------------   ------------------------------
 PD  .                 GL:   PERMANENT DATUM
 EPD .F              5168:   ELEVATION PERMANENT DATUM
 LMF .                 KB:   LOG MEASURED FROM
 DAPD.F                10:   FEET ABOVE PERMANENT DATUM
 DMF .                 KB:   DRILLING MEASURED FROM
 EKB .F              5178:   KELLING BUSHING
 EGL .F              5168:   GROUND LEVEL
 DATE.            6-15-79:   RUN DATE
 RUN .                  1:   RUN NUMBER
 DD  .F              1580:   DEPTH DRILLER
 DL  .F              1580:   DEPTH LOGGER
 BLI .F              1578:   BOTTOM LOG INTERVAL
 TLI .F               680:   TOP LOG INTERVAL
 CS  .IN            9.625:   CASING SIZE
 CBD .F               660:   CASING BOTTOM DRILLER
 CBL .F               670:   CASING BOTTOM LOGGER
 BS  .IN             8.75:   BIT SIZE
 BSD .F              1580:   BIT SIZE AT DEPTH
 DFT .                OIL:   DRILLING FLUID TYPE
 TCS .HRS               4:   TIME CURCULATED STOPPED
 MRT .F                80:   MAXIMUM RECORDED TEMPERATURE
 LUN .               3029:   LOGGING UNIT NUMBER
 LUL .             CASPER:   LOGGING UNIT LOCATION
 ENGI.            MULLINS:   RECORDING ENGINEER
 CLNT.            A2DTECH:   CLIENT CODE
 ORIG.     1", 2.5" PRINT:   ORIGIN OF DATA
 UWI .       490251078300:   UNIQUE WELL ID
 DICO. A2D Technologies, Inc.:   DIGITIZING COMPANY
~OTHER INFORMATION
~A   DEPT     RHOB       DPHI       CORR         GRD      CALD   
# ...
  649.0000     2.6429    -0.0505    -0.1616    53.1164     9.3634
  649.5000     2.6508    -0.0539    -0.1600    54.4171     9.3628
  650.0000     2.6581    -0.0593    -0.1583    52.9323     9.3622
  650.5000     2.6648    -0.0621    -0.1597    53.0394     9.3615
  651.0000     2.6652    -0.0613    -0.1620    53.6572     9.3609
  651.5000     2.6614    -0.0608    -0.1644    53.0243     9.3603
  652.0000     2.6673    -0.0669    -0.1658    51.6100     9.3597
  652.5000     2.6736    -0.0720    -0.1651    49.7654     9.3591
  653.0000     2.6764    -0.0689    -0.1645    50.0065     9.3585
  653.5000     2.6720    -0.0664    -0.1637    52.5358     9.3579
  654.0000     2.6691    -0.0656    -0.1630    55.1848     9.3573
  654.5000     2.6667    -0.0618    -0.1624    54.4431     9.3567
  655.0000     2.6614    -0.0579    -0.1613    53.4978     9.3561
  655.5000     2.6517    -0.0540    -0.1597    53.5096     9.3555
  656.0000     2.6450    -0.0524    -0.1582    55.0062     9.3549
  656.5000     2.6467    -0.0537    -0.1566    56.0408     9.3543
  657.0000     2.6505    -0.0550    -0.1549    53.3611     9.3537
  657.5000     2.6538    -0.0567    -0.1548    53.0525     9.3537
  658.0000     2.6567    -0.0591    -0.1584    54.2686     9.3537
  658.5000     2.6551    -0.0575    -0.1617    53.9840     9.3537
  659.0000     2.6536    -0.0560    -0.1652    52.7300     9.3537
  659.5000     2.6565    -0.0575    -0.1645    51.3628     9.3537
  660.0000     2.6702    -0.0641    -0.1624    49.1626     9.3537
  660.5000     2.6709    -0.0681    -0.1603    47.8779     9.3537
  661.0000     2.6712    -0.0684    -0.1580    50.0226     9.3537
  661.5000     2.6709    -0.0686    -0.1551    52.3580     9.3537
  662.0000     2.6739    -0.0692    -0.1516    51.4409     9.3537
  662.5000     2.6832    -0.0706    -0.1478    50.3434     9.3537
  663.0000     2.6789    -0.0721    -0.1467    49.8316     9.3537
  663.5000     2.6748    -0.0633    -0.1510    52.9676     9.3537
  664.0000     2.6527    -0.0534    -0.1547    55.6225     9.3537
  664.5000     2.6498    -0.0547    -0.1576    58.4796     9.3536
  665.0000     2.6504    -0.0556    -0.1554    58.5416     9.3535
  665.5000     2.6548    -0.0591    -0.1534    56.8846     9.3533
  666.0000     2.6603    -0.0611    -0.1515    55.0588     9.3534
  666.5000     2.6649    -0.0656    -0.1514    53.2614     9.3534
  667.0000     2.6731    -0.0680    -0.1545    52.6612     9.3524
  667.5000     2.6548    -0.0599    -0.1649    55.3167     9.3543
  668.0000     2.6288    -0.0463    -0.1905    56.3781     9.3555
  668.5000     2.4112     0.0168    -0.2071    55.8230     9.4485
  669.0000     2.3165     0.1571    -0.1913    62.8835     9.5637
  669.5000     2.2878     0.1494    -0.0532    73.8645     9.6799
  670.0000     2.3270     0.1409     0.1607    79.2041     9.7938
  670.5000     2.2431     0.1814     0.1489    80.5796     9.9107
  671.0000     2.2792     0.1542     0.1067    81.3449    10.0245
  671.5000     2.3412     0.1171     0.0690    80.9103    10.1219
  672.0000     2.4023     0.0878     0.0192    80.3583    10.1050
  672.5000     2.4462     0.0627     0.0191    82.7473    10.0901
  673.0000     2.4636     0.0549     0.0226    84.9432    10.0705
  673.5000     2.4638     0.0526     0.0278    86.3055    10.0528
  674.0000     2.4642     0.0551     0.0320    87.7481    10.0351
  674.5000     2.4459     0.0575     0.0322    86.0780    10.0167
  675.0000     2.4273     0.0794     0.0323    84.6174     9.9993
  675.5000     2.4227     0.0772     0.0446    84.3892     9.9807
  676.0000     2.4494     0.0673     0.0808    86.7851     9.9619
  676.5000     2.4513     0.0610     0.0980    90.5632     9.9196
  677.0000     2.4386     0.0648     0.1068    92.7151     9.8780
  677.5000     2.3638     0.1101     0.0875    94.2870     9.8344
  678.0000     2.3691     0.0875     0.0612    93.6297     9.7933
  678.5000     2.4507     0.0624     0.0675    92.0063     9.7505
  679.0000     2.4937     0.0413     0.0497    90.0472     9.7034
  679.5000     2.5164     0.0227     0.0258    92.6683     9.6985
  680.0000     2.5250     0.0186     0.0377    93.7795     9.7773
  680.5000     2.5120     0.0253     0.0514    92.9037     9.8524
  681.0000     2.5015     0.0310     0.0929    95.1820     9.9248
  681.5000     2.4895     0.0421     0.1509    95.8078     9.9987
  682.0000     2.4645     0.0611     0.1941    93.4676     9.9698
  682.5000     2.4499     0.0502     0.2196    91.2792     9.9424
  683.0000     2.4985     0.0242     0.2538    89.9395     9.8719
  683.5000     2.5136     0.0227     0.1944    92.0062     9.7737
  684.0000     2.4753     0.0538     0.1018    97.9970     9.6773
  684.5000     2.4510     0.0642     0.0131   101.8899     9.5878
  685.0000     2.4615     0.0556    -0.0066   100.6720     9.4831
  685.5000     2.4788     0.0429    -0.0018    95.9334     9.4716
  686.0000     2.4908     0.0393     0.0041    92.3473     9.4562
  686.5000     2.4973     0.0350     0.0037    93.5861     9.4463
  687.0000     2.5025     0.0306     0.0044    92.7142     9.4336
  687.5000     2.5124     0.0253     0.0112    92.0289     9.4214
  688.0000     2.5265     0.0179     0.0156    91.2460     9.4097
  688.5000     2.5357     0.0125     0.0206    91.4012     9.3975
  689.0000     2.5380     0.0113     0.0241    94.3361     9.3855
  689.5000     2.5185     0.0209     0.0238    98.5088     9.3734
  690.0000     2.5049     0.0275     0.0159   101.1588     9.3613
  690.5000     2.4948     0.0359     0.0071   102.3003     9.3492
  691.0000     2.4857     0.0410     0.0049   103.6599     9.3369
  691.5000     2.4885     0.0398     0.0075   104.0943     9.3251
  692.0000     2.4864     0.0414     0.0095   102.1486     9.3135
  692.5000     2.4709     0.0506     0.0115   101.0144     9.3131
  693.0000     2.4559     0.0597     0.0108   101.1831     9.3128
  693.5000     2.4399     0.0689     0.0086   103.8352     9.3130
  694.0000     2.4327     0.0705     0.0065   108.0126     9.3130
  694.5000     2.4389     0.0696     0.0044   107.9946     9.3130
  695.0000     2.4530     0.0603     0.0010   105.8757     9.3130
  695.5000     2.4661     0.0523    -0.0037   103.9073     9.3130
  696.0000     2.4801     0.0447    -0.0015   103.5181     9.3130
  696.5000     2.4867     0.0413     0.0015   102.0508     9.3130
  697.0000     2.4889     0.0407     0.0047    98.3029     9.3130
  697.5000     2.4910     0.0384     0.0078    93.7171     9.3130
  698.0000     2.4974     0.0353     0.0109    92.1010     9.3130
  698.5000     2.5043     0.0313     0.0140    89.2090     9.3130
  699.0000     2.5116     0.0256     0.0170    90.9379     9.3130
  699.5000     2.5104     0.0255     0.0202    93.2117     9.3130
  700.0000     2.5107     0.0267     0.0191    96.2913     9.3130
  700.5000     2.5142     0.0255     0.0169    97.3386     9.3130
  701.0000     2.5143     0.0269     0.0147    98.6148     9.3130
  701.5000     2.5095     0.0299     0.0126    99.7978     9.3130
  702.0000     2.5050     0.0329     0.0104    98.9072     9.3130
  702.5000     2.5002     0.0356     0.0083    95.0473     9.3130
  703.0000     2.4969     0.0359     0.0061    96.4714     9.3130
  703.5000     2.4974     0.0362     0.0040    98.8981     9.3130
  704.0000     2.4928     0.0388     0.0018    97.4435     9.3130
  704.5000     2.4783     0.0460    -0.0003    90.1090     9.3130
  705.0000     2.4683     0.0534    -0.0053    88.9005     9.3130
  705.5000     2.4639     0.0542    -0.0097    90.9726     9.3130
  706.0000     2.4661     0.0533    -0.0146    90.9224     9.3130
  706.5000     2.4709     0.0514    -0.0150    91.2439     9.3130
  707.0000     2.4758     0.0453    -0.0083    92.8919     9.3130
  707.5000     2.4802     0.0438    -0.0021    95.0210     9.3130
  708.0000     2.4857     0.0414     0.0038    97.3176     9.3130
  708.5000     2.4823     0.0421     0.0037   100.7277     9.3130
  709.0000     2.4727     0.0494     0.0032   101.8804     9.3130
  709.5000     2.4741     0.0478     0.0025   100.3347     9.3130
