~VERSION INFORMATION
 VERS.                2.0:   CWLS LOG ASCII STANDARD - VERSION 2.0
 WRAP.                 NO:   ONE LINE PER DEPTH STEP
~WELL INFORMATION
#MNEM.UNIT      DATA TYPE    INFORMATION
#----------   ------------   ------------------------------
 STRT.F           29.0000:   START DEPTH
 STOP.F          462.0000:   STOP DEPTH
 STEP.F            0.5000:   STEP LENGTH
 NULL.          -999.2500:   NO VALUE
 COMP.    FENIX & SCISSON:   COMPANY
 WELL.      NPR #71-SX-10:   WELL
 FLD .             TEAPOT:   FIELD
 LOC .      S10 T38N R78W:   LOCATION
 CNTY.            NATRONA:   COUNTY
 STAT.            WYOMING:   STATE
 CTRY. UNITED STATES OF AMERICA:   COUNTRY
 SRVC.              Welex:   SERVICE COMPANY
 DATE.        01-APR-1977:   LOGDATE
 API .       490251032300:   API NUMBER
~CURVE INFORMATION
#MNEM.UNIT       API CODE    CURVE DESCRIPTION
#----------   ------------   ------------------------------
 DEPT.F                  :   
 SPR .MV     07 010 01 00:   SPONTANEOUS POTENTIAL
 ILD .OHMM   07 120 46 00:   INDUCTION LOG DEEP
 ILM .OHMM   07 120 44 00:   INDUCTION LOG MEDIUM
 SGRD.OHMM   07 221 05 00:   SHALLOW SHORT GUARD RESISTIVITY
 CALD.IN     45 280 60 00:   CALIPER FROM DENSITY LOG
 GRD .GAPI   45 310 01 00:   GAMMA RAY FROM DENSITY LOG
 CORR.G/C3   45 356 01 00:   DENSITY CORRECTION
 RHOB.G/C3   45 350 01 00:   BULK DENSITY
 DPHI.DEC    45 890 12 00:   DENSITY POROSITY SANDSTONE
~PARAMETER INFORMATION
#MNEM.UNIT          VALUE    DESCRIPTION
#----------   ------------   ------------------------------
 PD  .                 GL:   PERMANENT DATUM
 EPD .F              5157:   ELEVATION PERMANENT DATUM
 LMF .                 GL:   LOG MEASURED FROM
 DMF .                 GL:   DRILLING MEASURED FROM
 EGL .F              5157:   GROUND LEVEL
 DATE.        01-APR-1977:   RUN DATE
 RUN .                  1:   RUN NUMBER
 DD  .F               475:   DEPTH DRILLER
 DL  .F               466:   DEPTH LOGGER
 BLI .F               463:   BOTTOM LOG INTERVAL
 TLI .F                30:   TOP LOG INTERVAL
 CS  .IN            8.625:   CASING SIZE
 BS  .IN            7.875:   BIT SIZE
 BSD .F               475:   BIT SIZE AT DEPTH
 DFT .                KCL:   DRILLING FLUID TYPE
 DFD .                8.5:   DRILLING FLUID DENSITY
 TCS .HRS               3:   TIME CURCULATED STOPPED
 MRT .F                67:   MAXIMUM RECORDED TEMPERATURE
 ENGI.            C. DOAK:   RECORDING ENGINEER
 WITN.   R. B. HARRINGTON:   WITNESSED BY
 CLNT.            A2DTECH:   CLIENT CODE
 ORIG.           5" PRINT:   ORIGIN OF DATA
 UWI .       490251032300:   UNIQUE WELL ID
 DICO. A2D Technologies, Inc.:   DIGITIZING COMPANY
~OTHER INFORMATION
~A   DEPT      SPR        ILD        ILM       SGRD         CALD      GRD       CORR       RHOB       DPHI   
# ...
   65.5000   -30.5776     5.4595     5.5976     7.7165     8.5444   128.2733     0.0091     2.4537     0.1195
   66.0000   -30.7103     5.5780     5.6469     7.1060     8.5456   127.9912     0.0108     2.4725     0.1171
   66.5000   -30.9878     5.6991     5.7617     7.7261     8.5468   125.3211     0.0214     2.4853     0.1216
   67.0000   -31.1246     5.9499     5.8041     8.5173     8.5480   122.3525     0.0291     2.4704     0.1194
   67.5000   -31.1045     6.1162     5.4953     8.8222     8.5492   123.4137     0.0306     2.4570     0.1209
   68.0000   -31.3860     6.2923     5.5365     8.7650     8.5504   126.1167     0.0232     2.4465     0.1248
   68.5000   -31.3700     6.3846     5.6558     9.0174     8.5516   126.4275     0.0187     2.4376     0.1230
   69.0000   -31.6515     6.5232     6.1064     9.4705     8.5528   123.9107     0.0188     2.4474     0.1197
   69.5000   -31.6354     6.7111     6.5024    10.2257     8.5539   119.1510     0.0188     2.4543     0.1188
   70.0000   -31.7722     6.8481     6.6424    10.3741     8.5549   116.5373     0.0189     2.4528     0.1239
   70.5000   -31.7521     6.8999     6.6461    10.3067     8.5561   115.7469     0.0205     2.4401     0.1262
   71.0000   -31.7360     6.8566     6.5584    10.3855     8.5573   116.2408     0.0221     2.4372     0.1226
   71.5000   -31.7199     6.9085     6.5158    10.1776     8.5585   117.0030     0.0252     2.4500     0.1175
   72.0000   -31.7038     6.9128     6.5656    10.0417     8.5597   117.4667     0.0268     2.4613     0.1139
   72.5000   -31.6878     6.9651     6.7070    10.1185     8.5609   118.0796     0.0269     2.4682     0.1118
   73.0000   -31.6717     6.9694     6.8042    10.2648     8.5621   118.8418     0.0285     2.4727     0.1109
   73.5000   -31.6556     6.9738     6.8552    10.3418     8.5632   119.8060     0.0285     2.4780     0.1117
   74.0000   -31.6395     6.9781     6.9066    10.3475     8.5644   122.5333     0.0286     2.4811     0.1141
   74.5000   -31.6235     6.9824     6.9104     9.8633     8.5656   122.5948     0.0302     2.4669     0.1168
   75.0000   -31.6074     6.7960     6.8656     9.8007     8.5668   121.6667     0.0287     2.4602     0.1177
   75.5000   -31.5913     6.6146     6.6827     9.7384     8.5531   120.1184     0.0273     2.4626     0.1123
   76.0000   -31.5752     6.4817     6.6394     9.8116     8.5543   116.3821     0.0259     2.4724     0.1153
   76.5000   -31.7120     6.4867     6.7366     9.8170     8.5554   114.8994     0.0259     2.4612     0.1180
   77.0000   -31.8407     6.4450     7.1239     9.8223     8.5566   116.3283     0.0260     2.4523     0.1221
   77.5000   -32.1222     6.4500     7.3279     9.2339     8.5578   118.1343     0.0261     2.4478     0.1206
   78.0000   -32.2550     6.3653     7.4341     9.5145     8.5590   118.8292     0.0292     2.4561     0.1200
   78.5000   -32.2389     6.2817     7.2854     9.8388     8.5602   117.3323     0.0293     2.4442     0.1242
   79.0000   -32.3757     6.2856     7.1395     9.6981     8.5465   117.4119     0.0247     2.4330     0.1278
   79.5000   -32.5084     6.2895     7.0942     9.5803     8.5181   118.4925     0.0219     2.4286     0.1284
   80.0000   -32.6411     6.2934     7.0492     9.3898     8.5044   119.8110     0.0236     2.4317     0.1254
   80.5000   -32.7739     6.2973     7.0531     9.1383     8.5204   120.4045     0.0311     2.4407     0.1229
   81.0000   -32.7538     6.2568     7.0083     9.0790     8.5216   119.9353     0.0266     2.4461     0.1226
   81.5000   -32.7377     6.2617     7.0122     9.1484     8.5228   118.7587     0.0221     2.4401     0.1250
   82.0000   -32.7216     6.2656     7.0648     9.1534     8.5388   117.0985     0.0177     2.4372     0.1259
   82.5000   -32.5567     6.2695     7.1178     9.1585     8.5400   114.6319     0.0132     2.4335     0.1274
   83.0000   -32.5406     6.2733     7.1712     9.1635     8.5264   114.3667     0.0103     2.4276     0.1331
   83.5000   -32.6734     6.2772     7.1751     9.1686     8.5276   114.2015     0.0073     2.4074     0.1382
   84.0000   -32.8101     6.3248     7.2866    10.1076     8.5288   111.3990     0.0044     2.4157     0.1330
   84.5000   -32.9429     6.5063     7.4966    10.2542     8.5151   111.4313     0.0014     2.4293     0.1279
   85.0000   -33.2204     6.6931     7.8644    10.3311     8.5163   111.7612     0.0000     2.4383     0.1243
   85.5000   -33.5019     6.8377     8.0896    10.4087     8.5175   112.6582    -0.0029     2.4489     0.1186
   86.0000   -33.6387     6.8895     8.1492    10.5597     8.5187   108.1831    -0.0029     2.4655     0.1138
   86.5000   -33.6186     6.9416     7.9321    10.7873     8.5199   108.3895    -0.0028     2.4673     0.1153
   87.0000   -33.7553     7.0916     7.8807    11.3293     8.5210   110.2348    -0.0012     2.4619     0.1188
   87.5000   -33.7352     7.2952     8.0515    11.3356     8.5222   115.7711    -0.0011     2.4537     0.1227
   88.0000   -33.8720     7.5046     8.3975    11.4206     8.5086   122.3045    -0.0011     2.4372     0.1263
   88.5000   -34.0047     7.9367     8.5192    11.4269     8.4949   121.8383    -0.0025     2.4388     0.1248
   89.0000   -34.1375     8.0523     8.2912    11.4332     8.4813   120.8325    -0.0024     2.4441     0.1215
   89.5000   -34.1174     7.9465     8.0681    11.3606     8.4973   121.6269    -0.0023     2.4502     0.1179
   90.0000   -34.2541     7.7881     7.9616    10.8290     8.4985   123.7413     0.0008     2.4638     0.1125
   90.5000   -34.2340     7.5802     7.9671    10.8350     8.4997   125.5279     0.0054     2.4781     0.1082
   91.0000   -34.3708     7.3269     8.0268    10.7646     8.4860   125.5164     0.0100     2.4812     0.1112
   91.5000   -34.3507     7.2798     8.0870    10.7721     8.4872   124.1647     0.0103     2.4752     0.1148
   92.0000   -34.4841     7.1358     8.0915    11.2337     8.4884   121.2219     0.0086     2.4625     0.1190
   92.5000   -34.3185     6.7091     8.0959    10.8589     8.4896   121.0968     0.0057     2.4544     0.1193
   93.0000   -34.1536     6.4849     8.1004    10.7154     8.5056   121.5751     0.0027     2.4567     0.1157
   93.5000   -34.1376     6.5340     8.1048    10.6459     8.5068   122.4861     0.0013     2.4620     0.1142
   94.0000   -33.9727     6.7216     8.1093    11.5763     8.5080   123.7015    -0.0002     2.4638     0.1168
   94.5000   -33.9566     6.7725     8.1138    11.4234     8.5092   124.4461    -0.0001     2.4590     0.1171
   95.0000   -33.9405     6.8711     8.1182    10.9645     8.5104   123.3980     0.0000     2.4616     0.1165
   95.5000   -33.9244     6.9231     8.1227    10.8945     8.5116   119.6448     0.0001     2.4578     0.1195
   96.0000   -33.7596     7.2712     8.1272    11.3633     8.5128   109.9940     0.0002     2.4593     0.1180
   96.5000   -33.7435     7.7433     8.1316    12.1008     8.5139   108.5417     0.0002     2.4609     0.1168
   97.0000   -33.7274     7.8019     8.1361    12.4475     8.5151   109.9104     0.0018     2.4617     0.1155
   97.5000   -33.5625     7.8067     8.1971    12.6281     8.5163   111.2611     0.0034     2.4648     0.1149
   98.0000   -33.5465     7.8116     8.3736    12.6350     8.5175   109.3293     0.0050     2.4603     0.1197
   98.5000   -33.5304     8.0358     8.4950    12.6420     8.5187   107.2597     0.0051     2.4552     0.1209
   99.0000   -33.3655     8.2095     8.6181    13.1856     8.5199   105.3403     0.0051     2.4560     0.1200
   99.5000   -33.2006     8.5038     8.8038    13.5634     8.5211   105.8055     0.0037     2.4590     0.1185
  100.0000   -33.0357     8.8091     9.5725    13.6666     8.5193   105.9707     0.0023     2.4629     0.1162
  100.5000   -33.0196     8.8764     9.9170    13.6751     8.5084   104.1986     0.0032     2.4661     0.1141
  101.0000   -32.8540     9.0689    10.6357    13.6837     8.4976   101.9776     0.0041     2.4712     0.1124
  101.5000   -32.7159     9.3298    11.1720    13.6922     8.4868    98.2642     0.0058     2.4795     0.1103
