~VERSION INFORMATION
 VERS.                2.0:   CWLS LOG ASCII STANDARD - VERSION 2.0
 WRAP.                 NO:   ONE LINE PER DEPTH STEP
~WELL INFORMATION
#MNEM.UNIT      DATA TYPE    INFORMATION
#----------   ------------   ------------------------------
 STRT.F           88.0000:   START DEPTH
 STOP.F          991.0000:   STOP DEPTH
 STEP.F            0.5000:   STEP LENGTH
 NULL.          -999.2500:   NO VALUE
 COMP. US NAVY /INTEX OIL CO.:   COMPANY
 WELL.    NPR #3 #S-11 63:   WELL
 FLD .             TEAPOT:   FIELD
 LOC .      S11 T38N R78W:   LOCATION
 CNTY.            NATRONA:   COUNTY
 STAT.            WYOMING:   STATE
 CTRY. UNITED STATES OF AMERICA:   COUNTRY
 SRVC.       Schlumberger:   SERVICE COMPANY
 DATE.        24-JUL-1964:   LOGDATE
 API .       490250636200:   API NUMBER
~CURVE INFORMATION
#MNEM.UNIT       API CODE    CURVE DESCRIPTION
#----------   ------------   ------------------------------
 DEPT.F                  :   
 SPR .MV     05 010 01 00:   SPONTANEOUS POTENTIAL FROM RES.
 ASN .OHMM   05 041 16 00:   AMPLIFIED SHORT NORMAL 16"
 ILD .OHMM   05 120 46 00:   INDUCTION LOG DEEP
 CILD.MMHO   05 110 46 00:   CONDUCTIVITY INDUCTION LOG DEEP
 CALS.IN     60 280 50 00:   CALIPER FROM SONIC LOG
 DT  .US/F   60 520 33 00:   INTERVAL TRANSIT TIME
 GR  .GAPI   30 310 01 00:   GAMMA RAY
~PARAMETER INFORMATION
#MNEM.UNIT          VALUE    DESCRIPTION
#----------   ------------   ------------------------------
 PD  .                 GL:   PERMANENT DATUM
 LMF .                 KB:   LOG MEASURED FROM
 DAPD.F                 5:   FEET ABOVE PERMANENT DATUM
 DMF .                 KB:   DRILLING MEASURED FROM
 EKB .F              5914:   KELLING BUSHING
 DATE.          7-24-1964:   RUN DATE
 RUN .                  1:   RUN NUMBER
 DD  .F               990:   DEPTH DRILLER
 DL  .F               992:   DEPTH LOGGER
 BLI .F               991:   BOTTOM LOG INTERVAL
 TLI .F               990:   TOP LOG INTERVAL
 CS  .IN            8.625:   CASING SIZE
 CBD .F                15:   CASING BOTTOM DRILLER
 BS  .IN             6.75:   BIT SIZE
 BSD .F               990:   BIT SIZE AT DEPTH
 DFT .            GEL OIL:   DRILLING FLUID TYPE
 DFD .                9.2:   DRILLING FLUID DENSITY
 DFV .                 47:   DRILLING FLUID VISCOSITY
 MSS .            MUD PIT:   MUD SAMPLE SOURCE
 RMS .OHMM           1.24:   RESISTIVITY MUD SAMPLE
 MST .F                75:   MUD SAMPLE TEMPERATURE
 RMF .OHMM           .801:   RESISTIVITY MUD FILTRATE SAMPLE
 MFST.F                80:   MUD FILTRATE SAMPLE TEMPERATURE
 MFSS.                 FP:   MUD FILTRATE SAMPLE SOURCE
 RMB .OHMM           1.09:   RESISTIVITY MUD AT BHT
 BHT .F                85:   BOTTOM HOLE TEMPERATURE
 TCS .HRS              .5:   TIME CURCULATED STOPPED
 MRT .F                85:   MAXIMUM RECORDED TEMPERATURE
 LUN .               2572:   LOGGING UNIT NUMBER
 LUL .                 MC:   LOGGING UNIT LOCATION
 ENGI.             BOWLER:   RECORDING ENGINEER
 WITN.          JORGENSEN:   WITNESSED BY
 CLNT.            A2DTECH:   CLIENT CODE
 ORIG.      2" & 5" PRINT:   ORIGIN OF DATA
 UWI .       490250636200:   UNIQUE WELL ID
 DICO. A2D Technologies, Inc.:   DIGITIZING COMPANY
~OTHER INFORMATION
~A   DEPT      SPR          ASN        ILD      CILD      CALS         DT         GR   
# ...
  543.0000   -32.5131     7.7149     6.1344   151.3555     6.8156   103.8124    80.8473
  543.5000   -32.3607     7.6553     6.2861   152.7537     6.8300   104.3573    83.2880
  544.0000   -32.3535     7.6108     6.3634   153.4729     6.8444   105.5994    92.8200
  544.5000   -32.2011     7.5944     6.3663   155.5258     6.8444   106.2695    94.6305
  545.0000   -32.0486     7.5367     6.3692   156.2011     6.8444   106.1951   102.0282
  545.5000   -32.0415     7.4922     6.3721   158.3217     6.8444   105.7483   103.7378
  546.0000   -32.0343     7.4927     6.3751   158.9734     6.8444   105.2271    87.0185
  546.5000   -31.8819     7.4932     6.3780   158.8788     6.8444   105.0782    85.2832
  547.0000   -31.8747     7.5386     6.3810   158.0380     6.8444   105.0037    85.3741
  547.5000   -31.8676     7.5840     6.3845   157.1972     6.8444   104.9293    82.8168
  548.0000   -31.8605     7.6294     6.4618   155.6100     6.8300   104.9293    77.2476
  548.5000   -31.8532     7.6749     6.4647   154.0224     6.8012   105.0037    79.5096
  549.0000   -31.8459     7.7219     6.4676   152.4328     6.7579   105.1526    85.0849
  549.5000   -31.8373     7.7658     6.5450   152.3176     6.7579   105.5994    87.1963
  550.0000   -31.6866     7.7812     6.6528   151.3980     6.7580   106.8652    93.2234
  550.5000   -31.8366     7.8266     6.8450   150.1361     6.7588   106.7140    93.5268
  551.0000   -31.9753     7.8420     6.9940   148.8742     6.7597   106.6374    90.8197
  551.5000   -32.1134     7.8874     7.0685   147.6694     6.7894   106.7836    86.9498
  552.0000   -32.1105     7.9479     7.0685   146.8942     6.8047   107.0049    82.0903
  552.5000   -32.1070     7.9783     7.0685   144.6264     6.8343   107.3751    85.5572
  553.0000   -32.1042     8.0237     7.2173   144.5572     6.8495   107.2240    83.7530
  553.5000   -32.1014     8.0707     7.2173   142.3284     6.8506   106.3283    84.2359
  554.0000   -32.0986     8.2196     7.2917   140.8008     6.8514   106.2517    90.6428
  554.5000   -32.0957     8.2650     7.2917   139.2793     6.8666   106.3985    94.1535
  555.0000   -32.0929     8.2654     7.2917   138.5041     6.8675   106.4709    83.2129
  555.5000   -32.0901     8.3408     7.3661   136.9826     6.8827   106.4682    81.9607
  556.0000   -32.0873     8.4912     7.3661   135.4610     6.8837   106.4660    83.7167
  556.5000   -32.0837     8.6715     7.3661   132.4470     6.8990   106.3112    86.3604
  557.0000   -31.9356     8.8519     7.4405   131.6716     6.8998   105.7166    91.9095
  557.5000   -31.9327     8.9723     7.5149   130.0498     6.9006   105.1933    92.6663
  558.0000   -31.9299     9.0477     7.5893   128.6215     6.9014   104.8933    96.8861
  558.5000   -31.9271     9.0482     7.5893   127.8462     6.9025   104.8167    99.7498
  559.0000   -31.7789     8.9587     7.5898   126.3247     6.9033   104.8146    95.6873
  559.5000   -31.7761     8.8692     7.6637   126.2957     6.9041   104.8235    89.9674
  560.0000   -31.7733     8.8545     7.7381   125.5205     6.9050   104.9587    90.8740
  560.5000   -31.7703     8.8701     7.8125   125.4915     6.9058   105.0316    92.6835
  561.0000   -31.9130     8.9305     7.8869   123.9700     6.8922   105.0289    92.2347
  561.5000   -31.9094     9.0508     7.8869   123.1940     6.8932   104.8778    92.8401
  562.0000   -31.7613     9.1712     7.8869   122.4122     6.8941   104.1211    88.9282
  562.5000   -31.9038     9.4002     7.8869   120.8907     6.8949   103.6072    85.7686
  563.0000   -31.9010     9.6070     7.8869   120.1154     6.8813   103.3817    83.0600
  563.5000   -31.8981     9.6230     7.9613   118.5939     6.8821   102.7839    94.6601
  564.0000   -31.8953     9.6429     8.0357   117.0724     6.8685   101.9627    91.8017
  564.5000   -31.8925     9.6628     8.1845   115.5509     6.8696   101.5882    84.8770
  565.0000   -31.8896     9.6827     8.2589   114.0294     6.8704   101.8834    80.6631
  565.5000   -31.8861     9.7026     8.4821   113.2139     6.8566   102.1796    80.0629
  566.0000   -31.8833     9.7225     8.6310   110.9850     6.8576   101.2834    81.2708
  566.5000   -31.8805     9.8800     8.7798   109.4576     6.8585   101.0579    76.7564
  567.0000   -31.8776    10.1053     9.0774   107.9361     6.8595   100.6090    77.3619
  567.5000   -31.8748    10.3306     9.2262   107.1608     6.8603   100.1539    76.7624
  568.0000   -32.0178    10.6309     9.3750   107.1318     6.8612    95.8388    75.5606
  568.5000   -32.0145    10.7063     9.4494   106.3566     6.8476    94.9431    76.4672
  569.0000   -32.0116    10.6318     9.5238   106.3276     6.8484    94.9410    83.0968
  569.5000   -32.0082    10.4824     9.4494   106.2985     6.8350    94.8644    93.7925
  570.0000   -32.0058    10.2579     9.3750   106.2686     6.8358    94.8622    89.1269
  570.5000   -32.0025    10.0335     9.1518   105.4871     6.8367    95.2319    84.4612
  571.0000   -31.9995     9.9589     9.0680   105.4581     6.8375    96.8679    82.3550
  571.5000   -31.9969     9.7345     8.8542   105.4292     6.8383    99.0995    83.4130
  572.0000   -31.9940     9.6600     8.7798   106.1537     6.8394    99.5442    82.0606
  572.5000   -31.9912     9.6604     8.7798   106.1175     6.8402    99.8399    80.1057
  573.0000   -31.9884     9.6609     8.6310   107.5810     6.8410   100.0685    77.8489
  573.5000   -31.9855     9.5863     8.5565   107.5520     6.8418   100.5797    82.9732
  574.0000   -31.9820     9.5869     8.4821   109.7619     6.8427   100.9504    86.1388
  574.5000   -31.9792     9.5873     8.4049   111.2182     6.8435   100.3520    83.7322
  575.0000   -31.9764     9.5127     8.2589   112.6817     6.8445   100.2754    75.7533
  575.5000   -31.9736     9.5882     8.1845   113.4063     6.8598   100.3477    73.7977
  576.0000   -31.9707     9.5886     8.1845   115.6161     6.8750   100.5685    76.8135
  576.5000   -31.8226     9.5891     8.1101   115.5799     6.8758   100.7897    78.6237
  577.0000   -31.8197     9.5895     8.1101   115.5509     6.8179   100.8625    79.3797
  577.5000   -31.8168     9.5862     8.1845   115.5219     6.6615   100.8599    81.7924
  578.0000   -31.8134     9.5154     8.1845   113.9602     6.6189   100.9322    84.9580
  578.5000   -31.8106     9.5909     8.2589   113.0947     6.7064   100.9300    86.1658
  579.0000   -31.8077     9.6663     8.4821   110.2038     6.7361   101.0024    87.0725
  579.5000   -31.9510     9.6668     8.5565   109.4286     6.7801   101.4465    86.7743
  580.0000   -31.8021     9.6672     8.7798   107.1608     6.8388   105.7630    80.6026
  580.5000   -31.7993     9.6676     8.8542   106.3855     6.8540    99.5807    78.0453
  581.0000   -31.7964     9.7430     8.8542   104.1178     6.8693    99.5016    79.4037
  581.5000   -31.7912     9.9684     8.7798   104.0888     6.8701    99.4275    85.1296
  582.0000   -31.6453    10.1967     8.5565   104.0597     6.8853    99.5738    91.0061
  582.5000   -31.6419    10.2691     8.4734   105.6219     6.9150   100.2418    94.4730
  583.0000   -31.6391    10.0838     8.1845   106.9869     6.9302   101.9522    97.7892
  583.5000   -31.4909    10.0152     7.9613   109.9358     6.8015   102.1735    98.5453
  584.0000   -31.4881     9.9705     7.8869   111.3993     6.7589   102.0968    96.4398
  584.5000   -31.4853     9.9111     7.8869   113.6091     6.8176   102.8388    95.8821
  585.0000   -31.4824     9.8661     7.8125   115.8262     6.8771   103.7302   101.7169
  585.5000   -31.4796     9.8049     7.6637   118.7762     6.8627   104.3982   103.3844
  586.0000   -31.4768     9.7326     7.5893   122.4774     6.7194   104.4805   106.5422
  586.5000   -31.3279     9.6281     7.4288   126.3194     6.7347   104.3120   108.2018
  587.0000   -31.3251     9.4936     7.2173   130.6212     6.7931   104.0934   100.9759
  587.5000   -31.3223     9.3141     6.9196   133.5845     6.8516   104.0913   100.6777
  588.0000   -31.3194     8.9548     6.6964   138.7722     6.8814   104.1641   102.2074
