~VERSION INFORMATION
 VERS.                2.0:   CWLS LOG ASCII STANDARD - VERSION 2.0
 WRAP.                 NO:   ONE LINE PER DEPTH STEP
~WELL INFORMATION
#MNEM.UNIT      DATA TYPE    INFORMATION
#----------   ------------   ------------------------------
 STRT.F           22.0000:   START DEPTH
 STOP.F          564.0000:   STOP DEPTH
 STEP.F            0.5000:   STEP LENGTH
 NULL.          -999.2500:   NO VALUE
 COMP.    FENIX & SCISSON:   COMPANY
 WELL. NPR # #3 12 - SX 11:   WELL
 FLD .             TEAPOT:   FIELD
 LOC .      S11 T38N R78W:   LOCATION
 CNTY.            NATRONA:   COUNTY
 STAT.            WYOMING:   STATE
 CTRY. UNITED STATES OF AMERICA:   COUNTRY
 SRVC.           BIRDWELL:   SERVICE COMPANY
 DATE.        29-NOV-1978:   LOGDATE
 API .       490251075500:   API NUMBER
~CURVE INFORMATION
#MNEM.UNIT       API CODE    CURVE DESCRIPTION
#----------   ------------   ------------------------------
 DEPT.F                  :   
 ILD .OHMM   05 120 46 00:   INDUCTION LOG DEEP
 SN  .OHMM   05 040 00 00:   SHORT NORMAL
 SPR .MV     05 010 01 00:   SPONTANEOUS POTENTIAL FROM RES.
 CALD.IN     45 280 60 00:   CALIPER FROM DENSITY LOG
 CORR.G/C3   45 356 01 00:   DENSITY CORRECTION
 DPHI.DEC    45 890 12 00:   DENSITY POROSITY SANDSTONE
 GRD .GAPI   45 310 01 00:   GAMMA RAY FROM DENSITY LOG
 RHOB.G/C3   45 350 01 00:   BULK DENSITY
~PARAMETER INFORMATION
#MNEM.UNIT          VALUE    DESCRIPTION
#----------   ------------   ------------------------------
 PD  .                 GL:   PERMANENT DATUM
 EPD .F              5143:   ELEVATION PERMANENT DATUM
 LMF .                 KB:   LOG MEASURED FROM
 DAPD.F                 4:   FEET ABOVE PERMANENT DATUM
 DMF .                 KB:   DRILLING MEASURED FROM
 EKB .F              5147:   KELLING BUSHING
 EGL .F              5143:   GROUND LEVEL
 DATE.        29-NOV-1978:   RUN DATE
 RUN .                  1:   RUN NUMBER
 DD  .F               562:   DEPTH DRILLER
 DL  .F               564:   DEPTH LOGGER
 BLI .F               564:   BOTTOM LOG INTERVAL
 TLI .F                30:   TOP LOG INTERVAL
 CS  .IN            8.625:   CASING SIZE
 CBL .F                48:   CASING BOTTOM LOGGER
 BS  .IN            7.875:   BIT SIZE
 BSD .F               562:   BIT SIZE AT DEPTH
 DFT .                KCL:   DRILLING FLUID TYPE
 DFD .                8.7:   DRILLING FLUID DENSITY
 DFV .                 36:   DRILLING FLUID VISCOSITY
 DFPH.               10.9:   DRILLING FLUID PH
 DFL .                 12:   DRILLING FLUID LOSS
 MSS .           FLOWLINE:   MUD SAMPLE SOURCE
 RMS .OHMM           0.34:   RESISTIVITY MUD SAMPLE
 MST .F                56:   MUD SAMPLE TEMPERATURE
 RMF .OHMM           0.32:   RESISTIVITY MUD FILTRATE SAMPLE
 MFST.F                59:   MUD FILTRATE SAMPLE TEMPERATURE
 RMC .OHMM            0.4:   RESISTIVITY MUD CAKE
 MCST.F                59:   MUD CAKE SAMPLE TEMPERATURE
 MFSS.               MEAS:   MUD FILTRATE SAMPLE SOURCE
 MCSS.               MEAS:   MUD CAKE SAMPLE SOURCE
 RMB .OHMM           0.33:   RESISTIVITY MUD AT BHT
 BHT .F                59:   BOTTOM HOLE TEMPERATURE
 TCS .HRS               1:   TIME CURCULATED STOPPED
 MRT .F                59:   MAXIMUM RECORDED TEMPERATURE
 LUN .               2958:   LOGGING UNIT NUMBER
 LUL .               CASP:   LOGGING UNIT LOCATION
 ENGI.             MILLER:   RECORDING ENGINEER
 WITN.           DINSMORE:   WITNESSED BY
 CLNT.            A2DTECH:   CLIENT CODE
 ORIG.           5" PRINT:   ORIGIN OF DATA
 UWI .       490251075500:   UNIQUE WELL ID
 DICO. A2D Technologies, Inc.:   DIGITIZING COMPANY
~OTHER INFORMATION
~A   DEPT      ILD         SN        SPR       CALD       CORR       DPHI         GRD      RHOB   
# ...
  143.5000     9.1244     9.4911   -21.6074     7.9157     0.0030     0.1304   112.9128     2.4721
  144.0000     9.0598     9.6874   -22.0577     7.9458    -0.0015     0.1310   108.4033     2.4691
  144.5000     9.0586     9.7522   -22.3564     8.1582    -0.0015     0.1319   108.2851     2.4683
  145.0000     9.1207     9.8173   -22.3527     8.1566     0.0000     0.1334   108.8361     2.4661
  145.5000     9.1825     9.8146   -22.3497     8.1566     0.0015     0.1383   108.8830     2.4586
  146.0000     9.1813     9.7441   -22.3468     8.1566     0.0045     0.1453   108.0914     2.4496
  146.5000     9.1800     9.7408   -22.3438     8.1867     0.0105     0.1505   107.7266     2.4406
  147.0000     9.2429     9.7382   -22.3409     8.1867     0.0240     0.1490   107.5838     2.4354
  147.5000     9.3059     9.7355   -22.3379     8.1867     0.0405     0.1442   108.6226     2.4384
  148.0000     9.3043     9.8013   -22.3348     8.1867     0.0663     0.1331   110.5204     2.4528
  148.5000     9.3031     9.7979   -22.3318     8.1867     0.0889     0.1198   110.1771     2.4748
  149.0000     9.2376     9.7953   -22.1774     8.1566     0.0994     0.1075   109.7576     2.4909
  149.5000     9.1725     9.7926   -22.1744     8.1566     0.0946     0.1045   109.2096     2.5060
  150.0000     8.9824     9.7899   -22.4736     8.2169     0.0871     0.1120   108.8725     2.5030
  150.5000     8.7963     9.7209   -22.4847     8.2176     0.0747     0.1182   108.3510     2.4962
  151.0000     8.7344     9.6524   -22.6244     8.2184     0.0376     0.1234   107.6043     2.4850
  151.5000     8.6130     9.1302   -22.7753     8.2193     0.0256     0.1273   106.8015     2.4737
  152.0000     8.4346     9.0032   -22.7753     8.1598     0.0166     0.1312   107.8383     2.4707
  152.5000     8.4335     9.0646   -22.9261     8.1001     0.0152     0.1354   109.6767     2.4670
  153.0000     8.3741     9.0634   -22.9261     8.1612     0.0152     0.1405   111.0743     2.4587
  153.5000     8.3151     9.0621   -22.9261     8.2523     0.0152     0.1427   112.0424     2.4542
  154.0000     8.3140     9.0609   -22.9261     8.2230     0.0153     0.1462   112.3669     2.4497
  154.5000     8.3706     9.0597   -22.9261     8.1936     0.0168     0.1471   112.6725     2.4467
  155.0000     8.4277     9.0584   -22.9261     8.1943     0.0168     0.1462   113.4288     2.4468
  155.5000     8.4852     9.0572   -22.9261     8.2252     0.0168     0.1438   113.7747     2.4489
  156.0000     8.4840     9.0559   -22.9261     8.2560     0.0169     0.1393   111.9342     2.4535
  156.5000     8.5418     9.0547   -22.9261     8.2405     0.0199     0.1342   112.5405     2.4580
  157.0000     8.5406     9.0534   -22.9261     8.2274     0.0260     0.1276   115.4014     2.4617
  157.5000     8.6098     9.0522   -22.9261     8.2283     0.0320     0.1210   114.1329     2.4865
  158.0000     8.7174     9.0507   -22.9261     8.2290     0.0320     0.1019   111.9519     2.5308
  158.5000     8.7768     9.0494   -22.9261     8.1394     0.0230     0.0855   108.5735     2.5488
  159.0000     8.7756     9.2384   -22.9261     8.1098     0.0141     0.0916   105.7957     2.5450
  159.5000     8.9588     9.4314   -22.9261     8.1108     0.0051     0.1081   103.9949     2.5210
  160.0000     9.0201     9.6287   -23.0769     8.1717     0.0066     0.1228   105.1519     2.4940
  160.5000     8.9563     9.5605   -23.2278     8.2026     0.0065     0.1228   105.8090     2.4812
  161.0000     8.8932     9.5592   -23.2278     8.2058     0.0052     0.1231   104.4608     2.4820
  161.5000     8.9539     9.5579   -23.2278     8.2041     0.0052     0.1249   102.9140     2.4835
  162.0000     9.0149     9.4905   -23.2278     8.2349     0.0067     0.1315   102.1047     2.4737
  162.5000     9.0137     9.4236   -23.2278     8.2206     0.0098     0.1336   102.2180     2.4692
  163.0000     9.2019     9.4224   -23.2278     8.2189     0.0128     0.1323   102.4403     2.4692
  163.5000     9.1368     9.4211   -23.2278     8.2070     0.0143     0.1282   105.9867     2.4707
  164.0000     9.1355     9.4854   -23.0769     8.2080     0.0144     0.1240   112.0662     2.4730
  164.5000     9.1343     9.4840   -22.9261     8.1934     0.0144     0.1174   113.0006     2.4820
  165.0000     9.1968     9.4827   -22.9261     8.1944     0.0114     0.1168   113.6563     2.4910
  165.5000     9.1318     9.5474   -22.9261     8.2102     0.0099     0.1240   113.8246     2.4872
  166.0000     9.1305     9.5461   -22.9261     8.2260     0.0085     0.1306   107.5129     2.4737
  166.5000     9.1293     9.5445   -22.9261     8.2116     0.0070     0.1336   105.3868     2.4647
  167.0000     9.1280     9.6099   -22.9261     8.1672     0.0085     0.1354   105.4310     2.4632
  167.5000     9.1268     9.6083   -22.9261     8.0476     0.0116     0.1370   107.9474     2.4602
  168.0000     9.1255     9.6742   -22.7753     8.0180     0.0131     0.1385   114.8994     2.4557
  168.5000     9.1881     9.6725   -22.7753     8.1545     0.0146     0.1399   118.8128     2.4542
  169.0000     9.2504     9.6712   -22.7753     8.2305     0.0131     0.1408   115.0590     2.4520
  169.5000     9.3782     9.6700   -22.7753     8.2313     0.0117     0.1417   111.5233     2.4497
  170.0000     9.3769     9.6686   -22.7753     8.2470     0.0147     0.1429   109.6547     2.4489
  170.5000     9.5065     9.6672   -22.7753     8.2478     0.0147     0.1420   109.9591     2.4482
  171.0000     9.5083     9.6660   -22.6244     8.2485     0.0148     0.1384   108.5404     2.4512
  171.5000     9.6434     9.7322   -22.6244     8.2493     0.0148     0.1366   104.3944     2.4572
  172.0000     9.7915     9.7982   -22.6244     8.2500     0.0148     0.1375    99.2971     2.4602
  172.5000     9.9736     9.9337   -22.6244     8.2344     0.0134     0.1382    99.4512     2.4572
  173.0000    10.1111    10.0711   -22.3228     8.2214     0.0134     0.1390   100.2105     2.4557
  173.5000    10.3221    10.4975   -22.1719     8.1922     0.0134     0.1390   100.5561     2.4565
  174.0000    10.4651    10.5695   -22.0211     8.1929     0.0119     0.1390    98.5626     2.4572
  174.5000    10.6097    10.7898   -21.7195     8.2238     0.0150     0.1384    97.5147     2.4572
  175.0000    10.7563    10.9391   -21.5686     8.2245     0.0150     0.1369    97.8647     2.4587
  175.5000    10.9804    11.1675   -21.2670     8.2252     0.0198     0.1306    98.5188     2.4632
  176.0000    11.1325    11.4008   -20.9653     8.1958     0.0346     0.1264   100.0844     2.4857
  176.5000    11.3124    11.6391   -20.8145     8.1665     0.0331     0.1285   100.6911     2.4985
  177.0000    11.5215    11.8919   -20.8145     8.1672     0.0332     0.1313    98.7399     2.4775
  177.5000    11.6811    12.2243   -20.8145     8.1679     0.0332     0.1342    97.6586     2.4662
  178.0000    12.0074    12.4845   -20.8145     8.1536     0.0332     0.1354    97.4123     2.4640
  178.5000    12.3432    12.6420   -20.8145     8.1381     0.0347     0.1342    96.6974     2.4670
  179.0000    12.6884    12.7283   -20.8145     8.0622     0.0363     0.1300    95.6004     2.4695
  179.5000    12.6867    12.7261   -20.8145     8.0052     0.0423     0.1240    95.7266     2.4790
  180.0000    12.5973    12.5491   -20.9653     8.1116     0.0529     0.1282    98.6168     2.4775
  180.5000    12.5086    12.5474   -21.1161     8.1725     0.0361     0.1414    99.8974     2.4692
  181.0000    12.5068    12.4589   -21.4178     8.2032     0.0274     0.1442    98.0248     2.4527
  181.5000    12.5048    12.4572   -21.5686     8.1288     0.0274     0.1429    96.9633     2.4482
  182.0000    12.5031    12.3694   -21.7195     8.0842     0.0290     0.1420    95.5662     2.4505
  182.5000    12.4150    12.3677   -21.7195     8.0699     0.0305     0.1420    94.2090     2.4542
  183.0000    12.4133    12.2806   -21.8703     8.1612     0.0275     0.1414    94.0295     2.4542
  183.5000    12.3259    12.1940   -22.0211     8.2071     0.0215     0.1396    92.6338     2.4520
