~VERSION INFORMATION
 VERS.                2.0:   CWLS LOG ASCII STANDARD - VERSION 2.0
 WRAP.                 NO:   ONE LINE PER DEPTH STEP
~WELL INFORMATION
#MNEM.UNIT      DATA TYPE    INFORMATION
#----------   ------------   ------------------------------
 STRT.F           33.0000:   START DEPTH
 STOP.F         1374.0000:   STOP DEPTH
 STEP.F            0.5000:   STEP LENGTH
 NULL.          -999.2500:   NO VALUE
 COMP. FENIX & SCISSON INC:   COMPANY
 WELL.   NPR-3 "S" #84-14:   WELL
 FLD .             TEAPOT:   FIELD
 LOC .      S14 T38N R78W:   LOCATION
 CNTY.            NATRONA:   COUNTY
 STAT.            WYOMING:   STATE
 CTRY. UNITED STATES OF AMERICA:   COUNTRY
 SRVC.            Unknown:   SERVICE COMPANY
 DATE.        18-MAR-1978:   LOGDATE
 API .       490251060400:   API NUMBER
~CURVE INFORMATION
#MNEM.UNIT       API CODE    CURVE DESCRIPTION
#----------   ------------   ------------------------------
 DEPT.F                  :   
 SPR .MV     05 010 01 00:   SPONTANEOUS POTENTIAL FROM RES.
 SN  .OHMM   05 040 16 00:   SHORT NORMAL 16"
 ILD .OHMM   05 120 46 00:   INDUCTION LOG DEEP
 CALD.IN     45 280 60 00:   CALIPER
 GRD .GAPI   45 310 01 00:   GAMMA RAY FROM DENSITY LOG
 CORR.G/C3   45 356 01 00:   DENSITY CORRECTION
 RHOB.G/C3   45 350 01 00:   BULK DENSITY
 DPHI.DEC    45 890 00 00:   DENSITY POROSITY
~PARAMETER INFORMATION
#MNEM.UNIT          VALUE    DESCRIPTION
#----------   ------------   ------------------------------
 PD  .                 GL:   PERMANENT DATUM
 EPD .F              5314:   ELEVATION PERMANENT DATUM
 LMF .                 KB:   LOG MEASURED FROM
 DMF .                 KB:   DRILLING MEASURED FROM
 EKB .F              5318:   KELLING BUSHING
 EGL .F              5314:   GROUND LEVEL
 DATE.          3-18-1978:   RUN DATE
 RUN .                  1:   RUN NUMBER
 DD  .F              1375:   DEPTH DRILLER
 DL  .F              1380:   DEPTH LOGGER
 BLI .F              1374:   BOTTOM LOG INTERVAL
 TLI .F                50:   TOP LOG INTERVAL
 CS  .IN            8.625:   CASING SIZE
 CBD .F                40:   CASING BOTTOM DRILLER
 CBL .F                50:   CASING BOTTOM LOGGER
 BS  .IN            7.875:   BIT SIZE
 BSD .F              1375:   BIT SIZE AT DEPTH
 DFT .                KCL:   DRILLING FLUID TYPE
 DFD .                8.1:   DRILLING FLUID DENSITY
 DFV .                 31:   DRILLING FLUID VISCOSITY
 DFPH.                 10:   DRILLING FLUID PH
 DFL .                8.4:   DRILLING FLUID LOSS
 MSS .           FLOWLINE:   MUD SAMPLE SOURCE
 RMS .OHMM            .28:   RESISTIVITY MUD SAMPLE
 MST .F                62:   MUD SAMPLE TEMPERATURE
 RMF .OHMM            .26:   RESISTIVITY MUD FILTRATE SAMPLE
 MFST.F                67:   MUD FILTRATE SAMPLE TEMPERATURE
 RMC .OHMM            .36:   RESISTIVITY MUD CAKE
 MCST.F                70:   MUD CAKE SAMPLE TEMPERATURE
 MFSS.               MEAS:   MUD FILTRATE SAMPLE SOURCE
 RMB .OHMM            .22:   RESISTIVITY MUD AT BHT
 BHT .F                80:   BOTTOM HOLE TEMPERATURE
 TCS .HRS               4:   TIME CURCULATED STOPPED
 MRT .F                80:   MAXIMUM RECORDED TEMPERATURE
 LUN .               2958:   LOGGING UNIT NUMBER
 LUL .               CASP:   LOGGING UNIT LOCATION
 ENGI.             MILLER:   RECORDING ENGINEER
 WITN.           MCGINLEY:   WITNESSED BY
 CLNT.            A2DTECH:   CLIENT CODE
 ORIG.      2" & 5" PRINT:   ORIGIN OF DATA
 UWI .       490251060400:   UNIQUE WELL ID
 DICO. A2D Technologies, Inc.:   DIGITIZING COMPANY
~OTHER INFORMATION
~A   DEPT      SPR         SN        ILD       CALD         GRD      CORR       RHOB       DPHI   
# ...
  883.5000   -49.3563     7.0552     6.3723     7.5360   107.3544    -0.0051     2.5187     0.0762
  884.0000   -49.3941     7.0999     6.4309     7.5375   106.9103    -0.0033     2.5083     0.0744
  884.5000   -49.4322     7.1472     6.4900     7.5390   106.4783    -0.0015     2.5118     0.0717
  885.0000   -49.4712     7.1471     6.5171     7.5405   106.0712     0.0009     2.5195     0.0691
  885.5000   -49.4944     7.1472     6.5171     7.5419   105.8070    -0.0024     2.5228     0.0711
  886.0000   -49.5213     7.1477     6.4880     7.5389   103.1143    -0.0058     2.5211     0.0741
  886.5000   -49.5478     7.1480     6.3995     7.5168   100.4175    -0.0087     2.5083     0.0779
  887.0000   -49.5745     7.0884     6.3122     7.5034    98.4383    -0.0008     2.5045     0.0816
  887.5000   -49.6012     6.9760     6.2261     7.5034    97.9754     0.0028     2.5035     0.0854
  888.0000   -49.6271     6.8655     6.1661     7.5033    98.2614     0.0022     2.4927     0.0892
  888.5000   -49.6513     6.7566     6.1707     7.5033   104.3164     0.0015     2.4851     0.0926
  889.0000   -49.6950     6.6993     6.1800     7.5033   111.3844     0.0008     2.4804     0.0919
  889.5000   -50.1175     6.7004     6.1895     7.5033   113.0167     0.0001     2.4825     0.0901
  890.0000   -50.5514     6.7000     6.1990     7.5033   112.4197    -0.0006     2.4860     0.0886
  890.5000   -50.5677     6.6999     6.2084     7.5033   111.6324    -0.0005     2.4903     0.0886
  891.0000   -50.4158     6.7001     6.2179     7.5033   110.8542     0.0009     2.4886     0.0890
  891.5000   -50.2579     6.7136     6.2274     7.5033   110.8464     0.0022     2.4864     0.0821
  892.0000   -50.1002     6.7708     6.2369     7.5046   110.8800     0.0036     2.4941     0.0762
  892.5000   -49.9430     6.8284     6.2464     7.5063   110.9104     0.0049     2.5041     0.0784
  893.0000   -49.7860     6.8865     6.2560     7.5080   110.9398     0.0062     2.5073     0.0789
  893.5000   -49.6301     6.9451     6.2655     7.5097   110.9685     0.0076     2.5044     0.0782
  894.0000   -49.4692     7.0043     6.2750     7.5113   110.9985     0.0089     2.5065     0.0790
  894.5000   -49.2913     7.0165     6.2809     7.5130   111.0396     0.0043     2.5061     0.0813
  895.0000   -49.4266     6.9689     6.2809     7.5147   110.6045    -0.0007     2.5015     0.0838
  895.5000   -49.3334     6.9291     6.2809     7.5164   110.0322    -0.0056     2.4945     0.0896
  896.0000   -49.2474     6.8896     6.2809     7.5181   109.4708    -0.0070     2.4854     0.0950
  896.5000   -49.1589     6.8503     6.2809     7.5198   110.3517     0.0003     2.4789     0.0872
  897.0000   -49.0935     6.8249     6.2809     7.5214   111.3576     0.0047     2.4895     0.0794
  897.5000   -49.1950     6.8558     6.2809     7.5231   112.3840     0.0013     2.5004     0.0788
  898.0000   -49.2944     6.8885     6.2811     7.5248   112.5694    -0.0021     2.5062     0.0787
  898.5000   -49.3930     6.9214     6.2804     7.5265   112.8232    -0.0053     2.5001     0.0833
  899.0000   -49.4797     6.9545     6.3207     7.5282   112.9720    -0.0061     2.4931     0.0862
  899.5000   -49.4804     6.9877     6.3972     7.5299   113.1491    -0.0026     2.4869     0.0854
  900.0000   -49.4801     7.0211     6.4747     7.5315   113.1964     0.0009     2.4955     0.0754
  900.5000   -49.4791     7.0546     6.5528     7.5332   110.4305    -0.0010     2.5067     0.0777
  901.0000   -49.4805     7.0885     6.5917     7.5349   107.3259    -0.0030     2.5105     0.0818
  901.5000   -49.8487     7.1232     6.6385     7.5366   104.2106     0.0022     2.4960     0.0776
  902.0000   -50.0735     7.1448     6.7684     7.5383   102.4861     0.0005     2.5014     0.0810
  902.5000   -49.5493     7.2256     6.8723     7.5400   104.2709    -0.0028     2.5080     0.0842
  903.0000   -49.0751     7.2632     6.8989     7.5418   108.8744     0.0030     2.4935     0.0825
  903.5000   -49.2277     7.3010     6.9232     7.5424   112.2463     0.0006     2.5066     0.0836
  904.0000   -49.2157     7.3398     6.9476     7.5251   112.9353    -0.0010     2.4866     0.0900
  904.5000   -48.8958     7.3791     6.9721     7.5083   114.0129     0.0017     2.4853     0.0922
  905.0000   -48.5798     7.4186     6.9966     7.4917   114.1921     0.0048     2.4849     0.0853
  905.5000   -48.2635     7.4584     7.0212     7.4752   113.5826     0.0081     2.4955     0.0747
  906.0000   -47.9505     7.4983     7.0459     7.4631   113.7743     0.0069     2.5104     0.0802
  906.5000   -47.6761     7.5384     7.0707     7.4629   113.1138     0.0039     2.5051     0.0866
  907.0000   -47.6691     7.5788     7.0815     7.4624   112.3781     0.0008     2.4925     0.0857
  907.5000   -47.6539     7.6194     7.0815     7.4619   111.6263    -0.0003     2.4974     0.0846
  908.0000   -47.6376     7.6602     7.0816     7.4614   111.7675     0.0012     2.4936     0.0846
  908.5000   -47.6217     7.7012     7.0816     7.4609   112.4240     0.0027     2.4927     0.0825
  909.0000   -47.6058     7.7424     7.1869     7.4605   113.0189     0.0042     2.4976     0.0806
  909.5000   -47.5899     7.7839     7.3020     7.4600   113.0130     0.0057     2.5018     0.0813
  910.0000   -47.5740     7.8255     7.4190     7.4595   111.9224     0.0072     2.5014     0.0814
  910.5000   -47.5582     7.8382     7.5378     7.4590   110.7346     0.0087     2.4997     0.0798
  911.0000   -47.5422     7.9036     7.6321     7.4585   110.6439     0.0087     2.4980     0.0843
  911.5000   -47.5263     7.9640     7.6600     7.4580   112.2165     0.0073     2.4962     0.0834
  912.0000   -47.5106     8.0248     7.6880     7.4576   113.7964     0.0059     2.4946     0.0846
  912.5000   -47.4917     8.0862     7.7162     7.4571   112.9277     0.0045     2.4952     0.0837
  913.0000   -47.6601     8.1480     7.7444     7.4566   112.0361     0.0027     2.4958     0.0826
  913.5000   -47.9211     8.2103     7.7937     7.4561   112.0397     0.0024     2.4965     0.0822
  914.0000   -48.1880     8.2730     7.9131     7.4556   111.3839     0.0056     2.4959     0.0818
  914.5000   -48.1462     8.3362     8.0347     7.4551   109.7053     0.0089     2.4982     0.0792
  915.0000   -47.9258     8.4000     8.1581     7.4546   108.0651     0.0123     2.5053     0.0759
  915.5000   -47.7035     8.4388     8.2084     7.4542   107.2443     0.0128     2.5125     0.0738
  916.0000   -47.4805     8.4388     8.2084     7.4537   106.4455     0.0170     2.5124     0.0742
  916.5000   -47.2577     8.4388     8.2085     7.4532   104.8524     0.0203     2.5120     0.0742
  917.0000   -47.0361     8.4388     8.2086     7.4527   104.1784     0.0236     2.5117     0.0729
  917.5000   -46.8901     8.3468     8.1966     7.4522   105.1724     0.0256     2.5121     0.0700
  918.0000   -46.8937     8.2520     8.1180     7.4517   109.5940     0.0255     2.5226     0.0594
  918.5000   -47.0871     8.1583     8.0403     7.4513   113.0923     0.0155     2.5377     0.0694
  919.0000   -47.4406     8.0582     7.9633     7.4508   112.9286     0.0054     2.5215     0.0812
  919.5000   -47.6679     8.0569     7.8382     7.4503   112.8159    -0.0046     2.5053     0.0852
  920.0000   -47.5699     8.0446     7.8141     7.4498   113.2184    -0.0050     2.4916     0.0886
  920.5000   -47.4895     8.0324     7.7667     7.4493   113.6224    -0.0041     2.4886     0.0867
  921.0000   -47.4885     8.0202     7.7195     7.4489   113.3977    -0.0034     2.4924     0.0838
  921.5000   -47.4885     8.0080     7.6242     7.4484   113.0276    -0.0047     2.4964     0.0838
  922.0000   -47.4895     7.9958     7.7568     7.4479   113.6876    -0.0077     2.4950     0.0880
  922.5000   -47.5214     7.9842     7.6923     7.4474   114.4346    -0.0109     2.4825     0.0960
  923.0000   -47.6652     7.8324     7.6070     7.4469   114.8071    -0.0098     2.4649     0.0986
  923.5000   -47.8058     7.6948     7.5227     7.4464   114.7511    -0.0084     2.4721     0.0951
