~VERSION INFORMATION
 VERS.                2.0:   CWLS LOG ASCII STANDARD - VERSION 2.0
 WRAP.                 NO:   ONE LINE PER DEPTH STEP
~WELL INFORMATION
#MNEM.UNIT      DATA TYPE    INFORMATION
#----------   ------------   ------------------------------
 STRT.F          648.0000:   START DEPTH
 STOP.F         2443.0000:   STOP DEPTH
 STEP.F            0.5000:   STEP LENGTH
 NULL.          -999.2500:   NO VALUE
 COMP.    FENIX & SCISSON:   COMPANY
 WELL.  NPR #3 SHX-11 #22:   WELL
 FLD .             TEAPOT:   FIELD
 LOC .      S11 T38N R78W:   LOCATION
 CNTY.            NATRONA:   COUNTY
 STAT.            WYOMING:   STATE
 CTRY. UNITED STATES OF AMERICA:   COUNTRY
 SRVC.           BIRDWELL:   SERVICE COMPANY
 DATE.        23-APR-1978:   LOGDATE
 API .       490251061300:   API NUMBER
~CURVE INFORMATION
#MNEM.UNIT       API CODE    CURVE DESCRIPTION
#----------   ------------   ------------------------------
 DEPT.F                  :   
 CALD.IN     45 280 60 00:   CALIPER FROM DENSITY LOG
 CORR.G/C3   45 356 01 00:   DENSITY CORRECTION
 DPHI.DEC    45 890 12 00:   DENSITY POROSITY SANDSTONE
 GRD .GAPI   45 310 01 00:   GAMMA RAY FROM DENSITY LOG
 RHOB.G/C3   45 350 01 00:   BULK DENSITY
~PARAMETER INFORMATION
#MNEM.UNIT          VALUE    DESCRIPTION
#----------   ------------   ------------------------------
 PD  .                 GL:   PERMANENT DATUM
 EPD .F              5166:   ELEVATION PERMANENT DATUM
 LMF .                 KB:   LOG MEASURED FROM
 DMF .                 KB:   DRILLING MEASURED FROM
 EKB .F              5176:   KELLING BUSHING
 EGL .F              5166:   GROUND LEVEL
 DATE.        23-APR-1978:   RUN DATE
 RUN .                  1:   RUN NUMBER
 DD  .F              2450:   DEPTH DRILLER
 DL  .F              2450:   DEPTH LOGGER
 BLI .F              2443:   BOTTOM LOG INTERVAL
 TLI .F               670:   TOP LOG INTERVAL
 CS  .IN            9.625:   CASING SIZE
 CBD .F               660:   CASING BOTTOM DRILLER
 CBL .F               670:   CASING BOTTOM LOGGER
 BS  .IN             8.75:   BIT SIZE
 BSD .F              2450:   BIT SIZE AT DEPTH
 DFT .               MIST:   DRILLING FLUID TYPE
 LUN .               2958:   LOGGING UNIT NUMBER
 LUL .             CASPER:   LOGGING UNIT LOCATION
 ENGI.             MILLER:   RECORDING ENGINEER
 WITN.          MC GINLEY:   WITNESSED BY
 CLNT.            A2DTECH:   CLIENT CODE
 ORIG.           5" PRINT:   ORIGIN OF DATA
 UWI .       490251061300:   UNIQUE WELL ID
 DICO. A2D Technologies, Inc.:   DIGITIZING COMPANY
~OTHER INFORMATION
~A   DEPT     CALD       CORR       DPHI        GRD       RHOB   
# ...
 1441.0000     9.7943     0.0393     0.0141   100.9113     2.5277
 1441.5000     9.8095     0.0377     0.0132    99.2607     2.5284
 1442.0000     9.7946     0.0436     0.0084   101.0584     2.5277
 1442.5000     9.7647     0.0480     0.0059   103.3138     2.5276
 1443.0000     9.7347     0.0479     0.0035   103.6043     2.5329
 1443.5000     9.7048     0.0494     0.0008   102.8529     2.5389
 1444.0000     9.7050     0.0493     0.0002   102.1019     2.5419
 1444.5000     9.7051     0.0507     0.0047   101.2009     2.5449
 1445.0000     9.7053     0.0521     0.0081    99.1002     2.5464
 1445.5000     9.7054     0.0550     0.0120    96.9998     2.5448
 1446.0000     9.7056     0.0549     0.0056    96.2488     2.5328
 1446.5000     9.7057     0.0548     0.0032    97.8965     2.5275
 1447.0000     9.6307     0.0547     0.0056   103.5919     2.5328
 1447.5000     9.5256     0.0532     0.0072   107.0391     2.5367
 1448.0000     9.5257     0.0516     0.0099   106.8875     2.5418
 1448.5000     9.5303     0.0560     0.0120   103.7376     2.5365
 1449.0000     9.5411     0.0664     0.0123   101.0372     2.5350
 1449.5000     9.5562     0.0724     0.0156   101.4856     2.5177
 1450.0000     9.5714     0.0602     0.0213   101.0344     2.5237
 1450.5000     9.5714     0.0375     0.0264    97.8845     2.5206
 1451.0000     9.5865     0.0360     0.0427    97.2831     2.5109
 1451.5000     9.6165     0.0434     0.0499    97.2816     2.4904
 1452.0000     9.6316     0.0569     0.0430    96.9807     2.4703
 1452.5000     9.6316     0.0718     0.0026    97.8785     2.4605
 1453.0000     9.6466     0.0356     0.0180    98.4957     2.4702
 1453.5000     9.6767     0.0235     0.0170    98.9248     2.5401
 1454.0000     9.7068     0.0280     0.0111    99.0737     2.5235
 1454.5000     9.7068     0.0293     0.0074    98.4722     2.5213
 1455.0000     9.6767     0.0307     0.0053    96.0697     2.5243
 1455.5000     9.6917     0.0306     0.0081    91.1064     2.5325
 1456.0000     9.7068     0.0351     0.0071    94.4013     2.5340
 1456.5000     9.7218     0.0380     0.0059    98.5964     2.5347
 1457.0000     9.7669     0.0424     0.0084   101.4421     2.5362
 1457.5000     9.7820     0.0483     0.0045   102.9385     2.5385
 1458.0000     9.7980     0.0467     0.0096   101.1359     2.5332
 1458.5000     9.8120     0.0466     0.0192    97.8347     2.5384
 1459.0000     9.8120     0.0541     0.0210    96.7823     2.5384
 1459.5000     9.7820     0.0661     0.0114    96.9295     2.5241
 1460.0000     9.7519     0.0705     0.0192    96.9166     2.5113
 1460.5000     9.6466     0.0478     0.0225    92.7251     2.5256
 1461.0000     9.6165     0.0405     0.0192    91.2230     2.5233
 1461.5000     9.6165     0.0419     0.0114    92.5695     2.5098
 1462.0000     9.6316     0.0449     0.0044    93.7661     2.5108
 1462.5000     9.6466     0.0448     0.0005    94.2130     2.5240
 1463.0000     9.6466     0.0432     0.0068    93.0101     2.5293
 1463.5000     9.6316     0.0371     0.0096    92.8573     2.5353
 1464.0000     9.6165     0.0265     0.0138    92.4047     2.5390
 1464.5000     9.5714     0.0219     0.0180    92.3949     2.5337
 1465.0000     9.5564     0.0217     0.0165    91.1989     2.5277
 1465.5000     9.5414     0.0202     0.0108    90.5970     2.5164
 1466.0000     9.5263     0.0217     0.0044    93.5920     2.5187
 1466.5000     9.5263     0.0216     0.0074    96.1379     2.5277
 1467.0000     9.5263     0.0215     0.0105    96.4349     2.5344
 1467.5000     9.5263     0.0169     0.0120    96.4313     2.5382
 1468.0000     9.5328     0.0153     0.0174    97.1781     2.5291
 1468.5000     9.5414     0.0153     0.0204   108.7195     2.5261
 1469.0000     9.5564     0.0167     0.0195   112.7727     2.5148
 1469.5000     9.5714     0.0212     0.0153   113.0616     2.5126
 1470.0000     9.6015     0.0256     0.0108   104.8122     2.5140
 1470.5000     9.6466     0.0270     0.0068   100.0118     2.5200
 1471.0000     9.7238     0.0270     0.0084    97.6101     2.5215
 1471.5000     9.7970     0.0239     0.0156    97.4574     2.5260
 1472.0000     9.8421     0.0208     0.0207   100.7522     2.5328
 1472.5000     9.8120     0.0267     0.0234   101.3497     2.5262
 1473.0000     9.7348     0.0342     0.0195    99.9968     2.5117
 1473.5000     9.6617     0.0371     0.0234    98.9436     2.5109
 1474.0000     9.6316     0.0369     0.0288    98.7911     2.5124
 1474.5000     9.6165     0.0388     0.0199    99.2387     2.5016
 1475.0000     9.6165     0.0519     0.0112    98.3356     2.4981
 1475.5000     9.6165     0.0639     0.0013    96.9834     2.5041
 1476.0000     9.6015     0.0699     0.0061    96.3809     2.5146
 1476.5000     9.6015     0.0683     0.0055    97.4268     2.5367
 1477.0000     9.5865     0.0637    -0.0014    97.5746     2.5424
 1477.5000     9.5865     0.0606     0.0022    95.9219     2.5379
 1478.0000     9.5714     0.0560     0.0082    95.7691     2.5424
 1478.5000     9.5564     0.0514     0.0124    97.8645     2.5476
 1479.0000     9.5564     0.0514     0.0145    97.2620     2.5408
 1479.5000     9.5414     0.0618    -0.0050    96.9593     2.5295
 1480.0000     9.5263     0.0753     0.0001    96.9564     2.5190
 1480.5000     9.5113     0.0556     0.0037    96.3538     2.5490
 1481.0000     9.5113     0.0435     0.0049    97.1000     2.5648
 1481.5000     9.5113     0.0427     0.0067   101.2950     2.5625
 1482.0000     9.5263     0.0410     0.0097   104.7404     2.5347
 1482.5000     9.5414     0.0393     0.0122   106.9865     2.5347
 1483.0000     9.5619     0.0342     0.0158   111.9305     2.5332
 1483.5000     9.5865     0.0341     0.0212   115.3759     2.5197
 1484.0000     9.6015     0.0386     0.0251   118.5215     2.5174
 1484.5000     9.6165     0.0430     0.0266   120.3177     2.5144
 1485.0000     9.6316     0.0474     0.0218   120.6147     2.5045
 1485.5000     9.6466     0.0504     0.0158   119.1119     2.5001
 1486.0000     9.6617     0.0533     0.0122   117.9097     2.5038
 1486.5000     9.6917     0.0547     0.0020   117.4571     2.5151
 1487.0000     9.6917     0.0562    -0.0002   120.1529     2.5251
 1487.5000     9.7068     0.0576     0.0041   121.7992     2.5293
 1488.0000     9.7068     0.0590     0.0044   119.5468     2.5225
 1488.5000     9.6917     0.0605     0.0068   113.6969     2.5195
 1489.0000     9.6617     0.0634     0.0122   101.5501     2.5286
 1489.5000     9.6466     0.0679     0.0143    98.0781     2.5405
 1490.0000     9.6316     0.0723     0.0122    97.1966     2.5412
 1490.5000     9.6316     0.0677     0.0032   101.6908     2.5428
 1491.0000     9.6165     0.0601    -0.0001   103.7869     2.5467
 1491.5000     9.6165     0.0555     0.0059    99.8860     2.5503
 1492.0000     9.6015     0.0539     0.0071    99.1335     2.5481
 1492.5000     9.5865     0.0553     0.0062   101.8286     2.5429
 1493.0000     9.5865     0.0568     0.0047   104.2246     2.5399
 1493.5000     9.5714     0.0597     0.0032   104.9721     2.5467
 1494.0000     9.5564     0.0581     0.0029   101.6393     2.5535
 1494.5000     9.5549     0.0535     0.0026    95.3698     2.5535
 1495.0000     9.5414     0.0535    -0.0008    93.8677     2.5512
 1495.5000     9.5263     0.0565    -0.0034    94.0148     2.5498
 1496.0000     9.4962     0.0593     0.0032    95.3613     2.5588
 1496.5000     9.4662     0.0367     0.0044    96.2580     2.5633
 1497.0000     9.4361     0.0200     0.0044    95.8046     2.5558
 1497.5000     9.4060     0.0109     0.0056    94.0027     2.5476
 1498.0000     9.3759     0.0126     0.0074    93.1003     2.5439
 1498.5000     9.3609     0.0228     0.0095    93.2483     2.5416
 1499.0000     9.3459     0.0243     0.0114    96.8420     2.5424
 1499.5000     9.3459     0.0181     0.0163   102.3864     2.5509
 1500.0000     9.3643     0.0090     0.0180   110.0297     2.5387
 1500.5000     9.3856     0.0059     0.0132   110.3438     2.5267
 1501.0000     9.4063     0.0104     0.0072   108.5623     2.5200
 1501.5000     9.4215     0.0118     0.0084   106.4223     2.5254
