~VERSION INFORMATION
 VERS.                2.0:   CWLS LOG ASCII STANDARD - VERSION 2.0
 WRAP.                 NO:   ONE LINE PER DEPTH STEP
~WELL INFORMATION
#MNEM.UNIT      DATA TYPE    INFORMATION
#----------   ------------   ------------------------------
 STRT.F         1208.5000:   START DEPTH
 STOP.F         3816.0000:   STOP DEPTH
 STEP.F            0.5000:   STEP LENGTH
 NULL.          -999.2500:   NO VALUE
 COMP. BROWN JOHN E&C INC:   COMPANY
 WELL. NPR 3 STX-11 #13-11:   WELL
 FLD .             TEAPOT:   FIELD
 LOC .      S11 T38N R78W:   LOCATION
 CNTY.            NATRONA:   COUNTY
 STAT.            WYOMING:   STATE
 CTRY. UNITED STATES OF AMERICA:   COUNTRY
 SRVC.            Unknown:   SERVICE COMPANY
 DATE.        08-APR-1986:   LOGDATE
 API .       490251105000:   API NUMBER
~CURVE INFORMATION
#MNEM.UNIT       API CODE    CURVE DESCRIPTION
#----------   ------------   ------------------------------
 DEPT.F                  :   
 ROP .MIN/FT 91 810 01 00:   RATE OF DRILLING PENETRATION
 TGAS.UNITS  91 830 01 00:   TOTAL GAS FROM HOTWIRE
 GR  .GAPI   81 310 01 00:   GAMMA RAY
 TT  .US/F   81 520 00 00:   TRANSIT TIME
~PARAMETER INFORMATION
#MNEM.UNIT          VALUE    DESCRIPTION
#----------   ------------   ------------------------------
 PD  .                 GL:   PERMANENT DATUM
 EPD .F              5176:   ELEVATION PERMANENT DATUM
 LMF .                 KB:   LOG MEASURED FROM
 DAPD.F              11.8:   FEET ABOVE PERMANENT DATUM
 DMF .                 KB:   DRILLING MEASURED FROM
 EKB .F            5187.8:   KELLING BUSHING
 EGL .F              5176:   GROUND LEVEL
 DATE.             4-8-86:   RUN DATE
 RUN .                  1:   RUN NUMBER
 DD  .F              4051:   DEPTH DRILLER
 DL  .F              3815:   DEPTH LOGGER
 BLI .F              3815:   BOTTOM LOG INTERVAL
 TLI .F              2200:   TOP LOG INTERVAL
 CS  .IN              5.5:   CASING SIZE
 CBD .F              3861:   CASING BOTTOM DRILLER
 DFT .              WATER:   DRILLING FLUID TYPE
 BHT .F               167:   BOTTOM HOLE TEMPERATURE
 MRT .F               167:   MAXIMUM RECORDED TEMPERATURE
 LUN .            558/374:   LOGGING UNIT NUMBER
 LUL .             CASPER:   LOGGING UNIT LOCATION
 ENGI.             BAILEY:   RECORDING ENGINEER
 WITN.             BARRON:   WITNESSED BY
 CLNT.            A2DTECH:   CLIENT CODE
 ORIG.     2.5", 5" PRINT:   ORIGIN OF DATA
 UWI .       490251105000:   UNIQUE WELL ID
 DICO. A2D Technologies, Inc.:   DIGITIZING COMPANY
~OTHER INFORMATION
~A  DEPT         ROP     TGAS         GR         TT   
# ...
 3252.5000  -999.2500  -999.2500    62.1525   367.8809
 3253.0000  -999.2500  -999.2500    62.8150   367.5986
 3253.5000  -999.2500  -999.2500    63.2528   367.6230
 3254.0000  -999.2500  -999.2500    63.5383   367.6432
 3254.5000  -999.2500  -999.2500    63.5195   367.7545
 3255.0000  -999.2500  -999.2500    63.5006   368.2290
 3255.5000  -999.2500  -999.2500    63.3225   373.2697
 3256.0000  -999.2500  -999.2500    63.0340   377.7022
 3256.5000  -999.2500  -999.2500    61.7671   382.0717
 3257.0000  -999.2500  -999.2500    61.9763   377.9101
 3257.5000  -999.2500  -999.2500    63.4145   370.9511
 3258.0000  -999.2500  -999.2500    65.4274   363.9647
 3258.5000  -999.2500  -999.2500    66.4039   360.7718
 3259.0000  -999.2500  -999.2500    65.3087   357.6395
 3259.5000  -999.2500  -999.2500    64.1436   354.4478
 3260.0000  -999.2500  -999.2500    63.3865   352.1639
 3260.5000  -999.2500  -999.2500    63.0498   356.1732
 3261.0000  -999.2500  -999.2500    62.6932   364.5993
 3261.5000  -999.2500  -999.2500    62.6745   368.5786
 3262.0000  -999.2500  -999.2500    63.6984   369.2292
 3262.5000  -999.2500  -999.2500    64.8939   369.6068
 3263.0000  -999.2500  -999.2500    66.7026   367.9877
 3263.5000  -999.2500  -999.2500    69.0972   362.4962
 3264.0000  -999.2500  -999.2500    70.7526   352.1643
 3264.5000  -999.2500  -999.2500    72.1036   288.0335
 3265.0000  -999.2500  -999.2500    71.9325   276.5502
 3265.5000  -999.2500  -999.2500    70.5251   275.3543
 3266.0000  -999.2500  -999.2500    69.7639   274.7665
 3266.5000  -999.2500  -999.2500    70.2555   274.7810
 3267.0000  -999.2500  -999.2500    70.6395   274.7954
 3267.5000  -999.2500  -999.2500    69.6202   274.7348
 3268.0000  -999.2500  -999.2500    68.4825   274.6456
 3268.5000  -999.2500  -999.2500    67.4420   278.3505
 3269.0000  -999.2500  -999.2500    66.6238   293.1895
 3269.5000  -999.2500  -999.2500    65.7447   307.1852
 3270.0000  -999.2500  -999.2500    65.3121   301.6639
 3270.5000  -999.2500  -999.2500    64.9404   295.7795
 3271.0000  -999.2500  -999.2500    64.4620   297.5494
 3271.5000  -999.2500  -999.2500    63.9837   310.3943
 3272.0000  -999.2500  -999.2500    63.5759   399.9102
 3272.5000  -999.2500  -999.2500    63.1792   399.9247
 3273.0000  -999.2500  -999.2500    62.8668   399.9394
 3273.5000  -999.2500  -999.2500    62.6162   399.9539
 3274.0000  -999.2500  -999.2500    62.0100   343.6909
 3274.5000  -999.2500  -999.2500    61.2149   278.7124
 3275.0000  -999.2500  -999.2500    60.5277   272.1925
 3275.5000  -999.2500  -999.2500    60.2330   271.2714
 3276.0000  -999.2500  -999.2500    64.8821   271.6191
 3276.5000  -999.2500  -999.2500    67.7986   271.9967
 3277.0000  -999.2500  -999.2500    68.7089   272.5558
 3277.5000  -999.2500  -999.2500    69.0104   272.9968
 3278.0000  -999.2500  -999.2500    69.4641   273.3138
 3278.5000  -999.2500  -999.2500    69.9178   273.9333
 3279.0000  -999.2500  -999.2500    70.2245   274.8555
 3279.5000  -999.2500  -999.2500    70.3686   275.7776
 3280.0000  -999.2500  -999.2500    70.1422   275.4924
 3280.5000  -999.2500  -999.2500    68.8096   275.5068
 3281.0000  -999.2500  -999.2500    64.0008   275.5213
 3281.5000  -999.2500  -999.2500    60.9882   275.4607
 3282.0000  -999.2500  -999.2500    58.7428   275.1295
 3282.5000  -999.2500  -999.2500    58.7768   274.7203
 3283.0000  -999.2500  -999.2500    59.3040   274.2506
 3283.5000  -999.2500  -999.2500    59.8733   273.9336
 3284.0000  -999.2500  -999.2500    60.2106   273.9797
 3284.5000  -999.2500  -999.2500    60.2922   274.2968
 3285.0000  -999.2500  -999.2500    60.2892   275.7032
 3285.5000  -999.2500  -999.2500    60.2862   276.7462
 3286.0000  -999.2500  -999.2500    60.2831   276.8838
 3286.5000  -999.2500  -999.2500    60.1815   276.6569
 3287.0000  -999.2500  -999.2500    60.0201   275.8848
 3287.5000  -999.2500  -999.2500    59.7476   275.4755
 3288.0000  -999.2500  -999.2500    59.3106   274.5246
 3288.5000  -999.2500  -999.2500    58.4408   274.2364
 3289.0000  -999.2500  -999.2500    56.6114   274.2509
 3289.5000  -999.2500  -999.2500    56.1519   273.6602
 3290.0000  -999.2500  -999.2500    58.4321   273.3749
 3290.5000  -999.2500  -999.2500    59.1902   273.3893
 3291.0000  -999.2500  -999.2500    59.7961   273.4643
 3291.5000  -999.2500  -999.2500    57.4579   273.8419
 3292.0000  -999.2500  -999.2500    53.8738   274.4167
 3292.5000  -999.2500  -999.2500    52.4655   274.9022
 3293.0000  -999.2500  -999.2500    51.1953   275.6428
 3293.5000  -999.2500  -999.2500    50.1251   276.5649
 3294.0000  -999.2500  -999.2500    50.7147   277.8820
 3294.5000  -999.2500  -999.2500    54.3596   279.9253
 3295.0000  -999.2500  -999.2500    58.0120   282.9655
 3295.5000  -999.2500  -999.2500    59.2538   304.7681
 3296.0000  -999.2500  -999.2500    58.8345   325.5968
 3296.5000  -999.2500  -999.2500    57.5444   348.3619
 3297.0000  -999.2500  -999.2500    55.0256   365.8065
 3297.5000  -999.2500  -999.2500    52.5187   400.0000
 3298.0000  -999.2500  -999.2500    51.3291   400.0000
 3298.5000  -999.2500  -999.2500    51.4566   400.0000
 3299.0000  -999.2500  -999.2500    52.5962   400.0000
 3299.5000  -999.2500  -999.2500    54.3428   400.0000
 3300.0000  -999.2500  -999.2500    55.3272   400.0000
 3300.5000  -999.2500  -999.2500    55.3561   400.0000
 3301.0000  -999.2500  -999.2500    55.3207   400.0000
 3301.5000  -999.2500  -999.2500    55.3177   400.0000
 3302.0000  -999.2500  -999.2500    55.3148   361.1877
 3302.5000  -999.2500  -999.2500    55.9207   337.2350
 3303.0000  -999.2500  -999.2500    57.7443   330.7121
 3303.5000  -999.2500  -999.2500    60.5074   330.2413
 3304.0000  -999.2500  -999.2500    65.6621   354.0928
 3304.5000  -999.2500  -999.2500    69.4910   373.9646
 3305.0000  -999.2500  -999.2500    69.7569   400.0000
 3305.5000  -999.2500  -999.2500    67.3208   400.0000
 3306.0000  -999.2500  -999.2500    62.9905   400.0000
 3306.5000  -999.2500  -999.2500    59.1973   400.0000
 3307.0000  -999.2500  -999.2500    60.3404   400.0000
 3307.5000  -999.2500  -999.2500    63.9078   400.0000
 3308.0000  -999.2500  -999.2500    68.7982   400.0000
 3308.5000  -999.2500  -999.2500    70.1067   400.0000
 3309.0000  -999.2500  -999.2500    71.9833   400.0000
 3309.5000  -999.2500  -999.2500    73.6380   400.0000
 3310.0000  -999.2500  -999.2500    74.5712   400.0000
 3310.5000  -999.2500  -999.2500    74.4359   400.0000
 3311.0000  -999.2500  -999.2500    73.0487   400.0000
 3311.5000  -999.2500  -999.2500    71.1981   400.0000
 3312.0000  -999.2500  -999.2500    68.7381   400.0000
 3312.5000  -999.2500  -999.2500    66.5105   400.0000
 3313.0000  -999.2500  -999.2500    63.7711   400.0000
 3313.5000  -999.2500  -999.2500    61.6373   400.0000
 3314.0000  -999.2500  -999.2500    58.8947   400.0000
 3314.5000  -999.2500  -999.2500    58.2829   400.0000
 3315.0000  -999.2500  -999.2500    57.5190   400.0000
 3315.5000  -999.2500  -999.2500    56.5932   400.0000
 3316.0000  -999.2500  -999.2500    55.9565   400.0000
 3316.5000  -999.2500  -999.2500    55.3793   400.0000
 3317.0000  -999.2500  -999.2500    55.5702   400.0000
 3317.5000  -999.2500  -999.2500    56.0747   400.0000
 3318.0000  -999.2500  -999.2500    57.8326   400.0000
 3318.5000  -999.2500  -999.2500    61.2358   400.0000
 3319.0000  -999.2500  -999.2500    65.8721   400.0000
 3319.5000  -999.2500  -999.2500    69.1833   400.0000
 3320.0000  -999.2500  -999.2500    69.5078   400.0000
 3320.5000  -999.2500  -999.2500    69.8676   400.0000
 3321.0000  -999.2500  -999.2500    70.0110   400.0000
 3321.5000  -999.2500  -999.2500    70.4589   400.0000
 3322.0000  -999.2500  -999.2500    75.1685   400.0000
 3322.5000  -999.2500  -999.2500    79.8782   400.0000
 3323.0000  -999.2500  -999.2500    80.0271   400.0000
 3323.5000  -999.2500  -999.2500    80.1890   400.0000
 3324.0000  -999.2500  -999.2500    80.4973   400.0000
 3324.5000  -999.2500  -999.2500    80.9571   400.0000
 3325.0000  -999.2500  -999.2500    83.6149   400.0000
