~VERSION INFORMATION
 VERS.                2.0:   CWLS LOG ASCII STANDARD - VERSION 2.0
 WRAP.                 NO:   ONE LINE PER DEPTH STEP
~WELL INFORMATION
#MNEM.UNIT      DATA TYPE    INFORMATION
#----------   ------------   ------------------------------
 STRT.F           70.0000:   START DEPTH
 STOP.F         1236.0000:   STOP DEPTH
 STEP.F            0.5000:   STEP LENGTH
 NULL.          -999.2500:   NO VALUE
 COMP. U S NAVY/INTEX OIL CO:   COMPANY
 WELL. NAVAL PETROLEUM TE ##3 75S-11:   WELL
 FLD .             TEAPOT:   FIELD
 LOC .      S11 T38N R78W:   LOCATION
 CNTY.            NATRONA:   COUNTY
 STAT.            WYOMING:   STATE
 CTRY. UNITED STATES OF AMERICA:   COUNTRY
 SRVC.         Lane Wells:   SERVICE COMPANY
 DATE.        04-MAR-1960:   LOGDATE
 API .       490250633900:   API NUMBER
~CURVE INFORMATION
#MNEM.UNIT       API CODE    CURVE DESCRIPTION
#----------   ------------   ------------------------------
 DEPT.F                  :   
 GR  .GAPI   30 310 01 00:   GAMMA RAY
 SPR .MV     05 010 01 00:   SPONTANEOUS POTENTIAL FROM RES.
 ILD .OHMM   05 120 46 00:   INDUCTION LOG DEEP
 CILD.MMHO   05 110 46 00:   CONDUCTIVITY INDUCTION LOG DEEP
 ASN .OHMM   05 041 18 00:   AMPLIFIED SHORT NORMAL 18"
~PARAMETER INFORMATION
#MNEM.UNIT          VALUE    DESCRIPTION
#----------   ------------   ------------------------------
 PD  .                 GL:   PERMANENT DATUM
 EPD .F              5252:   ELEVATION PERMANENT DATUM
 LMF .                 KB:   LOG MEASURED FROM
 DAPD.F                 5:   FEET ABOVE PERMANENT DATUM
 DMF .                 KB:   DRILLING MEASURED FROM
 EKB .F              5257:   KELLING BUSHING
 EGL .F              5252:   GROUND LEVEL
 DATE.             3-4-60:   RUN DATE
 RUN .                  1:   RUN NUMBER
 DD  .F              1239:   DEPTH DRILLER
 DL  .F              1238:   DEPTH LOGGER
 BLI .F              1236:   BOTTOM LOG INTERVAL
 TLI .F                70:   TOP LOG INTERVAL
 CS  .IN            8.625:   CASING SIZE
 CBD .F                12:   CASING BOTTOM DRILLER
 BS  .IN            7.875:   BIT SIZE
 BSD .F              1239:   BIT SIZE AT DEPTH
 DFT .                GEL:   DRILLING FLUID TYPE
 DFD .                9.2:   DRILLING FLUID DENSITY
 DFV .                 34:   DRILLING FLUID VISCOSITY
 DFPH.                7.5:   DRILLING FLUID PH
 DFL .                8.5:   DRILLING FLUID LOSS
 MSS .                PIT:   MUD SAMPLE SOURCE
 RMS .OHMM              3:   RESISTIVITY MUD SAMPLE
 MST .F                52:   MUD SAMPLE TEMPERATURE
 RMF .OHMM            2.8:   RESISTIVITY MUD FILTRATE SAMPLE
 MFST.F                55:   MUD FILTRATE SAMPLE TEMPERATURE
 RMC .OHMM            3.3:   RESISTIVITY MUD CAKE
 MCST.F                55:   MUD CAKE SAMPLE TEMPERATURE
 MFSS.                MUD:   MUD FILTRATE SAMPLE SOURCE
 MCSS.              PRESS:   MUD CAKE SAMPLE SOURCE
 RMB .OHMM            2.2:   RESISTIVITY MUD AT BHT
 BHT .F                77:   BOTTOM HOLE TEMPERATURE
 TCS .HRS              .5:   TIME CURCULATED STOPPED
 MRT .F                77:   MAXIMUM RECORDED TEMPERATURE
 LUN .               4474:   LOGGING UNIT NUMBER
 LUL .             CASPER:   LOGGING UNIT LOCATION
 ENGI.      GRIGGS/NELSON:   RECORDING ENGINEER
 WITN.  JORGENSEN/HOLLAND:   WITNESSED BY
 CLNT.            A2DTECH:   CLIENT CODE
 ORIG.       2", 5" PRINT:   ORIGIN OF DATA
 UWI .       490250633900:   UNIQUE WELL ID
 DICO. A2D Technologies, Inc.:   DIGITIZING COMPANY
~OTHER INFORMATION
~A   DEPT       GR        SPR          ILD      CILD         ASN 
# ...
  314.0000  -999.2500   -36.3506     5.6267   187.7503     6.5770
  314.5000  -999.2500   -36.6350     5.6676   185.9800     6.6639
  315.0000  -999.2500   -36.8834     5.7084   184.2097     6.7508
  315.5000  -999.2500   -36.9814     5.7493   182.4393     6.8411
  316.0000  -999.2500   -37.0823     5.7902   180.6690     6.9480
  316.5000  -999.2500   -37.1835     5.8310   178.8987     7.0543
  317.0000  -999.2500   -37.2847     5.8719   177.1283     7.1609
  317.5000  -999.2500   -37.3859     5.9127   175.3580     7.2679
  318.0000  -999.2500   -37.5241     5.9536   173.5868     7.3156
  318.5000  -999.2500   -37.6726     5.9944   171.8165     7.2636
  319.0000  -999.2500   -37.8213     6.0353   170.0402     7.2147
  319.5000  -999.2500   -37.9710     6.0761   169.3299     7.1687
  320.0000  -999.2500   -38.1247     6.1170   168.8380     7.1616
  320.5000  -999.2500   -37.9604     6.1581   168.3489     7.2311
  321.0000  -999.2500   -37.7482     6.1988   167.8590     7.3111
  321.5000  -999.2500   -37.5351     6.2034   167.3680     7.3903
  322.0000  -999.2500   -37.3228     6.1870   166.8768     7.4048
  322.5000  -999.2500   -37.1104     6.1448   166.3695     7.4106
  323.0000  -999.2500   -36.8964     6.1031   167.1068     7.4165
  323.5000  -999.2500   -36.6864     6.0613   169.4048     7.3843
  324.0000  -999.2500   -36.7394     6.0195   171.7028     7.2285
  324.5000  -999.2500   -36.8084     5.9777   174.0008     7.0741
  325.0000  -999.2500   -36.8764     5.9360   176.2989     6.9190
  325.5000  -999.2500   -36.9439     5.8942   178.5969     6.7639
  326.0000  -999.2500   -37.0114     5.8524   180.8949     6.6092
  326.5000  -999.2500   -37.0789     5.8107   183.1929     6.4533
  327.0000  -999.2500   -37.1465     5.7686   183.2088     6.3871
  327.5000  -999.2500   -37.2140     5.7511   182.4118     6.4496
  328.0000  -999.2500   -37.2815     5.7500   182.4118     6.5331
  328.5000  -999.2500   -37.3490     5.8121   180.9507     6.6166
  329.0000  -999.2500   -37.4165     5.9136   178.4995     6.7000
  329.5000  -999.2500   -37.4840     6.0158   176.0483     6.7833
  330.0000  -999.2500   -37.5516     6.1180   173.5971     6.8666
  330.5000  -999.2500   -37.6192     6.2201   171.1458     6.9500
  331.0000  -999.2500   -37.6867     6.3223   168.6946     7.0399
  331.5000  -999.2500   -37.7567     6.4244   166.2434     7.1599
  332.0000  -999.2500   -37.6874     6.5266   163.7922     7.2801
  332.5000  -999.2500   -37.5644     6.6318   161.3410     7.4002
  333.0000  -999.2500   -37.4403     6.6929   158.8897     7.5203
  333.5000  -999.2500   -37.3164     6.7432   156.4385     7.6405
  334.0000  -999.2500   -37.1922     6.7933   153.9873     7.7608
  334.5000  -999.2500   -37.0645     6.8435   151.5361     7.8831
  335.0000  -999.2500   -37.1011     6.8928   150.0382     7.9237
  335.5000  -999.2500   -37.1750     6.9200   150.8841     7.9454
  336.0000  -999.2500   -37.2497     6.8899   151.7132     7.9458
  336.5000  -999.2500   -37.3240     6.8610   152.5455     7.8974
  337.0000  -999.2500   -37.3984     6.8319   153.3757     7.8498
  337.5000  -999.2500   -37.4728     6.8029   154.2060     7.8022
  338.0000  -999.2500   -37.5458     6.7739   155.0363     7.7546
  338.5000  -999.2500   -37.5523     6.7449   155.8665     7.7071
  339.0000  -999.2500   -37.4496     6.7158   156.6968     7.6594
  339.5000  -999.2500   -37.3486     6.6867   157.5270     7.6114
  340.0000  -999.2500   -37.2469     6.6570   158.3573     7.5643
  340.5000  -999.2500   -37.1438     6.6254   159.1875     7.5865
  341.0000  -999.2500   -37.0516     6.5931   160.0178     7.6130
  341.5000  -999.2500   -37.2586     6.5606   160.8480     7.6395
  342.0000  -999.2500   -37.4840     6.5282   161.6783     7.6369
  342.5000  -999.2500   -37.4934     6.4957   162.4881     7.6066
  343.0000  -999.2500   -37.3098     6.4633   162.4881     7.5757
  343.5000  -999.2500   -37.1247     6.4309   162.4881     7.5734
  344.0000  -999.2500   -36.9367     6.3982   162.4881     7.5935
  344.5000  -999.2500   -36.9394     6.3849   162.4866     7.6141
  345.0000  -999.2500   -37.0723     6.3846   162.4895     7.6347
  345.5000  -999.2500   -37.2075     6.3847   162.8409     7.6468
  346.0000  -999.2500   -37.3433     6.3847   163.4325     7.5914
  346.5000  -999.2500   -37.4783     6.3805   164.0210     7.5360
  347.0000  -999.2500   -37.5798     6.3498   164.6094     7.4808
  347.5000  -999.2500   -37.4750     6.3190   165.1977     7.4256
  348.0000  -999.2500   -37.3730     6.2883   165.7860     7.3705
  348.5000  -999.2500   -37.2716     6.2576   166.3743     7.3214
  349.0000  -999.2500   -37.1701     6.2271   166.9626     7.2999
  349.5000  -999.2500   -37.0634     6.2030   167.5509     7.2769
  350.0000  -999.2500   -37.1343     6.2035   168.1392     7.2835
  350.5000  -999.2500   -37.2575     6.2035   168.7275     7.2987
  351.0000  -999.2500   -37.3821     6.2035   169.3158     7.3141
  351.5000  -999.2500   -37.5038     6.2035   169.6663     7.3295
  352.0000  -999.2500   -37.5659     6.2035   169.4365     7.3449
  352.5000  -999.2500   -37.4701     6.2035   169.2067     7.3610
  353.0000  -999.2500   -37.3776     6.2035   168.9769     7.3358
  353.5000  -999.2500   -37.2846     6.2036   168.7471     7.3031
  354.0000  -999.2500   -37.1918     6.2082   168.5173     7.2703
  354.5000  -999.2500   -37.0988     6.2214   168.2875     7.2377
  355.0000  -999.2500   -37.0059     6.2346   168.0577     7.2170
  355.5000  -999.2500   -36.9143     6.2477   167.4899     7.2188
  356.0000  -999.2500   -36.8981     6.2608   166.4440     7.3232
  356.5000  -999.2500   -36.9921     6.2739   165.3918     7.4391
  357.0000  -999.2500   -37.0846     6.2877   164.3407     7.5551
  357.5000  -999.2500   -37.1776     6.3276   163.2902     7.6423
  358.0000  -999.2500   -37.2704     6.3998   162.2397     7.6730
  358.5000  -999.2500   -37.3633     6.4716   161.1892     7.6774
  359.0000  -999.2500   -37.4561     6.5436   160.1386     7.6821
  359.5000  -999.2500   -37.5490     6.6155   159.0881     7.6862
  360.0000  -999.2500   -37.6417     6.6874   158.0376     7.7598
  360.5000  -999.2500   -37.7351     6.7594   156.9871     7.8903
  361.0000  -999.2500   -37.7737     6.8313   155.9365     8.0214
  361.5000  -999.2500   -37.7750     6.9033   154.8860     8.1523
  362.0000  -999.2500   -37.7335     6.9754   153.8355     8.2719
  362.5000  -999.2500   -37.6664     7.0473   152.7850     8.2689
  363.0000  -999.2500   -37.5988     7.1137   151.7344     8.2682
  363.5000  -999.2500   -37.5313     7.1326   150.6839     8.2682
  364.0000  -999.2500   -37.4637     7.1528   149.6334     8.2786
  364.5000  -999.2500   -37.3962     7.1733   148.5829     8.3454
  365.0000  -999.2500   -37.3287     7.1937   147.5323     8.4144
  365.5000  -999.2500   -37.2612     7.2141   146.4818     8.4461
  366.0000  -999.2500   -37.1936     7.2346   146.1868     8.4674
  366.5000  -999.2500   -37.1259     7.2552   146.1868     8.4882
  367.0000  -999.2500   -37.0555     7.2753   146.1868     8.5043
  367.5000  -999.2500   -37.0900     7.2735   146.1922     8.5051
  368.0000  -999.2500   -37.1515     7.1969   146.5902     8.4530
  368.5000  -999.2500   -37.2137     7.1233   148.0807     8.3877
  369.0000  -999.2500   -37.2756     7.0497   149.5478     8.3223
  369.5000  -999.2500   -37.3375     6.9762   151.0193     8.2571
  370.0000  -999.2500   -37.3994     6.9026   152.4900     8.1826
  370.5000  -999.2500   -37.4613     6.8291   153.9607     8.0905
  371.0000  -999.2500   -37.5232     6.7576   155.4315     7.9985
  371.5000  -999.2500   -37.5851     6.6775   156.9022     7.9066
  372.0000  -999.2500   -37.6471     6.5987   159.0829     7.8147
  372.5000  -999.2500   -37.7101     6.5198   161.3456     7.7222
  373.0000  -999.2500   -37.7697     6.4411   163.6083     7.6203
  373.5000  -999.2500   -37.6412     6.3623   165.8709     7.5036
  374.0000  -999.2500   -37.4975     6.2835   168.1336     7.3873
  374.5000  -999.2500   -37.3544     6.2047   170.3963     7.2708
