~VERSION INFORMATION
 VERS.                2.0:   CWLS LOG ASCII STANDARD - VERSION 2.0
 WRAP.                 NO:   ONE LINE PER DEPTH STEP
~WELL INFORMATION
#MNEM.UNIT      DATA TYPE    INFORMATION
#----------   ------------   ------------------------------
 STRT.F           30.0000:   START DEPTH
 STOP.F         2423.0000:   STOP DEPTH
 STEP.F            0.5000:   STEP LENGTH
 NULL.          -999.2500:   NO VALUE
 COMP. DEPARTMENT OF ENERGY:   COMPANY
 WELL.   NPR-3 #35-1 X 10:   WELL
 FLD .        TEAPOT DOME:   FIELD
 LOC .      S10 T38N R78W:   LOCATION
 CNTY.            NATRONA:   COUNTY
 STAT.            WYOMING:   STATE
 CTRY. UNITED STATES OF AMERICA:   COUNTRY
 SRVC.       Schlumberger:   SERVICE COMPANY
 DATE.        15-JAN-1999:   LOGDATE
 API .       490252282200:   API NUMBER
~CURVE INFORMATION
#MNEM.UNIT       API CODE    CURVE DESCRIPTION
#----------   ------------   ------------------------------
 DEPT.F                  :   
 GRR .GAPI   06 310 01 00:   GAMMA RAY FROM RESISTIVITY
 SPR .MV     06 010 01 00:   SPONTANEOUS POTENTIAL FROM RES.
 HD  .IN     06 280 01 00:   HOLE DIAMETER
 AT90.OHMM   06 120 90 00:   90-IN. RESISTIVITY, 2-FT RESOLUTION
 AT30.OHMM   06 120 30 00:   30-IN. RESISTIVITY, 2-FT RESOLUTION
 AT10.OHMM   06 120 10 00:   10-IN. RESISTIVITY, 2-FT RESOLUTION
~PARAMETER INFORMATION
#MNEM.UNIT          VALUE    DESCRIPTION
#----------   ------------   ------------------------------
 PD  .                 GL:   PERMANENT DATUM
 EPD .F              5228:   ELEVATION PERMANENT DATUM
 LMF .                 KB:   LOG MEASURED FROM
 DAPD.F                10:   FEET ABOVE PERMANENT DATUM
 DMF .                 KB:   DRILLING MEASURED FROM
 EKB .F              5238:   KELLING BUSHING
 EDF .F              5237:   DRILLING FLOOR
 EGL .F              5228:   GROUND LEVEL
 DATE.        15-JAN-1999:   RUN DATE
 RUN .                  1:   RUN NUMBER
 DD  .F              2400:   DEPTH DRILLER
 DL  .F              2421:   DEPTH LOGGER
 BLI .F              2393:   BOTTOM LOG INTERVAL
 TLI .F                30:   TOP LOG INTERVAL
 CS  .IN            9.625:   CASING SIZE
 CBD .F               778:   CASING BOTTOM DRILLER
 CBL .F               773:   CASING BOTTOM LOGGER
 BS  .IN              8.5:   BIT SIZE
 BSD .F              2400:   BIT SIZE AT DEPTH
 DFT .            GEL/KCL:   DRILLING FLUID TYPE
 DFD .                8.9:   DRILLING FLUID DENSITY
 DFV .                 39:   DRILLING FLUID VISCOSITY
 DFPH.                  9:   DRILLING FLUID PH
 DFL .                8.8:   DRILLING FLUID LOSS
 MSS .            MUD PIT:   MUD SAMPLE SOURCE
 RMS .OHMM            .29:   RESISTIVITY MUD SAMPLE
 MST .F                65:   MUD SAMPLE TEMPERATURE
 RMF .OHMM            .22:   RESISTIVITY MUD FILTRATE SAMPLE
 MFST.F                65:   MUD FILTRATE SAMPLE TEMPERATURE
 RMC .OHMM            .43:   RESISTIVITY MUD CAKE
 MCST.F                65:   MUD CAKE SAMPLE TEMPERATURE
 MFSS.          MUD PRESS:   MUD FILTRATE SAMPLE SOURCE
 MCSS.         CALCULATED:   MUD CAKE SAMPLE SOURCE
 RMB .OHMM           .195:   RESISTIVITY MUD AT BHT
 BHT .F               100:   BOTTOM HOLE TEMPERATURE
 TCS .HRS            2015:   TIME CURCULATED STOPPED
 TLAB.HRS            2315:   TIME LOGGER AT BOTTOM
 MRT .F               100:   MAXIMUM RECORDED TEMPERATURE
 LUN .               2102:   LOGGING UNIT NUMBER
 LUL .             CASPER:   LOGGING UNIT LOCATION
 ENGI.    TISOVEC/PIERSON:   RECORDING ENGINEER
 WITN.           ESMERSON:   WITNESSED BY
 CLNT.            A2DTECH:   CLIENT CODE
 ORIG.       2", 5" PRINT:   ORIGIN OF DATA
 UWI .       490252282200:   UNIQUE WELL ID
 DICO. A2D Technologies, Inc.:   DIGITIZING COMPANY
~OTHER INFORMATION
~A   DEPT       GRR       SPR         HD       AT90       AT30       AT10   
# ...
 1746.0000   103.8338    -0.2936    10.8867     6.5724     5.1608     2.7988
 1746.5000   107.7930    -0.1274    12.3958     5.2760     3.6015     0.7938
 1747.0000   106.7449     0.0426    12.8951     4.3692     3.1000     0.8094
 1747.5000   103.4822     0.2048    13.1278     6.0003     3.5959     0.9984
 1748.0000   100.3168     0.3838    13.3749     9.2617     4.0946     1.1588
 1748.5000    99.0479     0.4914    13.4538     8.8420     3.4650     0.7856
 1749.0000    98.3833     0.4406    13.5506     9.2471     3.2472     0.7738
 1749.5000    96.8560     0.3381    13.6555    12.2102     3.7714     1.0583
 1750.0000    95.6686     0.4409    13.5126    26.4165     4.3534     1.6987
 1750.5000    95.8668     0.3821    13.4320    23.4158     4.9751     2.5718
 1751.0000    95.1296     0.2342    13.4223    10.5678     4.4584     1.2580
 1751.5000    93.0203     0.1150    13.3764     5.2414     2.9595     0.6612
 1752.0000    90.2042    -0.0162    13.3423     4.0568     3.1405     0.6618
 1752.5000    89.0517    -0.1418    13.2472     5.3583     3.9822     1.3632
 1753.0000    90.2598    -0.3001    13.2044     5.4082     5.0495     2.7969
 1753.5000    90.9346    -0.7474    13.2661     8.0587     5.9725     3.5943
 1754.0000    92.1187    -1.4120    13.3264     8.0010     6.6943     4.4364
 1754.5000    89.2990    -1.8650    13.3688     7.9106     5.8791     2.5124
 1755.0000    85.2790    -2.1305    13.3609    12.2331     4.6040     2.3370
 1755.5000    83.2876    -2.4261    13.3622    10.7434     3.6636     0.9190
 1756.0000    87.3297    -2.7113    13.2797    17.4023     3.0648     0.6430
 1756.5000    89.7247    -2.9555    13.2546    11.1557     2.6328     0.6068
 1757.0000    89.0806    -3.1990    13.4089     7.2771     2.2615     0.5556
 1757.5000    87.9786    -3.4180    13.4333    14.9808     2.6248     0.5803
 1758.0000    88.2514    -3.6329    13.1372    29.6491     3.2704     1.1156
 1758.5000    89.5024    -3.8553    13.0053    43.5912     4.0809     2.2978
 1759.0000    91.1999    -4.0584    13.1497    27.6192     4.7213     4.6743
 1759.5000    93.7393    -4.2739    13.5231    15.4829     4.6830     1.4716
 1760.0000    96.1675    -4.5036    13.9105     7.0774     3.4649     1.6404
 1760.5000    97.8333    -4.7130    13.9637     8.7563     3.8399     2.8443
 1761.0000    99.0651    -4.9300    13.6093    20.7560     5.5857     6.2031
 1761.5000   100.3871    -5.1437    13.2516    16.1623     8.7603     5.7035
 1762.0000   101.6515    -5.3580    12.8743    10.6235     8.4413     4.4510
 1762.5000   102.6822    -5.5747    12.5281     8.9243     7.3676     5.1605
 1763.0000   102.5615    -5.7853    12.1779     8.5993     6.2924     6.5106
 1763.5000   101.8871    -6.0147    12.0352     8.6795     6.3319     6.3067
 1764.0000   101.1986    -6.2890    11.7967     7.4633     5.8732     6.1013
 1764.5000   101.4977    -6.6960    11.2781     5.7938     5.1771     3.5879
 1765.0000   106.2550    -7.1090    10.8468     4.8386     4.5766     2.2407
 1765.5000   110.8543    -7.5609    10.2282     5.2962     4.7098     3.1835
 1766.0000   115.7335    -7.8425     9.3152     6.8196     5.1589     4.3858
 1766.5000   116.1165    -7.9251     9.3750     6.9417     5.5332     5.5918
 1767.0000   113.8110    -8.0354     9.3756     8.8420     6.7163     6.3594
 1767.5000   112.5874    -8.1476     9.3818     8.4569     8.1870     6.7566
 1768.0000   113.0033    -8.1179     9.3546     7.2474     6.2062     5.6365
 1768.5000   113.4112    -7.9581     9.3216     6.5712     6.2521     4.3289
 1769.0000   113.2407    -7.8319     9.2635     7.0120     6.3377     4.4140
 1769.5000   112.9224    -7.6819     9.1581     6.9473     6.1537     6.3790
 1770.0000   112.7746    -7.5950     8.8979     7.0938     6.5424    12.8138
 1770.5000   113.0597    -7.7174     8.6720     7.5521     7.0820     9.1354
 1771.0000   115.2875    -7.8390     8.6189     7.1433     6.7675     6.7092
 1771.5000   117.6174    -7.9605     8.5737     7.2636     6.3426     5.2598
 1772.0000   125.0954    -8.0857     8.5545     7.5521     6.7584     6.0164
 1772.5000   131.3340    -8.1784     8.5621     7.4824     7.2008     6.5106
 1773.0000   132.6544    -8.1844     8.5644     7.7932     7.0061     6.1013
 1773.5000   127.8898    -8.1811     8.5709     8.4413     7.2771     6.7566
 1774.0000   119.5754    -8.1887     8.5758     7.7957     6.9839     6.1360
 1774.5000   117.3768    -8.1186     8.6265     7.1883     6.1013     5.4082
 1775.0000   116.9328    -7.9205     8.6692     6.6283     6.1581     6.1013
 1775.5000   117.4833    -7.7354     8.7762     6.0072     5.8489     5.8791
 1776.0000   117.6310    -7.5361     8.9197     6.0450     5.4586     3.3080
 1776.5000   118.1849    -7.3671     9.0654     5.7710     5.4586     4.1627
 1777.0000   120.6224    -7.1984     9.0970     7.1411     6.1700     5.8691
 1777.5000   123.8594    -7.4517     9.0174     8.8011     7.1552     6.4504
 1778.0000   125.4593    -7.8600     8.9624    10.5459     8.1338     6.7182
 1778.5000   125.2988    -8.2228     8.9035     9.1762     7.9106     6.9721
 1779.0000   124.8937    -8.6347     8.8546     9.3480     8.2096     7.1119
 1779.5000   124.6768    -8.7653     8.8453     8.5271     7.9257     7.1433
 1780.0000   123.5651    -8.6623     8.8847     7.7919     7.3194     6.6796
 1780.5000   121.5369    -8.6069     8.8148     7.1200     6.7595     6.2688
 1781.0000   119.2266    -8.7354     8.6967     6.5061     6.0450     5.6649
 1781.5000   118.3083    -8.9261     8.5778     6.2734     6.3694     6.0450
 1782.0000   121.2468    -9.1015     8.5072     7.6935     7.2771     5.9891
 1782.5000   126.1883    -9.2847     8.4964     7.3449     7.0120     6.2787
 1783.0000   124.9480    -9.4622     8.4621     7.5369     7.1898     6.7350
 1783.5000   120.0682    -9.6471     8.4380     8.1558     7.6225     6.9473
 1784.0000   117.1804    -9.7999     8.4301     8.6795     7.5353     6.9473
 1784.5000   120.2609    -9.9288     8.4263     7.8231     7.3913     6.9132
 1785.0000   125.4768   -10.0693     8.4216     7.4330     7.2501     6.8366
 1785.5000   126.6916   -10.2060     8.4172     7.3449     7.1116     6.7566
 1786.0000   127.5064   -10.3447     8.4126     7.3449     6.9915     6.5861
 1786.5000   128.4061   -10.4826     8.4081     7.3125     6.9355     6.4098
 1787.0000   129.1561   -10.6208     8.4035     7.2584     6.8832     6.2155
 1787.5000   128.8472   -10.7595     8.3989     7.2099     6.9634     6.5051
 1788.0000   126.5747   -10.8967     8.3945     7.5441     7.1334     6.9473
 1788.5000   124.9438   -11.0371     8.3962     7.6225     7.2099     6.8971
 1789.0000   125.2455   -11.1714     8.3990     7.4625     7.1230     6.7589
 1789.5000   125.9624   -11.3187     8.4017     7.3449     7.0120     6.6218
 1790.0000   125.5510   -11.3872     8.4044     7.5085     7.1323     6.5009
 1790.5000   124.7160   -11.2891     8.4071     7.8479     7.3891     6.7521
 1791.0000   127.2778   -11.1912     8.4098     8.2096     7.7652     7.1548
 1791.5000   131.8769   -11.0888     8.4125     8.0872     7.6764     7.0233
 1792.0000   136.4327   -10.9896     8.4152     7.9843     7.4824     6.6353
 1792.5000   135.0993   -10.8883     8.4179     8.0060     7.5439     6.7756
 1793.0000   130.3595   -10.7884     8.4206     8.0367     7.6734     7.3083
 1793.5000   126.1929   -10.6867     8.4234     8.0693     7.8052     7.5578
 1794.0000   126.9015   -10.5956     8.4261     8.1012     7.9106     7.5913
 1794.5000   128.3111   -10.4739     8.4288     8.1315     7.7979     7.6285
 1795.0000   126.6346   -10.3689     8.4315     7.9488     7.6636     7.5489
 1795.5000   118.8516   -10.2526     8.4341     7.7804     7.5317     7.3878
 1796.0000   111.8771   -10.1558     8.4344     7.6161     7.4021     7.2303
 1796.5000   109.6416   -10.0243     8.4344     7.5516     7.2771     7.0787
 1797.0000   111.6318   -10.1307     8.4344     7.5521     7.2771     7.0774
 1797.5000   116.1894   -10.4154     8.4344     7.5521     7.2771     7.0774
