~VERSION INFORMATION
 VERS.                2.0:   CWLS LOG ASCII STANDARD - VERSION 2.0
 WRAP.                 NO:   ONE LINE PER DEPTH STEP
~WELL INFORMATION
#MNEM.UNIT      DATA TYPE    INFORMATION
#----------   ------------   ------------------------------
 STRT.F           36.0000:   START DEPTH
 STOP.F          493.0000:   STOP DEPTH
 STEP.F            0.5000:   STEP LENGTH
 NULL.          -999.2500:   NO VALUE
 COMP.    FENIX & SCISSON:   COMPANY
 WELL.       NPR #68-S-10:   WELL
 FLD .             TEAPOT:   FIELD
 LOC .      S10 T38N R78W:   LOCATION
 CNTY.            NATRONA:   COUNTY
 STAT.            WYOMING:   STATE
 CTRY. UNITED STATES OF AMERICA:   COUNTRY
 SRVC.              Welex:   SERVICE COMPANY
 DATE.        18-APR-1977:   LOGDATE
 API .       490251033500:   API NUMBER
~CURVE INFORMATION
#MNEM.UNIT       API CODE    CURVE DESCRIPTION
#----------   ------------   ------------------------------
 DEPT.F                  :   
 SPR .MV     07 010 01 00:   SPONTANEOUS POTENTIAL
 ILD .OHMM   07 120 46 00:   INDUCTION LOG DEEP
 ILM .OHMM   07 120 44 00:   INDUCTION LOG MEDIUM
 SGRD.OHMM   07 221 05 00:   SHALLOW SHORT GUARD RESISTIVITY
 CALD.IN     45 280 60 00:   CALIPER FROM DENSITY LOG
 GRD .GAPI   45 310 01 00:   GAMMA RAY FROM DENSITY LOG
 CORR.G/C3   45 356 01 00:   DENSITY CORRECTION
 RHOB.G/C3   45 350 01 00:   BULK DENSITY
 DPHI.DEC    45 890 12 00:   DENSITY POROSITY SANDSTONE
~PARAMETER INFORMATION
#MNEM.UNIT          VALUE    DESCRIPTION
#----------   ------------   ------------------------------
 PD  .                 GL:   PERMANENT DATUM
 EPD .F              5198:   ELEVATION PERMANENT DATUM
 LMF .                 GL:   LOG MEASURED FROM
 DMF .                 GL:   DRILLING MEASURED FROM
 EGL .F              5198:   GROUND LEVEL
 DATE.        18-APR-1977:   RUN DATE
 RUN .                  1:   RUN NUMBER
 DD  .F               505:   DEPTH DRILLER
 DL  .F               492:   DEPTH LOGGER
 BLI .F               490:   BOTTOM LOG INTERVAL
 TLI .F                32:   TOP LOG INTERVAL
 CS  .IN            8.625:   CASING SIZE
 CBD .F                40:   CASING BOTTOM DRILLER
 CBL .F                42:   CASING BOTTOM LOGGER
 BS  .IN            7.875:   BIT SIZE
 BSD .F               505:   BIT SIZE AT DEPTH
 DFT .            KCL MUD:   DRILLING FLUID TYPE
 DFV .                 36:   DRILLING FLUID VISCOSITY
 MSS .           FLOWLINE:   MUD SAMPLE SOURCE
 RMS .OHMM           2.46:   RESISTIVITY MUD SAMPLE
 MST .F                52:   MUD SAMPLE TEMPERATURE
 RMF .OHMM           2.30:   RESISTIVITY MUD FILTRATE SAMPLE
 MFST.F                52:   MUD FILTRATE SAMPLE TEMPERATURE
 RMC .OHMM           2.66:   RESISTIVITY MUD CAKE
 MCST.F                52:   MUD CAKE SAMPLE TEMPERATURE
 MFSS.               MEAS:   MUD FILTRATE SAMPLE SOURCE
 MCSS.               MEAS:   MUD CAKE SAMPLE SOURCE
 RMB .OHMM           1.97:   RESISTIVITY MUD AT BHT
 BHT .F                65:   BOTTOM HOLE TEMPERATURE
 TCS .HRS            0400:   TIME CURCULATED STOPPED
 MRT .F                65:   MAXIMUM RECORDED TEMPERATURE
 LUN .               8611:   LOGGING UNIT NUMBER
 LUL .             CASPER:   LOGGING UNIT LOCATION
 ENGI.               DOAK:   RECORDING ENGINEER
 WITN.            R. LYON:   WITNESSED BY
 CLNT.            A2DTECH:   CLIENT CODE
 ORIG.           5" PRINT:   ORIGIN OF DATA
 UWI .       490251033500:   UNIQUE WELL ID
 DICO. A2D Technologies, Inc.:   DIGITIZING COMPANY
~OTHER INFORMATION
~A   DEPT      SPR        ILD        ILM       SGRD         CALD       GRD      CORR       RHOB       DPHI   
# ...
  437.5000   -41.9752    13.1755    15.2212    22.1088     7.9726    90.3259     0.0214     2.4620     0.1106
  438.0000   -42.2624    13.0904    14.9244    21.6706     7.9597    90.9392     0.0245     2.4644     0.1064
  438.5000   -42.5341    13.0995    14.7319    21.0625     7.9616    93.4870     0.0261     2.4756     0.1022
  439.0000   -42.5177    13.1068    14.8464    20.5063     7.9636    94.5467     0.0262     2.4810     0.0989
  439.5000   -42.5013    13.1142    14.9618    20.1030     7.9507    95.3087     0.0248     2.4825     0.0974
  440.0000   -42.6332    12.9417    15.0781    19.8619     7.9526    96.2196     0.0249     2.4886     0.0955
  440.5000   -42.6165    12.6837    15.1953    19.7390     7.9397    96.0889     0.0266     2.4976     0.0904
  441.0000   -42.8959    12.3453    15.2080    19.9018     7.9563    93.8748     0.0296     2.5014     0.0862
  441.5000   -42.8795    12.2656    15.1159    20.0415     7.9583    94.0416     0.0312     2.5031     0.0832
  442.0000   -43.0119    12.1059    14.4142    19.9118     7.9601    97.7799     0.0314     2.5071     0.0802
  442.5000   -43.2905    11.7020    13.9364    19.2539     7.9622   100.6253     0.0315     2.5151     0.0795
  443.0000   -43.5700    11.0798    13.3816    18.4862     7.9641   101.0898     0.0301     2.5054     0.0864
  443.5000   -43.5536    10.7101    13.0277    17.9951     7.9660   101.1078     0.0286     2.5002     0.0891
  444.0000   -43.8331    10.3527    12.8569    17.6385     7.9679   100.8282     0.0257     2.4958     0.0914
  444.5000   -44.1125    10.0629    12.8703    17.1699     7.9697   100.6974     0.0244     2.4922     0.0949
  445.0000   -44.0961     9.4482    12.7043    16.7136     7.9567   100.4179     0.0230     2.4855     0.0983
  445.5000   -44.5276     8.7761    11.9483    16.6100     7.9587   100.4359     0.0201     2.4788     0.0989
  446.0000   -44.6592     8.0841    10.9011    16.5076     7.9606   103.8766     0.0217     2.4796     0.0998
  446.5000   -44.9345     7.3518    10.1737    15.7396     7.9774   107.4660     0.0263     2.4730     0.1033
  447.0000   -45.2181     6.8183     9.3854    15.1114     7.9794   109.7139     0.0294     2.4656     0.1054
  447.5000   -45.6455     6.5455     8.8838    13.3547     7.9813   110.0296     0.0280     2.4686     0.1045
  448.0000   -46.0688     6.4593     8.2912     8.8925     7.9387   110.3452     0.0251     2.4724     0.1053
  448.5000   -46.3523     6.4630     6.9456     7.2339     7.8515   112.5210     0.0250     2.4613     0.1131
  449.0000   -46.0360     6.6476     7.4327     8.3684     7.8683   114.9944     0.0223     2.4516     0.1155
  449.5000   -45.4279     6.9804     8.9421    12.1703     7.8851   116.3495     0.0194     2.4577     0.1152
  450.0000   -44.8648     7.3803     9.9874    20.2804     7.8871   114.5818     0.0180     2.4701     0.1097
  450.5000   -44.5143     7.8044    10.2759    19.6059     7.9347   107.5298     0.0146     2.4837     0.0980
  451.0000   -44.0581     8.3101    10.4999    19.2140     7.9635   101.9633     0.0138     2.4983     0.0878
  451.5000   -43.8978     9.0336    11.4171    19.3639     7.9646    98.4068     0.0140     2.5014     0.0851
  452.0000   -43.8855    10.0949    12.1518    19.5116     7.9806    99.6123     0.0141     2.4992     0.0899
  452.5000   -43.7252    10.7490    12.7216    19.2574     7.9818   102.9011     0.0128     2.4918     0.0925
  453.0000   -43.7128    11.2110    12.9410    19.1348     7.9829   104.5530     0.0099     2.4874     0.0940
  453.5000   -43.7005    11.3746    12.9469    19.5349     7.9840   102.6334     0.0071     2.4889     0.0940
  454.0000   -43.6881    11.3825    13.0526    20.0935     7.9851   100.8627     0.0042     2.4883     0.0951
  454.5000   -43.6757    11.3903    13.3214    19.5574     7.9863   100.8777     0.0013     2.4809     0.0987
  455.0000   -43.6634    11.6365    13.7005    19.4313     7.9725   101.4879    -0.0030     2.4705     0.1041
  455.5000   -43.3551    11.9704    14.0930    20.2678     7.9588   102.3958    -0.0044     2.4511     0.1100
  456.0000   -43.1949    12.2292    14.4912    21.2836     7.9599   103.8989    -0.0072     2.4392     0.1196
  456.5000   -43.0346    12.5800    14.9036    21.4404     7.9610   102.7234    -0.0086     2.4348     0.1250
  457.0000   -42.8743    12.9410    15.4338    20.3029     7.9613    95.4467    -0.0099     2.4289     0.1282
  457.5000   -42.5661    13.2207    15.7639    20.7397     7.9606    93.3784    -0.0127     2.4222     0.1315
  458.0000   -42.5537    13.5065    15.8804    22.3891     7.9598    93.0957    -0.0141     2.4133     0.1345
  458.5000   -42.5413    13.9902    16.2200    23.1889     7.9591    95.4917    -0.0154     2.4111     0.1345
  459.0000   -42.5290    14.4912    15.8951    21.9555     7.9584    98.3341    -0.0153     2.4225     0.1310
  459.5000   -42.3687    14.9070    15.9025    21.3667     7.9576    98.9443    -0.0167     2.4295     0.1265
  460.0000   -42.3563    15.3347    16.2425    21.9808     7.9569    95.2390    -0.0183     2.4316     0.1283
  460.5000   -42.1960    15.4515    16.8204    22.4538     7.9561    95.7004    -0.0196     2.4217     0.1310
  461.0000   -42.0357    15.1454    17.2991    23.2559     7.9636    97.3523    -0.0207     2.4159     0.1343
  461.5000   -41.8754    15.0517    18.0385    23.4306     7.9721    96.6233    -0.0206     2.4153     0.1388
  462.0000   -41.8631    14.7535    17.7996    22.1843     7.9733    94.5549    -0.0159     2.4275     0.1325
  462.5000   -41.8507    14.5614    17.2040    22.0412     7.9743    93.6771    -0.0098     2.4388     0.1253
  463.0000   -41.8384    14.3717    16.8575    22.0571     7.9754    93.0949    -0.0036     2.4507     0.1204
  463.5000   -41.8260    14.2828    17.5801    22.2227     7.9765    92.2915     0.0026     2.4515     0.1183
  464.0000   -41.8136    14.2926    18.2055    23.4982     7.9776    93.0505     0.0042     2.4531     0.1162
  464.5000   -41.8013    14.2042    18.8532    24.5063     7.9788    94.6280     0.0074     2.4629     0.1105
  465.0000   -41.7889    14.1162    18.2224    24.6903     7.9799    95.0150     0.0105     2.4675     0.1060
  465.5000   -41.7766    14.0289    17.3713    23.3770     7.9959    94.6580     0.0122     2.4653     0.1089
  466.0000   -41.7642    14.0385    17.3794    22.9077     7.9970    94.6730     0.0138     2.4579     0.1149
  466.5000   -41.7518    13.9516    17.7511    22.6098     7.9833    96.0254     0.0140     2.4512     0.1203
  467.0000   -41.7395    13.9613    17.3955    21.7049     7.9844    99.4630     0.0111     2.4461     0.1223
  467.5000   -41.7271    13.9709    17.6453    21.5648     7.9706   101.8589     0.0097     2.4416     0.1190
  468.0000   -41.7137    13.9806    17.8988    22.1847     7.9718   102.4692     0.0129     2.4537     0.1094
  468.5000   -41.7024    14.0871    17.7840    22.8191     7.9729   100.9961     0.0176     2.4680     0.1037
  469.0000   -41.8379    14.0968    17.3079    23.4682     7.9740    98.9277     0.0222     2.4785     0.0986
  469.5000   -41.8256    14.1065    17.3159    21.7676     7.9751    97.4546     0.0224     2.4861     0.0949
  470.0000   -42.1091    14.1162    17.5647    22.0830     7.9763    96.5768     0.0210     2.4787     0.0994
  470.5000   -42.0967    14.1260    17.4270    22.5581     7.9774    95.8477     0.0197     2.4698     0.1036
  471.0000   -42.0844    14.1357    17.2188    22.5375     7.9637    95.8627     0.0183     2.4669     0.1071
  471.5000   -42.2230    14.0482    17.3463    21.7869     7.9499    97.2170     0.0155     2.4744     0.1011
  472.0000   -42.2076    13.6753    17.3541    21.0103     7.9362    99.6129     0.0156     2.4857     0.0924
  472.5000   -42.1952    13.0395    17.3623    20.5011     7.9373   103.7946     0.0188     2.4970     0.0885
  473.0000   -42.3339    12.3479    17.2248    19.9556     7.9236   102.4703     0.0219     2.5068     0.0828
  473.5000   -42.3184    12.0201    15.6697    19.2720     7.9246    95.9376     0.0236     2.5024     0.0842
