~VERSION INFORMATION
 VERS.                2.0:   CWLS LOG ASCII STANDARD - VERSION 2.0
 WRAP.                 NO:   ONE LINE PER DEPTH STEP
~WELL INFORMATION
#MNEM.UNIT      DATA TYPE    INFORMATION
#----------   ------------   ------------------------------
 STRT.F           36.0000:   START DEPTH
 STOP.F          493.0000:   STOP DEPTH
 STEP.F            0.5000:   STEP LENGTH
 NULL.          -999.2500:   NO VALUE
 COMP.    FENIX & SCISSON:   COMPANY
 WELL.       NPR #68-S-10:   WELL
 FLD .             TEAPOT:   FIELD
 LOC .      S10 T38N R78W:   LOCATION
 CNTY.            NATRONA:   COUNTY
 STAT.            WYOMING:   STATE
 CTRY. UNITED STATES OF AMERICA:   COUNTRY
 SRVC.              Welex:   SERVICE COMPANY
 DATE.        18-APR-1977:   LOGDATE
 API .       490251033500:   API NUMBER
~CURVE INFORMATION
#MNEM.UNIT       API CODE    CURVE DESCRIPTION
#----------   ------------   ------------------------------
 DEPT.F                  :   
 SPR .MV     07 010 01 00:   SPONTANEOUS POTENTIAL
 ILD .OHMM   07 120 46 00:   INDUCTION LOG DEEP
 ILM .OHMM   07 120 44 00:   INDUCTION LOG MEDIUM
 SGRD.OHMM   07 221 05 00:   SHALLOW SHORT GUARD RESISTIVITY
 CALD.IN     45 280 60 00:   CALIPER FROM DENSITY LOG
 GRD .GAPI   45 310 01 00:   GAMMA RAY FROM DENSITY LOG
 CORR.G/C3   45 356 01 00:   DENSITY CORRECTION
 RHOB.G/C3   45 350 01 00:   BULK DENSITY
 DPHI.DEC    45 890 12 00:   DENSITY POROSITY SANDSTONE
~PARAMETER INFORMATION
#MNEM.UNIT          VALUE    DESCRIPTION
#----------   ------------   ------------------------------
 PD  .                 GL:   PERMANENT DATUM
 EPD .F              5198:   ELEVATION PERMANENT DATUM
 LMF .                 GL:   LOG MEASURED FROM
 DMF .                 GL:   DRILLING MEASURED FROM
 EGL .F              5198:   GROUND LEVEL
 DATE.        18-APR-1977:   RUN DATE
 RUN .                  1:   RUN NUMBER
 DD  .F               505:   DEPTH DRILLER
 DL  .F               492:   DEPTH LOGGER
 BLI .F               490:   BOTTOM LOG INTERVAL
 TLI .F                32:   TOP LOG INTERVAL
 CS  .IN            8.625:   CASING SIZE
 CBD .F                40:   CASING BOTTOM DRILLER
 CBL .F                42:   CASING BOTTOM LOGGER
 BS  .IN            7.875:   BIT SIZE
 BSD .F               505:   BIT SIZE AT DEPTH
 DFT .            KCL MUD:   DRILLING FLUID TYPE
 DFV .                 36:   DRILLING FLUID VISCOSITY
 MSS .           FLOWLINE:   MUD SAMPLE SOURCE
 RMS .OHMM           2.46:   RESISTIVITY MUD SAMPLE
 MST .F                52:   MUD SAMPLE TEMPERATURE
 RMF .OHMM           2.30:   RESISTIVITY MUD FILTRATE SAMPLE
 MFST.F                52:   MUD FILTRATE SAMPLE TEMPERATURE
 RMC .OHMM           2.66:   RESISTIVITY MUD CAKE
 MCST.F                52:   MUD CAKE SAMPLE TEMPERATURE
 MFSS.               MEAS:   MUD FILTRATE SAMPLE SOURCE
 MCSS.               MEAS:   MUD CAKE SAMPLE SOURCE
 RMB .OHMM           1.97:   RESISTIVITY MUD AT BHT
 BHT .F                65:   BOTTOM HOLE TEMPERATURE
 TCS .HRS            0400:   TIME CURCULATED STOPPED
 MRT .F                65:   MAXIMUM RECORDED TEMPERATURE
 LUN .               8611:   LOGGING UNIT NUMBER
 LUL .             CASPER:   LOGGING UNIT LOCATION
 ENGI.               DOAK:   RECORDING ENGINEER
 WITN.            R. LYON:   WITNESSED BY
 CLNT.            A2DTECH:   CLIENT CODE
 ORIG.           5" PRINT:   ORIGIN OF DATA
 UWI .       490251033500:   UNIQUE WELL ID
 DICO. A2D Technologies, Inc.:   DIGITIZING COMPANY
~OTHER INFORMATION
~A   DEPT      SPR        ILD        ILM       SGRD         CALD       GRD      CORR       RHOB       DPHI   
# ...
  145.5000   -52.3656     8.6608     9.5197    13.3091     7.9687   106.4002     0.0049     2.4004     0.1486
  146.0000   -52.4973     8.3148     9.4621    12.4965     7.9553   106.1189     0.0051     2.3967     0.1510
  146.5000   -52.4808     8.1495     9.7369    10.6133     7.9568   105.9865     0.0037     2.3998     0.1476
  147.0000   -52.3165     8.0984     9.8804    12.3859     7.9581   105.5565     0.0038     2.4043     0.1428
  147.5000   -52.3003     8.1035    10.0260    14.7112     7.9298   104.8288     0.0054     2.4059     0.1436
  148.0000   -52.1361     8.2212    10.0344    14.8175     7.9313   105.7380     0.0055     2.4157     0.1411
  148.5000   -52.1198     8.2832    10.0427    14.7187     7.9328   105.6056     0.0057     2.4127     0.1365
  149.0000   -52.1035     8.4035     9.9819    14.1373     7.9343   103.0922     0.0073     2.4083     0.1409
  149.5000   -51.9394     8.5256     9.9215    13.6692     7.9358   102.8110     0.0119     2.4106     0.1391
  150.0000   -51.4766     8.7029     9.9990    13.7765     7.9522   102.9762     0.0155     2.4269     0.1295
  150.5000   -51.9081     8.9597     9.9354    14.3666     7.9646   102.9923     0.0212     2.4354     0.1265
  151.0000   -52.1835     9.1534     9.8756    13.8887     7.9560   102.8613     0.0212     2.4339     0.1262
  151.5000   -52.4630     9.2870     9.7470    14.7919     7.9578   102.2823     0.0198     2.4265     0.1279
  152.0000   -52.4467     9.4879     9.6850    13.5315     7.9745   100.8105     0.0184     2.4191     0.1303
  152.5000   -52.4303     9.5602     9.6934    14.0165     7.9762    99.7851     0.0185     2.4132     0.1326
  153.0000   -52.1181     9.6330     9.7673    14.2188     7.9780    99.9502     0.0217     2.4065     0.1344
  153.5000   -51.9571     9.6397     9.9784    13.8411     7.9798   103.5379     0.0248     2.4059     0.1344
  154.0000   -51.9408     9.5801    10.2647    14.6398     7.9816   108.1673     0.0234     2.4067     0.1337
  154.5000   -51.7767     9.5209    10.4867    15.5892     7.9833   110.2669     0.0205     2.3992     0.1364
  155.0000   -51.7603     9.5275    10.6397    15.6000     7.9851   110.8784     0.0236     2.3956     0.1367
  155.5000   -51.7440     9.4669    10.6471    15.1830     7.9869   110.8947     0.0267     2.4118     0.1339
  156.0000   -51.7278     9.5407    10.5812    15.0890     7.9887   109.5716     0.0313     2.4262     0.1289
  156.5000   -51.7115     9.6134    10.5157    15.1020     8.0054   107.8022     0.0314     2.4392     0.1260
  157.0000   -51.6953     9.7538    10.3635    15.2172     8.0071   106.0328     0.0300     2.4288     0.1277
  157.5000   -51.8271     9.7606    10.2293    14.6099     8.0089   104.5609     0.0301     2.4281     0.1284
  158.0000   -51.8093     9.7673    10.1085    14.2193     8.0107   104.7260     0.0302     2.4312     0.1279
  158.5000   -51.7944     9.7069    10.1158    14.3302     8.0125   106.3792     0.0303     2.4357     0.1266
  159.0000   -51.7780     9.6452    10.1228    14.0438     8.0142   107.4371     0.0319     2.4433     0.1241
  159.5000   -51.7616     9.5856    10.1298    13.7654     8.0160   105.3701     0.0335     2.4508     0.1196
  160.0000   -51.7453     9.5263    10.1461    15.1756     8.0178   103.7495     0.0336     2.4591     0.1166
  160.5000   -51.7289     9.4022    10.3559    15.2913     8.0196   103.0217     0.0322     2.4644     0.1144
  161.0000   -51.7126     9.3391    10.3630    15.1967     8.0213   103.4844     0.0308     2.4488     0.1192
  161.5000   -51.6962     9.2192    10.3776    14.7930     8.0082   104.0959     0.0264     2.4354     0.1252
  162.0000   -51.8284     9.1654    10.4492    14.4973     8.0100   104.4098     0.0220     2.4265     0.1287
  162.5000   -52.1073     9.1718    10.4562    14.4075     8.0118   104.4261     0.0221     2.4198     0.1305
  163.0000   -52.0910     9.1781    10.1737    14.4179     8.0136   105.0376     0.0223     2.4131     0.1334
  163.5000   -52.2225     9.3121    10.0461    14.4278     8.0004   106.6908     0.0209     2.4057     0.1376
  164.0000   -52.2062     9.3186     9.9840    14.4375     8.0024   107.5999     0.0164     2.4005     0.1424
  164.5000   -52.1898     9.1971     9.9909    14.1432     8.0042   108.6578     0.0120     2.4021     0.1465
  165.0000   -52.1735     9.0776    10.0671    14.0638     7.9911   110.0134     0.0092     2.4037     0.1450
  165.5000   -52.1571     8.8978    10.0740    14.0736     8.0077   109.2856     0.0093     2.4060     0.1429
  166.0000   -52.1408     8.9040    10.0810    13.7921     8.0096   106.5509     0.0079     2.4083     0.1437
  166.5000   -52.1244     8.9102    10.0879    13.3358     8.0113   105.9719     0.0080     2.4106     0.1398
  167.0000   -52.2601     8.9781    10.0255    13.8137     7.9982   106.4347     0.0096     2.4137     0.1350
  167.5000   -52.5396     8.9843     9.9634    13.8233     8.0002   103.9956     0.0127     2.4199     0.1326
  168.0000   -52.5191     8.9272     9.9703    13.8329     8.0020   104.5328     0.0158     2.4297     0.1289
  168.5000   -52.5028     8.8125     9.9086    14.2301     8.0037   105.3674     0.0204     2.4403     0.1247
  169.0000   -52.4864     8.6380     9.9155    13.7568     7.9906   103.9700     0.0265     2.4614     0.1184
  169.5000   -52.4701     8.4654     9.8541    13.3911     7.9924   104.3584     0.0341     2.4813     0.1095
  170.0000   -52.6057     8.2978     9.7257    13.2045     8.0091   106.0135     0.0418     2.4978     0.0976
  170.5000   -52.5853     8.0789     9.4676    13.7855     7.9959   107.8155     0.0479     2.5084     0.0898
  171.0000   -52.7169     7.9738     9.4089    13.5123     7.9977   109.6175     0.0555     2.5167     0.0801
  171.5000   -53.0005     7.7621     9.1593    13.1533     7.9995   111.4195     0.0586     2.5205     0.0742
  172.0000   -53.1320     7.4525     8.7335    13.0719     7.9864   113.9655     0.0572     2.5108     0.0768
  172.5000   -53.5595     7.1553     8.3275    11.1603     7.9881   116.2140     0.0513     2.4974     0.0840
  173.0000   -53.6910     7.0609     8.1626    11.3213     7.9899   114.5933     0.0468     2.4930     0.0884
  173.5000   -53.9705     7.0173     8.0561     9.4040     7.9768   110.7405     0.0410     2.4871     0.0932
  174.0000   -54.1021     7.0234     8.0618    10.1531     7.9637   107.7806     0.0364     2.4782     0.1001
  174.5000   -53.6379     7.0769     8.1795    12.9374     7.9654   107.3505     0.0335     2.4528     0.1126
  175.0000   -53.4736     7.2800     8.2418    13.3066     7.9821   108.7060     0.0290     2.4447     0.1222
  175.5000   -53.1614     7.4889     8.3621    12.6898     7.9839   109.9128     0.0234     2.4402     0.1251
  176.0000   -52.9971     7.7038     8.4842    12.4361     7.9857   109.6314     0.0220     2.4351     0.1272
  176.5000   -52.9808     7.9248     8.8489    13.0633     7.9874   108.6060     0.0191     2.4321     0.1224
  177.0000   -52.9644     8.0962     9.1658    13.4384     7.9743   107.5807     0.0177     2.4395     0.1250
  177.5000   -52.9480     8.1007     9.3639    13.5409     7.9761   107.1505     0.0148     2.4233     0.1289
  178.0000   -52.9317     8.1624     9.5006    13.5503     7.9779   106.1251     0.0149     2.4196     0.1313
  178.5000   -52.9186     8.2329     9.3769    13.5597     7.9796   103.7604     0.0120     2.4160     0.1330
  179.0000   -52.9024     8.3446     9.1912    13.6631     7.9814   101.2469     0.0121     2.4108     0.1348
  179.5000   -52.8861     8.4081     9.0076    13.3002     7.9832   103.7930     0.0107     2.4048     0.1351
  180.0000   -53.0183     8.4140     8.8291    12.9469     7.9701   107.5295     0.0108     2.4129     0.1323
  180.5000   -53.1663     8.4198     8.7142    12.8645     7.9719   111.2660     0.0109     2.4315     0.1275
  181.0000   -53.2948     8.3676     8.6007    12.9648     7.9736   113.0680     0.0110     2.4404     0.1242
  181.5000   -53.4130     8.3159     8.5475    12.9738     7.9754   113.3819     0.0111     2.4481     0.1211
