~VERSION INFORMATION
 VERS.                2.0:   CWLS LOG ASCII STANDARD - VERSION 2.0
 WRAP.                 NO:   ONE LINE PER DEPTH STEP
~WELL INFORMATION
#MNEM.UNIT      DATA TYPE    INFORMATION
#----------   ------------   ------------------------------
 STRT.F           42.0000:   START DEPTH
 STOP.F          530.5000:   STOP DEPTH
 STEP.F            0.5000:   STEP LENGTH
 NULL.          -999.2500:   NO VALUE
 COMP. LAWRENCE/ALLISON INC:   COMPANY
 WELL. 65-25-1 SX FI #3-3:   WELL
 FLD .              NPR 3:   FIELD
 LOC .       S3 T38N R78W:   LOCATION
 CNTY.            NATRONA:   COUNTY
 STAT.            WYOMING:   STATE
 CTRY. UNITED STATES OF AMERICA:   COUNTRY
 SRVC.       Schlumberger:   SERVICE COMPANY
 DATE.        08-JUL-1982:   LOGDATE
 API .       490251093000:   API NUMBER
~CURVE INFORMATION
#MNEM.UNIT       API CODE    CURVE DESCRIPTION
#----------   ------------   ------------------------------
 DEPT.F                  :   
 GRD .GAPI   45 310 01 00:   GAMMA RAY FROM DENSITY LOG
 CALD.IN     45 280 60 00:   CALIPER
 RHOB.G/C3   45 350 01 00:   BULK DENSITY
 DPHI.DEC    45 890 12 00:   DENSITY POROSITY SANDSTONE
 CORR.G/C3   45 356 01 00:   DENSITY CORRECTION
~PARAMETER INFORMATION
#MNEM.UNIT          VALUE    DESCRIPTION
#----------   ------------   ------------------------------
 PD  .                 GL:   PERMANENT DATUM
 EPD .F              5162:   ELEVATION PERMANENT DATUM
 LMF .                 KB:   LOG MEASURED FROM
 DAPD.F                 9:   FEET ABOVE PERMANENT DATUM
 DMF .                 KB:   DRILLING MEASURED FROM
 EKB .F              5171:   KELLING BUSHING
 EGL .F              5162:   GROUND LEVEL
 DATE.             7-8-82:   RUN DATE
 RUN .                  1:   RUN NUMBER
 DD  .F               531:   DEPTH DRILLER
 DL  .F               533:   DEPTH LOGGER
 BLI .F               530:   BOTTOM LOG INTERVAL
 TLI .F                52:   TOP LOG INTERVAL
 CS  .IN           13.375:   CASING SIZE
 CBD .F                50:   CASING BOTTOM DRILLER
 CBL .F                52:   CASING BOTTOM LOGGER
 BS  .IN            12.25:   BIT SIZE
 BSD .F               531:   BIT SIZE AT DEPTH
 DFT .                AIR:   DRILLING FLUID TYPE
 TCS .HRS            0500:   TIME CURCULATED STOPPED
 TLAB.HRS            0700:   TIME LOGGER AT BOTTOM
 LUL .               CSPR:   LOGGING UNIT LOCATION
 WITN.             TAYLOR:   WITNESSED BY
 CLNT.            A2DTECH:   CLIENT CODE
 ORIG.           5" PRINT:   ORIGIN OF DATA
 UWI .       490251093000:   UNIQUE WELL ID
 DICO. A2D Technologies, Inc.:   DIGITIZING COMPANY
~OTHER INFORMATION
~A   DEPT       GRD      CALD       RHOB       DPHI       CORR   
   42.0000    92.0923  -999.2500  -999.2500  -999.2500  -999.2500
   42.5000    90.7171  -999.2500  -999.2500  -999.2500  -999.2500
   43.0000    88.5560  -999.2500  -999.2500  -999.2500  -999.2500
   43.5000    86.8153  -999.2500  -999.2500  -999.2500  -999.2500
   44.0000    85.2987  -999.2500  -999.2500  -999.2500  -999.2500
   44.5000    88.8626  -999.2500  -999.2500  -999.2500  -999.2500
   45.0000    92.8327  -999.2500  -999.2500  -999.2500  -999.2500
   45.5000    96.8469  -999.2500  -999.2500  -999.2500  -999.2500
   46.0000    98.5389  -999.2500  -999.2500  -999.2500  -999.2500
   46.5000    97.5954  -999.2500  -999.2500  -999.2500  -999.2500
   47.0000    96.4792  -999.2500  -999.2500  -999.2500  -999.2500
   47.5000    97.0303  -999.2500  -999.2500  -999.2500  -999.2500
   48.0000    99.2476  -999.2500  -999.2500  -999.2500  -999.2500
   48.5000   101.3657  -999.2500  -999.2500  -999.2500  -999.2500
   49.0000   100.9059  -999.2500  -999.2500  -999.2500  -999.2500
   49.5000    99.6319  -999.2500  -999.2500  -999.2500  -999.2500
   50.0000    98.3568  -999.2500  -999.2500  -999.2500  -999.2500
   50.5000   100.3499  -999.2500     2.2858  -999.2500  -999.2500
   51.0000   102.6631  -999.2500     2.2778  -999.2500  -999.2500
   51.5000   104.9986    12.6558     2.2876     0.2307    -0.1515
   52.0000   108.6035    12.6098     2.3321     0.1990    -0.0777
   52.5000   117.8907    12.5927     2.4385     0.1546    -0.0173
   53.0000   126.8975    12.5264     2.4513     0.1342     0.0184
   53.5000   131.0632    12.5163     2.4503     0.1435     0.0313
   54.0000   134.3684    12.5208     2.4205     0.1543     0.0235
   54.5000   137.0428    12.5257     2.3992     0.1651     0.0098
   55.0000   137.5819    12.5306     2.3773     0.1759    -0.0039
   55.5000   138.1727    12.5354     2.3774     0.1797    -0.0140
   56.0000   140.7616    12.5402     2.3951     0.1687    -0.0137
   56.5000   143.3770    12.5450     2.4157     0.1558     0.0045
   57.0000   142.9222    12.5498     2.4362     0.1430     0.0256
   57.5000   139.2607    12.5546     2.4524     0.1357     0.0463
   58.0000   136.6468    12.5595     2.4518     0.1342     0.0488
   58.5000   137.3512    12.5643     2.4372     0.1434     0.0303
   59.0000   139.2902    12.5691     2.4302     0.1471     0.0241
   59.5000   140.5954    12.5739     2.4441     0.1400     0.0202
   60.0000   139.7002    12.5787     2.4622     0.1274     0.0247
   60.5000   137.0186    12.5835     2.4762     0.1231     0.0292
   61.0000   134.6381    12.5884     2.4741     0.1302     0.0287
   61.5000   133.8410    12.5932     2.4471     0.1403     0.0255
   62.0000   133.1104    12.5980     2.4273     0.1512     0.0220
   62.5000   134.6425    12.6028     2.4266     0.1509     0.0183
   63.0000   138.0464    12.6076     2.4314     0.1478     0.0194
   63.5000   141.5032    12.6111     2.4365     0.1446     0.0218
   64.0000   141.4896    12.6110     2.4415     0.1415     0.0241
   64.5000   140.0875    12.6110     2.4464     0.1383     0.0277
   65.0000   141.3356    12.6110     2.4515     0.1351     0.0315
   65.5000   144.3251    12.6110     2.4522     0.1390     0.0315
   66.0000   145.8783    12.6110     2.4425     0.1501     0.0186
   66.5000   143.2881    12.6110     2.4145     0.1611     0.0017
   67.0000   140.4873    12.6110     2.3961     0.1685    -0.0025
   67.5000   140.4218    12.6110     2.4055     0.1616     0.0025
   68.0000   142.2066    12.6110     2.4213     0.1546     0.0077
   68.5000   143.8936    12.6110     2.4282     0.1507     0.0086
   69.0000   143.6416    12.6110     2.4249     0.1504     0.0067
   69.5000   140.6383    12.6107     2.4337     0.1435     0.0093
   70.0000   137.5902    12.6215     2.4512     0.1379     0.0124
   70.5000   137.8835    12.6335     2.4473     0.1371     0.0102
   71.0000   139.2427    12.6456     2.4405     0.1402     0.0075
   71.5000   139.9046    12.6577     2.4341     0.1434     0.0084
   72.0000   138.5124    12.6697     2.4341     0.1441     0.0113
   72.5000   137.4787    12.6818     2.4398     0.1416     0.0129
   73.0000   137.6226    12.6938     2.4454     0.1390     0.0100
   73.5000   137.7401    12.7066     2.4450     0.1403     0.0081
   74.0000   137.0417    12.6951     2.4386     0.1421     0.0137
   74.5000   134.4588    12.6755     2.4266     0.1436     0.0193
   75.0000   126.9269    12.6558     2.4288     0.1424     0.0212
   75.5000   118.0126    12.6361     2.4389     0.1376     0.0206
   76.0000   107.1307    12.6164     2.4501     0.1310     0.0220
   76.5000    97.3192    12.5967     2.4612     0.1271     0.0236
   77.0000    92.3772    12.5759     2.4643     0.1283     0.0198
   77.5000    90.3420    12.5902     2.4499     0.1349     0.0097
   78.0000    89.2979    12.6153     2.4407     0.1416     0.0083
   78.5000    88.2786    12.6408     2.4591     0.1331     0.0184
   79.0000    88.1278    12.6662     2.4782     0.1203     0.0302
   79.5000    89.2517    12.6888     2.4733     0.1203     0.0358
   80.0000    90.5883    12.6769     2.4596     0.1305     0.0325
   80.5000    92.8686    12.6645     2.4443     0.1408     0.0263
   81.0000    93.5809    12.6523     2.4481     0.1382     0.0269
   81.5000    91.8387    12.6402     2.4523     0.1340     0.0287
   82.0000    89.8357    12.6318     2.4562     0.1317     0.0307
   82.5000    87.8275    12.6394     2.4675     0.1249     0.0388
   83.0000    85.8432    12.6466     2.4840     0.1149     0.0474
   83.5000    86.1667    12.6503     2.5006     0.1049     0.0448
   84.0000    89.0489    12.6503     2.5076     0.1014     0.0399
   84.5000    92.8920    12.6503     2.4990     0.1084     0.0351
   85.0000    93.3760    12.6503     2.4903     0.1131     0.0302
   85.5000    91.6561    12.6505     2.4816     0.1179     0.0254
   86.0000    90.6931    12.6494     2.4742     0.1219     0.0206
   86.5000    92.5860    12.6291     2.4818     0.1162     0.0195
   87.0000    94.3934    12.6087     2.4912     0.1114     0.0247
   87.5000    95.7151    12.5883     2.5005     0.1066     0.0299
   88.0000    93.8384    12.5681     2.5090     0.1030     0.0350
   88.5000    92.0160    12.5527     2.5087     0.1019     0.0367
   89.0000    91.0202    12.5591     2.5058     0.1018     0.0382
   89.5000    93.2363    12.5650     2.5009     0.1050     0.0395
   90.0000    95.3405    12.5709     2.4851     0.1131     0.0341
   90.5000    96.8933    12.5767     2.4683     0.1233     0.0282
   91.0000    97.0654    12.5826     2.4605     0.1300     0.0226
   91.5000    97.2681    12.5885     2.4587     0.1311     0.0199
   92.0000    97.4634    12.5943     2.4582     0.1312     0.0174
   92.5000    97.6506    12.6002     2.4547     0.1327     0.0163
   93.0000    98.2293    12.6060     2.4498     0.1351     0.0179
   93.5000    98.8680    12.6119     2.4575     0.1319     0.0220
   94.0000    98.0516    12.6178     2.4689     0.1236     0.0283
   94.5000    95.9396    12.6237     2.4803     0.1150     0.0349
   95.0000    93.9663    12.6298     2.4862     0.1134     0.0260
   95.5000    95.3660    12.6225     2.4640     0.1266     0.0143
   96.0000    96.8888    12.6124     2.4479     0.1368     0.0024
   96.5000    97.3737    12.6023     2.4337     0.1447    -0.0097
   97.0000    94.5544    12.5921     2.4530     0.1384    -0.0119
   97.5000    90.4429    12.5820     2.4741     0.1261     0.0020
   98.0000    85.7138    12.5719     2.4944     0.1138     0.0163
   98.5000    83.8490    12.5617     2.4958     0.1094     0.0282
   99.0000    86.1156    12.5524     2.4803     0.1188     0.0285
   99.5000    91.3631    12.5573     2.4677     0.1295     0.0215
  100.0000    96.4452    12.5626     2.4553     0.1336     0.0137
  100.5000    99.3130    12.5677     2.4520     0.1343     0.0057
  101.0000    97.1723    12.5729     2.4560     0.1331    -0.0023
  101.5000    93.5891    12.5780     2.4636     0.1271     0.0063
  102.0000    90.0084    12.5832     2.4814     0.1175     0.0236
  102.5000    87.3885    12.5884     2.4995     0.1078     0.0387
