~VERSION INFORMATION
 VERS.                2.0:   CWLS LOG ASCII STANDARD - VERSION 2.0
 WRAP.                 NO:   ONE LINE PER DEPTH STEP
~WELL INFORMATION
#MNEM.UNIT      DATA TYPE    INFORMATION
#----------   ------------   ------------------------------
 STRT.F           35.0000:   START DEPTH
 STOP.F          474.0000:   STOP DEPTH
 STEP.F            0.5000:   STEP LENGTH
 NULL.          -999.2500:   NO VALUE
 COMP.    FENIX & SCISSON:   COMPANY
 WELL.        NPR #53-S-3:   WELL
 FLD .             TEAPOT:   FIELD
 LOC .       S3 T38N R78W:   LOCATION
 CNTY.            NATRONA:   COUNTY
 STAT.            WYOMING:   STATE
 CTRY. UNITED STATES OF AMERICA:   COUNTRY
 SRVC.       Schlumberger:   SERVICE COMPANY
 DATE.        21-FEB-1977:   LOGDATE
 API .       490251027800:   API NUMBER
~CURVE INFORMATION
#MNEM.UNIT       API CODE    CURVE DESCRIPTION
#----------   ------------   ------------------------------
 DEPT.F                  :   
 SPR .MV     07 010 01 00:   SPONTANEOUS POTENTIAL
 ILD .OHMM   07 120 46 00:   INDUCTION LOG DEEP
 ILM .OHMM   07 120 44 00:   INDUCTION LOG MEDIUM
 LL8 .OHMM   07 220 08 00:   LATEROLOG-8 RES.
 CALD.IN     45 280 60 00:   CALIPER FROM DENSITY LOG
 CORR.G/C3   45 356 01 00:   DENSITY CORRECTION
 RHOB.G/C3   45 350 01 00:   BULK DENSITY
 DPHI.DEC    45 890 12 00:   DENSITY POROSITY SANDSTONE
 GRD .GAPI   45 310 01 00:   GAMMA RAY FROM DENSITY LOG
~PARAMETER INFORMATION
#MNEM.UNIT          VALUE    DESCRIPTION
#----------   ------------   ------------------------------
 PD  .                 GL:   PERMANENT DATUM
 EPD .F              5163:   ELEVATION PERMANENT DATUM
 LMF .                 GL:   LOG MEASURED FROM
 DMF .                 KB:   DRILLING MEASURED FROM
 EKB .F              5167:   KELLING BUSHING
 EGL .F              5163:   GROUND LEVEL
 DATE.        21-FEB-1977:   RUN DATE
 RUN .                  1:   RUN NUMBER
 DD  .F               480:   DEPTH DRILLER
 DL  .F               475:   DEPTH LOGGER
 BLI .F               474:   BOTTOM LOG INTERVAL
 TLI .F                39:   TOP LOG INTERVAL
 CS  .IN            8.625:   CASING SIZE
 CBD .F                40:   CASING BOTTOM DRILLER
 CBL .F                39:   CASING BOTTOM LOGGER
 BS  .IN            7.875:   BIT SIZE
 BSD .F               480:   BIT SIZE AT DEPTH
 DFT .            KCL MUD:   DRILLING FLUID TYPE
 DFD .                8.6:   DRILLING FLUID DENSITY
 DFV .                 35:   DRILLING FLUID VISCOSITY
 DFPH.                8.0:   DRILLING FLUID PH
 DFL .                6.8:   DRILLING FLUID LOSS
 MSS .           FLOWLINE:   MUD SAMPLE SOURCE
 RMS .OHMM            .41:   RESISTIVITY MUD SAMPLE
 MST .F                70:   MUD SAMPLE TEMPERATURE
 RMF .OHMM            .46:   RESISTIVITY MUD FILTRATE SAMPLE
 MFST.F                70:   MUD FILTRATE SAMPLE TEMPERATURE
 MFSS.               MEAS:   MUD FILTRATE SAMPLE SOURCE
 TCS .HRS               1:   TIME CURCULATED STOPPED
 LUN .               7680:   LOGGING UNIT NUMBER
 LUL .               CSPR:   LOGGING UNIT LOCATION
 ENGI.             TAYLOR:   RECORDING ENGINEER
 WITN.               JAPP:   WITNESSED BY
 CLNT.            A2DTECH:   CLIENT CODE
 ORIG.           5" PRINT:   ORIGIN OF DATA
 UWI .       490251027800:   UNIQUE WELL ID
 DICO. A2D Technologies, Inc.:   DIGITIZING COMPANY
~OTHER INFORMATION
~A   DEPT      SPR        ILD        ILM        LL8       CALD       CORR       RHOB       DPHI         GRD  
# ...
  363.5000   -42.2040    15.1494    19.7046    19.4048     8.3080     0.0185     2.3727     0.1702    74.8936
  364.0000   -42.3311    15.1546    19.0411    18.7531     8.3092     0.0245     2.3607     0.1780    74.0411
  364.5000   -42.4670    14.9515    18.2730    17.8744     8.3103     0.0178     2.3622     0.1708    73.8383
  365.0000   -42.4448    14.9566    17.7803    17.2741     8.3115     0.0194     2.3735     0.1602    74.3058
  365.5000   -42.4270    14.9617    17.4210    17.0421     8.3127     0.0322     2.3880     0.1526    76.3475
  366.0000   -42.4093    14.8624    17.3068    17.0509     8.3139     0.0180     2.3985     0.1481    77.9394
  366.5000   -42.5452    14.7650    17.3129    17.0579     8.3150     0.0315     2.4066     0.1393    74.5838
  367.0000   -42.6767    14.6682    17.3189    16.9456     8.3012     0.0413     2.4179     0.1336    73.0273
  367.5000   -42.6545    14.6745    17.3249    16.3782     8.3024     0.0504     2.4292     0.1330    72.8156
  368.0000   -42.6367    14.5771    17.0756    15.9363     8.2886     0.0279     2.4066     0.1525    71.9382
  368.5000   -42.7682    14.4815    17.2065    16.3917     8.2748     0.0092     2.3923     0.1580    70.3817
  369.0000   -42.9042    14.3866    17.2163    16.6251     8.2610     0.0175     2.3931     0.1537    70.1745
  369.5000   -42.8820    14.1938    17.3458    16.0684     8.2625     0.0190     2.3938     0.1556    69.7421
  370.0000   -42.8642    14.0047    17.3557    15.5288     8.2637     0.0153     2.3886     0.1547    71.3343
  370.5000   -42.8464    14.0095    17.2435    15.4266     8.2649     0.0186     2.3953     0.1519    73.4364
  371.0000   -42.8287    13.9165    17.0162    16.2000     8.2660     0.0297     2.3923     0.1588    76.3778
  371.5000   -42.8109    13.7300    16.7919    16.5464     8.2520     0.0095     2.3833     0.1555    77.2345
  372.0000   -42.7931    13.6400    16.3452    15.3408     8.2382     0.0117     2.3976     0.1530    73.4335
  372.5000   -42.7754    13.3655    15.9081    14.0278     8.2396     0.0043     2.3757     0.1645    71.8726
  373.0000   -42.9075    13.2767    15.5902    14.3277     8.2255     0.0006     2.3886     0.1611    72.7943
  373.5000   -42.8891    13.1003    15.2783    14.8378     8.2270     0.0051     2.3953     0.1542    72.8120
  374.0000   -42.8713    13.0129    15.0770    15.2603     8.2283     0.0089     2.4066     0.1506    75.0785
  374.5000   -42.8536    12.9280    14.8784    15.6947     8.2294     0.0045     2.4179     0.1436    75.7709
  375.0000   -42.8358    12.8438    14.6823    16.0303     8.2156     0.0098     2.4187     0.1385    75.1139
  375.5000   -42.8179    12.6718    14.6909    16.0369     8.2168     0.0143     2.4164     0.1375    73.5574
  376.0000   -42.9496    12.5886    14.6993    15.6059     8.2180     0.0226     2.4224     0.1384    72.6711
  376.5000   -42.9313    12.5062    14.7078    15.2916     8.2194     0.0347     2.4255     0.1357    74.4923
  377.0000   -43.2125    12.5105    14.6092    14.8808     8.2206     0.0272     2.4127     0.1317    75.4096
  377.5000   -43.1940    12.4285    14.2158    14.5813     8.2216     0.0212     2.4345     0.1281    75.8771
  378.0000   -43.1726    12.3471    13.9395    14.3869     8.2229     0.0190     2.4547     0.1209    75.8951
  378.5000   -43.1548    12.3513    13.7558    14.4927     8.2241     0.0182     2.4608     0.1172    78.6717
  379.0000   -43.1370    12.4414    13.7640    14.7006     8.2100     0.0199     2.4676     0.1169    79.3079
  379.5000   -42.6715    12.5321    13.7720    15.0195     8.2115     0.0252     2.4541     0.1187    79.0963
  380.0000   -42.5045    12.5423    13.8772    15.3432     8.2127     0.0237     2.4383     0.1211    78.8891
  380.5000   -42.1882    12.6279    14.0786    15.3423     8.2138     0.0313     2.4285     0.1268    78.0117
  381.0000   -41.8720    12.7300    14.1845    15.3488     8.2000     0.0358     2.4352     0.1268    76.4551
  381.5000   -41.2572    12.9913    14.3904    15.8310     8.2012     0.0471     2.4292     0.1271    75.7937
  382.0000   -40.9409    13.1005    14.7007    16.5940     8.1870     0.0269     2.4187     0.1358    75.1412
  382.5000   -40.7739    13.2730    15.1219    16.8130     8.1722     0.0224     2.4277     0.1316    74.2593
  383.0000   -40.6069    13.1858    15.4480    15.8068     8.1423     0.0413     2.4368     0.1274    73.8228
  383.5000   -40.2906    13.1005    15.3502    15.1707     8.1161     0.0526     2.4274     0.1331    75.4192
  384.0000   -40.2729    13.1050    15.2509    14.9669     8.0873     0.0436     2.4337     0.1311    77.4609
  384.5000   -40.2551    13.0180    15.0499    15.5014     8.0586     0.0594     2.4511     0.1240    77.0288
  385.0000   -40.2373    12.6680    14.6496    15.7238     8.0448     0.0782     2.4639     0.1158    76.1469
  385.5000   -40.2196    12.5839    14.3568    15.4057     8.0462     0.0537     2.4209     0.1228    75.9397
  386.0000   -40.2018    12.3296    14.0699    15.4137     8.0474     0.0231     2.3893     0.1357    78.0420
  386.5000   -40.1840    12.0815    13.6917    15.4200     8.0336     0.0191     2.4036     0.1435    80.0275
  387.0000   -40.1663    11.8373    13.3274    14.9022     8.0498     0.0334     2.4239     0.1293    80.7199
  387.5000   -40.1485    11.6777    13.1499    14.5016     8.0509     0.0349     2.4443     0.1200    80.5083
  388.0000   -40.4299    11.4426    13.2507    14.2098     8.0371     0.0380     2.4330     0.1239    78.9562
  388.5000   -40.4115    11.4466    13.1649    14.2156     8.0383     0.0365     2.4405     0.1257    80.7730
  389.0000   -40.6922    11.3706    12.8147    14.1220     8.0545     0.0493     2.4548     0.1172    83.0396
  389.5000   -40.6745    11.3755    12.4720    14.0305     8.0557     0.0381     2.4541     0.1163    85.5310
  390.0000   -40.6567    11.4584    12.2228    13.9396     8.0571     0.0351     2.4525     0.1184    85.9985
  390.5000   -40.9375    11.6221    12.2298    13.9468     8.0583     0.0194     2.4006     0.1386    84.8917
  391.0000   -40.9194    11.8700    12.3217    13.9525     8.0595     0.0225     2.4322     0.1300    82.2108
  391.5000   -40.9019    12.2073    12.5006    13.9583     8.0756     0.0383     2.4217     0.1303    80.4294
  392.0000   -40.8836    12.5542    12.9481    14.1585     8.0768     0.0413     2.4398     0.1253    82.0213
  392.5000   -40.4179    13.2734    13.6930    14.3616     8.0780     0.0526     2.4511     0.1174    84.7376
  393.0000   -40.2472    14.6287    14.7844    15.0800     8.0791     0.0542     2.4383     0.1240    82.6867
  393.5000   -39.6324    16.8058    16.7551    22.8434     8.0803     0.0408     2.4337     0.1267    79.6762
  394.0000   -39.1669    19.4410    19.5214    31.8482     8.0815     0.0257     2.4096     0.1319    73.5508
  394.5000   -38.9999    22.1803    24.4127    33.4414     8.0976     0.0468     2.3705     0.1671    66.8218
  395.0000   -38.9821    25.3057    29.2411    38.4170     8.1138     0.0528     2.3343     0.2018    61.6671
  395.5000   -38.9644    28.4745    33.1648    46.6431     8.1299     0.0319     2.3080     0.2075    61.6848
  396.0000   -38.9466    31.3819    37.0688    42.6508     8.1461     0.0364     2.3538     0.1550    59.9034
  396.5000   -38.6303    33.4100    40.8870    41.1253     8.1623     0.0425     2.3905     0.1475    59.0171
  397.0000   -38.6126    33.6535    44.4786    48.3437     8.1787     0.0238     2.4345     0.1387    58.1397
  397.5000   -38.4455    33.4330    47.6555   107.8616     8.1798     0.0568     2.4782     0.1124    57.4827
  398.0000   -38.4278    32.7573    49.9199   118.2850     8.1810     0.0321     2.4910     0.1010    54.3520
  398.5000   -38.4100    32.0953    47.2585    53.6935     8.1669     0.0149     2.5060     0.0850    50.7715
  399.0000   -38.3923    31.2299    43.5177    39.8999     8.1531     0.0247     2.5324     0.0735    50.2489
  399.5000   -38.3745    30.1782    41.4837    40.7531     8.1546     0.0480     2.5030     0.0840    56.4291
