~VERSION INFORMATION
 VERS.                2.0:   CWLS LOG ASCII STANDARD - VERSION 2.0
 WRAP.                 NO:   ONE LINE PER DEPTH STEP
~WELL INFORMATION
#MNEM.UNIT      DATA TYPE    INFORMATION
#----------   ------------   ------------------------------
 STRT.F           16.0000:   START DEPTH
 STOP.F          474.0000:   STOP DEPTH
 STEP.F            0.5000:   STEP LENGTH
 NULL.          -999.2500:   NO VALUE
 COMP. FENIX & SCISSON INCORPORATED:   COMPANY
 WELL.    NPR #3 #58-SX-3:   WELL
 FLD .             TEAPOT:   FIELD
 LOC .       S3 T38N R78W:   LOCATION
 CNTY.            NATRONA:   COUNTY
 STAT.            WYOMING:   STATE
 CTRY. UNITED STATES OF AMERICA:   COUNTRY
 SRVC.           BIRDWELL:   SERVICE COMPANY
 DATE.        19-OCT-1978:   LOGDATE
 API .       490251072000:   API NUMBER
~CURVE INFORMATION
#MNEM.UNIT       API CODE    CURVE DESCRIPTION
#----------   ------------   ------------------------------
 DEPT.F                  :   
 CALD.IN     45 280 60 00:   CALIPER FROM DENSITY LOG
 CORR.G/C3   45 356 01 00:   DENSITY CORRECTION
 DPHI.DEC    45 890 12 00:   DENSITY POROSITY SANDSTONE
 GRD .GAPI   45 310 01 00:   GAMMA RAY FROM DENSITY LOG
 RHOB.G/C3   45 350 01 00:   BULK DENSITY
 ILD .OHMM   05 120 46 00:   INDUCTION LOG DEEP
 SN  .OHMM   05 040 16 00:   SHORT NORMAL 16"
 SPR .MV     05 010 01 00:   SPONTANEOUS POTENTIAL FROM RES.
~PARAMETER INFORMATION
#MNEM.UNIT          VALUE    DESCRIPTION
#----------   ------------   ------------------------------
 PD  .                 GL:   PERMANENT DATUM
 EPD .F              5198:   ELEVATION PERMANENT DATUM
 LMF .                 KB:   LOG MEASURED FROM
 DAPD.F                 4:   FEET ABOVE PERMANENT DATUM
 DMF .                 KB:   DRILLING MEASURED FROM
 EKB .F              5202:   KELLING BUSHING
 EGL .F              5198:   GROUND LEVEL
 DATE.        19-OCT-1978:   RUN DATE
 RUN .                  1:   RUN NUMBER
 DD  .F               474:   DEPTH DRILLER
 DL  .F               474:   DEPTH LOGGER
 BLI .F               474:   BOTTOM LOG INTERVAL
 TLI .F                30:   TOP LOG INTERVAL
 CBD .F                40:   CASING BOTTOM DRILLER
 CBL .F                38:   CASING BOTTOM LOGGER
 BS  .IN            7.875:   BIT SIZE
 BSD .F               474:   BIT SIZE AT DEPTH
 DFT .                KCL:   DRILLING FLUID TYPE
 DFD .                8.7:   DRILLING FLUID DENSITY
 DFV .                 38:   DRILLING FLUID VISCOSITY
 DFPH.                9.0:   DRILLING FLUID PH
 DFL .                 13:   DRILLING FLUID LOSS
 MSS .           FLOWLINE:   MUD SAMPLE SOURCE
 RMS .OHMM            .25:   RESISTIVITY MUD SAMPLE
 MST .F                58:   MUD SAMPLE TEMPERATURE
 RMF .OHMM             .2:   RESISTIVITY MUD FILTRATE SAMPLE
 MFST.F                60:   MUD FILTRATE SAMPLE TEMPERATURE
 RMC .OHMM            .24:   RESISTIVITY MUD CAKE
 MCST.F                60:   MUD CAKE SAMPLE TEMPERATURE
 MFSS.               MEAS:   MUD FILTRATE SAMPLE SOURCE
 MCSS.               MEAS:   MUD CAKE SAMPLE SOURCE
 RMB .OHMM            .23:   RESISTIVITY MUD AT BHT
 BHT .F                70:   BOTTOM HOLE TEMPERATURE
 TCS .HRS               3:   TIME CURCULATED STOPPED
 MRT .F                70:   MAXIMUM RECORDED TEMPERATURE
 LUN .               2958:   LOGGING UNIT NUMBER
 LUL .               CASP:   LOGGING UNIT LOCATION
 ENGI.           REYNOLDS:   RECORDING ENGINEER
 WITN.           DINSMORE:   WITNESSED BY
 CLNT.            A2DTECH:   CLIENT CODE
 ORIG.           5" PRINT:   ORIGIN OF DATA
 UWI .       490251072000:   UNIQUE WELL ID
 DICO. A2D Technologies, Inc.:   DIGITIZING COMPANY
~OTHER INFORMATION
~A   DEPT     CALD       CORR       DPHI         GRD      RHOB        ILD         SN        SPR   
# ...
  421.0000     7.9574     0.0118     0.1170    49.6307     2.4724    11.1517     9.0479   -44.6903
  421.5000     7.9568     0.0118     0.1122    48.2736     2.4819    11.0762     8.9882   -44.6903
  422.0000     7.9562     0.0133     0.1108    44.6086     2.4908    10.9685     8.8685   -44.6903
  422.5000     7.9555     0.0142     0.1144    44.0177     2.4952    10.8528     8.7505   -44.8378
  423.0000     7.9550     0.0148     0.1179    47.8582     2.4921    10.7794     8.6918   -44.8378
  423.5000     7.9544     0.0164     0.1194    49.0399     2.4834    10.6339     8.5777   -44.9853
  424.0000     7.9390     0.0178     0.1205    47.5628     2.4805    10.5619     8.5208   -45.1327
  424.5000     7.9237     0.0207     0.1149    56.7208     2.4812    10.4904     8.4073   -45.2802
  425.0000     7.9231     0.0212     0.1111    52.5849     2.4827    10.3489     8.2738   -45.4277
  425.5000     7.9225     0.0237     0.1082    49.3353     2.4886    10.1402     8.1853   -45.5752
  426.0000     7.9219     0.0237     0.1081    55.0960     2.4959    10.0033     8.0679   -45.7227
  426.5000     7.9116     0.0266     0.1099    75.7847     2.4989     9.7352     7.9152   -45.8702
  427.0000     7.9059     0.0281     0.1117    75.1662     2.4945     9.4743     7.7568   -46.0177
  427.5000     7.9053     0.0296     0.1179    74.1507     2.4886     9.0959     7.6021   -46.3127
  428.0000     7.9047     0.0325     0.1220    72.8213     2.4775     8.6526     7.4502   -46.6077
  428.5000     7.9040     0.0355     0.1323    67.3560     2.4643     7.7277     7.1981   -47.6401
  429.0000     7.8887     0.0355     0.1441    48.7445     2.4554     6.9319     6.7778   -48.9676
  429.5000     7.8881     0.0370     0.1509    46.3811     2.4420     6.4767     6.5085   -49.5575
  430.0000     7.8875     0.0384     0.1477    50.8124     2.4274     6.2604     6.0416   -48.9676
  430.5000     7.8722     0.0399     0.1317    53.4712     2.4628     6.0083     5.6082   -44.3953
  431.0000     7.8864     0.0385     0.1117    55.0960     2.4901     5.8892     5.1707   -47.0501
  431.5000     7.9006     0.0356     0.0990    55.3914     2.5129     5.8493     5.1366   -46.7552
  432.0000     7.9148     0.0297     0.0957    46.3811     2.5276     5.9697     5.2078   -44.8378
  432.5000     7.9141     0.0222     0.0951    45.1994     2.5195     6.4767     5.4990   -42.1829
  433.0000     7.9285     0.0137     0.0990    45.4948     2.5104     7.2695     6.0069   -41.2979
  433.5000     7.9277     0.0093     0.1022    45.6841     2.5018     8.2708     6.4294   -41.1504
  434.0000     7.9272     0.0093     0.1010    45.7903     2.5033     9.1579     7.1679   -41.1504
  434.5000     7.9266     0.0093     0.0981    45.7903     2.5099     9.7352     7.6721   -41.1504
  435.0000     7.9112     0.0122     0.0978    45.4579     2.5114    10.1402     8.0464   -41.1504
  435.5000     7.9255     0.0169     0.0969    40.3250     2.5092    10.1402     8.3820   -41.1504
  436.0000     7.9247     0.0211     0.0954    36.0414     2.5077    10.0033     8.5557   -41.1504
  436.5000     7.9242     0.0240     0.0925    38.2570     2.5239    10.0033     8.6740   -41.1504
  437.0000     7.9236     0.0255     0.0889    56.1300     2.5365    10.0033     8.7347   -41.1504
  437.5000     7.9230     0.0211     0.0857    49.5660     2.5453    10.1402     8.8554   -41.1504
  438.0000     7.9225     0.0167     0.0830    46.0857     2.5483    10.2788     8.9171   -41.1504
  438.5000     7.9219     0.0106     0.0874    45.3471     2.5372    10.5677     9.0404   -41.0029
  439.0000     7.9212     0.0080     0.0922    45.1994     2.5284    10.9268     9.1674   -40.7080
  439.5000     7.9206     0.0065     0.0957    44.9040     2.5163    11.1517     9.3556   -39.6755
  440.0000     7.9201     0.0051     0.0984    44.7563     2.5092    11.4589     9.4208   -38.0531
  440.5000     7.9195     0.0066     0.1010  -999.2500     2.5048    11.6948     9.5715   -34.9558
  441.0000     7.9189     0.0066     0.1016  -999.2500     2.5026    11.8547     9.6830   -29.0560
  441.5000     7.9183     0.0082     0.1001  -999.2500     2.5055    12.0234     9.8169   -37.1681
  442.0000     7.9178     0.0097     0.0986  -999.2500     2.5129    12.0988     9.8857   -39.5280
  442.5000     7.9172     0.0125     0.0986  -999.2500     2.5159    12.2642    10.0223   -41.2979
  443.0000     7.9166     0.0148     0.1001  -999.2500     2.5166    12.3478    10.0921   -44.1003
  443.5000     7.9011     0.0183     0.1037  -999.2500     2.5136    12.4320    10.1625   -43.8053
  444.0000     7.9006     0.0213     0.1081  -999.2500     2.5085    12.4783    10.2333   -46.4602
  444.5000     7.9070     0.0272     0.1063  -999.2500     2.5011    12.5287    10.3097   -42.4779
  445.0000     7.9142     0.0301     0.1028  -999.2500     2.4982    12.6154    10.3883   -42.0354
  445.5000     7.9136     0.0330     0.1004  -999.2500     2.4982    12.6879    10.4760   -42.4779
  446.0000     7.9129     0.0360     0.0980  -999.2500     2.5059    12.7744    10.5935   -42.9269
  446.5000     7.9124     0.0360     0.0931  -999.2500     2.5210    12.8614    10.6674   -43.5103
  447.0000     7.9118     0.0302     0.0880  -999.2500     2.5313    12.9491    10.8148   -43.9528
  447.5000     7.9112     0.0255     0.0889  -999.2500     2.5365    12.9491    10.8906   -44.2478
  448.0000     7.9107     0.0214     0.0942  -999.2500     2.5350    12.9491    10.8924   -44.5428
  448.5000     7.9099     0.0214     0.0983  -999.2500     2.5284    12.9491    10.8941   -44.5428
  449.0000     7.9094     0.0200     0.0995  -999.2500     2.5209    12.9491    10.8222   -44.6903
  449.5000     7.8940     0.0200     0.0992  -999.2500     2.5122    12.9491    10.8240   -44.8378
  450.0000     7.8934     0.0244     0.0974  -999.2500     2.5085    12.8614    10.6799   -44.9853
  450.5000     7.9395     0.0229     0.0957  -999.2500     2.5070    12.6879    10.5377   -44.8378
  451.0000     7.9409     0.0214     0.0921  -999.2500     2.5129    12.6879    10.4686   -44.8378
  451.5000     7.9423     0.0213     0.0886  -999.2500     2.5217    12.6879    10.4703   -44.8378
  452.0000     7.9440     0.0198     0.0856  -999.2500     2.5306    12.6879    10.4012   -44.6903
  452.5000     7.9602     0.0184     0.0844  -999.2500     2.5387    12.6020    10.4033   -44.6903
  453.0000     7.9616     0.0198     0.0886  -999.2500     2.5394    12.6020    10.3342   -44.5428
  453.5000     7.9482     0.0197     0.0939  -999.2500     2.5276    12.5167    10.2660   -44.5428
  454.0000     7.9499     0.0212     0.0957  -999.2500     2.5173    12.4320    10.1987   -44.5526
  454.5000     7.9362     0.0215     0.0927  -999.2500     2.5158    12.2642    10.1314   -44.9853
  455.0000     7.9379     0.0240     0.0936  -999.2500     2.5247    12.0988    10.1255   -45.4277
  455.5000     7.9396     0.0240     0.0956  -999.2500     2.5262    11.9355     9.9986   -45.5752
  456.0000     7.9410     0.0247     0.0959  -999.2500     2.5195    11.7638    10.0002   -46.0177
  456.5000     7.9423     0.0254     0.0912  -999.2500     2.5136    11.4589     9.9113   -46.1669
  457.0000     7.9438     0.0253     0.0891  -999.2500     2.5232    11.1517     9.8397   -47.4926
  457.5000     7.9453     0.0253     0.0883  -999.2500     2.5291    11.0013     9.7373   -48.3776
  458.0000     7.9469     0.0253     0.0885  -999.2500     2.5335    10.7769     9.6730   -45.5752
  458.5000     7.9483     0.0252     0.0897  -999.2500     2.5262    10.5619     9.5446   -45.7227
  459.0000     7.9497     0.0252     0.0909  -999.2500     2.5181    10.4194     9.4813   -46.3127
  459.5000     7.9660     0.0252     0.0915  -999.2500     2.5158    10.2788     9.2922   -46.6077
  460.0000     7.9676     0.0251     0.0882  -999.2500     2.5291    10.2093     9.1685   -46.7552
  460.5000     7.9690     0.0251     0.0862  -999.2500     2.5372    10.1402     8.9856   -46.9027
  461.0000     7.9704     0.0250     0.0882  -999.2500     2.5328    10.0715     8.9871   -47.1976
