~VERSION INFORMATION
 VERS.                2.0:   CWLS LOG ASCII STANDARD - VERSION 2.0
 WRAP.                 NO:   ONE LINE PER DEPTH STEP
~WELL INFORMATION
#MNEM.UNIT      DATA TYPE    INFORMATION
#----------   ------------   ------------------------------
 STRT.F           32.0000:   START DEPTH
 STOP.F          757.0000:   STOP DEPTH
 STEP.F            0.5000:   STEP LENGTH
 NULL.          -999.2500:   NO VALUE
 COMP. FENIX & SCISSON INC:   COMPANY
 WELL.     88 S 34 #88-34:   WELL
 FLD .             NPR #3:   FIELD
 LOC .      S34 T39N R78W:   LOCATION
 CNTY.            NATRONA:   COUNTY
 STAT.            WYOMING:   STATE
 CTRY. UNITED STATES OF AMERICA:   COUNTRY
 SRVC.              Welex:   SERVICE COMPANY
 DATE.        10-MAY-1977:   LOGDATE
 API .       490251035800:   API NUMBER
~CURVE INFORMATION
#MNEM.UNIT       API CODE    CURVE DESCRIPTION
#----------   ------------   ------------------------------
 DEPT.F                  :   
 GURD.OHMM   07 220 05 00:   SHALLOW GUARD RESISTIVITY
 ILD .OHMM   07 120 46 00:   INDUCTION LOG DEEP
 ILM .OHMM   07 120 44 00:   INDUCTION LOG MEDIUM
 SPR .MV     07 010 01 00:   SPONTANEOUS POTENTIAL FROM RES.
 CALD.IN     45 280 60 00:   CALIPER FROM DENSITY LOG
 CORR.G/C3   45 356 01 00:   DENSITY CORRECTION
 DPHI.DEC    45 890 12 00:   DENSITY POROSITY SANDSTONE
 GRD .GAPI   45 310 01 00:   GAMMA RAY FROM DENSITY LOG
 RHOB.G/C3   45 350 01 00:   BULK DENSITY
~PARAMETER INFORMATION
#MNEM.UNIT          VALUE    DESCRIPTION
#----------   ------------   ------------------------------
 PD  .                 GL:   PERMANENT DATUM
 EPD .F              5094:   ELEVATION PERMANENT DATUM
 LMF .                 GL:   LOG MEASURED FROM
 DMF .                 GL:   DRILLING MEASURED FROM
 EGL .F              5094:   GROUND LEVEL
 DATE.        10-MAY-1977:   RUN DATE
 RUN .                  1:   RUN NUMBER
 DD  .F               760:   DEPTH DRILLER
 DL  .F               759:   DEPTH LOGGER
 BLI .F               757:   BOTTOM LOG INTERVAL
 TLI .F                30:   TOP LOG INTERVAL
 CS  .IN            8.625:   CASING SIZE
 CBD .F                40:   CASING BOTTOM DRILLER
 CBL .F                45:   CASING BOTTOM LOGGER
 BS  .IN            7.875:   BIT SIZE
 BSD .F               760:   BIT SIZE AT DEPTH
 DFT .            KCL MUD:   DRILLING FLUID TYPE
 DFD .                9.0:   DRILLING FLUID DENSITY
 DFV .                 33:   DRILLING FLUID VISCOSITY
 DFPH.                7.5:   DRILLING FLUID PH
 DFL .                7.4:   DRILLING FLUID LOSS
 MSS .           FLOWLINE:   MUD SAMPLE SOURCE
 RMS .OHMM           0.33:   RESISTIVITY MUD SAMPLE
 MST .F                70:   MUD SAMPLE TEMPERATURE
 RMF .OHMM           0.28:   RESISTIVITY MUD FILTRATE SAMPLE
 MFST.F                70:   MUD FILTRATE SAMPLE TEMPERATURE
 RMC .OHMM           0.40:   RESISTIVITY MUD CAKE
 MCST.F                70:   MUD CAKE SAMPLE TEMPERATURE
 MFSS.           FANN KIT:   MUD FILTRATE SAMPLE SOURCE
 MCSS.           FANN KIT:   MUD CAKE SAMPLE SOURCE
 RMB .OHMM           0.26:   RESISTIVITY MUD AT BHT
 BHT .F                86:   BOTTOM HOLE TEMPERATURE
 TCS .HRS             1.5:   TIME CURCULATED STOPPED
 MRT .F                86:   MAXIMUM RECORDED TEMPERATURE
 LUN .               8611:   LOGGING UNIT NUMBER
 LUL .             CASPER:   LOGGING UNIT LOCATION
 ENGI.            C. DOAK:   RECORDING ENGINEER
 WITN.         D. RHOADES:   WITNESSED BY
 CLNT.            A2DTECH:   CLIENT CODE
 ORIG.           5" PRINT:   ORIGIN OF DATA
 UWI .       490251035800:   UNIQUE WELL ID
 DICO. A2D Technologies, Inc.:   DIGITIZING COMPANY
~OTHER INFORMATION
~A   DEPT     GURD        ILD        ILM        SPR         CALD      CORR      DPHI         GRD        RHOB 
# ...
  543.0000     8.1593     4.9019     4.8370   -33.7018     7.8591     0.0065     0.1191   133.4627     2.4793
  543.5000     8.9263     5.0470     5.0426   -33.7004     7.8591     0.0081     0.1110   127.7585     2.4936
  544.0000     9.0518     5.3303     5.3067   -33.8480     7.8591     0.0096     0.1071   126.7085     2.5011
  544.5000     8.9284     5.5198     5.7126   -33.6972     7.8591     0.0081     0.1062   127.9115     2.5027
  545.0000     8.9299     5.7557     6.2077   -33.3977     7.8591     0.0051     0.1074   128.5136     2.5027
  545.5000     9.3091     5.9603     6.6072   -33.3963     7.8441     0.0034     0.1090   129.1156     2.4981
  546.0000     9.7045     6.1296     6.9839   -33.5439     7.8441     0.0021     0.1107   129.2673     2.5013
  546.5000     9.8411     6.2244     7.1807   -33.6915     7.8591     0.0051     0.1125   129.0946     2.4938
  547.0000     9.7073     6.3942     7.1787   -33.8420     7.8591     0.0082     0.1131   128.5198     2.4938
  547.5000     9.5753     6.4855     6.8909   -34.1353     7.8591     0.0127     0.1107   126.7194     2.4984
  548.0000     9.3155     6.5327     6.6577   -34.2833     7.8591     0.0157     0.1074   124.9191     2.5029
  548.5000     9.1828     6.5802     6.5218   -34.4305     7.8591     0.0187     0.1053   124.7700     2.5044
  549.0000     9.1268     6.6281     6.4775   -34.4291     7.8591     0.0187     0.1047   126.2734     2.5052
  549.5000     9.3195     6.6765     6.5236   -34.2786     7.8591     0.0172     0.1041   127.9265     2.5067
  550.0000     9.5820     6.6791     6.9917   -33.9791     7.8590     0.0156     0.1035   130.1802     2.5066
  550.5000     9.8149     6.6814     6.9458   -33.8283     7.8587     0.0138     0.1061   131.8302     2.5051
  551.0000     9.6833     6.6836     6.9002   -33.3798     7.8584     0.0098     0.1067   133.4804     2.5038
  551.5000     9.5534     6.7322     6.8082   -33.3784     7.8581     0.0083     0.1047   135.2807     2.5060
  552.0000     9.3604     6.7345     6.7169   -33.2280     7.8579     0.0128     0.0983   137.3814     2.5105
  552.5000     9.1088     6.6395     6.6269   -33.0772     7.8576     0.0190     0.0923   139.9325     2.5150
  553.0000     8.9866     6.6411     6.5833   -32.7777     7.8573     0.0233     0.0899   137.8286     2.5188
  553.5000     8.8654     6.5966     6.5401   -32.9254     7.8419     0.0263     0.0968   133.6229     2.5227
  554.0000     8.8079     6.5979     6.5882   -33.3710     7.8416     0.0279     0.0938   130.6185     2.5285
  554.5000     8.8115     6.5995     6.6361   -33.8167     7.8564     0.0264     0.0887   127.4639     2.5323
  555.0000     9.1245     6.6466     6.7774   -33.9644     7.8561     0.0249     0.0923   125.8108     2.5315
  555.5000     9.4486     6.6021     6.8746   -34.2610     7.8558     0.0219     0.1016   123.9795     2.5233
  556.0000     9.8520     6.5579     6.8768   -34.4086     7.8555     0.0204     0.0974   120.2520     2.5107
  556.5000    10.1318     6.4244     6.6914   -34.5608     7.8551     0.0189     0.0944   121.7520     2.5150
  557.0000    10.2062     6.1646     6.4216   -34.8526     7.8548     0.0174     0.0977   123.1020     2.5068
  557.5000    10.3517     5.8338     6.0306   -35.1489     7.8545     0.0145     0.1069   124.1516     2.4962
  558.0000     9.4649     5.4826     5.5963   -35.1474     7.8393     0.0100     0.1229   126.1021     2.4505
  558.5000     6.9362     5.0767     5.2241   -35.1460     7.8240     0.0055     0.1364   128.0766     2.4309
  559.0000     3.6730     4.7761     5.0135   -34.5482     7.8237    -0.0021     0.1577   129.7024     2.4137
  559.5000     3.3581     4.9453     4.9121   -33.8016     7.8233    -0.0155     0.1688   132.4037     2.3956
  560.0000     8.9062     5.2641     5.4137   -33.2041     7.8230    -0.0199     0.1360   128.3482     2.4126
  560.5000    10.5174     5.5648     5.9248   -32.4575     7.8228    -0.0139     0.1010   120.9894     2.4917
  561.0000    10.8950     6.0901     6.4842   -31.8599     7.8225    -0.0019     0.0850   114.8318     2.5383
  561.5000    11.2010     6.5731     7.0963   -31.7092     7.8222     0.0086     0.0832   113.6291     2.5413
  562.0000    11.3607     6.9968     7.6183   -31.4097     7.8219     0.0161     0.0814   116.6303     2.5398
  562.5000    11.2852     7.4479     8.0986   -31.2593     7.8215     0.0209     0.0721   118.2805     2.5796
  563.0000    11.2898     7.9340     8.3863   -30.9598     7.8362     0.0281     0.0562   119.1800     2.6000
  563.5000    11.3793     8.4396     8.6243   -30.8090     7.8360     0.0281     0.0499   118.7281     2.6021
  564.0000    11.2203     8.9217     8.9934   -30.3605     7.8207     0.0282     0.0514   115.8738     2.5946
  564.5000    10.9935     9.3663     9.3773   -29.7979     7.8354     0.0237     0.0544   116.0225     2.5856
  565.0000    10.8452     9.7653     9.7104   -29.1654     7.8351     0.0147     0.0604   115.0202     2.5721
  565.5000    11.0007    10.1922    10.0552   -28.2695     7.8347     0.0071     0.0694   110.0133     2.5593
  566.0000    11.3924    10.6155    10.4846   -27.5229     7.8344     0.0102     0.0799   106.2581     2.5443
  566.5000    11.8789    11.0677    10.9548   -26.6273     7.8491     0.0147     0.0871   106.8576     2.5285
  567.0000    13.5511    11.5392    12.2163   -26.0298     7.8489     0.0193     0.0927   106.5555     2.5165
  567.5000    20.3843    12.1171    13.4624   -25.4319     7.8486     0.0223     0.0945   100.9985     2.5045
  568.0000    24.0719    12.8959    14.3315   -24.9834     7.8483     0.0253     0.0999    87.6252     2.4902
  568.5000    20.2588    13.9186    14.9490   -24.6839     7.8479     0.0283     0.1137    74.1183     2.4790
  569.0000    18.6502    15.0224    15.4755   -24.3845     7.8476     0.0268     0.1494    66.1590     2.4565
  569.5000    22.6436    16.1019    19.1814   -23.9211     7.8473     0.0268     0.1528    60.7521     2.4298
  570.0000    21.5808    16.9201    20.1376   -23.7852     7.8471     0.0253     0.1677    60.1504     2.4099
  570.5000    20.4038    17.0251    18.2870   -23.6347     7.8468     0.0239     0.1728    61.1997     2.3919
  571.0000    19.7385    16.3362    16.4907   -23.6333     7.8465     0.0224     0.1809    63.4905     2.3761
  571.5000    19.4754    17.5110    18.0491   -23.6319     7.8312     0.0209     0.1827    66.7520     2.3724
  572.0000    19.3459    18.5113    19.4819   -23.7792     7.8458     0.0225     0.1749    72.9067     2.3919
  572.5000    20.4547    19.4339    20.8835   -24.0758     7.8456     0.0299     0.1689    75.0073     2.3888
  573.0000    24.0875    20.2958    21.9407   -24.3728     7.8453     0.0344     0.1746    75.3066     2.3874
  573.5000    25.8949    21.2726    22.7051   -24.6691     7.8300     0.0359     0.1725    74.4038     2.3889
  574.0000    25.5456    21.7231    21.9425   -24.9658     7.8447     0.0345     0.1707    70.0401     2.3934
  574.5000    27.7671    22.0302    21.3509   -24.9640     7.8443     0.0330     0.1704    71.3976     2.3904
  575.0000    26.2814    21.5818    20.9194   -24.8136     7.8441     0.0315     0.1803    72.2974     2.3814
  575.5000    26.6583    20.8207    21.5149   -24.6632     7.8438     0.0268     0.1929    71.0944     2.3649
  576.0000    30.6221    20.0089    22.2790   -24.3636     7.8435     0.0225     0.2053    67.4894     2.3408
  576.5000    30.2115    19.1989    22.9113   -24.2132     7.8282     0.0195     0.2199    63.7342     2.3063
  577.0000    30.6422    18.4217    23.0779   -24.0625     7.8278     0.0165     0.2286    61.0300     2.2973
  577.5000    29.7754    17.5421    22.9055   -23.9120     7.8275     0.0151     0.2295    59.6371     2.2958
  578.0000    27.6437    16.6128    22.7758   -23.6556     7.8273     0.0136     0.2264    60.8766     2.2980
  578.5000    28.4283    16.0510    23.1024   -23.1637     7.8270     0.0137     0.2204    63.2776     2.3033
  579.0000    26.1732    15.5082    23.4318   -22.8642     7.8417     0.0181     0.2234    65.0779     2.3050
