~VERSION INFORMATION
 VERS.                2.0:   CWLS LOG ASCII STANDARD - VERSION 2.0
 WRAP.                 NO:   ONE LINE PER DEPTH STEP
~WELL INFORMATION
#MNEM.UNIT      DATA TYPE    INFORMATION
#----------   ------------   ------------------------------
 STRT.F           80.0000:   START DEPTH
 STOP.F         1011.0000:   STOP DEPTH
 STEP.F            0.5000:   STEP LENGTH
 NULL.          -999.2500:   NO VALUE
 COMP.          U.S. NAVY:   COMPANY
 WELL. RES 3 TEAPOT DOM #61S-11:   WELL
 FLD .             TEAPOT:   FIELD
 LOC .      S11 T38N R78W:   LOCATION
 CNTY.            NATRONA:   COUNTY
 STAT.            WYOMING:   STATE
 CTRY. UNITED STATES OF AMERICA:   COUNTRY
 SRVC.       Schlumberger:   SERVICE COMPANY
 DATE.        23-JUL-1964:   LOGDATE
 API .       490250637500:   API NUMBER
~CURVE INFORMATION
#MNEM.UNIT       API CODE    CURVE DESCRIPTION
#----------   ------------   ------------------------------
 DEPT.F                  :   
 CALS.IN     60 280 50 00:   CALIPER FROM SONIC LOG
 DT  .US/F   60 520 33 00:   INTERVAL TRANSIT TIME
 GR  .GAPI   30 310 01 00:   GAMMA RAY
 CILD.MMHO   05 110 46 00:   CONDUCTIVITY INDUCTION LOG DEEP
 ILD .OHMM   05 120 46 00:   INDUCTION LOG DEEP
 ASN .OHMM   05 041 16 00:   AMPLIFIED SHORT NORMAL 16"
 SPR .MV     05 010 01 00:   SPONTANEOUS POTENTIAL FROM RES.
~PARAMETER INFORMATION
#MNEM.UNIT          VALUE    DESCRIPTION
#----------   ------------   ------------------------------
 PD  .                 GL:   PERMANENT DATUM
 EPD .F              5199:   ELEVATION PERMANENT DATUM
 LMF .                 KB:   LOG MEASURED FROM
 DAPD.F                 5:   FEET ABOVE PERMANENT DATUM
 DMF .                 KB:   DRILLING MEASURED FROM
 EKB .F              5204:   KELLING BUSHING
 EGL .F              5199:   GROUND LEVEL
 DATE.          7-23-1964:   RUN DATE
 RUN .                  1:   RUN NUMBER
 DD  .F              1010:   DEPTH DRILLER
 DL  .F              1012:   DEPTH LOGGER
 BLI .F              1011:   BOTTOM LOG INTERVAL
 TLI .F                88:   TOP LOG INTERVAL
 CS  .IN            8.625:   CASING SIZE
 CBD .F                10:   CASING BOTTOM DRILLER
 BS  .IN             6.75:   BIT SIZE
 BSD .F              1010:   BIT SIZE AT DEPTH
 DFT .            GEL-OIL:   DRILLING FLUID TYPE
 DFD .                9.8:   DRILLING FLUID DENSITY
 DFV .                 54:   DRILLING FLUID VISCOSITY
 MSS .           FLOWLINE:   MUD SAMPLE SOURCE
 RMS .OHMM           1.47:   RESISTIVITY MUD SAMPLE
 MST .F                86:   MUD SAMPLE TEMPERATURE
 RMF .OHMM            .96:   RESISTIVITY MUD FILTRATE SAMPLE
 MFST.F                86:   MUD FILTRATE SAMPLE TEMPERATURE
 RMC .OHMM           2.10:   RESISTIVITY MUD CAKE
 MCST.F                86:   MUD CAKE SAMPLE TEMPERATURE
 MFSS.                 FP:   MUD FILTRATE SAMPLE SOURCE
 MCSS.                 FP:   MUD CAKE SAMPLE SOURCE
 TCS .HRS               2:   TIME CURCULATED STOPPED
 LUN .               4507:   LOGGING UNIT NUMBER
 LUL .              CSPR.:   LOGGING UNIT LOCATION
 ENGI.             DANNER:   RECORDING ENGINEER
 WITN.          JORGENSEN:   WITNESSED BY
 CLNT.            A2DTECH:   CLIENT CODE
 ORIG.      2" & 5" PRINT:   ORIGIN OF DATA
 UWI .       490250637500:   UNIQUE WELL ID
 DICO. A2D Technologies, Inc.:   DIGITIZING COMPANY
~OTHER INFORMATION
~A   DEPT     CALS         DT         GR        CILD         ILD        ASN      SPR   
# ...
  307.5000  -999.2500  -999.2500  -999.2500   178.4444     5.4222     6.6007   -36.4445
  308.0000  -999.2500  -999.2500  -999.2500   179.8209     5.3117     6.5341   -36.4437
  308.5000  -999.2500  -999.2500  -999.2500   180.9037     5.2394     6.4817   -36.2990
  309.0000  -999.2500  -999.2500  -999.2500   182.8742     5.1669     6.4278   -36.2982
  309.5000  -999.2500  -999.2500  -999.2500   184.9729     5.0944     6.4027   -36.2975
  310.0000  -999.2500  -999.2500  -999.2500   186.0741     5.0221     6.4029   -36.2968
  310.5000  -999.2500  -999.2500  -999.2500   186.4345     5.0232     6.3986   -36.2961
  311.0000  -999.2500  -999.2500  -999.2500   185.6805     4.9506     6.3888   -36.2953
  311.5000  -999.2500  -999.2500  -999.2500   185.6703     4.9519     6.3745   -36.1506
  312.0000  -999.2500  -999.2500  -999.2500   185.6593     4.9529     6.3547   -36.1498
  312.5000  -999.2500  -999.2500  -999.2500   185.6473     5.0276     6.3009   -36.1491
  313.0000  -999.2500  -999.2500  -999.2500   185.6370     5.0287     6.2724   -36.1484
  313.5000  -999.2500  -999.2500  -999.2500   185.6259     5.0742     6.3052   -36.1153
  314.0000  -999.2500  -999.2500  -999.2500   185.6142     5.1250     6.4091   -36.0028
  314.5000  -999.2500  -999.2500  -999.2500   185.6037     5.2526     6.4939   -36.0022
  315.0000  -999.2500  -999.2500  -999.2500   185.5925     5.5674     6.5302   -35.8574
  315.5000  -999.2500  -999.2500  -999.2500   182.2279     5.8378     6.5385   -35.8566
  316.0000  -999.2500  -999.2500  -999.2500   176.1435     6.2118     6.5389   -35.8559
  316.5000  -999.2500  -999.2500  -999.2500   170.0592     6.5798     6.5611   -35.9994
  317.0000  -999.2500  -999.2500  -999.2500   163.9748     7.0243     6.6090   -35.9985
  317.5000  -999.2500  -999.2500  -999.2500   158.0058     7.3927     6.8516   -36.0879
  318.0000  -999.2500  -999.2500  -999.2500   152.9331     7.5399     7.0943   -36.1844
  318.5000  -999.2500  -999.2500  -999.2500   149.7495     7.5408     7.3735   -36.2846
  319.0000  -999.2500  -999.2500  -999.2500   147.4914     7.3880     7.7465   -36.5216
  319.5000  -999.2500  -999.2500  -999.2500   146.2333     7.1020     7.9712   -36.7156
  320.0000  -999.2500  -999.2500  -999.2500   145.4793     6.8382     8.2167   -36.5706
  320.5000  -999.2500  -999.2500  -999.2500   145.7235     6.4310     8.4238   -36.4257
  321.0000  -999.2500  -999.2500  -999.2500   147.7312     6.0759     8.3717   -36.4251
  321.5000  -999.2500  -999.2500  -999.2500   155.0757     5.9717     7.8399   -36.4208
  322.0000  -999.2500  -999.2500  -999.2500   159.1162     5.9308     7.5718   -36.2794
  322.5000  -999.2500  -999.2500  -999.2500   164.0982     5.9321     7.3662   -36.2788
  323.0000  -999.2500  -999.2500  -999.2500   170.5981     6.0404     7.2720   -36.2709
  323.5000  -999.2500  -999.2500  -999.2500   171.0395     6.1749     7.1880   -36.1332
  324.0000  -999.2500  -999.2500  -999.2500   170.4296     6.3766     7.0877   -36.1325
  324.5000  -999.2500  -999.2500  -999.2500   166.8613     6.5967     7.0467   -36.1319
  325.0000  -999.2500  -999.2500  -999.2500   163.7036     6.7831     6.9976   -36.1310
  325.5000  -999.2500  -999.2500  -999.2500   161.4516     7.1152     6.9562   -36.0692
  326.0000  -999.2500  -999.2500  -999.2500   157.9392     7.3779     6.9271   -35.9856
  326.5000  -999.2500  -999.2500  -999.2500   154.7261     7.6610     6.9760   -36.1289
  327.0000  -999.2500  -999.2500  -999.2500   151.7336     7.8538     7.4718   -36.1282
  327.5000  -999.2500  -999.2500  -999.2500   146.7949     8.0423     7.8532   -36.1275
  328.0000  -999.2500  -999.2500  -999.2500   143.5259     8.1500     8.0343   -36.2708
  328.5000  -999.2500  -999.2500  -999.2500   138.9468     8.2247     8.1933   -36.3386
  329.0000  -999.2500  -999.2500  -999.2500   133.4284     8.2257     8.2919   -36.4352
  329.5000  -999.2500  -999.2500  -999.2500   131.2085     8.2269     8.4158   -36.5569
  330.0000  -999.2500  -999.2500  -999.2500   128.7162     8.1545     8.5471   -36.7003
  330.5000  -999.2500  -999.2500  -999.2500   125.9878     8.1555     8.7249   -36.8688
  331.0000  -999.2500  -999.2500  -999.2500   125.9778     7.9885     8.8201   -36.9871
  331.5000  -999.2500  -999.2500  -999.2500   127.7320     7.8636     8.8421   -37.1304
  332.0000  -999.2500  -999.2500  -999.2500   131.1399     7.6971     8.8423   -37.1009
  332.5000  -999.2500  -999.2500  -999.2500   134.1544     7.4284     8.8042   -36.8407
  333.0000  -999.2500  -999.2500  -999.2500   138.5877     7.2052     8.6959   -36.7608
  333.5000  -999.2500  -999.2500  -999.2500   147.4030     6.9123     8.3580   -36.6628
  334.0000  -999.2500  -999.2500  -999.2500   153.5160     6.5907     8.1133   -36.4063
  334.5000  -999.2500  -999.2500  -999.2500   156.6283     6.1773     7.6770   -36.1787
  335.0000  -999.2500  -999.2500  -999.2500   158.4809     6.0333     7.3589   -36.0807
  335.5000  -999.2500  -999.2500  -999.2500   160.3901     6.1077     7.1034   -35.8278
  336.0000  -999.2500  -999.2500  -999.2500   161.6197     6.1128     6.9735   -35.5965
  336.5000  -999.2500  -999.2500  -999.2500   162.1519     6.3307     7.1686   -35.5382
  337.0000  -999.2500  -999.2500  -999.2500   161.6839     6.4649     7.3273   -35.3933
  337.5000  -999.2500  -999.2500  -999.2500   159.4751     6.6330     7.4081   -35.3927
  338.0000  -999.2500  -999.2500  -999.2500   156.9331     6.7016     7.4489   -35.3920
  338.5000  -999.2500  -999.2500  -999.2500   153.2744     6.7026     7.4710   -35.3912
  339.0000  -999.2500  -999.2500  -999.2500   150.5162     6.6870     7.5082   -35.3905
  339.5000  -999.2500  -999.2500  -999.2500   149.4925     6.4108     7.5233   -35.3898
  340.0000  -999.2500  -999.2500  -999.2500   147.9978     6.2353     7.5460   -35.5331
  340.5000  -999.2500  -999.2500  -999.2500   149.2358     5.8245     7.1550   -35.5323
  341.0000  -999.2500  -999.2500  -999.2500   159.2752     5.8994     7.0535   -35.5317
  341.5000  -999.2500  -999.2500  -999.2500   173.1498     6.1205     6.9633   -35.6751
  342.0000  -999.2500  -999.2500  -999.2500   175.6346     6.3554     6.8918   -35.6742
  342.5000  -999.2500  -999.2500  -999.2500   175.3211     6.4174     6.7897   -35.8178
  343.0000  -999.2500  -999.2500  -999.2500   174.5981     6.4184     6.5346   -35.8170
  343.5000  -999.2500  -999.2500  -999.2500   174.5889     6.3011     6.4373   -35.8162
  344.0000  -999.2500  -999.2500  -999.2500   174.5778     5.9795     6.5847   -35.8155
  344.5000  -999.2500  -999.2500  -999.2500   174.5650     5.6781     6.8056   -35.8041
  345.0000  -999.2500  -999.2500  -999.2500   174.8642     5.5403     6.9243   -35.6699
  345.5000  -999.2500  -999.2500  -999.2500   175.2858     5.6151     6.9532   -35.6081
  346.0000  -999.2500  -999.2500  -999.2500   176.0133     5.7328     6.9389   -35.5245
  346.5000  -999.2500  -999.2500  -999.2500   176.3308     5.8766     6.7928   -35.3796
  347.0000  -999.2500  -999.2500  -999.2500   177.5607     6.1331     6.6114   -35.3141
  347.5000  -999.2500  -999.2500  -999.2500   178.9431     6.1796     6.4986   -35.2341
  348.0000  -999.2500  -999.2500  -999.2500   180.3654     6.2088     6.4141   -35.0892
  348.5000  -999.2500  -999.2500  -999.2500   181.8861     6.1364     6.3337   -34.9445
  349.0000  -999.2500  -999.2500  -999.2500   182.6136     6.0164     6.3083   -34.7781
  349.5000  -999.2500  -999.2500  -999.2500   183.7087     5.8207     6.3665   -34.6548
  350.0000  -999.2500  -999.2500  -999.2500   184.8159     5.6250     6.4509   -34.5101
  350.5000  -999.2500  -999.2500  -999.2500   184.8026     5.4057     6.5297   -34.8227
  351.0000  -999.2500  -999.2500  -999.2500   185.9160     5.3331     6.5525   -35.0849
  351.5000  -999.2500  -999.2500  -999.2500   187.1457     5.2606     6.5597   -35.3040
  352.0000  -999.2500  -999.2500  -999.2500   189.2139     5.3355     6.5306   -35.3718
  352.5000  -999.2500  -999.2500  -999.2500   193.3705     5.3082     6.4507   -35.3710
