~VERSION INFORMATION
 VERS.                2.0:   CWLS LOG ASCII STANDARD - VERSION 2.0
 WRAP.                 NO:   ONE LINE PER DEPTH STEP
~WELL INFORMATION
#MNEM.UNIT      DATA TYPE    INFORMATION
#----------   ------------   ------------------------------
 STRT.F           44.0000:   START DEPTH
 STOP.F          461.0000:   STOP DEPTH
 STEP.F            0.5000:   STEP LENGTH
 NULL.          -999.2500:   NO VALUE
 COMP. BROWN JOHN E&C INC:   COMPANY
 WELL. NPR 3 SX-10 #55-41-10:   WELL
 FLD .             TEAPOT:   FIELD
 LOC .      S10 T38N R78W:   LOCATION
 CNTY.            NATRONA:   COUNTY
 STAT.            WYOMING:   STATE
 CTRY. UNITED STATES OF AMERICA:   COUNTRY
 SRVC.       Schlumberger:   SERVICE COMPANY
 DATE.        28-SEP-1990:   LOGDATE
 API .       490251131900:   API NUMBER
~CURVE INFORMATION
#MNEM.UNIT       API CODE    CURVE DESCRIPTION
#----------   ------------   ------------------------------
 DEPT.F                  :   
 GRR .GAPI   07 310 01 00:   GAMMA RAY
 ILD .OHMM   07 120 46 00:   INDUCTION LOG DEEP
 ILM .OHMM   07 120 44 00:   INDUCTION LOG MEDIUM
~PARAMETER INFORMATION
#MNEM.UNIT          VALUE    DESCRIPTION
#----------   ------------   ------------------------------
 PD  .                 GL:   PERMANENT DATUM
 EPD .F              5187:   ELEVATION PERMANENT DATUM
 LMF .                 KB:   LOG MEASURED FROM
 DAPD.F              10.0:   FEET ABOVE PERMANENT DATUM
 DMF .                 KB:   DRILLING MEASURED FROM
 EKB .F              5197:   KELLING BUSHING
 EDF .F              5196:   DRILLING FLOOR
 EGL .F              5187:   GROUND LEVEL
 DATE.        28-SEP-1990:   RUN DATE
 RUN .                  1:   RUN NUMBER
 DD  .F               470:   DEPTH DRILLER
 DL  .F               467:   DEPTH LOGGER
 BLI .F               461:   BOTTOM LOG INTERVAL
 TLI .F                48:   TOP LOG INTERVAL
 CS  .IN            8.625:   CASING SIZE
 CBD .F                48:   CASING BOTTOM DRILLER
 CBL .F                49:   CASING BOTTOM LOGGER
 BS  .IN            7.875:   BIT SIZE
 BSD .F               470:   BIT SIZE AT DEPTH
 DFT .                AIR:   DRILLING FLUID TYPE
 TLAB.HRS            1715:   TIME LOGGER AT BOTTOM
 LUN .               6882:   LOGGING UNIT NUMBER
 LUL .               CODY:   LOGGING UNIT LOCATION
 ENGI.        MIKE FISHER:   RECORDING ENGINEER
 WITN.       GARRY STRONG:   WITNESSED BY
 CLNT.            A2DTECH:   CLIENT CODE
 ORIG.           5" PRINT:   ORIGIN OF DATA
 UWI .       490251131900:   UNIQUE WELL ID
 DICO. A2D Technologies, Inc.:   DIGITIZING COMPANY
~OTHER INFORMATION
~A   DEPT      GRR        ILD        ILM   
# ...
  408.0000   107.2056    14.3962    13.4695
  408.5000   109.2565    14.4904    13.7525
  409.0000   109.5405    14.4866    14.0414
  409.5000   108.2914    14.4837    14.2364
  410.0000   106.4411    14.4807    14.3335
  410.5000   106.1105    14.4778    14.3298
  411.0000   108.2116    14.4748    14.3269
  411.5000   110.6166    14.3708    14.0264
  412.0000   113.6616    14.3679    13.7321
  412.5000   115.1227    14.3649    13.6336
  413.0000   113.5697    14.3512    13.6308
  413.5000   112.3273    14.1586    13.7238
  414.0000   113.2125    14.0569    13.8173
  414.5000   114.7057    13.9559    13.6223
  415.0000   116.1988    13.8557    13.5239
  415.5000   116.7801    13.7562    13.5212
  416.0000   117.0578    13.6574    13.5184
  416.5000   117.3348    13.4646    13.5157
  417.0000   117.3016    13.3679    13.4186
  417.5000   116.3631    13.2719    13.3223
  418.0000   116.0326    13.1605    13.1345
  418.5000   118.7415    12.8993    13.0402
  419.0000   121.4505    12.7172    12.6728
  419.5000   123.2476    12.4503    12.2253
  420.0000   122.3092    12.1038    11.8152
  420.5000   121.6746    11.8497    11.5674
  421.0000   123.5281    11.5200    11.3247
  421.5000   126.4780    11.4372    11.0872
  422.0000   127.0659    11.3551    10.9308
  422.5000   125.2090    11.2734    10.7767
  423.0000   124.2705    11.0363    10.6993
  423.5000   124.5545    10.8805    10.4739
  424.0000   124.8319    10.5778    10.2550
  424.5000   122.6710    10.5018    10.1810
  425.0000   119.3009    10.5740    10.1079
  425.5000   120.2889    10.4975    10.1059
  426.0000   124.4082    10.4953    10.1038
  426.5000   124.6922    10.4200    10.2447
  427.0000   122.5313    10.4109    10.3864
  427.5000   119.7692    10.3425    10.3843
  428.0000   119.1347    10.2682    10.3822
  428.5000   120.0199    10.1944    10.2358
  429.0000   121.2091    10.1212    10.0909
  429.5000   122.7082    10.0485    10.0185
  430.0000   124.5796     9.9067     9.8772
  430.5000   126.2965     9.7669     9.7379
  431.0000   125.3514     9.9026     9.5336
  431.5000   126.2366     9.9006     9.3336
  432.0000   126.2100     9.8184     9.1378
  432.5000   125.5755     9.4226     9.0723
  433.0000   125.2450     9.2248     9.0071
  433.5000   125.5228     9.0946     8.9424
  434.0000   126.4196     8.9037     8.8159
  434.5000   127.6423     8.7167     8.7527
  435.0000   129.3872     8.5337     8.5691
  435.5000   132.0962     8.2384     8.2727
  436.0000   133.8933     7.9525     7.7119
  436.5000   133.5627     7.6715     7.1390
  437.0000   131.1045     7.4118     6.7489
  437.5000   128.9503     7.4103     6.7005
  438.0000   127.4039     7.5133     7.0514
  438.5000   126.4650     7.6181     7.5966
  439.0000   126.7428     7.7779     7.8655
  439.5000   126.7095     7.9414     8.1439
  440.0000   126.9869     8.3388     8.4323
  440.5000  -999.2500     8.8176     8.7308
  441.0000  -999.2500     9.3343     9.1673
  441.5000  -999.2500     9.9977     9.6256
  442.0000  -999.2500    10.2802     9.9664
  442.5000  -999.2500    10.4231    10.2520
  443.0000  -999.2500    10.4942    10.4625
  443.5000  -999.2500    10.5658    10.6078
  444.0000  -999.2500    10.6374    10.6801
  444.5000  -999.2500    10.6352    10.6774
  445.0000  -999.2500    10.6330    10.6752
  445.5000  -999.2500    10.5536    10.5986
  446.0000  -999.2500    10.4075    10.5225
  446.5000  -999.2500    10.4050    10.4470
  447.0000  -999.2500    10.4029    10.4449
  447.5000  -999.2500    10.4007    10.4426
  448.0000  -999.2500    10.3986    10.5134
  448.5000  -999.2500    10.3965    10.5112
  449.0000  -999.2500    10.4679    10.5091
  449.5000  -999.2500    10.4653    10.5069
  450.0000  -999.2500    10.4631    10.5295
  450.5000  -999.2500    10.4631    10.6456
  451.0000  -999.2500    10.3901    10.5640
  451.5000  -999.2500    10.2456    10.4087
  452.0000  -999.2500    10.1030    10.1857
  452.5000  -999.2500     9.8930     9.8980
  453.0000  -999.2500     9.6873     9.6093
  453.5000  -999.2500     9.2886     9.0871
  454.0000  -999.2500     8.9689     8.8304
  454.5000  -999.2500     8.5998     8.4027
  455.0000  -999.2500     8.1884     8.1084
  455.5000  -999.2500     7.7885     7.6071
  456.0000  -999.2500     6.4082     6.6091
  456.5000  -999.2500     5.7691     5.3915
  457.0000  -999.2500     5.5317     4.6841
  457.5000  -999.2500     5.4930     3.8744
  458.0000  -999.2500     5.4547     3.4860
  458.5000  -999.2500     5.4930     3.3404
  459.0000  -999.2500     5.4930     3.4571
  459.5000  -999.2500     5.4930     3.6563
  460.0000  -999.2500     5.4930     3.8349
  460.5000  -999.2500     5.5317     3.9960
  461.0000  -999.2500     5.5317     4.0497
