~VERSION INFORMATION
 VERS.                2.0:   CWLS LOG ASCII STANDARD - VERSION 2.0
 WRAP.                 NO:   ONE LINE PER DEPTH STEP
~WELL INFORMATION
#MNEM.UNIT      DATA TYPE    INFORMATION
#----------   ------------   ------------------------------
 STRT.F           35.0000:   START DEPTH
 STOP.F          601.0000:   STOP DEPTH
 STEP.F            0.5000:   STEP LENGTH
 NULL.          -999.2500:   NO VALUE
 COMP. FENIX & SCISSON INC:   COMPANY
 WELL. NPR #3 71SX #71-15:   WELL
 FLD .             TEAPOT:   FIELD
 LOC .      S15 T38N R78W:   LOCATION
 CNTY.            NATRONA:   COUNTY
 STAT.            WYOMING:   STATE
 CTRY. UNITED STATES OF AMERICA:   COUNTRY
 SRVC.              Welex:   SERVICE COMPANY
 DATE.        10-MAR-1977:   LOGDATE
 API .       490251031200:   API NUMBER
~CURVE INFORMATION
#MNEM.UNIT       API CODE    CURVE DESCRIPTION
#----------   ------------   ------------------------------
 DEPT.F                  :   
 SPR .MV     07 010 01 00:   SPONTANEOUS POTENTIAL
 SGRD.OHMM   07 220 05 00:   SHALLOW RESISTIVITY
 DRES.OHMM   07 120 46 00:   INDUCTION LOG DEEP
 MRES.OHMM   07 120 44 00:   INDUCTION LOG MEDIUM
 GRD .GAPI   45 310 01 00:   GAMMA RAY FROM DENSITY LOG
 CALD.IN     45 280 60 00:   CALIPER
 RHOB.G/C3   45 350 01 00:   BULK DENSITY
 DPHI.DEC    45 890 12 00:   DENSITY POROSITY
 CORR.G/C3   45 356 01 00:   DENSITY CORRECTION
~PARAMETER INFORMATION
#MNEM.UNIT          VALUE    DESCRIPTION
#----------   ------------   ------------------------------
 PD  .                 GL:   PERMANENT DATUM
 EPD .F              5241:   ELEVATION PERMANENT DATUM
 LMF .                 GL:   LOG MEASURED FROM
 DMF .                 GL:   DRILLING MEASURED FROM
 EGL .F              5241:   GROUND LEVEL
 DATE.            3-10-77:   RUN DATE
 RUN .                  1:   RUN NUMBER
 DD  .F               600:   DEPTH DRILLER
 DL  .F               603:   DEPTH LOGGER
 BLI .F               601:   BOTTOM LOG INTERVAL
 TLI .F                35:   TOP LOG INTERVAL
 CS  .IN            8.625:   CASING SIZE
 CBD .F                40:   CASING BOTTOM DRILLER
 CBL .F                40:   CASING BOTTOM LOGGER
 BS  .IN            7.875:   BIT SIZE
 BSD .F               600:   BIT SIZE AT DEPTH
 DFT .            KCL MUD:   DRILLING FLUID TYPE
 DFD .                8.6:   DRILLING FLUID DENSITY
 DFV .                 10:   DRILLING FLUID VISCOSITY
 DFPH.                7.2:   DRILLING FLUID PH
 DFL .                  8:   DRILLING FLUID LOSS
 MSS .            MUD PIT:   MUD SAMPLE SOURCE
 RMS .OHMM            .36:   RESISTIVITY MUD SAMPLE
 MST .F                47:   MUD SAMPLE TEMPERATURE
 RMF .OHMM            .35:   RESISTIVITY MUD FILTRATE SAMPLE
 MFST.F                47:   MUD FILTRATE SAMPLE TEMPERATURE
 RMC .OHMM            .40:   RESISTIVITY MUD CAKE
 MCST.F                47:   MUD CAKE SAMPLE TEMPERATURE
 MFSS.           FANN KIT:   MUD FILTRATE SAMPLE SOURCE
 MCSS.           FANN KIT:   MUD CAKE SAMPLE SOURCE
 RMB .OHMM            .31:   RESISTIVITY MUD AT BHT
 BHT .F                53:   BOTTOM HOLE TEMPERATURE
 TCS .HRS             1.5:   TIME CURCULATED STOPPED
 MRT .F                53:   MAXIMUM RECORDED TEMPERATURE
 LUN .               8611:   LOGGING UNIT NUMBER
 LUL .           GILLETTE:   LOGGING UNIT LOCATION
 ENGI.               DOAK:   RECORDING ENGINEER
 WITN.         STUEBINGER:   WITNESSED BY
 CLNT.            A2DTECH:   CLIENT CODE
 ORIG.       2", 5" PRINT:   ORIGIN OF DATA
 UWI .       490251031200:   UNIQUE WELL ID
 DICO. A2D Technologies, Inc.:   DIGITIZING COMPANY
~OTHER INFORMATION
~A   DEPT      SPR       SGRD       DRES       MRES         GRD      CALD       RHOB       DPHI       CORR   
# ...
  327.0000   -37.0259    11.3834     7.1069     9.0313   120.7811     7.9261     2.4855     0.0966     0.0601
  327.5000   -37.0258    11.3842     7.1544     8.9321   119.8928     7.9261     2.4846     0.0963     0.0609
  328.0000   -37.0255    11.2687     7.1984     8.8341   119.3891     7.9261     2.4855     0.0968     0.0617
  328.5000   -37.0261    11.0323     7.2397     8.7371   119.1172     7.9261     2.4822     0.0974     0.0622
  329.0000   -37.0570    10.8006     7.1165     8.6411   119.2086     7.9261     2.4804     0.0968     0.0616
  329.5000   -37.2362    10.5736     6.9777     8.4847   119.1773     7.9261     2.4841     0.0956     0.0611
  330.0000   -37.4145    10.3515     6.8499     8.3219   118.5856     7.9261     2.4865     0.0981     0.0606
  330.5000   -37.5923    10.0985     6.6230     8.1623   118.3373     7.9261     2.4764     0.1043     0.0595
  331.0000   -37.7702    10.0592     6.3693     8.0057   119.8338     7.9261     2.4651     0.1105     0.0566
  331.5000   -37.9480    10.0128     6.1253     7.8521   120.0390     7.9261     2.4538     0.1167     0.0537
  332.0000   -38.1259     9.7864     5.8906     7.7015   120.1901     7.9261     2.4426     0.1224     0.0516
  332.5000   -38.3037     9.5326     5.6650     7.5537   120.9966     7.9261     2.4322     0.1285     0.0502
  333.0000   -38.4817     9.2873     5.4480     7.3462   123.0010     7.9261     2.4258     0.1330     0.0489
  333.5000   -38.6601     9.0483     5.2393     6.9516   125.0041     7.9261     2.4196     0.1348     0.0475
  334.0000   -38.8415     8.8155     5.0385     6.5782   127.1671     7.9261     2.4122     0.1383     0.0461
  334.5000   -39.0084     8.5886     4.8455     6.2249   126.4768     7.9261     2.4005     0.1463     0.0411
  335.0000   -38.6091     7.7159     4.6599     5.8906   125.7027     7.9261     2.3892     0.1543     0.0364
  335.5000   -38.1731     5.9785     4.5195     5.6413   126.2179     7.9261     2.3814     0.1575     0.0315
  336.0000   -37.7391     4.6465     4.5640     5.9113   126.4172     7.9261     2.3891     0.1559     0.0293
  336.5000   -37.3073     7.1122     4.7779     6.1896   124.8947     7.9261     2.4139     0.1406     0.0284
  337.0000   -36.9676     8.7339     5.0036     6.4810   124.6632     7.9261     2.4424     0.1240     0.0332
  337.5000   -36.8143     9.3149     5.2394     6.7861   125.5899     7.9261     2.4565     0.1162     0.0379
  338.0000   -36.6577     9.8825     5.4861     7.1056   126.5993     7.9261     2.4551     0.1126     0.0407
  338.5000   -36.5011    10.4847     5.7444     7.4408   127.5795     7.9261     2.4474     0.1179     0.0416
  339.0000   -36.3447    10.8701     6.0149     7.7915   126.8803     7.9261     2.4374     0.1228     0.0425
  339.5000   -36.1882    10.8701     6.2980     7.9331   126.8887     7.9261     2.4326     0.1243     0.0433
  340.0000   -36.0317    10.9030     6.5945     8.0160   126.9492     7.9261     2.4357     0.1234     0.0442
  340.5000   -35.8751    10.9365     6.8552     8.0997   126.9930     7.9261     2.4386     0.1225     0.0451
  341.0000   -35.7186    10.9701     7.0411     8.1849   126.6863     7.9261     2.4416     0.1214     0.0460
  341.5000   -35.5621    11.0038     7.2385     8.2709   125.4583     7.9261     2.4446     0.1199     0.0454
  342.0000   -35.4056    11.0376     7.2672     8.3578   124.2822     7.9261     2.4475     0.1177     0.0441
  342.5000   -35.2488    11.0715     7.3051     8.4457   123.2769     7.9261     2.4547     0.1148     0.0429
  343.0000   -35.0921    11.1055     7.3430     8.5344   123.3695     7.9261     2.4637     0.1097     0.0439
  343.5000   -34.9370    11.1396     7.3742     8.6285   123.3303     7.9261     2.4728     0.1015     0.0473
  344.0000   -34.8454    11.1739     7.3216     8.6165   122.3440     7.9261     2.4822     0.0974     0.0502
  344.5000   -34.9095    11.2081     7.2756     8.6039   121.4433     7.9261     2.4814     0.1002     0.0491
  345.0000   -34.9692    11.2424     7.2301     8.5914   121.2148     7.9261     2.4726     0.1039     0.0480
  345.5000   -35.0288    11.2791     7.1848     8.5788   121.1064     7.9261     2.4643     0.1081     0.0469
  346.0000   -35.0886    11.2047     7.1399     8.5663   121.6653     7.9261     2.4558     0.1126     0.0458
  346.5000   -35.1483    11.1258     7.0952     8.5538   123.3523     7.9261     2.4549     0.1108     0.0448
  347.0000   -35.2080    11.0472     7.0509     8.5413   125.0457     7.9261     2.4543     0.1128     0.0437
  347.5000   -35.2677    10.9687     7.0068     8.5289   126.7341     7.9261     2.4491     0.1164     0.0426
  348.0000   -35.3274    10.8701     6.9767     8.5164   128.0800     7.9261     2.4427     0.1189     0.0415
  348.5000   -35.3871    10.9546     6.9767     8.5040   126.8457     7.9261     2.4445     0.1185     0.0404
  349.0000   -35.4469    11.0738     6.9768     8.4916   125.5775     7.9261     2.4460     0.1192     0.0393
  349.5000   -35.5066    11.1943     6.9769     8.4792   124.5954     7.9261     2.4360     0.1224     0.0383
  350.0000   -35.5663    11.2793     6.9768     8.4709   125.7648     7.9261     2.4294     0.1266     0.0372
  350.5000   -35.6260    11.2195     6.9768     8.4832   126.6726     7.9261     2.4346     0.1235     0.0367
  351.0000   -35.6857    11.1534     6.9768     8.4947   125.2581     7.9261     2.4449     0.1191     0.0413
  351.5000   -35.7454    11.0877     6.8751     8.5062   124.0451     7.9261     2.4552     0.1146     0.0458
  352.0000   -35.8052    11.0224     6.7313     8.5179   123.4742     7.9261     2.4656     0.1086     0.0504
  352.5000   -35.8648    10.9574     6.5906     8.5298   123.6638     7.9261     2.4760     0.1020     0.0542
  353.0000   -35.9243    10.8928     6.4528     8.5412   125.4108     7.9261     2.4790     0.0986     0.0538
  353.5000   -35.9847    10.8287     6.3179     8.5506   128.4782     7.9261     2.4732     0.1040     0.0534
  354.0000   -36.0652    10.7720     6.1858     8.3301   129.8105     7.9261     2.4638     0.1096     0.0531
  354.5000   -36.2158     9.4073     6.0565     8.0893   131.1589     7.9261     2.4544     0.1152     0.0526
  355.0000   -36.3639     8.1687     5.9299     7.8557   132.5069     7.9261     2.4504     0.1182     0.0524
  355.5000   -36.5119     8.8852     5.8059     7.6291   133.8479     7.9261     2.4626     0.1097     0.0560
  356.0000   -36.6600     9.6015     5.6845     7.5103   134.9385     7.9261     2.4746     0.0986     0.0599
  356.5000   -36.8080    10.0958     5.5657     7.5359   134.3789     7.9261     2.4866     0.0941     0.0607
  357.0000   -36.9562    10.0958     5.4492     7.5573   132.9873     7.9261     2.4738     0.1050     0.0568
  357.5000   -37.1039    10.0958     5.3350     7.5791   131.5847     7.9261     2.4545     0.1141     0.0530
  358.0000   -37.2529     8.9927     5.2231     7.3938   130.2003     7.9261     2.4352     0.1232     0.0491
  358.5000   -37.4091     7.5651     5.1439     7.1826   128.9171     7.9261     2.4179     0.1322     0.0452
  359.0000   -37.2068     6.3641     5.1931     6.9140   128.0309     7.9261     2.4091     0.1413     0.0399
  359.5000   -36.9470     5.7999     5.2335     7.0570   124.4903     7.9261     2.4037     0.1467     0.0304
  360.0000   -36.6821     8.7803     5.3576     7.2802   122.0152     7.9261     2.4233     0.1334     0.0316
  360.5000   -36.4370     9.8671     5.4984     7.5106   121.5067     7.9261     2.4424     0.1227     0.0378
  361.0000   -36.5716     9.9711     5.6430     7.7482   122.5530     7.9261     2.4613     0.1121     0.0439
  361.5000   -36.7189    10.0786     5.7913     7.9933   124.1089     7.9261     2.4783     0.1014     0.0486
  362.0000   -36.8643    10.1819     5.9434     8.2462   123.6833     7.9261     2.4817     0.0998     0.0492
  362.5000   -37.0093    10.2836     6.0995     8.5071   123.2384     7.9261     2.4778     0.1012     0.0500
  363.0000   -37.1543    10.2270     6.1873     8.7086   121.6463     7.9261     2.4788     0.1020     0.0507
