~VERSION INFORMATION
 VERS.                2.0:   CWLS LOG ASCII STANDARD - VERSION 2.0
 WRAP.                 NO:   ONE LINE PER DEPTH STEP
~WELL INFORMATION
#MNEM.UNIT      DATA TYPE    INFORMATION
#----------   ------------   ------------------------------
 STRT.F            0.0000:   START DEPTH
 STOP.F          883.0000:   STOP DEPTH
 STEP.F            0.5000:   STEP LENGTH
 NULL.          -999.2500:   NO VALUE
 COMP.       F D SERV INC:   COMPANY
 WELL. N P R 3 SX-35 #26-1-35:   WELL
 FLD .             TEAPOT:   FIELD
 LOC .      S35 T39N R78W:   LOCATION
 CNTY.            NATRONA:   COUNTY
 STAT.            WYOMING:   STATE
 CTRY. UNITED STATES OF AMERICA:   COUNTRY
 SRVC.     Atlas Wireline:   SERVICE COMPANY
 DATE.        21-NOV-1991:   LOGDATE
 API .       490252247800:   API NUMBER
~CURVE INFORMATION
#MNEM.UNIT       API CODE    CURVE DESCRIPTION
#----------   ------------   ------------------------------
 DEPT.F                  :   
 GRR .GAPI   07 310 01 00:   GAMMA RAY
 RILD.OHMM   07 120 46 00:   INDUCTION LOG DEEP RESISTIVITY
 RILM.OHMM   07 120 44 00:   INDUCTION LOG MEDIUM RESISTIVITY
 SPR .MV     07 010 01 00:   SPONTANEOUS POTENTIAL
 RFOC.OHMM   07 270 04 00:   RESISTIVITY FOCUSED LOG
~PARAMETER INFORMATION
#MNEM.UNIT          VALUE    DESCRIPTION
#----------   ------------   ------------------------------
 PD  .                 GL:   PERMANENT DATUM
 EPD .F              5098:   ELEVATION PERMANENT DATUM
 LMF .                 KB:   LOG MEASURED FROM
 DAPD.F                10:   FEET ABOVE PERMANENT DATUM
 DMF .                 KB:   DRILLING MEASURED FROM
 EKB .F              5108:   KELLING BUSHING
 EGL .F              5098:   GROUND LEVEL
 DATE.        21-NOV-1991:   RUN DATE
 RUN .                  1:   RUN NUMBER
 DD  .F               939:   DEPTH DRILLER
 DL  .F               887:   DEPTH LOGGER
 BLI .F               884:   BOTTOM LOG INTERVAL
 CS  .IN            9.625:   CASING SIZE
 CBD .F                40:   CASING BOTTOM DRILLER
 CBL .F                47:   CASING BOTTOM LOGGER
 BS  .IN             8.75:   BIT SIZE
 BSD .F               939:   BIT SIZE AT DEPTH
 DFT .               LSND:   DRILLING FLUID TYPE
 MSS .            MUDTANK:   MUD SAMPLE SOURCE
 RMS .OHMM           0.32:   RESISTIVITY MUD SAMPLE
 MST .F                90:   MUD SAMPLE TEMPERATURE
 RMB .OHMM           0.27:   RESISTIVITY MUD AT BHT
 BHT .F               103:   BOTTOM HOLE TEMPERATURE
 TCS .HRS               2:   TIME CURCULATED STOPPED
 MRT .F               103:   MAXIMUM RECORDED TEMPERATURE
 LUN .            HL 6307:   LOGGING UNIT NUMBER
 LUL .             CASPER:   LOGGING UNIT LOCATION
 ENGI.            WADDELL:   RECORDING ENGINEER
 WITN.             STRONG:   WITNESSED BY
 CLNT.            A2DTECH:   CLIENT CODE
 ORIG.           5" PRINT:   ORIGIN OF DATA
 UWI .       490252247800:   UNIQUE WELL ID
 DICO. A2D Technologies, Inc.:   DIGITIZING COMPANY
~OTHER INFORMATION
~A    DEPT      GRR      RILD       RILM        SPR       RFOC   
# ...
   61.0000    69.8282     1.2148     0.9974   -19.1533     1.0936
   61.5000    70.2813     1.1799     1.0857   -19.1548     1.1087
   62.0000    72.5552     1.2486     1.2185   -19.1563     1.1721
   62.5000    76.6501     1.3798     1.4632   -19.1581     1.2566
   63.0000    82.3384     1.6159     1.6820   -19.3113     1.3757
   63.5000    83.2466     1.8066     1.8673   -19.4645     1.4544
   64.0000    82.6312     2.1658     2.1920   -20.0730     1.5057
   64.5000    81.4212     2.6887     2.7021   -21.4402     1.5265
   65.0000    88.0194     3.1565     3.2618   -23.1108     1.5716
   65.5000    95.7562     3.6799     3.8829   -25.8437     1.8041
   66.0000    99.6235     4.5049     4.0763   -27.3930     2.1935
   66.5000    99.3936     5.1072     4.2816   -29.0337     2.8005
   67.0000    96.6600     5.6030     4.5236   -31.3113     3.1973
   67.5000    94.3816     6.1212     4.7822   -33.4372     3.1741
   68.0000    93.4507     6.2498     4.9508   -34.1974     3.1955
   68.5000    93.6938     6.0338     5.0896   -35.2611     3.3083
   69.0000    95.5125     5.6257     5.2690   -35.8696     3.4732
   69.5000    98.0141     5.3190     5.3795   -36.4780     3.6485
   70.0000   101.6538     4.8904     5.4536   -36.4795     3.7747
   70.5000   102.5620     4.6238     5.4139   -36.3116     3.8268
   71.0000   103.0156     4.5907     5.4121   -35.8755     3.8257
   71.5000   103.4681     4.5578     5.4107   -35.5738     3.8785
   72.0000   103.6935     4.5568     5.3715   -35.4236     4.0718
   72.5000   103.4408     4.6198     5.3327   -35.1216     4.1573
   73.0000   102.5504     4.6189     5.2942   -34.8195     4.1558
   73.5000   103.4587     4.6505     5.2559   -34.8210     4.1258
   74.0000   105.7326     4.6821     5.2179   -34.6707     4.0674
   74.5000   106.4138     4.7140     5.1779   -34.6722     4.2106
   75.0000   105.0453     4.6474     5.1069   -34.6990     4.2690
   75.5000   105.4984     4.5820     5.0344   -35.1308     4.2676
   76.0000   108.2276     4.5811     4.9980   -35.5875     4.2367
   76.5000   110.2739     4.5801     4.9619   -36.1959     4.2060
   77.0000   109.5341     4.5790     4.9607   -36.8044     4.2641
   77.5000   107.3099     4.5781     4.9592   -37.7163     4.4145
   78.0000   104.8039     4.5773     4.9578   -37.8695     4.5072
   78.5000   101.6150     4.5444     5.0262   -38.0228     4.5055
   79.0000    99.7919     4.5118     5.0600   -38.3278     4.5040
   79.5000   100.7001     4.4795     5.0941   -38.4810     4.4715
   80.0000   103.8846     4.4786     5.1284   -38.1793     4.5332
   80.5000   109.8004     4.5407     4.9854   -38.3325     4.6283
   81.0000   112.3020     4.6036     4.7796   -38.0305     4.6921
   81.5000   111.5531     4.6674     4.8118   -37.7285     4.7237
   82.0000   106.3790     4.6337     4.9467   -37.5779     4.5920
   82.5000   104.3282     4.6005     5.0854   -37.4279     4.4955
   83.0000   104.7818     4.6321     5.1920   -37.1209     4.5304
   83.5000   105.4618     4.6960     5.2633   -36.8239     4.6851
   84.0000   105.6878     4.7944     5.2987   -36.9775     4.8504
   84.5000   104.7746     4.9292     5.2556   -36.8272     5.0215
   85.0000   103.6343     5.0337     5.1857   -36.9805     5.1623
   85.5000   101.9962     5.0668     5.1843   -37.2854     5.2337
   86.0000    97.2565     5.1370     5.2926   -37.4386     5.2690
   86.5000   100.8957     4.9942     5.2178   -38.0471     5.1944
   87.0000   104.5353     4.8557     5.1082   -38.5038     5.0833
   87.5000   103.3950     4.8887     5.0360   -38.5180     4.9726
   88.0000   102.9381     4.9222     4.9648   -38.8106     4.8395
   88.5000   108.3982     4.9902     4.9289   -38.9638     4.8382
   89.0000   116.1350     5.0593     5.0340   -39.1171     4.9053
   89.5000   118.6366     5.1302     5.2151   -39.2703     5.0075
   90.0000   115.1442     5.2053     5.3181   -39.1200     5.0416
   90.5000   107.7059     5.2359     5.3163   -38.9694     5.1467
   91.0000   103.3790     5.2715     5.2778   -38.8194     5.2177
   91.5000   105.1977     5.3071     5.2764   -38.3657     5.2924
   92.0000   106.5612     5.3434     5.2750   -38.1952     5.3627
   92.5000   106.1037     5.3798     5.3480   -37.9138     5.3609
   93.0000   103.5977     5.4164     5.4977   -37.6118     5.3594
   93.5000   100.8641     5.4530     5.5347   -37.3097     5.3579
   94.0000    98.1305     5.4518     5.6936   -37.0077     5.3565
   94.5000    97.4454     5.4889     5.8084   -36.5536     5.3550
   95.0000    97.4426     5.5262     5.8475   -36.2520     5.3911
   95.5000    97.6686     5.5638     6.0960   -36.1017     5.4274
   96.0000    97.8935     5.5624     5.9265   -36.2650     5.4640
   96.5000   102.4436     5.6005     5.7216   -36.5602     5.5008
   97.0000   109.7252     5.6386     5.6802   -36.8652     5.4990
   97.5000   110.1787     5.7165     5.7189   -37.3219     5.5364
   98.0000   108.8102     5.7554     5.7169   -37.9304     5.5345
   98.5000   103.5728     5.7945     5.7554   -38.3871     5.5330
   99.0000   105.0334     5.7933     5.6690   -38.8438     5.5315
   99.5000   108.8031     5.7515     5.4775   -38.9970     5.5300
  100.0000   107.8904     5.7104     5.3625   -38.9985     5.5285
  100.5000   106.9782     5.5908     5.3989   -38.9823     5.5270
  101.0000   109.7069     5.5122     5.4734   -38.5466     5.3357
  101.5000   112.4361     5.3149     5.5877   -38.2445     5.2602
  102.0000   112.8897     5.2696     5.5470   -37.9425     5.1854
  102.5000   111.9764     5.2243     5.4685   -37.7919     5.1121
  103.0000   106.9333     5.1789     5.3537   -37.4902     5.0398
  103.5000   100.5045     5.1326     5.2780   -37.3400     5.0033
  104.0000    99.9061     5.0600     5.2398   -37.1897     4.9671
  104.5000   101.7242     5.0234     5.2016   -37.1912     5.0007
  105.0000   103.5430     5.0570     5.2370   -37.1927     5.0343
  105.5000   103.7689     5.1988     5.3089   -37.6497     5.1430
  106.0000   103.3109     5.3074     5.3450   -37.6512     5.2470
  106.5000   103.3087     5.3810     5.1285   -37.8434     5.3567
  107.0000   103.7617     5.4172     5.0212   -38.2611     5.3928
  107.5000   105.1404     5.3777     4.9506   -38.7178     5.2424
  108.0000   106.0335     5.3017     4.8809   -39.3263     5.0965
  108.5000   104.8926     5.0824     4.8460   -40.0865     4.9547
  109.0000   101.7038     4.7054     4.7093   -40.5433     4.7497
  109.5000    97.8320     4.5427     4.4856   -40.8485     4.5493
  110.0000    96.2365     4.5415     4.4535   -41.0018     4.1860
  110.5000    96.0067     4.5402     4.4526   -41.1546     4.0412
  111.0000    97.7995     4.3833     4.5143   -40.7012     4.0401
  111.5000   102.8832     4.2023     4.5769   -40.5508     4.0676
  112.0000   103.5660     4.1429     4.6080   -40.5524     4.2108
  112.5000   101.5174     4.1415     4.6394   -39.9470     4.4207
  113.0000   101.9727     4.1986     4.7037   -39.3415     4.6102
  113.5000   103.5660     4.2272     4.8020   -39.0395     4.8044
  114.0000   104.0212     4.2855     4.8686   -38.7274     4.9049
  114.5000   103.3384     4.3143     4.9709   -38.2841     4.9726
  115.0000   102.6555     4.3873     4.9007   -38.1338     4.9366
  115.5000   101.7382     4.4034     4.8656   -38.1353     4.8329
  116.0000   102.5008     4.4375     4.8308   -38.2885     4.8316
  116.5000   107.2079     4.4625     4.9000   -38.5934     4.8983
  117.0000   111.5326     4.4925     5.0001   -39.3536     4.9313
  117.5000   109.9393     4.5228     5.0694   -39.6586     4.9645
  118.0000   105.6146     4.5213     5.1042   -39.9838     4.9980
  118.5000   102.4279     4.5200     5.1029   -40.2689     4.9963
  119.0000   104.4765     4.4874     5.0663   -40.7256     4.9949
  119.5000   112.5068     4.3604     4.9258   -41.0305     4.9588
  120.0000   115.6297     4.2410     4.7891   -41.3355     4.9081
  120.5000   113.3536     4.1810     4.6239   -41.4887     4.8195
  121.0000   107.8907     4.1508     4.7229   -41.6419     4.6812
  121.5000   106.9803     4.1498     4.7528   -41.4916     4.4291
