~VERSION INFORMATION
 VERS.                2.0:   CWLS LOG ASCII STANDARD - VERSION 2.0
 WRAP.                 NO:   ONE LINE PER DEPTH STEP
~WELL INFORMATION
#MNEM.UNIT      DATA TYPE    INFORMATION
#----------   ------------   ------------------------------
 STRT.F            2.5000:   START DEPTH
 STOP.F         1003.0000:   STOP DEPTH
 STEP.F            0.5000:   STEP LENGTH
 NULL.          -999.2500:   NO VALUE
 COMP. U S NAVY-INTEX OIL:   COMPANY
 WELL.   NPR #3 #87-SX-27:   WELL
 FLD .             TEAPOT:   FIELD
 LOC .      S27 T39N R78W:   LOCATION
 CNTY.            NATRONA:   COUNTY
 STAT.            WYOMING:   STATE
 CTRY. UNITED STATES OF AMERICA:   COUNTRY
 SRVC. Schlumberger Well Surveying Corp:   SERVICE COMPANY
 DATE.        13-AUG-1961:   LOGDATE
 API .       490250659000:   API NUMBER
~CURVE INFORMATION
#MNEM.UNIT       API CODE    CURVE DESCRIPTION
#----------   ------------   ------------------------------
 DEPT.F                  :   
 ASN .OHMM   05 041 16 00:   AMPLIFIER SHORT NORMAL
 SPR .MV     05 010 01 00:   SPONTANEOUS POTENSIAL
 CILD.MMHO   05 110 46 00:   CONDUCTIVITY INDUCTION LOG DEEP
 ILD .OHMM   05 120 46 00:   INDUCTION LOG DEEP
 GRN .MG/TON 35 310 30 00:   GAMMA RAY
 NEUT.NAPI   35 330 01 00:   NEUTRON
~PARAMETER INFORMATION
#MNEM.UNIT          VALUE    DESCRIPTION
#----------   ------------   ------------------------------
 PD  .                 GL:   PERMANENT DATUM
 EPD .F              5082:   ELEVATION PERMANENT DATUM
 LMF .                 KB:   LOG MEASURED FROM
 DAPD.F                 5:   FEET ABOVE PERMANENT DATUM
 DMF .                 KB:   DRILLING MEASURED FROM
 EKB .F              5087:   KELLING BUSHING
 EGL .F              5082:   GROUND LEVEL
 DATE.        13-AUG-1961:   RUN DATE
 RUN .                  1:   RUN NUMBER
 DD  .F              1000:   DEPTH DRILLER
 DL  .F              1003:   DEPTH LOGGER
 BLI .F              1002:   BOTTOM LOG INTERVAL
 TLI .F                90:   TOP LOG INTERVAL
 BS  .IN             6.75:   BIT SIZE
 BSD .F              1000:   BIT SIZE AT DEPTH
 DFT . OIL EMUL (12% OIL):   DRILLING FLUID TYPE
 DFD .                9.3:   DRILLING FLUID DENSITY
 DFV .                 60:   DRILLING FLUID VISCOSITY
 DFL .                  4:   DRILLING FLUID LOSS
 MSS .           FLOWLINE:   MUD SAMPLE SOURCE
 RMS .OHMM           1.29:   RESISTIVITY MUD SAMPLE
 MST .F                80:   MUD SAMPLE TEMPERATURE
 TCS .HRS               1:   TIME CURCULATED STOPPED
 LUN .               2523:   LOGGING UNIT NUMBER
 LUL .               CSPR:   LOGGING UNIT LOCATION
 ENGI.              SCOTT:   RECORDING ENGINEER
 WITN.          JORGENSEN:   WITNESSED BY
 CLNT.            A2DTECH:   CLIENT CODE
 ORIG.       2", 5" PRINT:   ORIGIN OF DATA
 UWI .       490250659000:   UNIQUE WELL ID
 DICO. A2D Technologies, Inc.:   DIGITIZING COMPANY
~OTHER INFORMATION
~A    DEPT     ASN        SPR       CILD        ILD          GRN     NEUT   
# ...
  834.5000     6.0635   -17.7642   229.2568     3.4924     7.3947   183.4297
  835.0000     5.3704   -17.6126   236.8689     3.4916     7.5612   135.9398
  835.5000     5.2046   -17.6111   241.4598     3.5663     7.1602   139.0977
  836.0000     5.5055   -17.6096   243.0148     3.5655     7.2963   166.9173
  836.5000     5.3997   -17.6078   238.5572     3.7158     7.2358   235.3384
  837.0000     5.3843   -17.6066   234.0847     3.8657     7.4325   258.6466
  837.5000     5.8358   -17.6049   229.6122     4.0158     7.6217   260.1504
  838.0000     6.7994   -17.6034   214.5657     4.3167     7.2960   278.1955
  838.5000     6.9798   -17.6019   199.5192     4.9381     7.2207   282.7068
  839.0000     7.1183   -17.6006   184.4727     5.6978     7.2736   296.2406
  839.5000     7.3294   -17.5990   163.3839     6.1243     7.2812   289.4737
  840.0000     7.4909   -17.7476   154.2798     6.2744     7.4477   278.8473
  840.5000     7.5810   -17.8967   149.9072     6.2736     7.5158   291.5778
  841.0000     7.6109   -17.8949   153.0024     5.8204     7.2888   319.5489
  841.5000     7.5503   -18.0435   162.1251     5.5934     7.2131   300.7519
  842.0000     7.4596   -18.3423   169.7372     5.4419     7.0391   293.2331
  842.5000     7.3388   -18.4910   175.8387     5.2903     6.9937   260.9023
  843.0000     7.0524   -18.6397   177.4085     5.2896     6.9472   243.6090
  843.5000     6.7057   -18.7883   177.4678     5.2888     6.8337   247.3685
  844.0000     6.8108   -18.7865   176.0016     5.3635     6.5549   286.4662
  844.5000     6.8256   -18.7850   176.0757     5.5136     6.6003   313.5338
  845.0000     6.8253   -18.5669   176.1349     5.6008     6.7062   315.7895
  845.5000     7.1279   -18.3316   174.6828     5.8890     6.9710   324.9398
  846.0000     7.8283   -18.0298   167.1106     6.4162     7.2055   321.0526
  846.5000     8.0663   -17.5779   153.3336     6.9433     7.0391   316.5414
  847.0000     8.2999   -17.2761   144.6646     7.2443     6.7062   334.5865
  847.5000     8.5105   -17.2747   138.6815     7.3945     6.9180   331.5789
  848.0000     8.8114   -17.2732   135.7048     7.3936     7.0240   347.3684
  848.5000     8.9165   -17.4218   134.2535     7.3929     6.9786   339.0977
  849.0000     8.9614   -17.5706   134.3275     7.3921     7.1846   342.1053
  849.5000     9.0214   -17.5690   134.3807     7.3914     7.3266   343.8994
  850.0000     8.9608   -17.8679   132.9404     7.3906     6.9786   315.7895
  850.5000     8.8250   -18.0165   132.9909     7.3899     6.7970   311.2053
  851.0000     8.9000   -18.1652   133.0539     7.3891     6.6759   309.7744
  851.5000     8.9298   -18.1634   133.1118     7.3882     6.6456   313.5338
  852.0000     8.7639   -18.1619   133.1724     7.4629     7.3648   354.8288
  852.5000     8.8102   -18.1607   133.0809     7.4622     7.0773   339.0207
  853.0000     9.0827   -18.1589   134.8745     7.5370     7.1001   337.5020
  853.5000     9.1244   -18.1217   137.6793     7.5361     7.1985   334.4796
  854.0000     9.0186   -18.0204   137.7089     7.6169     7.1532   344.2391
  854.5000     8.9129   -17.9191   137.7341     7.6923     6.7825   366.0287
  855.0000     8.7921   -17.8378   137.7681     8.0694     6.6918   386.3145
  855.5000     8.7466   -17.6846   137.7976     8.2956     6.7373   384.0440
  856.0000     8.8217   -17.6817   134.8061     8.3710     6.3515   362.2246
  856.5000     8.9870   -17.6787   128.7934     8.2956     6.2608   351.6833
  857.0000     9.2729   -17.6757   125.8006     8.1448     6.1852   331.3677
  857.5000     9.5007   -17.6721   125.8314     7.5415     6.1171   326.0896
  858.0000     9.6211   -17.6692   127.3716     6.5611     6.5258   322.3152
  858.5000     9.5720   -17.5161   146.1609     5.6561     6.6621   294.4808
  859.0000     9.2794   -17.2132   169.2236     4.9020     6.8816   267.3983
  859.5000     8.4610   -16.9096   190.9119     4.6757     6.9346   256.1051
  860.0000     7.0301   -16.7565   195.4732     4.6003     6.6644   280.1504
  860.5000     6.4577   -16.6034   195.5028     4.7511     6.0922   356.4778
  861.0000     6.5780   -16.4503   195.5324     4.6757     6.0496   401.4230
  861.5000     6.5477   -16.4474   194.0440     4.8265     6.2615   424.5403
  862.0000     6.6229   -16.7447   192.5630     5.1282     6.2011   457.5343
  862.5000     8.3095   -16.9044   182.0260     5.7315     5.9666   450.3763
  863.0000    10.0947   -17.0640   163.9287     6.8627     6.1558   445.4707
  863.5000    10.7820   -17.1864   138.2786     8.1448     6.2770   449.9671
  864.0000    11.0810   -17.1827   106.5861     9.2006     6.6099   450.7078
  864.5000    11.0788   -17.1798    99.0628    10.1810     6.2166   448.4335
  865.0000    11.0766   -17.0270    99.0937    10.4072     5.5584   454.4336
  865.5000    11.1497   -16.9270   100.6400    10.1056     5.7552   457.4299
  866.0000    11.2233   -16.8706   102.1802     9.8783     5.6720   419.8210
  866.5000    11.3712   -16.8677   103.7203     9.7285     5.6645   458.1483
  867.0000    11.5195   -16.8649   105.2605     9.8039     5.5436   486.7048
  867.5000    11.6679   -16.8618   103.7795    10.2564     5.0594   520.5245
  868.0000    11.9849   -16.8589   102.2911    10.9351     4.7720   543.0659
  868.5000    12.5666   -16.8434    96.2858    12.2172     4.3483   601.6976
  869.0000    13.2421   -16.7028    90.2731    12.9713     3.9625   639.2767
  869.5000    14.4447   -16.9994    84.3858    13.5747     3.3951   637.7580
  870.0000    18.3581   -17.5971    78.2477    14.7813     3.2741   639.2469
  870.5000    20.6150   -18.6452    69.0881    16.8929     3.4407   628.7056
  871.0000    22.2694   -19.8435    61.4402    18.4766     3.5467   597.1118
  871.5000    24.4509   -20.4419    54.1673    20.6637     3.5922   603.1119
  872.0000    25.0511   -20.8886    48.1546    23.7557     3.4258   588.8113
  872.5000    25.7266   -21.0366    41.8303    24.8869     3.6009   577.5182
  873.0000    27.0045   -21.0329    40.6610    25.3485     3.5540   566.2250
  873.5000    27.6047   -20.7297    40.6949    26.1192     3.3263   562.3760
  874.0000    27.9277   -20.5766    40.7275    27.8281     3.1007   560.1802
  874.5000    29.4070   -20.4109    40.7553    29.0347     3.0781   556.4059
  875.0000    30.7602   -19.9700    40.7855    29.7134     2.9193   566.1654
  875.5000    32.2640   -19.8163    39.3058    30.0905     2.9042   574.4212
  876.0000    34.0690   -19.6632    37.8248    30.3922     3.0329   552.4015
  876.5000    34.9704   -19.9605    34.7081    30.6184     3.2903   527.6989
  877.0000    34.5917   -20.4080    31.8417    30.7692     3.6233   517.2320
  877.5000    33.9118   -20.4051    31.8787    30.9955     3.5477   506.6924
  878.0000    33.0059   -20.4022    30.3903    31.1463     3.4948   508.9294
  878.5000    32.2507   -20.2491    30.4273    30.6938     3.4797   508.1626
  879.0000    31.7967   -20.2461    31.9674    29.1101     3.7144   492.3582
  879.5000    31.9451   -20.0930    33.5076    27.3756     3.8885   482.5688
  880.0000    31.1140   -20.0901    35.0478    25.9377     4.2139   519.3960
  880.5000    30.0576   -20.2373    35.6418    25.7059     4.1610   534.4224
  881.0000    28.7753   -20.3969    37.4556    25.4148     3.9870   528.3925
  881.5000    27.7941   -20.5317    41.1789    24.8869     3.9110   550.1783
  882.0000    27.5660   -20.6787    42.7190    24.5852     4.0099   562.1972
  882.5000    27.4885   -20.8254    44.2598    24.4344     3.8813   552.4042
  883.0000    27.4863   -20.9733    42.7782    24.7360     4.0129   562.9156
  883.5000    27.3335   -20.9697    39.7867    25.7164     3.8891   552.3743
  884.0000    27.4819   -20.9667    36.7951    26.7722     3.7529   568.9008
  884.5000    28.3833   -21.1147    32.2930    27.1493     3.9876   571.1452
  885.0000    28.7625   -21.1110    35.3511    27.1493     4.1087   575.6379
  885.5000    28.8307   -21.2583    38.4019    26.3198     4.1996   584.6492
  886.0000    27.7737   -21.2553    41.4526    25.4902     4.2905   538.7659
