~VERSION INFORMATION
 VERS.                2.0:   CWLS LOG ASCII STANDARD - VERSION 2.0
 WRAP.                 NO:   ONE LINE PER DEPTH STEP
~WELL INFORMATION
#MNEM.UNIT      DATA TYPE    INFORMATION
#----------   ------------   ------------------------------
 STRT.F         1005.5000:   START DEPTH
 STOP.F         2315.0000:   STOP DEPTH
 STEP.F            0.5000:   STEP LENGTH
 NULL.          -999.2500:   NO VALUE
 COMP. LAWRENCE/ALLISON INC:   COMPANY
 WELL.  32 SHX 15 #32 -15:   WELL
 FLD .             TEAPOT:   FIELD
 LOC .      S15 T38N R78W:   LOCATION
 CNTY.            NATRONA:   COUNTY
 STAT.            WYOMING:   STATE
 CTRY. UNITED STATES OF AMERICA:   COUNTRY
 SRVC.            Unknown:   SERVICE COMPANY
 DATE.        10-SEP-1988:   LOGDATE
 API .       490251124500:   API NUMBER
~CURVE INFORMATION
#MNEM.UNIT       API CODE    CURVE DESCRIPTION
#----------   ------------   ------------------------------
 DEPT.F                  :   
 ROP .MIN/FT 91 810 01 00:   RATE OF DRILLING PENETRATION
 TGAS.UNITS  91 830 01 00:   TOTAL GAS FROM HOTWIRE
~PARAMETER INFORMATION
#MNEM.UNIT          VALUE    DESCRIPTION
#----------   ------------   ------------------------------
 EKB .F              5259:   KELLING BUSHING
 EGL .F              5249:   GROUND LEVEL
 DATE.        10-SEP-1988:   RUN DATE
 RUN .                  1:   RUN NUMBER
 DD  .F              2316:   DEPTH DRILLER
 TLI .F              1005:   TOP LOG INTERVAL
 CS  .IN                7:   CASING SIZE
 CBD .F               991:   CASING BOTTOM DRILLER
 ENGI. R. HUSK/D. PETERSON:   RECORDING ENGINEER
 CLNT.            A2DTECH:   CLIENT CODE
 ORIG.           5" PRINT:   ORIGIN OF DATA
 UWI .       490251124500:   UNIQUE WELL ID
 DICO. A2D Technologies, Inc.:   DIGITIZING COMPANY
~OTHER INFORMATION
~A  DEPT         ROP       TGAS 
# ...
 1248.5000     0.3590     3.3656
 1249.0000     0.3803     3.3548
 1249.5000     0.4121     3.3441
 1250.0000     0.4546     3.3333
 1250.5000     0.4864     3.3226
 1251.0000     0.4549     3.3118
 1251.5000     0.4444     3.3010
 1252.0000     0.4129     3.2903
 1252.5000     0.3708     3.2795
 1253.0000     0.3603     3.2688
 1253.5000     0.3288     3.2580
 1254.0000     0.3290     3.2473
 1254.5000     0.3397     3.2365
 1255.0000     0.3716     3.2257
 1255.5000     0.4035     3.2150
 1256.0000     0.4459     3.2042
 1256.5000     0.4566     3.1935
 1257.0000     0.4462     3.1827
 1257.5000     0.4252     3.1720
 1258.0000     0.4148     3.1612
 1258.5000     0.4361     3.1505
 1259.0000     0.4468     3.1397
 1259.5000     0.4576     3.1289
 1260.0000     0.4789     3.1182
 1260.5000     0.4896     3.1074
 1261.0000     0.5003     3.0967
 1261.5000     0.5216     3.0859
 1262.0000     0.5324     3.0752
 1262.5000     0.5219     3.0644
 1263.0000     0.5009     3.0537
 1263.5000     0.4906     3.0429
 1264.0000     0.4801     3.0321
 1264.5000     0.4486     3.0214
 1265.0000     0.4276     3.0106
 1265.5000     0.4172     2.9999
 1266.0000     0.4067     2.9891
 1266.5000     0.4175     2.9784
 1267.0000     0.4494     3.3988
 1267.5000     0.4601     3.4111
 1268.0000     0.4603     3.4244
 1268.5000     0.4181     3.4366
 1269.0000     0.3549     3.8735
 1269.5000     0.3339     3.8857
 1270.0000     0.3552     3.8980
 1270.5000     0.3976     4.3348
 1271.0000     0.4507     4.7706
 1271.5000     0.4931     5.6310
 1272.0000     0.4510     5.6433
 1272.5000     0.3771     5.6565
 1273.0000     0.3562     6.0923
 1273.5000     0.3351     6.1046
 1274.0000     0.3247     6.1179
 1274.5000     0.3355     6.5545
 1275.0000     0.3991     6.5732
 1275.5000     0.4521     6.5918
 1276.0000     0.4628     6.6105
 1276.5000     0.4418     6.6291
 1277.0000     0.3785     6.6478
 1277.5000     0.3576     6.6664
 1278.0000     0.3577     6.6851
 1278.5000     0.3685     6.7037
 1279.0000     0.3686     6.7224
 1279.5000     0.3688     6.7410
 1280.0000     0.3689     6.7596
 1280.5000     0.3797     6.7783
 1281.0000     0.3798     6.7969
 1281.5000     0.3800     6.8156
 1282.0000     0.3801     6.8342
 1282.5000     0.3803     6.8529
 1283.0000     0.4016     6.8715
 1283.5000     0.4123     6.8902
 1284.0000     0.4019     6.9088
 1284.5000     0.3703     6.9275
 1285.0000     0.3388     6.9461
 1285.5000     0.3284     6.9647
 1286.0000     0.3179     6.9834
 1286.5000     0.3287     7.0020
 1287.0000     0.3500     7.0207
 1287.5000     0.3713     7.0393
 1288.0000     0.3926     7.0580
 1288.5000     0.3822     7.0766
 1289.0000     0.3718     7.0953
 1289.5000     0.3402     7.1139
 1290.0000     0.3298     7.1325
 1290.5000     0.3300     7.1512
 1291.0000     0.3407     7.1698
 1291.5000     0.3726     7.1885
 1292.0000     0.3939     7.2071
 1292.5000     0.4152     7.2258
 1293.0000     0.4576     7.2444
 1293.5000     0.4578     7.2631
 1294.0000     0.4685     7.2817
 1294.5000     0.4581     7.3004
 1295.0000     0.4583     7.3190
 1295.5000     0.4584     7.3376
 1296.0000     0.4480     7.3563
 1296.5000     0.4270     7.3749
 1297.0000     0.4166     7.3936
 1297.5000     0.4168     7.4122
 1298.0000     0.3852     7.4309
 1298.5000     0.3854     7.4495
 1299.0000     0.3855     7.4682
 1299.5000     0.4068     7.4868
 1300.0000     0.4176     7.5055
 1300.5000     0.4177     7.5241
 1301.0000     0.4390     7.5427
 1301.5000     0.4603     7.5614
 1302.0000     0.4605     7.5800
 1302.5000     0.4606     7.5987
 1303.0000     0.4502     7.6173
 1303.5000     0.4292     7.6360
 1304.0000     0.4188     7.6546
 1304.5000     0.3979     7.6733
 1305.0000     0.3663     7.6919
 1305.5000     0.3347     7.7106
 1306.0000     0.3032     7.7292
 1306.5000     0.3245     7.7478
 1307.0000     0.3352     7.7665
 1307.5000     0.3671     7.7851
 1308.0000     0.3884     7.8038
 1308.5000     0.4203     7.8224
 1309.0000     0.4310     7.8411
 1309.5000     0.4734     7.8597
 1310.0000     0.4947     7.8761
 1310.5000     0.5055     7.8729
 1311.0000     0.4633     7.8700
 1311.5000     0.4318     7.8671
 1312.0000     0.4108     7.8643
 1312.5000     0.3792     7.8614
 1313.0000     0.3900     7.8585
 1313.5000     0.4219     7.8556
 1314.0000     0.4643     7.8528
 1314.5000     0.4660     7.8499
 1315.0000     0.4344     7.8470
 1315.5000     0.4135     7.8442
 1316.0000     0.3820     7.8413
 1316.5000     0.3505     7.8384
 1317.0000     0.3401     7.8355
 1317.5000     0.3086     7.8327
 1318.0000     0.2983     7.8298
 1318.5000     0.3091     7.8269
 1319.0000     0.3093     7.8240
 1319.5000     0.3307     7.8212
 1320.0000     0.3415     7.8183
 1320.5000     0.3522     7.8154
 1321.0000     0.3842     7.8125
 1321.5000     0.4161     7.8097
 1322.0000     0.4269     7.8068
 1322.5000     0.4377     7.8039
 1323.0000     0.4590     7.8010
 1323.5000     0.4380     7.7982
 1324.0000     0.4277     7.7953
 1324.5000     0.4279     7.7924
 1325.0000     0.3964     7.7895
 1325.5000     0.3967     7.7867
 1326.0000     0.3862     7.7838
 1326.5000     0.3865     7.7809
 1327.0000     0.3867     7.7780
 1327.5000     0.3869     7.7752
 1328.0000     0.3977     7.7723
 1328.5000     0.4296     7.7694
 1329.0000     0.4404     7.7666
 1329.5000     0.4723     7.7637
 1330.0000     0.4831     7.7608
 1330.5000     0.4622     7.7579
 1331.0000     0.4307     7.7551
 1331.5000     0.3991     7.7522
 1332.0000     0.3888     7.7493
 1332.5000     0.3890     7.7464
 1333.0000     0.3998     7.7436
 1333.5000     0.4317     7.7407
 1334.0000     0.4425     7.7378
 1334.5000     0.4639     7.7349
 1335.0000     0.4747     7.7321
 1335.5000     0.4749     7.7292
 1336.0000     0.4751     7.7263
 1336.5000     0.4647     7.7234
 1337.0000     0.4437     7.7206
 1337.5000     0.4334     7.7177
 1338.0000     0.4230     7.7148
 1338.5000     0.4127     7.7119
 1339.0000     0.4341     7.7091
 1339.5000     0.4766     7.7062
 1340.0000     0.5190     7.7033
 1340.5000     0.4769     7.7004
 1341.0000     0.4349     7.6976
 1341.5000     0.4033     7.6947
 1342.0000     0.3613     7.6918
 1342.5000     0.3616     7.6889
 1343.0000     0.3723     7.6861
 1343.5000     0.3937     7.6832
 1344.0000     0.4045     7.6803
 1344.5000     0.4047     7.6775
 1345.0000     0.3943     7.6746
 1345.5000     0.3628     7.6717
 1346.0000     0.3419     7.6688
 1346.5000     0.3421     7.6660
 1347.0000     0.3635     7.6631
 1347.5000     0.3954     7.6602
 1348.0000     0.4062     7.6573
 1348.5000     0.4381     7.6545
 1349.0000     0.4383     7.6516
 1349.5000     0.4491     7.6487
 1350.0000     0.4493     7.6458
 1350.5000     0.4601     7.6430
 1351.0000     0.4496     7.6401
 1351.5000     0.4393     7.6372
 1352.0000     0.4396     7.6343
 1352.5000     0.4080     7.6315
 1353.0000     0.3765     7.6286
 1353.5000     0.3556     7.6257
 1354.0000     0.3558     7.6228
 1354.5000     0.3561     7.6200
 1355.0000     0.3563     7.6171
 1355.5000     0.3776     7.6142
 1356.0000     0.4096     7.6113
 1356.5000     0.4520     7.6085
 1357.0000     0.4734     7.6056
 1357.5000     0.4842     7.6027
 1358.0000     0.4844     7.5998
 1358.5000     0.4846     7.5970
 1359.0000     0.4848     7.5941
 1359.5000     0.4427     7.5912
 1360.0000     0.4218     7.5884
 1360.5000     0.4008     7.5855
 1361.0000     0.3799     7.5826
 1361.5000     0.3695     7.5797
 1362.0000     0.3592     7.5769
 1362.5000     0.3700     7.5740
 1363.0000     0.4019     7.5711
 1363.5000     0.4127     7.5682
 1364.0000     0.4129     7.5654
 1364.5000     0.4026     7.5625
 1365.0000     0.4028     7.5596
 1365.5000     0.3607     7.5567
 1366.0000     0.3609     7.5539
 1366.5000     0.3611     7.5510
 1367.0000     0.3825     7.5481
 1367.5000     0.4144     7.5452
 1368.0000     0.4463     7.5424
 1368.5000     0.4148     7.5395
 1369.0000     0.3622     7.5366
 1369.5000     0.3307     7.5337
