~VERSION INFORMATION
 VERS.                2.0:   CWLS LOG ASCII STANDARD - VERSION 2.0
 WRAP.                 NO:   ONE LINE PER DEPTH STEP
~WELL INFORMATION
#MNEM.UNIT      DATA TYPE    INFORMATION
#----------   ------------   ------------------------------
 STRT.F           70.0000:   START DEPTH
 STOP.F          884.0000:   STOP DEPTH
 STEP.F            0.5000:   STEP LENGTH
 NULL.          -999.2500:   NO VALUE
 COMP. U S NAVY/INTEX OIL CO:   COMPANY
 WELL.   NPR#3 "S" #16-35:   WELL
 FLD .             TEAPOT:   FIELD
 LOC .      S35 T39N R78W:   LOCATION
 CNTY.            NATRONA:   COUNTY
 STAT.            WYOMING:   STATE
 CTRY. UNITED STATES OF AMERICA:   COUNTRY
 SRVC.         Lane Wells:   SERVICE COMPANY
 DATE.        21-MAR-1960:   LOGDATE
 API .       490250651800:   API NUMBER
~CURVE INFORMATION
#MNEM.UNIT       API CODE    CURVE DESCRIPTION
#----------   ------------   ------------------------------
 DEPT.F                  :   
 SPR .MV     05 010 01 00:   SPONTANEOUS POTENTIAL FROM RES.
 ASN .OHMM   05 040 16 00:   AMPLIFIED SHORT NORMAL 16"
 ILD .OHMM   05 120 46 00:   INDUCTION LOG DEEP
 CILD.MMHO   05 110 46 00:   CONDUCTIVITY INDUCTION LOG DEEP
 GR  .GAPI   30 310 01 00:   GAMMA RAY
~PARAMETER INFORMATION
#MNEM.UNIT          VALUE    DESCRIPTION
#----------   ------------   ------------------------------
 PD  .                 GL:   PERMANENT DATUM
 EPD .F              5091:   ELEVATION PERMANENT DATUM
 LMF .                 KB:   LOG MEASURED FROM
 DAPD.F                 5:   FEET ABOVE PERMANENT DATUM
 DMF .                 KB:   DRILLING MEASURED FROM
 EKB .F              5096:   KELLING BUSHING
 EGL .F              5091:   GROUND LEVEL
 DATE.          3-21-1960:   RUN DATE
 RUN .                  1:   RUN NUMBER
 DD  .F               913:   DEPTH DRILLER
 DL  .F               885:   DEPTH LOGGER
 BLI .F               883:   BOTTOM LOG INTERVAL
 TLI .F                70:   TOP LOG INTERVAL
 CS  .IN            8.625:   CASING SIZE
 CBD .F                12:   CASING BOTTOM DRILLER
 BS  .IN            7.875:   BIT SIZE
 BSD .F               913:   BIT SIZE AT DEPTH
 DFT .   GEL-OIL EMULSION:   DRILLING FLUID TYPE
 DFD .                9.9:   DRILLING FLUID DENSITY
 DFV .                 40:   DRILLING FLUID VISCOSITY
 MSS .           FLOWLINE:   MUD SAMPLE SOURCE
 RMS .OHMM              3:   RESISTIVITY MUD SAMPLE
 MST .F                64:   MUD SAMPLE TEMPERATURE
 RMF .OHMM            2.2:   RESISTIVITY MUD FILTRATE SAMPLE
 MFST.F                64:   MUD FILTRATE SAMPLE TEMPERATURE
 RMC .OHMM              4:   RESISTIVITY MUD CAKE
 MCST.F                64:   MUD CAKE SAMPLE TEMPERATURE
 MFSS.                MUD:   MUD FILTRATE SAMPLE SOURCE
 MCSS.              PRESS:   MUD CAKE SAMPLE SOURCE
 RMB .OHMM            2.7:   RESISTIVITY MUD AT BHT
 BHT .F                70:   BOTTOM HOLE TEMPERATURE
 MRT .F                70:   MAXIMUM RECORDED TEMPERATURE
 LUN .             L-4474:   LOGGING UNIT NUMBER
 LUL .             CASPER:   LOGGING UNIT LOCATION
 ENGI.             NELSON:   RECORDING ENGINEER
 WITN.          JORGENSEN:   WITNESSED BY
 CLNT.            A2DTECH:   CLIENT CODE
 ORIG.      2" & 5" PRINT:   ORIGIN OF DATA
 UWI .       490250651800:   UNIQUE WELL ID
 DICO. A2D Technologies, Inc.:   DIGITIZING COMPANY
~OTHER INFORMATION
~A   DEPT      SPR          ASN      ILD        CILD        GR   
# ...
  436.0000   -27.8160     7.7492     5.6897   191.1835  -999.2500
  436.5000   -27.8360     7.8240     5.7206   191.1799  -999.2500
  437.0000   -27.6013     7.9125     5.7480   189.0054  -999.2500
  437.5000   -27.4150     7.9562     5.7772   186.7212  -999.2500
  438.0000   -27.2030     8.1323     5.8056   184.4346  -999.2500
  438.5000   -27.0083     8.3291     5.8341   182.1495  -999.2500
  439.0000   -26.7978     8.5210     5.8629   179.8643  -999.2500
  439.5000   -26.6077     8.7141     5.8959   177.5792  -999.2500
  440.0000   -26.3811     8.9078     5.9680   175.2941  -999.2500
  440.5000   -26.3499     9.0995     6.0603   173.0090  -999.2500
  441.0000   -26.5249     9.2957     6.1499   170.7239  -999.2500
  441.5000   -26.6664     9.4789     6.2406   169.5678  -999.2500
  442.0000   -26.8253     9.6555     6.3312   169.5678  -999.2500
  442.5000   -26.9750     9.7764     6.4215   169.5678  -999.2500
  443.0000   -27.1294     9.8137     6.5121   165.8133  -999.2500
  443.5000   -27.2827     9.6697     6.6032   158.7635  -999.2500
  444.0000   -27.4333     9.5611     6.6964   159.0825  -999.2500
  444.5000   -27.5921     9.4235     6.7156   160.1706  -999.2500
  445.0000   -27.7253     9.2052     6.6584   161.2588  -999.2500
  445.5000   -27.7593     8.9860     6.5217   162.3649  -999.2500
  446.0000   -27.6027     8.7710     6.3931   164.3097  -999.2500
  446.5000   -27.2934     8.5428     6.2580   168.1183  -999.2500
  447.0000   -27.0180     8.3770     6.1290   171.9268  -999.2500
  447.5000   -26.7253     8.3089     5.9913   175.7353  -999.2500
  448.0000   -26.4434     8.2825     5.8984   178.7335  -999.2500
  448.5000   -26.1545     8.2751     5.8974   179.3683  -999.2500
  449.0000   -25.8679     8.2574     5.8959   180.0030  -999.2500
  449.5000   -25.6021     8.2448     5.8972   180.6378  -999.2500
  450.0000   -25.6865     8.2292     5.8966   181.2725  -999.2500
  450.5000   -25.8185     8.2157     5.8971   181.9073  -999.2500
  451.0000   -25.9470     8.2023     5.8971   181.8037  -999.2500
  451.5000   -26.0720     8.2121     5.8972   181.1690  -999.2500
  452.0000   -26.2034     8.1795     5.8974   180.5342  -999.2500
  452.5000   -26.3276     8.1429     5.8970   179.8995  -999.2500
  453.0000   -26.4528     8.1066     5.8976   179.2647  -999.2500
  453.5000   -26.2314     8.0723     5.8964   178.6299  -999.2500
  454.0000   -25.9042     8.0340     5.9058   177.9952  -999.2500
  454.5000   -25.6032     8.0029     5.9279   177.3604  -999.2500
  455.0000   -25.2764     7.9583     5.9486   176.7257  -999.2500
  455.5000   -24.9930     8.0042     5.9701   176.0909  -999.2500
  456.0000   -24.6269     8.1264     5.9911   175.4562  -999.2500
  456.5000   -24.5053     8.1980     6.0123   174.8214  -999.2500
  457.0000   -24.6034     8.1799     6.0333   174.1867  -999.2500
  457.5000   -24.6546     8.1481     6.0547   173.5519  -999.2500
  458.0000   -24.7282     8.1173     6.0752   172.9172  -999.2500
  458.5000   -24.7903     8.0869     6.0974   172.2824  -999.2500
  459.0000   -24.8581     8.0590     6.1165   171.6477  -999.2500
  459.5000   -24.9234     8.0585     6.1412   171.0129  -999.2500
  460.0000   -24.9898     8.0975     6.1545   170.3781  -999.2500
  460.5000   -25.0553     8.2972     6.2232   169.7434  -999.2500
  461.0000   -25.1213     8.4901     6.3286   168.2821  -999.2500
  461.5000   -25.1865     8.6862     6.4202   166.5048  -999.2500
  462.0000   -25.2528     8.8797     6.5174   164.7275  -999.2500
  462.5000   -25.3180     9.0680     6.6120   162.9502  -999.2500
  463.0000   -25.3843     9.0868     6.7073   161.1729  -999.2500
  463.5000   -25.3751     9.0851     6.8042   159.3956  -999.2500
  464.0000   -25.3518     9.0824     6.8849   157.6183  -999.2500
  464.5000   -25.3310     9.0999     6.9023   156.7779  -999.2500
  465.0000   -25.3085     9.2428     6.9150   156.4849  -999.2500
  465.5000   -25.2887     9.3778     6.9266   156.1919  -999.2500
  466.0000   -25.2642     9.5154     6.9406   155.8990  -999.2500
  466.5000   -25.2507     9.6510     6.9505   155.6060  -999.2500
  467.0000   -25.2137     9.7878     6.9677   155.3130  -999.2500
  467.5000   -25.3036     9.9248     6.9697   153.8522  -999.2500
  468.0000   -25.6063    10.0598     7.0416   151.1494  -999.2500
  468.5000   -25.8913    10.1997     7.1852   148.4465  -999.2500
  469.0000   -26.2100    10.3256     7.3140   145.7437  -999.2500
  469.5000   -26.4028    10.4555     7.4499   143.0409  -999.2500
  470.0000   -25.9408    10.5922     7.5820   140.3381  -999.2500
  470.5000   -25.3655    10.7153     7.7161   137.6353  -999.2500
  471.0000   -25.3820    10.8442     7.8492   134.9324  -999.2500
  471.5000   -25.7568    10.9694     7.9830   132.2296  -999.2500
  472.0000   -26.0597    11.0984     8.1161   129.5268  -999.2500
  472.5000   -25.8972    11.2219     8.2502   126.8240  -999.2500
  473.0000   -25.5882    11.3549     8.3822   124.1318  -999.2500
  473.5000   -25.3095    11.4702     8.5185   121.4431  -999.2500
  474.0000   -25.0245    11.6422     8.6465   118.7504  -999.2500
  474.5000   -24.7291    11.6963     8.7942   115.5816  -999.2500
  475.0000   -24.5387    11.5618     8.8777   115.8399  -999.2500
  475.5000   -24.9141    11.4499     8.8656   116.1465  -999.2500
  476.0000   -25.2896    11.3250     8.8729   116.4532  -999.2500
  476.5000   -25.6757    11.2065     8.8663   116.7651  -999.2500
  477.0000   -26.0614    11.0863     8.8750   117.0783  -999.2500
  477.5000   -26.3906    10.9635     8.8169   117.3469  -999.2500
  478.0000   -25.8349    10.8489     8.7111   118.4454  -999.2500
  478.5000   -24.9859    10.7135     8.6202   119.3975  -999.2500
  479.0000   -24.7906    10.6421     8.5172   120.3496  -999.2500
  479.5000   -25.1990    10.6712     8.4835   121.3018  -999.2500
  480.0000   -25.4898    10.6861     8.4556   122.2539  -999.2500
  480.5000   -25.8496    10.7063     8.4271   123.2060  -999.2500
  481.0000   -25.8857    10.7277     8.3984   124.1582  -999.2500
  481.5000   -25.7779    10.7118     8.3702   125.0636  -999.2500
  482.0000   -25.6988    10.6623     8.3414   125.9364  -999.2500
  482.5000   -25.6074    10.6216     8.3135   126.8092  -999.2500
  483.0000   -25.5218    10.5752     8.2839   127.6820  -999.2500
  483.5000   -25.4323    10.5344     8.2572   128.5547  -999.2500
  484.0000   -25.3446    10.4850     8.2020   129.4275  -999.2500
  484.5000   -25.2562    10.4645     8.1049   130.3003  -999.2500
  485.0000   -25.1684    10.4410     8.0122   131.1731  -999.2500
  485.5000   -25.0807    10.3827     7.9143   132.0459  -999.2500
  486.0000   -24.9929    10.3321     7.8652   132.9187  -999.2500
  486.5000   -24.9048    10.2773     7.8510   133.7914  -999.2500
  487.0000   -24.8166    10.2252     7.8322   134.6642  -999.2500
  487.5000   -24.7285    10.1705     7.8158   135.5370  -999.2500
  488.0000   -24.6405    10.1193     7.7983   136.4098  -999.2500
  488.5000   -24.5517    10.0623     7.7814   137.2826  -999.2500
  489.0000   -24.4660    10.0168     7.7643   138.1539  -999.2500
  489.5000   -24.3701     9.9038     7.7473   139.0245  -999.2500
  490.0000   -24.3363     9.7254     7.7294   139.8956  -999.2500
  490.5000   -24.5868     9.6146     7.7154   140.7677  -999.2500
  491.0000   -24.8180     9.5387     7.6803   141.6407  -999.2500
  491.5000   -25.0566     9.4606     7.5104   142.5141  -999.2500
  492.0000   -25.2888     9.3879     7.3567   143.3868  -999.2500
  492.5000   -25.5264     9.2501     7.1988   144.3577  -999.2500
  493.0000   -25.7432     9.0140     7.0437   147.3829  -999.2500
  493.5000   -25.7253     8.7820     6.8872   150.7683  -999.2500
  494.0000   -25.3946     8.5427     6.7304   154.1537  -999.2500
  494.5000   -25.0429     8.3121     6.5758   157.5390  -999.2500
  495.0000   -24.7143     8.0745     6.4171   160.9244  -999.2500
  495.5000   -24.3308     7.9908     6.2640   164.3097  -999.2500
  496.0000   -24.1038     7.9900     6.0970   167.7828  -999.2500
  496.5000   -24.1344     8.1204     6.1360   171.1874  -999.2500
