~VERSION INFORMATION
 VERS.                2.0:   CWLS LOG ASCII STANDARD - VERSION 2.0
 WRAP.                 NO:   ONE LINE PER DEPTH STEP
~WELL INFORMATION
#MNEM.UNIT      DATA TYPE    INFORMATION
#----------   ------------   ------------------------------
 STRT.F           80.0000:   START DEPTH
 STOP.F          739.0000:   STOP DEPTH
 STEP.F            0.5000:   STEP LENGTH
 NULL.          -999.2500:   NO VALUE
 COMP. U S NAVY-INTEX OIL:   COMPANY
 WELL.        NPR #36-S-2:   WELL
 FLD .             TEAPOT:   FIELD
 LOC .       S2 T38N R78W:   LOCATION
 CNTY.            NATRONA:   COUNTY
 STAT.            WYOMING:   STATE
 CTRY. UNITED STATES OF AMERICA:   COUNTRY
 SRVC.       Schlumberger:   SERVICE COMPANY
 DATE.        23-JUN-1962:   LOGDATE
 API .       490250641800:   API NUMBER
~CURVE INFORMATION
#MNEM.UNIT       API CODE    CURVE DESCRIPTION
#----------   ------------   ------------------------------
 DEPT.F                  :   
 ASN .OHMM   05 041 16 00:   AMPLIFIED SHORT NORMAL 16"
 ILD .OHMM   05 120 46 00:   INDUCTION LOG DEEP
 CILD.MMHO   05 110 46 00:   CONDUCTIVITY INDUCTION LOG DEEP
 SPR .MV     05 010 01 00:   SPONTANEOUS POTENTIAL FROM RES.
 GR  .GAPI   30 310 01 00:   GAMMA RAY
~PARAMETER INFORMATION
#MNEM.UNIT          VALUE    DESCRIPTION
#----------   ------------   ------------------------------
 PD  .                 KB:   PERMANENT DATUM
 EPD .F              5143:   ELEVATION PERMANENT DATUM
 EKB .F              5143:   KELLING BUSHING
 EGL .F              5138:   GROUND LEVEL
 DATE.        23-JUN-1962:   RUN DATE
 RUN .                  1:   RUN NUMBER
 DD  .F               738:   DEPTH DRILLER
 DL  .F               740:   DEPTH LOGGER
 BLI .F               739:   BOTTOM LOG INTERVAL
 TLI .F                80:   TOP LOG INTERVAL
 BS  .IN             6.75:   BIT SIZE
 BSD .F               738:   BIT SIZE AT DEPTH
 DFT .       OIL EMULSION:   DRILLING FLUID TYPE
 DFD .               10.0:   DRILLING FLUID DENSITY
 DFV .                 53:   DRILLING FLUID VISCOSITY
 DFL .                3.8:   DRILLING FLUID LOSS
 RMS .OHMM            3.9:   RESISTIVITY MUD SAMPLE
 MST .F                66:   MUD SAMPLE TEMPERATURE
 RMF .OHMM            2.9:   RESISTIVITY MUD FILTRATE SAMPLE
 MFST.F                66:   MUD FILTRATE SAMPLE TEMPERATURE
 RMC .OHMM            4.4:   RESISTIVITY MUD CAKE
 MCST.F                66:   MUD CAKE SAMPLE TEMPERATURE
 TCS .HRS               1:   TIME CURCULATED STOPPED
 LUN .               2503:   LOGGING UNIT NUMBER
 LUL .               CSPR:   LOGGING UNIT LOCATION
 ENGI.             DANNER:   RECORDING ENGINEER
 WITN.          JORGENSON:   WITNESSED BY
 CLNT.            A2DTECH:   CLIENT CODE
 ORIG.           5" PRINT:   ORIGIN OF DATA
 UWI .       490250641800:   UNIQUE WELL ID
 DICO. A2D Technologies, Inc.:   DIGITIZING COMPANY
~OTHER INFORMATION
~A   DEPT        ASN        ILD      CILD       SPR         GR   
# ...
  629.0000    22.4959    18.3620    52.1167   -63.6832    34.2486
  629.5000    21.8205    17.8372    54.3614   -62.6325    25.4917
  630.0000    21.4157    17.3125    55.8554   -61.5817    18.3674
  630.5000    20.9822    17.0127    57.3512   -60.3817    21.6326
  631.0000    20.6842    16.8633    58.8432   -60.8249    23.1170
  631.5000    20.5369    16.8789    59.5883   -61.4160    31.7254
  632.0000    20.4758    17.1782    59.5789   -61.7085    29.3507
  632.5000    20.4782    17.4662    58.8206   -61.8518    32.7643
  633.0000    20.6311    17.5515    58.0623   -61.8443    37.5139
  633.5000    20.7839    17.6178    58.0547   -61.6890    28.7570
  634.0000    20.9368    17.6997    57.2964   -61.3861    21.3358
  634.5000    21.0203    17.9239    56.5381   -62.5726    12.2821
  635.0000    21.2424    18.0706    55.7798   -63.0144    12.4304
  635.5000    21.3200    18.1464    55.0215   -63.3069    24.1558
  636.0000    21.3976    18.2973    55.0139   -63.1517    19.7032
  636.5000    21.5504    18.6734    54.2556   -62.3994    20.7421
  637.0000    21.8560    19.2748    53.4973   -61.7964    29.9443
  637.5000    22.4586    20.0263    51.9882   -61.0442    37.0686
  638.0000    23.2892    20.7778    50.4792   -60.1426    36.4749
  638.5000    24.8728    21.3041    48.9701   -60.4367    26.2338
  639.0000    26.3057    21.6802    45.9595   -60.1307    30.3896
  639.5000    27.0610    21.6810    44.4505   -58.3336    41.5213
  640.0000    27.7410    21.3063    44.4444   -56.8351    29.4990
  640.5000    26.5384    20.6314    44.5670   -55.9336    27.1243
  641.0000    24.6582    20.2568    47.5421   -55.7784    21.3358
  641.5000    23.5309    19.8071    50.5179   -56.3694    23.1170
  642.0000    22.1025    18.8319    53.4236   -57.8560    23.8590
  642.5000    20.8999    17.9317    54.9175   -59.3425    35.8813
  643.0000    20.0739    17.3319    56.4420   -60.2320    36.4099
  643.5000    19.2478    16.7320    57.9054   -59.3305    36.7718
  644.0000    18.8735    16.2824    59.3994   -59.1768    30.9834
  644.5000    18.5746    16.0579    60.8933   -60.0663    21.9294
  645.0000    18.2004    15.8334    60.8858   -60.0589    15.8442
  645.5000    17.9762    15.8342    62.3799   -60.0529    22.5232
  646.0000    17.6778    15.7599    63.8738   -58.8544    26.3822
  646.5000    17.5289    15.6105    64.6171   -59.7439    30.2411
  647.0000    17.3806    15.5359    65.3603   -58.5424    31.4286
  647.5000    17.2328    15.3117    66.1036   -57.9394    35.7328
  648.0000    17.1592    15.2372    66.0957   -57.6364    37.5139
  648.5000    17.0862    15.3132    66.0881   -60.1662    37.8165
  649.0000    17.0890    15.3890    65.3298   -60.6095    35.1392
  649.5000    17.0913    15.5399    65.3222   -60.7528    32.4675
  650.0000    17.1039    15.7908    65.2355   -60.5504    25.3432
  650.5000    17.1692    16.1420    64.7523   -59.9856    26.0853
  651.0000    17.2456    16.1428    64.2690   -58.9402    35.2875
  651.5000    17.3970    16.1435    63.7443   -57.7387    42.2635
  652.0000    17.3224    16.0690    62.2203   -57.2835    37.0686
  652.5000    17.0973    15.9198    62.1977   -59.2163    32.3190
  653.0000    16.8721    15.5452    62.9316   -60.1043    26.6790
  653.5000    16.4964    15.2454    64.4105   -60.3955    25.4917
  654.0000    16.1957    15.0212    66.6346   -60.5373    35.5845
  654.5000    15.8953    14.9467    68.8643   -60.5296    22.2264
  655.0000    15.6703    14.6473    70.3489   -58.8803    23.7106
  655.5000    15.5205    14.4228    71.8279   -57.9773    29.0538
  656.0000    15.2951    14.3483    73.3012   -57.2235    27.4211
  656.5000    15.0702    14.3492    73.2787   -57.9623    26.2338
  657.0000    14.9954    14.5000    72.5054   -59.1488    31.4286
  657.5000    14.9964    14.6647    70.9813   -59.8876    36.1781
  658.0000    14.9971    14.9650    70.2080   -60.3279    42.7086
  658.5000    15.1485    15.2530    68.6840   -60.6189    39.1466
  659.0000    15.2998    15.4905    67.1599   -60.7625    39.2950
  659.5000    15.4512    15.7156    65.6359   -60.7531    33.3581
  660.0000    15.4518    15.7808    65.6134   -60.2979    30.8349
  660.5000    15.3019    15.5563    65.5908   -59.0964    36.1781
  661.0000    15.0768    15.2397    67.0698   -57.8948    44.0445
  661.5000    14.8246    14.7916    70.0502   -56.6933    48.9426
  662.0000    14.4629    14.3433    72.2800   -57.5813    40.9277
  662.5000    14.2382    13.8952    74.5097   -60.2604    37.3654
  663.0000    14.1009    13.5275    75.9943   -60.7026    36.4749
  663.5000    14.0263    13.1584    77.4732   -60.8443    38.8498
  664.0000    13.9518    13.0841    78.2014   -60.8349    30.9834
  664.5000    13.9525    13.0098    78.1732   -60.8275    36.4749
  665.0000    13.9533    13.0881    78.1507   -60.6707    32.6160
  665.5000    13.8692    13.2383    77.3774   -59.6184    30.5381
  666.0000    13.8042    13.3874    78.1113   -59.4617    35.2875
  666.5000    13.7296    13.3131    78.0831   -60.6482    34.9907
  667.0000    13.6551    13.1637    78.8169   -61.6855    34.3970
  667.5000    13.5053    13.0143    81.0410   -60.9317    32.9128
  668.0000    13.3554    12.7898    81.7748   -59.7321    27.2728
  668.5000    13.1990    12.5653    82.5031   -60.3216    21.3358
  669.0000    12.9051    12.3408    83.2313   -59.4167    40.9277
  669.5000    12.7498    12.2665    83.2031   -59.5585    33.9518
  670.0000    12.6054    12.0421    83.9369   -59.9988    41.9666
  670.5000    12.5264    11.8927    84.6652   -59.9913    55.0278
  671.0000    12.3810    11.8183    86.1385   -59.9838    51.7626
  671.5000    12.3065    11.6689    86.8723   -59.9763    51.0205
  672.0000    12.3072    11.6697    87.6005   -59.9688    50.1299
  672.5000    12.2327    11.6704    88.3287   -59.3643    46.8646
  673.0000    12.2334    11.6712    89.0569   -57.8642    36.3266
  673.5000    12.2342    11.7470    89.0288   -56.0657    35.4360
  674.0000    12.2349    11.8229    89.0062   -55.0153    22.8200
  674.5000    12.2357    11.9738    88.9837   -56.4329    29.9443
  675.0000    12.2364    11.9745    88.9611   -58.2088    25.7885
  675.5000    12.2372    12.1254    88.9386   -59.5149    22.3747
  676.0000    12.2380    12.1262    88.9161   -60.0600    21.0389
  676.5000    12.3140    12.1269    88.1428   -60.3681    28.9054
  677.0000    12.3148    12.1277    87.3695   -60.6420    29.0538
  677.5000    12.3155    12.1284    87.3469   -60.6343    28.3117
  678.0000    12.3163    12.1292    85.0721   -60.7762    23.8590
  678.5000    12.3170    12.1299    84.2989   -60.9180    25.0464
  679.0000    12.3178    12.1307    83.5312   -60.9104    23.2653
  679.5000    12.2432    12.0564    85.7553   -61.2064    15.5474
  680.0000    12.2440    11.9818    87.2399   -61.7910    22.5232
  680.5000    12.2447    11.8324    88.7132   -62.3831    20.4453
  681.0000    12.2455    11.6830    89.4414   -62.3731    25.3432
  681.5000    12.2463    11.6840    90.1752   -62.0671    31.2802
  682.0000    12.1717    11.5344    90.8978   -61.4626    30.6864
  682.5000    12.0219    11.3850    90.8753   -59.5148    23.7106
  683.0000    11.9473    11.3859    92.3542   -58.1640    36.7718
  683.5000    11.8728    11.3867    93.8332   -56.9625    34.9907
  684.0000    11.8735    11.3124    94.5670   -58.2983    24.8979
  684.5000    11.7990    11.1630    94.5389   -59.3355    32.3190
  685.0000    11.7997    11.0136    94.5163   -59.7761    34.9907
  685.5000    11.8005    10.8640    94.4938   -59.4698    33.8034
  686.0000    11.9518    10.7899    93.7205   -59.3131    16.8830
  686.5000    12.1032    10.9408    93.6980   -60.2030    18.9611
  687.0000    12.3298    11.0166    92.9247   -59.8951    12.4304
  687.5000    12.6318    11.0924    92.9021   -59.5891    11.9851
  688.0000    13.0844    11.3184    91.3781   -59.4323    20.4453
  688.5000    13.6875    11.5444    88.3525   -60.1711    21.1874
  689.0000    14.5919    12.1457    83.8255   -60.4640    12.8757
  689.5000    15.7222    13.1975    77.7969   -60.1561    13.7662
