~VERSION INFORMATION
 VERS.                2.0:   CWLS LOG ASCII STANDARD - VERSION 2.0
 WRAP.                 NO:   ONE LINE PER DEPTH STEP
~WELL INFORMATION
#MNEM.UNIT      DATA TYPE    INFORMATION
#----------   ------------   ------------------------------
 STRT.F           41.0000:   START DEPTH
 STOP.F          473.5000:   STOP DEPTH
 STEP.F            0.5000:   STEP LENGTH
 NULL.          -999.2500:   NO VALUE
 COMP. BROWN JOHN E&C INC:   COMPANY
 WELL. SX 10 #54-43-10-10:   WELL
 FLD .             TEAPOT:   FIELD
 LOC .      S10 T38N R78W:   LOCATION
 CNTY.            NATRONA:   COUNTY
 STAT.            WYOMING:   STATE
 CTRY. UNITED STATES OF AMERICA:   COUNTRY
 SRVC.       Schlumberger:   SERVICE COMPANY
 DATE.        13-SEP-1990:   LOGDATE
 API .       490251131600:   API NUMBER
~CURVE INFORMATION
#MNEM.UNIT       API CODE    CURVE DESCRIPTION
#----------   ------------   ------------------------------
 DEPT.F                  :   
 GRR .GAPI   07 310 01 00:   GAMMA RAY
 ILD .OHMM   07 120 46 00:   INDUCTION LOG DEEP
 ILM .OHMM   07 120 44 00:   INDUCTION LOG MEDIUM
~PARAMETER INFORMATION
#MNEM.UNIT          VALUE    DESCRIPTION
#----------   ------------   ------------------------------
 PD  .                 GL:   PERMANENT DATUM
 EPD .F            5193.0:   ELEVATION PERMANENT DATUM
 LMF .                 KB:   LOG MEASURED FROM
 DAPD.F              10.0:   FEET ABOVE PERMANENT DATUM
 DMF .                 KB:   DRILLING MEASURED FROM
 EKB .F            5203.0:   KELLING BUSHING
 EDF .F            5202.0:   DRILLING FLOOR
 EGL .F            5193.0:   GROUND LEVEL
 DATE.        13-SEP-1990:   RUN DATE
 RUN .                  1:   RUN NUMBER
 DD  .F               480:   DEPTH DRILLER
 DL  .F               479:   DEPTH LOGGER
 BLI .F               473:   BOTTOM LOG INTERVAL
 TLI .F                47:   TOP LOG INTERVAL
 CS  .IN            8.625:   CASING SIZE
 CBD .F                50:   CASING BOTTOM DRILLER
 CBL .F                47:   CASING BOTTOM LOGGER
 BS  .IN            7.875:   BIT SIZE
 BSD .F               480:   BIT SIZE AT DEPTH
 DFT .          AIR/ FOAM:   DRILLING FLUID TYPE
 MSS .           MUD TANK:   MUD SAMPLE SOURCE
 MFSS.               MEAS:   MUD FILTRATE SAMPLE SOURCE
 MCSS.               CALC:   MUD CAKE SAMPLE SOURCE
 TCS .HRS            0700:   TIME CURCULATED STOPPED
 TLAB.HRS            0730:   TIME LOGGER AT BOTTOM
 LUN .               8168:   LOGGING UNIT NUMBER
 LUL .           GILLETTE:   LOGGING UNIT LOCATION
 ENGI.          M. FISHER:   RECORDING ENGINEER
 WITN.          G. STRONG:   WITNESSED BY
 CLNT.            A2DTECH:   CLIENT CODE
 ORIG.           5" PRINT:   ORIGIN OF DATA
 UWI .       490251131600:   UNIQUE WELL ID
 DICO. A2D Technologies, Inc.:   DIGITIZING COMPANY
~OTHER INFORMATION
~A   DEPT       GRR       ILD        ILM   
# ...
  132.0000   132.5845     6.9261     7.0189
  132.5000   132.2624     6.9715     7.0166
  133.0000   131.3324     6.9669     7.0636
  133.5000   128.5972     7.1153     7.1098
  134.0000   129.4820     7.2548     7.1073
  134.5000   131.5734     7.2009     7.3040
  135.0000   133.6648     7.4496     7.5066
  135.5000   135.8237     7.6548     7.7149
  136.0000   138.1443     7.7575     7.9290
  136.5000   139.0341     7.8615     7.9814
  137.0000   138.1038     7.9119     8.0901
  137.5000   136.2737     8.0169     8.1436
  138.0000   134.7451     8.0684     8.1402
  138.5000   135.9265     8.1201     8.1375
  139.0000   137.1130     8.1158     8.1348
  139.5000   137.7011     8.1105     8.1321
  140.0000   136.7709     8.0502     8.1288
  140.5000   137.6557     7.9904     8.0700
  141.0000   137.6350     7.9311     7.9564
  141.5000   137.6102     7.8178     7.8989
  142.0000   135.7800     7.7597     7.8411
  142.5000   130.3300     7.6480     7.6774
  143.0000   127.8965     7.5388     7.5693
  143.5000   128.7813     7.3799     7.4112
  144.0000   132.9792     7.1249     7.2063
  144.5000   137.4839     6.8285     6.9588
  145.0000   136.2571     6.1532     6.3841
  145.5000   132.6169     5.8997     5.8888
  146.0000   131.0885     5.8966     5.5312
  146.5000   127.3813     5.8528     5.4912
  147.0000   124.4065     5.8904     5.6046
  147.5000   124.6879     5.9321     5.8028
  148.0000   128.5893     6.0906     6.0857
  148.5000   135.9487     6.3018     6.3418
  149.0000   139.5401     6.7035     6.6546
  149.5000   140.3933     7.0816     6.9828
  150.0000   141.3011     7.3781     7.4294
  150.5000   143.1165     7.6906     7.7432
  151.0000   143.4191     7.7974     7.9041
  151.5000   143.7216     7.9606     8.0123
  152.0000   142.5114     8.0153     8.0664
  152.5000   138.5779     8.1264     8.1212
  153.0000   132.8290     8.1824     8.3472
  153.5000   132.2239     8.2959     8.4035
  154.0000   136.4599     8.4110     8.4601
  154.5000   141.6251     8.4773     8.4685
  155.0000   143.7216     8.6460     8.5746
  155.5000   143.0095     8.6454     8.6925
  156.0000   139.4856     8.7050     8.7507
  156.5000   137.3676     8.7043     8.8101
  157.0000   135.2496     8.7037     8.9312
  157.5000   134.6445     8.7637     8.9289
  158.0000   136.4599     8.8240     8.9892
  158.5000   135.5522     8.8846     9.0498
  159.0000   132.5265     8.8840     9.1108
  159.5000   131.3162     8.8834     9.1089
  160.0000   133.4342     8.8828     9.1704
  160.5000   137.9728     8.8820     9.1681
  161.0000   140.7083     8.8814     9.1029
  161.5000   141.6036     8.7587     9.0383
  162.0000   140.0383     8.6376     8.9122
  162.5000   139.1831     8.6370     8.8489
  163.0000   140.9985     8.6365     8.7860
  163.5000   143.1165     8.4583     8.7236
  164.0000   145.5371     8.3994     8.6616
  164.5000   146.7473     8.3988     8.5408
  165.0000   144.9319     8.2808     8.4722
  165.5000   139.1831     8.1612     8.3613
  166.0000   133.1316     7.9444     8.1878
  166.5000   131.0136     7.7268     7.9625
  167.0000   131.6188     7.5675     7.7434
  167.5000   132.8339     7.1097     7.3754
  168.0000   135.0034     6.6336     6.9284
  168.5000   137.7728     6.3632     6.5084
  169.0000   142.2088     5.9370     6.1564
  169.5000   145.8396     5.3881     5.3963
  170.0000   147.9576     4.7235     4.7543
  170.5000   143.1165     4.0774     4.2439
  171.0000   135.8548     3.4689     3.4620
  171.5000   132.2239     3.0108     2.9517
  172.0000   131.3162     2.7898     2.7920
  172.5000   129.8033     2.7322     2.5511
  173.0000   126.1725     2.7132     2.5506
  173.5000   122.5416     2.7319     2.6399
  174.0000   122.5495     2.7698     2.7898
  174.5000   127.2160     2.9682     3.0732
  175.0000   134.3414     3.4088     3.3620
  175.5000   140.6959     3.8345     3.8200
  176.0000   142.5114     4.4668     4.4638
  176.5000   143.4191     5.0409     5.0905
  177.0000   144.9319     5.6498     5.6858
  177.5000   147.3525     6.0127     6.0085
  178.0000   149.7731     6.3109     6.3056
  178.5000   151.5885     6.4430     6.5268
  179.0000   152.7988     6.5778     6.6621
  179.5000   153.1448     6.7154     6.7071
  180.0000   150.3782     6.7150     6.7523
  180.5000   147.6462     6.7145     6.7043
  181.0000   145.5109     6.7140     6.6052
  181.5000   145.5865     6.5299     6.3401
  182.0000   146.4448     6.2167     5.9972
  182.5000   147.0499     5.7640     5.7919
  183.0000   150.0756     5.4153     5.6325
  183.5000   155.2194     5.1587     5.4397
  184.0000   157.0348     5.0874     5.2900
  184.5000   150.3782     5.0871     5.1802
  185.0000   143.1165     5.1221     5.1434
  185.5000   139.7882     5.2294     5.1781
  186.0000   139.4856     5.3759     5.3245
  186.5000   146.4448     5.7211     5.5145
  187.0000   156.4454     6.0466     5.8617
  187.5000   162.7837     6.3980     6.3243
  188.0000   155.6432     6.7157     6.7297
  188.5000   142.8139     7.0401     7.1116
  189.0000   140.0908     7.2877     7.4633
  189.5000   143.4191     7.6491     7.8324
  190.0000   147.9576     7.9731     8.1071
  190.5000   150.3782     8.1965     8.2752
  191.0000   146.7473     8.2530     8.3310
  191.5000   145.5371     8.1954     8.3247
  192.0000   146.1422     8.1383     8.1563
  192.5000   152.1936     8.1377     8.0422
  193.0000   153.4039     8.0212     7.8752
  193.5000   153.4039     7.9054     7.7653
  194.0000   153.4039     7.6975     7.6570
  194.5000   154.1039     7.5387     7.6554
  195.0000   155.8245     7.3832     7.4448
  195.5000   157.0348     7.1314     7.2399
  196.0000   156.7322     6.8883     7.0407
  196.5000   154.6142     6.6996     6.8939
  197.0000   154.6142     6.4712     6.6536
  197.5000   156.4297     6.0798     6.2114
  198.0000   157.0348     5.7917     5.8349
  198.5000   155.5219     5.5507     5.6352
  199.0000   152.4962     5.3604     5.6735
  199.5000   150.3782     5.4030     5.7914
  200.0000   150.3782     5.5902     5.8776
  200.5000   147.7995     5.9093     5.9510
  201.0000   145.3746     6.0314     6.0746
  201.5000   143.5531     6.3728     6.3299
  202.0000   142.9382     6.8294     6.6887
  202.5000   142.9261     7.2636     7.2162
  203.0000   144.4204     7.5170     7.5726
  203.5000   147.4254     7.7792     7.8373
  204.0000   149.8271     7.8858     8.0568
  204.5000   150.7713     7.9925     8.1655
  205.0000   147.9940     8.1012     8.1065
  205.5000   147.3791     8.0978     8.1043
  206.0000   151.8895     8.0952     8.1022
  206.5000   157.6094     8.1494     8.1000
  207.0000   158.2041     8.1460     8.1541
  207.5000   154.5697     8.2000     8.1514
  208.0000   146.4133     8.1972     8.1492
  208.5000   141.8768     8.1938     8.1471
  209.0000   143.0690     8.1345     8.1449
  209.5000   145.4706     8.1318     8.0866
  210.0000   147.8723     8.0730     8.0844
  210.5000   149.9724     8.0703     8.0260
  211.0000   152.0724     8.0676     8.0238
  211.5000   154.2725     8.0086     7.9663
  212.0000   155.9708     8.0623     8.0201
  212.5000   155.6547     8.0589     8.0174
  213.0000   154.1348     8.0563     8.0153
  213.5000   154.7265     8.0536     8.0126
  214.0000   157.4299     8.0508     8.0662
  214.5000   158.6249     8.0476     8.0640
  215.0000   155.8955     7.9894     8.1185
  215.5000   153.1690     7.5041     8.0597
  216.0000   153.4591     7.1963     7.7663
  216.5000   155.2574     6.8535     7.1603
  217.0000   157.0558     6.5621     6.8197
  217.5000   160.3117     6.2588     6.1028
  218.0000   169.0961     6.1281     5.7325
  218.5000   175.7210     6.1261     5.8513
  219.0000   175.1061     6.0818     6.0193
  219.5000   170.2680     5.9961     6.0121
  220.0000   166.9382     5.9062     6.0527
  220.5000   165.4183     5.7478     6.1354
  221.0000   168.7221     5.6669     6.1334
  221.5000   168.1072     5.6259     5.9642
  222.0000   166.2856     5.5852     5.6690
  222.5000   158.4309     5.5833     5.2621
