~VERSION INFORMATION
 VERS.                2.0:   CWLS LOG ASCII STANDARD - VERSION 2.0
 WRAP.                 NO:   ONE LINE PER DEPTH STEP
~WELL INFORMATION
#MNEM.UNIT      DATA TYPE    INFORMATION
#----------   ------------   ------------------------------
 STRT.F          100.0000:   START DEPTH
 STOP.F          874.0000:   STOP DEPTH
 STEP.F            0.5000:   STEP LENGTH
 NULL.          -999.2500:   NO VALUE
 COMP. U S NAVY-INTEX OIL:   COMPANY
 WELL.     NPR #3 #45-S-2:   WELL
 FLD .             TEAPOT:   FIELD
 LOC .       S2 T38N R78W:   LOCATION
 CNTY.            NATRONA:   COUNTY
 STAT.            WYOMING:   STATE
 CTRY. UNITED STATES OF AMERICA:   COUNTRY
 SRVC.       Schlumberger:   SERVICE COMPANY
 DATE.        15-JUL-1962:   LOGDATE
 API .       490250642400:   API NUMBER
~CURVE INFORMATION
#MNEM.UNIT       API CODE    CURVE DESCRIPTION
#----------   ------------   ------------------------------
 DEPT.F                  :   
 ASN .OHMM   05 041 16 00:   AMPLIFIED SHORT NORMAL 16"
 CILD.MMHO   05 110 46 00:   CONDUCTIVITY INDUCTION LOG DEEP
 ILD .OHMM   05 120 46 00:   INDUCTION LOG DEEP
 SPR .MV     05 010 01 00:   SPONTANEOUS POTENTIAL FROM RES.
 GR  .GAPI   30 310 01 00:   GAMMA RAY
~PARAMETER INFORMATION
#MNEM.UNIT          VALUE    DESCRIPTION
#----------   ------------   ------------------------------
 LMF .                 KB:   LOG MEASURED FROM
 DMF .                 KB:   DRILLING MEASURED FROM
 EKB .F              5149:   KELLING BUSHING
 EGL .F              5144:   GROUND LEVEL
 DATE.        15-JUL-1962:   RUN DATE
 RUN .                  1:   RUN NUMBER
 DD  .F               875:   DEPTH DRILLER
 DL  .F               875:   DEPTH LOGGER
 BLI .F               874:   BOTTOM LOG INTERVAL
 TLI .F               100:   TOP LOG INTERVAL
 BS  .IN             6.75:   BIT SIZE
 BSD .F               875:   BIT SIZE AT DEPTH
 DFT .           OIL EMUL:   DRILLING FLUID TYPE
 DFD .               10.2:   DRILLING FLUID DENSITY
 DFV .                 42:   DRILLING FLUID VISCOSITY
 DFL .                4.6:   DRILLING FLUID LOSS
 RMS .OHMM            6.0:   RESISTIVITY MUD SAMPLE
 MST .F                64:   MUD SAMPLE TEMPERATURE
 RMF .OHMM            5.8:   RESISTIVITY MUD FILTRATE SAMPLE
 MFST.F                64:   MUD FILTRATE SAMPLE TEMPERATURE
 RMC .OHMM            5.2:   RESISTIVITY MUD CAKE
 MCST.F                66:   MUD CAKE SAMPLE TEMPERATURE
 TCS .HRS             0.5:   TIME CURCULATED STOPPED
 LUN .               2503:   LOGGING UNIT NUMBER
 LUL .               CSPR:   LOGGING UNIT LOCATION
 ENGI.           ELLERMAN:   RECORDING ENGINEER
 WITN.          JORGENSON:   WITNESSED BY
 CLNT.            A2DTECH:   CLIENT CODE
 ORIG.           5" PRINT:   ORIGIN OF DATA
 UWI .       490250642400:   UNIQUE WELL ID
 DICO. A2D Technologies, Inc.:   DIGITIZING COMPANY
~OTHER INFORMATION
~A   DEPT        ASN      CILD       ILD        SPR         GR   
# ...
  832.0000    18.2846    53.1508    15.8618   -51.0365    27.3185
  832.5000    17.7621    52.3485    15.6384   -50.1338    28.8209
  833.0000    17.3893    52.3030    15.4890   -49.0816    35.5943
  833.5000    17.0913    53.7742    15.2595   -47.8800    36.6457
  834.0000    16.8683    56.7486    15.0299   -46.8278    43.5688
  834.5000    16.6390    58.9878    14.6698   -45.9251    33.4747
  835.0000    16.2600    60.4471    14.4463   -45.3213    39.1939
  835.5000    15.8251    61.1711    14.2228   -45.0165    41.1481
  836.0000    15.3775    61.9966    13.9993   -46.8700    34.9697
  836.5000    15.0796    62.5909    13.8504   -47.2470    32.1045
  837.0000    14.7816    62.9495    13.6192   -46.3428    31.1972
  837.5000    14.4833    63.5101    13.4232   -45.7391    30.2899
  838.0000    14.2602    64.7243    13.1801   -45.2848    29.0133
  838.5000    14.1869    65.4372    13.0315   -44.8305    31.4639
  839.0000    14.3384    65.3939    12.9577   -44.5257    34.4947
  839.5000    14.4147    65.3485    13.0336   -44.2209    33.4368
  840.0000    14.2665    65.3030    13.1095   -44.0656    21.5355
  840.5000    14.0372    65.2576    13.1108   -44.0597    10.3872
  841.0000    13.8203    65.2121    13.0370   -44.2034     4.0582
  841.5000    13.5976    65.9265    12.9629   -44.1973    15.5003
  842.0000    13.4493    66.6282    12.8891   -44.0407    23.4786
  842.5000    13.3011    66.5835    12.7404   -43.8854    21.6676
  843.0000    13.1529    68.0539    12.6666   -43.7301    26.3326
  843.5000    13.0398    70.2819    12.5180   -43.7242    23.4675
  844.0000    12.8564    72.5099    12.3696   -43.8693    23.0120
  844.5000    12.7830    73.9804    12.2958   -44.1624    10.3577
  845.0000    12.7096    74.6932    12.2220   -43.8562    10.5108
  845.5000    12.6362    75.4173    12.0975   -43.4875  -999.2500
  846.0000    12.5878    75.3614    12.0744   -42.9476  -999.2500
  846.5000    12.5581    75.3167    12.0006   -42.4878  -999.2500
  847.0000    12.4161    76.0303    11.9268   -42.0389  -999.2500
  847.5000    12.3427    75.9848    11.9281   -41.7328  -999.2500
  848.0000    12.2693    76.6977    11.8541   -41.4280  -999.2500
  848.5000    12.1960    76.6515    11.8553   -41.2727  -999.2500
  849.0000    12.1226    77.3659    11.7814   -41.2668  -999.2500
  849.5000    12.0496    78.0787    11.7826   -41.1115  -999.2500
  850.0000    11.9762    79.5455    11.7088   -40.9567  -999.2500
  850.5000    11.9012    81.0159    11.6349   -40.8072  -999.2500
  851.0000    11.8263    81.0239    11.5612   -40.7848  -999.2500
  851.5000    11.8263    81.7631    11.6371   -40.5082  -999.2500
  852.0000    11.7515    82.5023    11.6382   -40.4391  -999.2500
  852.5000    11.7515    82.4793    11.6392   -40.2093  -999.2500
  853.0000    11.7515    82.4610    11.5654   -40.2093  -999.2500
  853.5000    11.6766    82.4426    11.4916   -40.0598  -999.2500
  854.0000    11.6766    82.4242    11.4929   -39.9103  -999.2500
  854.5000    11.6766    82.4053    11.4188   -39.9103  -999.2500
  855.0000    11.6735    82.3829    11.3450   -39.9103  -999.2500
  855.5000    11.5269    82.3674    11.3218   -39.9103  -999.2500
  856.0000    11.5269    82.5379    11.1974   -39.9103  -999.2500
  856.5000    11.4521    83.0871    11.1987   -39.9034  -999.2500
  857.0000    11.4328    83.0670    11.1998   -39.7608  -999.2500
  857.5000    11.3772    83.8068    11.0511   -39.6114  -999.2500
  858.0000    11.3772    83.7879    11.0479   -39.6114  -999.2500
  858.5000    11.3024    84.5740    10.9035   -39.4619  -999.2500
  859.0000    11.2275    85.2663    10.8297   -39.3124  -999.2500
  859.5000    11.2275    86.0055    10.7562   -39.1299  -999.2500
  860.0000    11.1527    86.7424    10.7572   -38.9761  -999.2500
  860.5000    11.0778    86.7235    10.6832   -38.7145  -999.2500
  861.0000    11.0778    86.7046    10.6094   -38.4155  -999.2500
  861.5000    11.0778    86.6850    10.6107   -38.2661  -999.2500
  862.0000    11.0778    86.6667    10.6117   -38.1166  -999.2500
  862.5000    11.0778    86.6477    10.6128   -37.9671  -999.2500
  863.0000    11.1527    86.6254    10.6138   -37.9671  -999.2500
  863.5000    11.1527    86.6070    10.6149   -37.9671  -999.2500
  864.0000    11.2275    86.5886    10.6908   -37.9671  -999.2500
  864.5000    11.2275    86.5703    10.7667   -38.1166  -999.2500
  865.0000    11.2275    86.5519    10.7749   -38.2661  -999.2500
  865.5000    11.2275    86.5335    10.8538   -38.2767  -999.2500
  866.0000    11.1527    86.5152    10.9198   -38.4155  -999.2500
  866.5000    11.0778    86.4962    10.9208   -38.4155  -999.2500
  867.0000    11.0030    86.4773    10.9219   -38.5650  -999.2500
  867.5000    10.9281  -999.2500    10.9229   -38.5930  -999.2500
  868.0000    10.9281  -999.2500    10.9240   -38.7145  -999.2500
  868.5000    10.8533  -999.2500    10.9250   -38.7145  -999.2500
  869.0000    10.8533  -999.2500    10.9260   -38.7145  -999.2500
  869.5000    10.8533  -999.2500    10.9271   -38.7145  -999.2500
  870.0000    10.8533  -999.2500    10.8533   -38.7145  -999.2500
  870.5000    10.8533  -999.2500    10.8483   -38.8640  -999.2500
  871.0000    10.8533  -999.2500    10.7805   -38.8640  -999.2500
  871.5000    10.8533  -999.2500    10.7070   -38.8640  -999.2500
  872.0000    10.7784  -999.2500    10.6329   -38.8640  -999.2500
  872.5000    10.5539  -999.2500    10.5594   -38.8640  -999.2500
  873.0000    10.4042  -999.2500    10.5604   -38.7145  -999.2500
  873.5000    10.2545  -999.2500    10.6363   -38.7145  -999.2500
  874.0000    10.0299  -999.2500    10.7606   -38.5451  -999.2500
