~VERSION INFORMATION
 VERS.                2.0:   CWLS LOG ASCII STANDARD - VERSION 2.0
 WRAP.                 NO:   ONE LINE PER DEPTH STEP
~WELL INFORMATION
#MNEM.UNIT      DATA TYPE    INFORMATION
#----------   ------------   ------------------------------
 STRT.F         1400.0000:   START DEPTH
 STOP.F         3422.0000:   STOP DEPTH
 STEP.F            0.5000:   STEP LENGTH
 NULL.          -999.2500:   NO VALUE
 COMP. LAWRENCE/ALLISON INC:   COMPANY
 WELL.   NPR 3 #36-STX-23:   WELL
 FLD .             TEAPOT:   FIELD
 LOC .      S23 T38N R78W:   LOCATION
 CNTY.            NATRONA:   COUNTY
 STAT.            WYOMING:   STATE
 CTRY. UNITED STATES OF AMERICA:   COUNTRY
 SRVC.            Unknown:   SERVICE COMPANY
 DATE.        04-JAN-1985:   LOGDATE
 API .       490251137700:   API NUMBER
~CURVE INFORMATION
#MNEM.UNIT       API CODE    CURVE DESCRIPTION
#----------   ------------   ------------------------------
 DEPT.F                  :   
 ROP .MIN/FT 91 810 01 00:   RAT OF DRILLING PENETRATION
 TGAS.UNITS  91 830 01 00:   TOTAL GAS UNIT
~PARAMETER INFORMATION
#MNEM.UNIT          VALUE    DESCRIPTION
#----------   ------------   ------------------------------
 DATE.           1-4-1985:   RUN DATE
 RUN .                  1:   RUN NUMBER
 DD  .F              3427:   DEPTH DRILLER
 TLI .F              1400:   TOP LOG INTERVAL
 BSD .F              3427:   BIT SIZE AT DEPTH
 WITN. RAY ANDERSON/JACK HARBISON:   WITNESSED BY
 CLNT.            A2DTECH:   CLIENT CODE
 ORIG.           5" PRINT:   ORIGIN OF DATA
 UWI .       490251137700:   UNIQUE WELL ID
 DICO. A2D Technologies, Inc.:   DIGITIZING COMPANY
~OTHER INFORMATION
~A  DEPT       ROP       TGAS   
 1400.0000  -999.2500  -999.2500
 1400.5000     1.0463     0.9632
 1401.0000     1.0451     0.9873
 1401.5000     1.0440     1.0114
 1402.0000     1.0428     1.0355
 1402.5000     1.0417     1.0596
 1403.0000     1.0405     1.0837
 1403.5000     1.0393     1.1078
 1404.0000     1.0382     1.1320
 1404.5000     1.0370     1.1561
 1405.0000     1.0359     1.1802
 1405.5000     1.0347     1.2043
 1406.0000     1.0336     1.2284
 1406.5000     1.2835     1.2525
 1407.0000     1.2839     1.2766
 1407.5000     0.9573     1.3007
 1408.0000     0.7365     1.3248
 1408.5000     0.7369     1.3489
 1409.0000     0.7373     1.3730
 1409.5000     0.7376     1.3971
 1410.0000     0.9976     1.4213
 1410.5000     0.9883     1.4454
 1411.0000     0.9983     1.4695
 1411.5000     1.0083     1.4936
 1412.0000     1.2490     1.5177
 1412.5000     1.2494     1.5418
 1413.0000     1.2594     1.5659
 1413.5000     1.2597     1.5900
 1414.0000     1.0486     1.6141
 1414.5000     1.0585     1.6382
 1415.0000     1.0685     1.6623
 1415.5000     1.0689     1.6864
 1416.0000     1.0788     1.7106
 1416.5000     1.0696     1.7347
 1417.0000     1.0603     1.7588
 1417.5000     1.0535     1.7829
 1418.0000     1.0442     1.6599
 1418.5000     1.0422     0.0000
 1419.0000     1.0425     0.0000
 1419.5000     1.0429     0.0000
 1420.0000     0.7548     0.0000
 1420.5000     0.7527     0.0003
 1421.0000     0.7506     0.0555
 1421.5000     0.7485     0.1108
 1422.0000     0.5159     0.1660
 1422.5000     0.5163     0.2212
 1423.0000     0.5166     0.2764
 1423.5000     1.0362     0.3317
 1424.0000     1.0173     0.3869
 1424.5000     1.0177     0.4421
 1425.0000     1.0084     0.4973
 1425.5000     1.0088     0.5526
 1426.0000     0.7495     0.6078
 1426.5000     0.7499     0.6630
 1427.0000     0.7503     0.7182
 1427.5000     0.7314     0.7734
 1428.0000     0.5105     0.8287
 1428.5000     0.5110     0.8839
 1429.0000     0.5113     0.9391
 1429.5000     0.5213     0.9943
 1430.0000     0.5217     1.0496
 1430.5000     0.5220     1.1048
 1431.0000     0.5128     1.1600
 1431.5000     0.5420     1.2152
 1432.0000     0.6000     1.2705
 1432.5000     0.6773     1.3257
 1433.0000     0.7642     1.3809
 1433.5000     0.7636     1.4361
 1434.0000     0.7625     1.4914
 1434.5000     0.7615     1.5466
 1435.0000     0.7604     1.6018
 1435.5000     0.7594     1.6570
 1436.0000     0.7583     1.6416
 1436.5000     0.7573     0.0000
 1437.0000     0.7562     0.0000
 1437.5000     0.7552     0.0000
 1438.0000     0.7541     0.0000
 1438.5000     0.7530     0.0000
 1439.0000     0.7520     0.0000
 1439.5000     0.7509     0.0054
 1440.0000     0.7500     0.0606
 1440.5000     0.7519     0.1158
 1441.0000     0.7537     0.1711
 1441.5000     0.7555     0.2263
 1442.0000     0.7573     0.2815
 1442.5000     0.7591     0.3367
 1443.0000     0.7609     0.3919
 1443.5000     0.7627     0.4472
 1444.0000     0.7867     0.5024
 1444.5000     0.8540     0.5576
 1445.0000     0.9212     0.6021
 1445.5000     0.9885     0.6076
 1446.0000     1.0164     0.6131
 1446.5000     1.0170     0.6186
 1447.0000     0.9982     0.6241
 1447.5000     1.0181     0.6296
 1448.0000     1.0571     0.6351
 1448.5000     1.1058     0.6406
 1449.0000     1.1544     0.6461
 1449.5000     1.2319     0.6516
 1450.0000     1.2804     0.6571
 1450.5000     1.2330     0.6626
 1451.0000     1.1759     0.6681
 1451.5000     1.0899     0.6737
 1452.0000     1.0326     0.6792
 1452.5000     1.0910     0.6847
 1453.0000     1.1781     0.6902
 1453.5000     1.2268     0.6957
 1454.0000     1.2562     0.7012
 1454.5000     1.2087     0.7067
 1455.0000     1.1323     0.7122
 1455.5000     1.0655     0.7177
 1456.0000     1.1046     0.7232
 1456.5000     1.1436     0.7287
 1457.0000     1.1922     0.7342
 1457.5000     1.2601     0.7397
 1458.0000     1.2797     0.7452
 1458.5000     1.1843     0.7507
 1459.0000     1.1079     0.7562
 1459.5000     1.0699     0.7617
 1460.0000     1.0608     0.7672
 1460.5000     1.0608     0.7951
 1461.0000     1.0596     0.8311
 1461.5000     1.0584     0.8670
 1462.0000     1.0573     0.9030
 1462.5000     1.0561     0.9390
 1463.0000     1.0549     0.9749
 1463.5000     1.0537     1.0109
 1464.0000     1.0525     1.0469
 1464.5000     1.0513     1.0829
 1465.0000     1.0501     1.1188
 1465.5000     1.0489     1.1548
 1466.0000     1.0706     1.1908
 1466.5000     1.1313     1.2267
 1467.0000     1.1920     1.2627
 1467.5000     1.2527     1.2987
 1468.0000     1.2678     1.3346
 1468.5000     1.2060     1.3706
 1469.0000     1.1442     1.4066
 1469.5000     1.0825     1.4425
 1470.0000     1.0337     1.4785
 1470.5000     1.0332     1.5145
 1471.0000     1.0324     1.5504
 1471.5000     1.0315     1.5864
 1472.0000     1.0307     1.6224
 1472.5000     1.0298     1.6584
 1473.0000     1.0289     1.6943
 1473.5000     1.0281     1.7303
 1474.0000     1.0272     1.7663
 1474.5000     1.0264     1.8022
 1475.0000     1.0255     1.8382
 1475.5000     1.0247     1.8742
 1476.0000     1.0238     1.8646
 1476.5000     1.0230     1.8363
 1477.0000     1.0221     1.8079
 1477.5000     1.0213     1.7795
 1478.0000     1.0204     1.7512
 1478.5000     1.0196     1.7228
 1479.0000     1.0187     1.6944
 1479.5000     1.0179     1.6661
 1480.0000     1.0170     1.6377
 1480.5000     1.0178     1.6093
 1481.0000     1.0222     1.5809
 1481.5000     1.0274     1.5526
 1482.0000     1.0568     1.5242
 1482.5000     1.1151     1.4958
 1483.0000     1.1733     1.4675
 1483.5000     1.2316     1.4391
 1484.0000     1.2995     1.4107
 1484.5000     1.2616     1.3824
 1485.0000     1.1564     1.3540
 1485.5000     1.0704     1.3256
 1486.0000     0.7343     1.2973
 1486.5000     0.7349     1.2689
 1487.0000     0.7354     1.2405
 1487.5000     0.7360     1.2121
 1488.0000     0.7365     1.1838
 1488.5000     0.7371     1.1554
 1489.0000     0.7377     1.1270
 1489.5000     0.7382     1.0987
 1490.0000     0.7388     1.0703
 1490.5000     0.7393     1.0419
 1491.0000     0.7399     1.0136
 1491.5000     0.7405     0.9852
 1492.0000     0.7410     0.9412
 1492.5000     0.7416     0.8823
 1493.0000     0.7421     0.8235
 1493.5000     0.7427     0.7647
 1494.0000     0.7433     0.7059
 1494.5000     0.7438     0.6471
 1495.0000     0.7444     0.5882
 1495.5000     0.7450     0.5294
 1496.0000     0.3800     0.4706
 1496.5000     0.3821     0.4118
 1497.0000     0.3838     0.3529
 1497.5000     0.3855     0.2941
 1498.0000     0.3873     0.2353
 1498.5000     0.3890     0.1765
 1499.0000     0.3908     0.1176
 1499.5000     0.3925     0.0588
 1500.0000     0.3942     0.0000
 1500.5000     0.3944     0.0651
 1501.0000     0.3946     0.1302
 1501.5000     0.3948     0.1954
 1502.0000     0.3950     0.2605
 1502.5000     0.3952     0.3256
 1503.0000     0.3954     0.3907
 1503.5000     0.3956     0.4558
 1504.0000     0.3957     0.5210
 1504.5000     0.3959     0.5861
 1505.0000     0.3961     0.6512
 1505.5000     0.3963     0.7163
 1506.0000     0.3965     0.7815
 1506.5000     0.3967     0.8466
 1507.0000     0.3969     0.9117
 1507.5000     0.3971     0.9768
 1508.0000     0.3973     1.0419
 1508.5000     0.3974     1.1071
 1509.0000     0.3977     1.1722
 1509.5000     0.3983     1.2373
 1510.0000     0.3990     1.3024
 1510.5000     0.3998     1.3675
 1511.0000     0.4005     1.4327
 1511.5000     0.4012     1.4978
 1512.0000     0.4019     1.5629
 1512.5000     0.4026     1.6280
 1513.0000     0.4034     1.6931
 1513.5000     0.4041     1.7583
 1514.0000     0.4048     1.7736
 1514.5000     0.4055     1.7656
 1515.0000     0.4062     1.7577
 1515.5000     0.4070     1.7497
 1516.0000     0.4077     1.7418
 1516.5000     0.4084     1.7338
 1517.0000     0.4091     1.7259
 1517.5000     0.4099     1.7179
 1518.0000     0.4106     1.7100
 1518.5000     0.4113     1.7020
 1519.0000     0.4120     1.6941
 1519.5000     0.4127     1.6861
 1520.0000     0.4124     1.6782
 1520.5000     0.4082     1.6702
 1521.0000     0.4040     1.6623
