~VERSION INFORMATION
 VERS.                2.0:   CWLS LOG ASCII STANDARD - VERSION 2.0
 WRAP.                 NO:   ONE LINE PER DEPTH STEP
~WELL INFORMATION
#MNEM.UNIT      DATA TYPE    INFORMATION
#----------   ------------   ------------------------------
 STRT.F           33.0000:   START DEPTH
 STOP.F          957.0000:   STOP DEPTH
 STEP.F            0.5000:   STEP LENGTH
 NULL.          -999.2500:   NO VALUE
 COMP. TESORO PETROLEUM CORP:   COMPANY
 WELL.  NPR #3 46-S-14 #3:   WELL
 FLD .             TEAPOT:   FIELD
 LOC .      S14 T38N R78W:   LOCATION
 CNTY.            NATRONA:   COUNTY
 STAT.            WYOMING:   STATE
 CTRY. UNITED STATES OF AMERICA:   COUNTRY
 SRVC.       Schlumberger:   SERVICE COMPANY
 DATE.        25-JUN-1970:   LOGDATE
 API .       490251023100:   API NUMBER
~CURVE INFORMATION
#MNEM.UNIT       API CODE    CURVE DESCRIPTION
#----------   ------------   ------------------------------
 DEPT.F                  :   
 SPR .MV     05 010 01 00:   SPONTANEOUS POTENTIAL FROM RES.
 ILD .OHMM   05 120 46 00:   INDUCTION LOG DEEP
 CILD.MMHO   05 110 46 00:   CONDUCTIVITY INDUCTION LOG DEEP
 ASN .OHMM   05 041 16 00:   AMPLIFIED SHORT NORMAL 16"
 GR  .GAPI   30 310 01 00:   GAMMA RAY
 CALD.IN     45 280 60 00:   CALIPER FROM DENSITY LOG
 CORR.G/C3   45 356 01 00:   DENSITY CORRECTION
 DPHI.DEC    45 890 12 00:   DENSITY POROSITY SANDSTONE
 RHOB.G/C3   45 350 01 00:   BULK DENSITY
~PARAMETER INFORMATION
#MNEM.UNIT          VALUE    DESCRIPTION
#----------   ------------   ------------------------------
 PD  .                 GL:   PERMANENT DATUM
 EPD .F              5271:   ELEVATION PERMANENT DATUM
 LMF .                 KB:   LOG MEASURED FROM
 DAPD.F                10:   FEET ABOVE PERMANENT DATUM
 DMF .                 KB:   DRILLING MEASURED FROM
 EKB .F              5281:   KELLING BUSHING
 EDF .F              5280:   DRILLING FLOOR
 EGL .F              5271:   GROUND LEVEL
 DATE.        25-JUN-1970:   RUN DATE
 RUN .                  1:   RUN NUMBER
 DD  .F               950:   DEPTH DRILLER
 DL  .F               958:   DEPTH LOGGER
 BLI .F               957:   BOTTOM LOG INTERVAL
 TLI .F                33:   TOP LOG INTERVAL
 CS  .IN            10.75:   CASING SIZE
 CBD .F                30:   CASING BOTTOM DRILLER
 CBL .F                33:   CASING BOTTOM LOGGER
 BS  .IN                9:   BIT SIZE
 BSD .F               950:   BIT SIZE AT DEPTH
 DFT .         MO-MAR MUD:   DRILLING FLUID TYPE
 DFD .                9.7:   DRILLING FLUID DENSITY
 DFV .                 62:   DRILLING FLUID VISCOSITY
 DFPH.                7.4:   DRILLING FLUID PH
 DFL .                5.6:   DRILLING FLUID LOSS
 MSS .           FLOWLINE:   MUD SAMPLE SOURCE
 RMS .OHMM           1.40:   RESISTIVITY MUD SAMPLE
 MST .F                85:   MUD SAMPLE TEMPERATURE
 RMF .OHMM           0.85:   RESISTIVITY MUD FILTRATE SAMPLE
 MFST.F                87:   MUD FILTRATE SAMPLE TEMPERATURE
 MFSS.               MEAS:   MUD FILTRATE SAMPLE SOURCE
 RMB .OHMM           1.06:   RESISTIVITY MUD AT BHT
 BHT .F               112:   BOTTOM HOLE TEMPERATURE
 TCS .HRS               1:   TIME CURCULATED STOPPED
 MRT .F               112:   MAXIMUM RECORDED TEMPERATURE
 LUN .               7037:   LOGGING UNIT NUMBER
 LUL .                GLT:   LOGGING UNIT LOCATION
 ENGI.           KNOSTMAN:   RECORDING ENGINEER
 WITN.                MAY:   WITNESSED BY
 CLNT.            A2DTECH:   CLIENT CODE
 ORIG.         2.5" PRINT:   ORIGIN OF DATA
 UWI .       490251023100:   UNIQUE WELL ID
 DICO. A2D Technologies, Inc.:   DIGITIZING COMPANY
~OTHER INFORMATION
~A   DEPT       SPR        ILD       CILD       ASN         GR       CALD       CORR       DPHI       RHOB   
# ...
  799.5000   -28.5781     9.2553   100.8740    10.1476    87.2640     9.5053     0.0055     0.0973     2.5234
  800.0000   -29.1803     9.8423    94.2249    11.0719    77.1099     9.4743     0.0023     0.0962     2.5085
  800.5000   -29.4772    10.7871    93.6681    11.9962    65.5221     9.4735     0.0327     0.0952     2.4962
  801.0000   -29.9473    11.7320    90.6130    12.9204    61.3138     9.4123     0.0392     0.0959     2.4992
  801.5000   -30.6799    12.6768    88.1003    13.4805    61.7742     9.4116     0.0222     0.1013     2.4750
  802.0000   -30.9781    13.2919    85.0436    13.6909    63.7406     9.4109     0.0051     0.1194     2.4494
  802.5000   -31.8843    13.4886    80.4704    13.9315    56.9743     9.4101     0.0022     0.1279     2.4197
  803.0000   -34.3279    13.3380    78.8299    13.9301    55.9265     9.4092     0.0422     0.1587     2.3480
  803.5000   -35.8448    12.7326    75.8815    14.0803    56.0878     9.3783     0.0298     0.1987     2.3238
  804.0000   -39.2584    11.8182    75.8663    14.0788    61.4155     9.3474     0.0129     0.2086     2.3056
  804.5000   -40.7025    11.6414    77.3708    14.0773    63.9106     9.2821     0.0257     0.1917     2.3691
  805.0000   -41.0036    11.4646    78.8754    13.8485    70.8440     9.2251     0.0144     0.1458     2.4039
  805.5000   -40.0876    11.3720    81.8994    13.4680    71.7519     9.2243     0.0297     0.1429     2.4085
  806.0000   -38.2611    11.3728    83.4052    13.1635    70.3978     9.1932     0.0487     0.1423     2.4118
  806.5000   -37.0425    11.3735    84.9110    12.7000    68.4529     9.1623     0.0543     0.1427     2.4175
  807.0000   -36.4318    11.5258    84.8936    12.2515    67.2538     9.1305     0.0404     0.1573     2.4176
  807.5000   -36.8287    11.5265    86.3959    12.0985    67.8619     9.1005     0.0204     0.1663     2.4028
  808.0000   -37.1834    11.5273    87.9027    11.9452    68.7712     9.0997     0.0168     0.1800     2.3917
  808.5000   -37.3343    11.3767    87.8878    11.9438    69.8509     9.1894     0.0136     0.1789     2.3797
  809.0000   -37.0271    11.3773    88.9919    11.6394    71.4949     9.2794     0.0111     0.1677     2.3675
  809.5000   -36.7133    11.3781    89.3769    11.6379    73.6090     9.2811     0.0203     0.1652     2.3745
  810.0000   -35.8055    11.3788    89.3587    11.6364    76.1750     9.1782     0.0326     0.1638     2.3843
  810.5000   -35.3840    11.3795    90.2304    11.6348    75.1160     8.9885     0.0348     0.1554     2.3903
  811.0000   -34.8551    11.3803    90.8511    11.6331    74.2300     9.2988     0.0403     0.1446     2.4048
  811.5000   -34.5802    11.2297    90.8359    11.6317    71.5249     9.3471     0.0525     0.1323     2.4343
  812.0000   -33.9695    11.2303    90.8207    11.6303    67.6149     9.3353     0.0633     0.1216     2.4508
  812.5000   -33.9413    11.1387    90.8055    11.6288    68.8254     9.3346     0.0571     0.1176     2.4820
  813.0000   -33.5805    11.0803    90.7877    11.6273    69.1325     9.3390     0.0432     0.1203     2.4684
  813.5000   -33.3526    11.0696    90.7751    11.6258    69.4392     9.3634     0.0340     0.1255     2.4357
  814.0000   -33.3490    10.9881    90.7598    11.6242    68.6934     9.3625     0.0447     0.1334     2.4312
  814.5000   -33.3462    10.9311    90.7447    11.6227    71.8617     9.3617     0.0393     0.1390     2.4297
  815.0000   -33.3434    10.7804    90.7295    11.6212    73.1071     9.3610     0.0382     0.1324     2.4387
  815.5000   -33.3404    10.7811    90.7143    11.6197    74.8852     9.3905     0.0528     0.1272     2.4554
  816.0000   -33.3374    10.7818    90.6970    11.5778    73.3849     9.3897     0.0641     0.1248     2.4502
  816.5000   -33.3343    10.7826    90.6839    11.4652    73.9944     9.3890     0.0508     0.1348     2.4185
  817.0000   -33.3309    10.7833    90.6687    11.4636    75.2049     9.3881     0.0292     0.1491     2.3994
  817.5000   -33.3281    10.7841    90.6535    11.4621    75.9865     9.3874     0.0167     0.1590     2.3918
  818.0000   -33.3252    10.7849    90.6383    11.4606    76.4226     9.3867     0.0153     0.1687     2.3791
  818.5000   -33.3222    10.7856    90.6231    11.4250    75.8259     9.3860     0.0245     0.1717     2.3848
  819.0000   -33.3191    10.8765    90.6079    11.3058    72.5169     9.3852     0.0276     0.1617     2.4009
  819.5000   -33.3161    10.8355    90.5924    11.3044    76.7605     9.3697     0.0197     0.1551     2.4054
  820.0000   -33.3127    10.7879    90.5775    11.3030    75.0914     9.3517     0.0245     0.1516     2.4054
  820.5000   -33.6139    10.7887    90.5623    11.3015    74.0415     9.3452     0.0414     0.1492     2.4085
  821.0000   -33.6109    10.7894    90.5471    11.3000    76.4582     9.3386     0.0475     0.1450     2.4206
  821.5000   -33.3040    10.7902    90.5296    11.2152    76.6145     9.3321     0.0505     0.1395     2.4342
  822.0000   -33.3009    10.7909    90.5156    11.1453    74.9650     9.3256     0.0472     0.1383     2.4282
  822.5000   -32.9934    10.7917    90.5015    10.9924    74.2178     9.3198     0.0351     0.1408     2.4191
  823.0000   -32.6866    10.7924    89.5720    11.1425    72.8666     9.3191     0.0259     0.1431     2.4207
  823.5000   -32.0759    10.9448    88.9514    11.1838    75.2820     9.3185     0.0258     0.1388     2.4276
  824.0000   -32.0729    11.0970    88.9362    11.2909    72.8794     9.3178     0.0235     0.1358     2.4387
  824.5000   -31.7660    11.1096    88.3599    11.4407    76.6516     9.2720     0.0196     0.1399     2.4312
  825.0000   -31.6110    11.4394    87.3860    11.5909    80.2718     9.2560     0.0135     0.1433     2.4201
  825.5000   -31.4555    11.7053    87.3708    12.0464    81.0291     9.2552     0.0142     0.1418     2.4145
  826.0000   -31.1487    12.0092    87.3556    12.5273    77.0645     9.2847     0.0188     0.1348     2.4387
  826.5000   -30.8419    12.3130    86.2373    12.9146    78.6323     9.3143     0.0226     0.1224     2.4540
  827.0000   -30.8389    12.6167    84.2831    13.7058    68.3985     9.3136     0.0257     0.1163     2.4629
  827.5000   -30.8359    12.9533    82.7494    14.1589    67.6497     9.3129     0.0217     0.1151     2.4660
  828.0000   -30.8328    13.6545    81.2157    14.7636    67.6569     9.3122     0.0133     0.1145     2.4690
  828.5000   -31.1334    14.6424    76.3907    15.8758    59.0592     9.3418     0.0102     0.1175     2.4685
  829.0000   -31.7385    15.6501    71.0230    17.0181    60.2902     9.3411     0.0149     0.1286     2.4616
  829.5000   -32.7022    16.4084    64.3870    17.8576    64.0609     9.3707     0.0179     0.1247     2.4508
  830.0000   -33.4143    17.7727    58.3566    18.2424    66.6269     9.4002     0.0148     0.1199     2.4478
  830.5000   -34.1611    18.3795    53.7833    17.0287    71.1507     9.4297     0.0101     0.1193     2.4478
  831.0000   -34.4620    17.5863    53.9412    14.5727    75.8265     9.4290    -0.0053     0.1229     2.4478
  831.5000   -34.1547    15.7489    60.9045    12.9879    77.7900     9.4283     0.0126     0.1253     2.4508
  832.0000   -33.5440    13.5335    69.3008    12.0545    78.0969     9.4370     0.0301     0.1272     2.4504
  832.5000   -32.9331    12.4735    78.0367    11.5679    75.9942     9.4573     0.0347     0.1359     2.4405
  833.0000   -32.4276    11.7167    82.5820    11.4150    72.6757     9.4867     0.0262     0.1440     2.4221
  833.5000   -32.0152    11.2374    87.1273    11.1106    72.0914     9.4558     0.0208     0.1416     2.4206
  834.0000   -31.6049    11.0606    90.1529    10.8061    71.1935     9.4392     0.0330     0.1378     2.4214
  834.5000   -31.4010    10.8838    92.1201    10.6530    70.8965     9.3412     0.0376     0.1360     2.4297
  835.0000   -31.0841    10.6592    93.8955    10.4621    72.7109     9.3025     0.0373     0.1288     2.4402
  835.5000   -30.7872    10.5083    96.1830    10.3467    73.6212     9.3019     0.0321     0.1282     2.4448
