~VERSION INFORMATION
 VERS.                2.0:   CWLS LOG ASCII STANDARD - VERSION 2.0
 WRAP.                 NO:   ONE LINE PER DEPTH STEP
~WELL INFORMATION
#MNEM.UNIT      DATA TYPE    INFORMATION
#----------   ------------   ------------------------------
 STRT.F           29.0000:   START DEPTH
 STOP.F          882.0000:   STOP DEPTH
 STEP.F            0.5000:   STEP LENGTH
 NULL.          -999.2500:   NO VALUE
 COMP. FENIX & SCISSON INC:   COMPANY
 WELL. NAVAL PETROLEUM RESERVE 3 S-14 #42-14:   WELL
 FLD .             TEAPOT:   FIELD
 LOC .      S14 T38N R78W:   LOCATION
 CNTY.            NATRONA:   COUNTY
 STAT.            WYOMING:   STATE
 CTRY. UNITED STATES OF AMERICA:   COUNTRY
 SRVC.              Welex:   SERVICE COMPANY
 DATE.        03-MAY-1977:   LOGDATE
 API .       490251035400:   API NUMBER
~CURVE INFORMATION
#MNEM.UNIT       API CODE    CURVE DESCRIPTION
#----------   ------------   ------------------------------
 DEPT.F                  :   
 CALD.IN     45 280 60 00:   CALIPER FROM DENSITY LOG
 GRD .GAPI   45 310 01 00:   GAMMA RAY FROM DENSITY LOG
 CORR.G/C3   45 356 01 00:   DENSITY CORRECTION
 DPHI.DEC    45 890 12 00:   DENSITY POROSITY SANDSTONE
 RHOB.G/C3   45 350 01 00:   BULK DENSITY
 SPR .MV     07 010 01 00:   SPONTANEOUS POTENTIAL
 ILD .OHMM   07 120 46 00:   INDUCTION LOG DEEP
 ILM .OHMM   07 120 44 00:   INDUCTION LOG MEDIUM
 SGRD.OHMM   07 221 05 00:   SHALLOW SHORT GUARD RESISTIVITY
~PARAMETER INFORMATION
#MNEM.UNIT          VALUE    DESCRIPTION
#----------   ------------   ------------------------------
 PD  .                 GL:   PERMANENT DATUM
 EPD .F              5206:   ELEVATION PERMANENT DATUM
 LMF .                 GL:   LOG MEASURED FROM
 DMF .                 GL:   DRILLING MEASURED FROM
 EGL .F              5206:   GROUND LEVEL
 DATE.        03-MAY-1977:   RUN DATE
 RUN .                  1:   RUN NUMBER
 DD  .F               855:   DEPTH DRILLER
 DL  .F               884:   DEPTH LOGGER
 BLI .F               882:   BOTTOM LOG INTERVAL
 TLI .F                28:   TOP LOG INTERVAL
 CS  .IN            8.625:   CASING SIZE
 BS  .IN               12:   BIT SIZE
 BSD .F               855:   BIT SIZE AT DEPTH
 DFT .            KCL MUD:   DRILLING FLUID TYPE
 DFD .                8.7:   DRILLING FLUID DENSITY
 BHT .F                75:   BOTTOM HOLE TEMPERATURE
 TCS .HRS            0130:   TIME CURCULATED STOPPED
 MRT .F                75:   MAXIMUM RECORDED TEMPERATURE
 ENGI.            C. DOAK:   RECORDING ENGINEER
 WITN.            R. LYON:   WITNESSED BY
 CLNT.            A2DTECH:   CLIENT CODE
 ORIG.           5" PRINT:   ORIGIN OF DATA
 UWI .       490251035400:   UNIQUE WELL ID
 DICO. A2D Technologies, Inc.:   DIGITIZING COMPANY
~OTHER INFORMATION
~A   DEPT       CALD      GRD       CORR       DPHI         RHOB      SPR        ILD        ILM       SGRD   
# ...
  284.5000     8.0272    95.4413     0.0528     0.1506     2.4235   -15.5558    10.6772    11.3932    15.2000
  285.0000     8.0269    93.3370     0.0512     0.1480     2.4272   -15.5390    10.0999    11.8005    14.7841
  285.5000     8.0416    95.2764     0.0466     0.1462     2.4272   -15.4794     9.6869    12.3752    13.5123
  286.0000     8.0562    97.3812     0.0451     0.1501     2.4182   -15.4198     9.1632    12.8977    12.9623
  286.5000     8.0559    95.8600     0.0466     0.1653     2.3958   -15.3602     8.9108    12.9859    15.0908
  287.0000     8.0257    94.6557     0.0525     0.1672     2.3935   -15.3006     9.2213    12.8054    15.4063
  287.5000     7.9656    94.9483     0.0554     0.1636     2.4025   -15.2755     9.6760    12.5337    16.6225
  288.0000     8.0101    95.0913     0.0568     0.1597     2.4062   -15.2790    10.2237    12.2814    22.6882
  288.5000     8.0398    95.5302     0.0568     0.1645     2.3987   -15.4309    10.8773    12.1952    23.6482
  289.0000     8.0395    97.3199     0.0537     0.1675     2.3935   -15.8808    11.4940    12.1936    15.7248
  289.5000     8.0092    99.5570     0.0522     0.1690     2.3897   -16.3508    12.0589    12.1919    14.4717
  290.0000     7.9641   101.0472     0.0445     0.1735     2.3815   -16.9304    12.3084    12.3658    15.5068
  290.5000     7.8741   104.8109     0.0401     0.1816     2.3717   -17.5360    12.3052    12.4442    15.2925
  291.0000     7.8439   106.7207     0.0400     0.1783     2.3740   -18.2560    12.3019    12.5289    15.0815
  291.5000     7.9034   106.5642     0.0384     0.1774     2.3754   -18.9760    11.9632    12.4405    13.2239
  292.0000     7.9181   103.4121     0.0369     0.1786     2.3747   -19.6960    11.3942    11.9334    11.8381
  292.5000     7.9028   101.1598     0.0323     0.1754     2.3748   -20.4160    11.0041    11.4390    11.2663
  293.0000     7.8876    99.6544     0.0293     0.1706     2.3851   -21.1359    10.4814    10.5337    11.5134
  293.5000     7.9023   102.1925     0.0277     0.1673     2.3956   -21.8559     9.8464     9.9655    12.6829
  294.0000     7.9617   107.6724     0.0277     0.1604     2.4135   -22.5759     9.3787    10.0333    13.4964
  294.5000     7.9913   111.9079     0.0276     0.1527     2.4172   -23.3655     9.1831    10.5295    13.9703
  295.0000     8.0060   115.3443     0.0275     0.1470     2.4247   -24.4116     9.3737    10.9010    14.2621
  295.5000     8.0207   122.8208     0.0290     0.1410     2.4396   -25.4576     9.5677    11.2027    13.8719
  296.0000     8.0203   125.0613     0.0439     0.1303     2.4583   -26.3744     9.5645    11.3568    12.7665
  296.5000     8.0200   124.0033     0.0453     0.1246     2.4672   -27.6995     9.3011    11.1993    12.5038
  297.0000     8.0197   121.7510     0.0453     0.1231     2.4694   -28.5965     8.9637    10.5222    13.3978
  297.5000     8.0194   118.1498     0.0437     0.1270     2.4642   -30.0897     8.4379     9.9513    13.1950
  298.0000     8.0191   119.1909     0.0451     0.1231     2.4679   -31.4338     8.0371     9.2241    13.3959
  298.5000     8.0188   122.0285     0.0511     0.1181     2.4791   -32.6389     7.6026     8.7265    13.9626
  299.0000     8.0185   121.8703     0.0510     0.1142     2.4828   -33.5266     7.2917     7.8657    13.8653
  299.5000     8.0182   122.1630     0.0495     0.1148     2.4866   -34.4236     7.1333     7.1390    12.3267
  300.0000     8.0178   124.8792     0.0478     0.1184     2.4813   -35.1161     6.8685     6.6612     9.8112
  300.5000     8.0157   129.0335     0.0467     0.1227     2.4701   -35.7096     6.5257     6.3875     8.5440
  301.0000     8.0136   129.7748     0.0448     0.1265     2.4604   -36.3030     6.1829     6.1138     8.3109
  301.5000     8.0115   133.2106     0.0433     0.1295     2.4588   -36.9877     5.8373     5.8714     8.9677
  302.0000     8.0093   131.2573     0.0402     0.1313     2.4514   -37.2944     5.7163     5.6394     9.0926
  302.5000     8.0072   126.2801     0.0387     0.1319     2.4513   -37.6010     5.6758     5.5612     9.0299
  303.0000     8.0051   123.6081     0.0355     0.1289     2.4552   -37.9077     5.5967     5.5604     8.9059
  303.5000     8.0030   127.0422     0.0311     0.1292     2.4580   -37.9166     5.5188     5.4833     8.7231
  304.0000     8.0008   130.0290     0.0266     0.1317     2.4535   -37.9270     5.5174     5.4826     8.3686
  304.5000     7.9989   131.0715     0.0250     0.1355     2.4483   -38.0847     5.5548     5.5582     8.4851
  305.0000     7.9835   128.6672     0.0235     0.1403     2.4386   -37.9421     5.6699     5.6387     8.7231
  305.5000     7.9831   126.5642     0.0220     0.1451     2.4311   -37.9528     5.7477     5.7520     8.9712
  306.0000     7.9827   130.6227     0.0219     0.1433     2.4311   -37.9614     5.8266     5.8313     9.2192
  306.5000     7.9822   129.2426     0.0204     0.1406     2.4348   -37.9702     5.8658     5.9119     9.3476
  307.0000     7.9817   130.7323     0.0188     0.1400     2.4385   -37.9808     5.9523     6.0348     9.4124
  307.5000     7.9963   132.6712     0.0188     0.1370     2.4437   -37.9894     6.0276     6.0761     9.4124
  308.0000     7.9958   129.5203     0.0187     0.1396     2.4385   -37.8468     6.0264     6.0751     9.2192
  308.5000     7.9953   127.1178     0.0187     0.1472     2.4302   -37.8575     6.0252     6.0742     8.9677
  309.0000     7.9949   130.5537     0.0186     0.1460     2.4250   -37.7168     6.0240     6.0314     8.7139
  309.5000     7.9945   132.3429     0.0186     0.1454     2.4302   -37.4276     5.8585     5.8661     8.3686
  310.0000     7.9940   128.7411     0.0186     0.1511     2.4242   -37.7364     5.5754     5.7053     8.2536
  310.5000     7.9935   127.2386     0.0170     0.1526     2.4182   -38.0431     5.3896     5.5489     8.4851
  311.0000     7.9931   130.0739     0.0170     0.1511     2.4190   -38.2007     5.3885     5.4343     8.3686
  311.5000     8.0077   129.3182     0.0184     0.1475     2.4230   -38.3584     5.4627     5.5092     8.2536
  312.0000     8.0071   126.4667     0.0199     0.1416     2.4354   -38.5160     5.6145     5.6714     8.3686
  312.5000     8.0067   125.4115     0.0213     0.1392     2.4398   -38.8227     5.8108     5.9019     8.7231
  313.0000     8.0212   124.0301     0.0228     0.1389     2.4413   -38.9806     5.9726     6.0248     8.9677
  313.5000     8.0208   121.5031     0.0242     0.1392     2.4406   -38.9910     6.0129     6.0660     9.2192
  314.0000     8.0203   121.9449     0.0272     0.1389     2.4398   -38.9996     6.0114     6.0649     9.2832
  314.5000     8.0349   123.4347     0.0286     0.1368     2.4413   -39.0082     5.9687     6.0224     8.9059
  315.0000     8.0194   125.0742     0.0301     0.1338     2.4474   -39.0168     5.9676     5.9801     8.3686
  315.5000     8.0189   126.5640     0.0330     0.1296     2.4607   -39.0254     5.8844     6.0253     8.6033
  316.0000     8.0185   127.1556     0.0345     0.1291     2.4607   -39.0343     5.9652     6.1459     9.0926
  316.5000     8.0181   126.6609     0.0329     0.1279     2.4629   -38.8936     6.1338     6.3174     9.4778
  317.0000     8.0027   123.8459     0.0314     0.1273     2.4651   -38.7532     6.3016     6.4490     9.6764
  317.5000     8.0023   120.3955     0.0299     0.1300     2.4554   -38.6127     6.4324     6.5379     9.8112
  318.0000     8.0017   118.7416     0.0328     0.1327     2.4507   -38.4723     6.5659     6.6283     9.8112
  318.5000     8.0013   116.0398     0.0343     0.1303     2.4584   -38.3338     6.6564     6.7661     9.4693
  319.0000     8.0008   114.8367     0.0357     0.1248     2.4695   -38.1936     6.7477     6.8121     9.5435
  319.5000     8.0004   120.3666     0.0340     0.1216     2.4733   -38.2043     6.7928     6.8585     9.7436
  320.0000     8.0000   119.7304     0.0296     0.1282     2.4590   -38.0617     6.8386     6.8574     9.8792
  320.5000     7.9995   117.3564     0.0266     0.1366     2.4441   -37.9213     6.7430     6.7623     9.8792
