~VERSION INFORMATION
 VERS.                2.0:   CWLS LOG ASCII STANDARD - VERSION 2.0
 WRAP.                 NO:   ONE LINE PER DEPTH STEP
~WELL INFORMATION
#MNEM.UNIT      DATA TYPE    INFORMATION
#----------   ------------   ------------------------------
 STRT.F           14.0000:   START DEPTH
 STOP.F          500.0000:   STOP DEPTH
 STEP.F            0.1000:   STEP LENGTH
 NULL.          -999.2500:   NO VALUE
 COMP. LAWRENCE/ALLISON INC:   COMPANY
 WELL.    72-46 SX #10-10:   WELL
 FLD .             TEAPOT:   FIELD
 LOC .      S10 T38N R78W:   LOCATION
 CNTY.            NATRONA:   COUNTY
 STAT.            WYOMING:   STATE
 CTRY. UNITED STATES OF AMERICA:   COUNTRY
 SRVC.           Gearhart:   SERVICE COMPANY
 DATE.        22-MAY-1988:   LOGDATE
 API .       490251122600:   API NUMBER
~CURVE INFORMATION
#MNEM.UNIT       API CODE    CURVE DESCRIPTION
#----------   ------------   ------------------------------
 DEPT.F                  :   
 GRR .GAPI   07 310 01 00:   GAMMA RAY
 RILD.OHMM   07 120 46 00:   INDUCTION LOG DEEP RESISTIVITY
 RILM.OHMM   07 120 44 00:   INDUCTION LOG MEDIUM RESISTIVITY
~PARAMETER INFORMATION
#MNEM.UNIT          VALUE    DESCRIPTION
#----------   ------------   ------------------------------
 PD  .                 GL:   PERMANENT DATUM
 EPD .F              5173:   ELEVATION PERMANENT DATUM
 LMF .                 KB:   LOG MEASURED FROM
 DAPD.F              10.2:   FEET ABOVE PERMANENT DATUM
 DMF .                 KB:   DRILLING MEASURED FROM
 EKB .F            5183.2:   KELLING BUSHING
 EGL .F              5173:   GROUND LEVEL
 DATE.        22-MAY-1988:   RUN DATE
 RUN .                  1:   RUN NUMBER
 DD  .F               505:   DEPTH DRILLER
 DL  .F               504:   DEPTH LOGGER
 BLI .F               500:   BOTTOM LOG INTERVAL
 TLI .F                50:   TOP LOG INTERVAL
 CS  .IN            9.625:   CASING SIZE
 CBD .F                52:   CASING BOTTOM DRILLER
 CBL .F                50:   CASING BOTTOM LOGGER
 BS  .IN             8.75:   BIT SIZE
 BSD .F               505:   BIT SIZE AT DEPTH
 DFT .                AIR:   DRILLING FLUID TYPE
 TLAB.HRS            1339:   TIME LOGGER AT BOTTOM
 LUN .               7597:   LOGGING UNIT NUMBER
 LUL .           GILLETTE:   LOGGING UNIT LOCATION
 ENGI.          HUCKFELDT:   RECORDING ENGINEER
 WITN.             STRONG:   WITNESSED BY
 CLNT.            A2DTECH:   CLIENT CODE
 ORIG.           5" PRINT:   ORIGIN OF DATA
 UWI .       490251122600:   UNIQUE WELL ID
 DICO. A2D Technologies, Inc.:   DIGITIZING COMPANY
~OTHER INFORMATION
~A   DEPT       GRR      RILD       RILM   
# ...
  450.8000    87.0129    13.4355    13.3847
  450.9000    86.7851    13.4453    13.3845
  451.0000    86.7888    13.5292    13.4105
  451.1000    86.3599    13.5290    13.4779
  451.2000    86.1857    13.5288    13.4777
  451.3000    86.0814    13.5286    13.4775
  451.4000    85.8874    13.5512    13.4773
  451.5000    85.8904    13.6230    13.5168
  451.6000    85.6443    13.6228    13.5714
  451.7000    85.5921    13.6226    13.5712
  451.8000    85.5951    13.6224    13.5710
  451.9000    85.5115    13.6222    13.6404
  452.0000    85.2964    13.6221    13.6657
  452.1000    85.3001    13.6219    13.6655
  452.2000    85.3029    13.6216    13.6653
  452.3000    85.3059    13.6863    13.6651
  452.4000    85.3090    13.7166    13.6649
  452.5000    85.3778    13.7164    13.7318
  452.6000    85.6194    13.7316    13.7603
  452.7000    85.6230    13.8121    13.7601
  452.8000    85.8335    13.8119    13.7599
  452.9000    85.9331    13.8117    13.7608
  453.0000    86.0356    13.8566    13.8559
  453.1000    86.2888    13.9080    13.8558
  453.2000    86.5511    13.9196    13.9037
  453.3000    86.7953    14.0050    13.9524
  453.4000    86.8615    14.0048    13.9523
  453.5000    86.8645    14.0047    13.9521
  453.6000    86.8676    14.0045    14.0309
  453.7000    86.8460    14.0042    14.0495
  453.8000    86.5696    14.0119    14.0493
  453.9000    86.3517    14.1019    14.0490
  454.0000    86.1046    14.1018    14.0489
  454.1000    85.8574    14.1015    14.0487
  454.2000    85.6682    14.1395    14.1249
  454.3000    85.6637    14.1999    14.1467
  454.4000    85.1661    14.2037    14.1465
  454.5000    85.0685    14.2989    14.1463
  454.6000    84.9257    14.2987    14.1461
  454.7000    84.6786    14.2985    14.1459
  454.8000    84.4314    14.2983    14.2195
  454.9000    84.1676    14.2981    14.2446
  455.0000    83.9371    14.2979    14.2444
  455.1000    83.6900    14.2977    14.2443
  455.2000    83.4428    14.2975    14.2441
  455.3000    83.2664    14.2973    14.2438
  455.4000    83.2359    14.2971    14.2437
  455.5000    82.6641    14.2969    14.2434
  455.6000    82.6667    14.2967    14.2432
  455.7000    82.5113    14.2965    14.2431
  455.8000    82.3684    14.2963    14.2429
  455.9000    82.3213    14.2961    14.2426
  456.0000    82.0701    14.2959    14.2425
  456.1000    82.0731    14.2957    14.2422
  456.2000    82.0761    14.2955    14.2420
  456.3000    82.2170    14.2954    14.2419
  456.4000    82.3866    14.2951    14.2417
  456.5000    82.3897    14.2949    14.2415
  456.6000    82.3930    14.2947    14.2413
  456.7000    82.1702    14.2945    14.1939
  456.8000    82.0944    14.2943    14.1417
  456.9000    82.0974    14.2239    14.1416
  457.0000    82.1005    14.1945    14.1414
  457.1000    82.1035    14.1943    14.1412
  457.2000    82.1071    14.1757    14.0804
  457.3000    81.7001    14.0952    14.0424
  457.4000    81.5038    14.0950    14.0422
  457.5000    81.4105    14.0949    14.0420
  457.6000    81.1632    14.0463    14.0418
  457.7000    80.9043    13.9964    14.0416
  457.8000    80.9072    13.9963    13.9844
  457.9000    80.7261    13.9961    13.9435
  458.0000    80.4789    13.9959    13.9433
  458.1000    80.2318    13.9347    13.9365
  458.2000    80.0058    13.8982    13.8459
  458.3000    80.0095    13.8709    13.8457
  458.4000    79.7945    13.8012    13.7923
  458.5000    79.7108    13.8009    13.7490
  458.6000    79.7138    13.7278    13.7488
  458.7000    79.7169    13.7046    13.7452
  458.8000    79.7199    13.6650    13.6527
  458.9000    79.7230    13.6090    13.6526
  459.0000    79.9228    13.6088    13.6523
  459.1000    80.1762    13.6085    13.6521
  459.2000    80.5180    13.6084    13.6352
  459.3000    80.9871    13.5564    13.5568
  459.4000    81.2605    13.5133    13.5566
  459.5000    81.7240    13.5132    13.5564
  459.6000    82.2273    13.5105    13.5101
  459.7000    82.6090    13.4188    13.4617
  459.8000    82.9301    13.4187    13.4615
  459.9000    83.4199    13.4185    13.4613
  460.0000    83.7143    13.3872    13.4611
  460.1000    84.1361    13.3248    13.4610
  460.2000    84.4842    13.3246    13.4181
  460.3000    84.5349    13.3244    13.3669
  460.4000    84.3343    13.3242    13.3667
  460.5000    84.3380    13.2808    13.3665
  460.6000    84.0979    13.2312    13.3663
  460.7000    84.0396    13.2311    13.3662
  460.8000    83.9079    13.2308    13.3660
  460.9000    83.7413    13.2306    13.3657
  461.0000    83.7443    13.2305    13.3581
  461.1000    83.7477    13.2303    13.2724
  461.2000    83.5280    13.2068    13.2723
  461.3000    83.4490    13.1379    13.2720
  461.4000    83.4521    13.1377    13.2718
  461.5000    83.4551    13.0706    13.2717
  461.6000    83.4582    13.0460    13.2715
  461.7000    83.4618    13.0107    13.2713
  461.8000    83.4642    12.9550    13.2061
  461.9000    83.4673    12.9512    13.1786
  462.0000    83.5636    12.8645    13.1784
  462.1000    83.8168    12.8644    13.1610
  462.2000    84.0854    12.8177    13.0863
  462.3000    84.0883    12.7745    13.0861
  462.4000    84.4535    12.7590    13.0247
  462.5000    84.8300    12.6854    12.9947
  462.6000    85.1558    12.6122    12.9649
  462.7000    85.6596    12.5968    12.9040
  462.8000    86.2348    12.5546    12.9038
  462.9000    86.6665    12.5088    12.8306
  463.0000    87.1700    12.4971    12.7566
  463.1000    87.6735    12.4215    12.7243
  463.2000    88.1771    12.3534    12.6979
  463.3000    88.6850    12.3348    12.6245
  463.4000    89.4323    12.2969    12.5473
  463.5000    89.9920    12.2487    12.5471
  463.6000    90.4953    12.2406    12.4938
  463.7000    90.9134    12.1632    12.4216
  463.8000    91.2293    12.1631    12.3725
  463.9000    92.0520    12.1144    12.3645
  464.0000    92.2822    12.0445    12.2861
  464.1000    92.5354    11.9940    12.2220
  464.2000    92.9075    11.9894    12.2003
  464.3000    93.3463    11.9102    12.1658
  464.4000    93.5890    11.9101    12.1151
  464.5000    93.5926    11.9099    12.1099
  464.6000    93.8016    11.8799    12.0304
  464.7000    94.0550    11.8268    12.0303
  464.8000    94.2101    11.8255    11.9846
  464.9000    94.2131    11.7442    11.9462
  465.0000    94.2163    11.7441    11.9294
  465.1000    94.2192    11.7036    11.8628
  465.2000    94.2223    11.6620    11.8626
  465.3000    94.0936    11.6619    11.8625
  465.4000    93.9239    11.6617    11.8200
  465.5000    93.9270    11.5967    11.7517
  465.6000    93.9304    11.5804    11.6974
  465.7000    93.9331    11.5802    11.6973
  465.8000    93.7709    11.5575    11.6971
  465.9000    93.6348    11.4993    11.6439
  466.0000    93.6946    11.4992    11.6154
  466.1000    93.9452    11.4990    11.5903
  466.2000    93.9483    11.4989    11.5342
  466.3000    94.1499    11.4657    11.5341
  466.4000    94.4032    11.4186    11.5339
  466.5000    94.5662    11.4131    11.4840
  466.6000    94.6053    11.3388    11.4533
  466.7000    94.8769    11.3387    11.4312
  466.8000    95.3441    11.2954    11.3733
  466.9000    95.6697    11.2595    11.3731
  467.0000    95.9229    11.2594    11.3128
  467.1000    96.1065    11.2571    11.2937
  467.2000    96.0940    11.1808    11.2935
  467.3000    95.8087    11.1807    11.2742
  467.4000    95.5999    11.1805    11.2146
  467.5000    95.1955    11.1544    11.2145
  467.6000    94.6981    11.1025    11.1575
  467.7000    94.2007    11.1023    11.1361
  467.8000    93.6926    11.0394    11.1062
  467.9000    93.4507    11.0248    11.0584
  468.0000    93.2035    10.9888    11.0551
  468.1000    92.8198    10.9478    10.9811
  468.2000    92.4047    10.9477    10.9810
  468.3000    92.1574    10.9475    10.9408
  468.4000    91.8846    10.8885    10.9042
  468.5000    91.6631    10.8711    10.9041
  468.6000    91.4159    10.8709    10.9033
  468.7000    91.2846    10.8516    10.8278
  468.8000    91.2259    10.7950    10.8277
  468.9000    90.9862    10.7949    10.7905
