~VERSION INFORMATION
 VERS.                2.0:   CWLS LOG ASCII STANDARD - VERSION 2.0
 WRAP.                 NO:   ONE LINE PER DEPTH STEP
~WELL INFORMATION
#MNEM.UNIT      DATA TYPE    INFORMATION
#----------   ------------   ------------------------------
 STRT.F           34.5000:   START DEPTH
 STOP.F          665.5000:   STOP DEPTH
 STEP.F            0.5000:   STEP LENGTH
 NULL.          -999.2500:   NO VALUE
 COMP. FENIX & SCISSON INC:   COMPANY
 WELL.    NPR-3 SX #14-14:   WELL
 FLD .        TEAPOT DOME:   FIELD
 LOC .      S14 T38N R78W:   LOCATION
 CNTY.            NATRONA:   COUNTY
 STAT.            WYOMING:   STATE
 CTRY. UNITED STATES OF AMERICA:   COUNTRY
 SRVC.            Unknown:   SERVICE COMPANY
 DATE.        01-JUN-1978:   LOGDATE
 API .       490251063100:   API NUMBER
~CURVE INFORMATION
#MNEM.UNIT       API CODE    CURVE DESCRIPTION
#----------   ------------   ------------------------------
 DEPT.F                  :   
 SPR .MV     05 010 01 00:   SPONTANEOUS POTENTIAL FROM RES.
 SN  .OHMM   05 040 16 00:   SHORT NORMAL 16"
 IL  .OHMM   05 120 00 00:   INDUCTION LOG
 GRD .GAPI   45 310 01 00:   GAMMA RAY FROM DENSITY LOG
 RHOB.G/C3   45 350 01 00:   BULK DENSITY
 DPHI.DEC    45 890 12 00:   DENSITY POROSITY SANDSTONE
 CORR.G/C3   45 356 01 00:   DENSITY CORRECTION
 CALD.IN     45 280 60 00:   CALIPER FROM DENSITY LOG
~PARAMETER INFORMATION
#MNEM.UNIT          VALUE    DESCRIPTION
#----------   ------------   ------------------------------
 PD  .                 GL:   PERMANENT DATUM
 EPD .F              5212:   ELEVATION PERMANENT DATUM
 LMF .                 KB:   LOG MEASURED FROM
 DAPD.F                 4:   FEET ABOVE PERMANENT DATUM
 DMF .                 KB:   DRILLING MEASURED FROM
 EKB .F              5216:   KELLING BUSHING
 EGL .F              5212:   GROUND LEVEL
 DATE.           6-1-1978:   RUN DATE
 RUN .                  1:   RUN NUMBER
 DD  .F               670:   DEPTH DRILLER
 DL  .F               670:   DEPTH LOGGER
 BLI .F               664:   BOTTOM LOG INTERVAL
 TLI .F                40:   TOP LOG INTERVAL
 CS  .IN            8.625:   CASING SIZE
 CBD .F                40:   CASING BOTTOM DRILLER
 BS  .IN            7.875:   BIT SIZE
 BSD .F               670:   BIT SIZE AT DEPTH
 DFT .                KCL:   DRILLING FLUID TYPE
 DFD .                8.7:   DRILLING FLUID DENSITY
 DFV .                 32:   DRILLING FLUID VISCOSITY
 DFPH.                 10:   DRILLING FLUID PH
 RMS .OHMM            .30:   RESISTIVITY MUD SAMPLE
 MST .F                66:   MUD SAMPLE TEMPERATURE
 BHT .F                75:   BOTTOM HOLE TEMPERATURE
 TCS .HRS               2:   TIME CURCULATED STOPPED
 MRT .F                75:   MAXIMUM RECORDED TEMPERATURE
 LUN .               2958:   LOGGING UNIT NUMBER
 LUL .              CSPR.:   LOGGING UNIT LOCATION
 ENGI.             MILLER:   RECORDING ENGINEER
 WITN.           MCGINLEY:   WITNESSED BY
 CLNT.            A2DTECH:   CLIENT CODE
 ORIG.      2" , 5" PRINT:   ORIGIN OF DATA
 UWI .       490251063100:   UNIQUE WELL ID
 DICO. A2D Technologies, Inc.:   DIGITIZING COMPANY
~OTHER INFORMATION
~A   DEPT      SPR         SN         IL         GRD      RHOB       DPHI       CORR       CALD   
# ...
   75.0000   -23.7941     7.1217     6.8008    61.0516     2.4347     0.1590     0.0751     8.3122
   75.5000   -23.8782     7.1217     6.8008    59.9803     2.4215     0.1648     0.0461     8.3055
   76.0000   -23.9624     7.1217     6.8008    58.8892     2.4057     0.1639     0.0308     8.2088
   76.5000   -24.0466     7.1217     6.8008    57.9954     2.4043     0.1630     0.0281     8.1148
   77.0000   -24.1307     7.1217     6.8008    57.7473     2.4070     0.1638     0.0265     8.1112
   77.5000   -24.2149     7.1217     6.8008    57.9665     2.4072     0.1640     0.0249     8.2607
   78.0000   -24.2991     7.1217     6.8007    58.3021     2.4072     0.1632     0.0264     8.4103
   78.5000   -24.3832     7.1217     6.8008    59.5436     2.4085     0.1588     0.0295     8.4142
   79.0000   -24.4674     7.1217     6.8130    62.2560     2.4141     0.1544     0.0325     8.3823
   79.5000   -24.5516     7.1216     6.8677    65.0601     2.4199     0.1521     0.0300     8.3822
   80.0000   -24.6357     7.1211     6.9229    66.7275     2.4180     0.1608     0.0269     8.3894
   80.5000   -24.7199     7.1231     6.9784    68.3419     2.4065     0.1613     0.0341     8.5061
   81.0000   -24.8041     7.1171     7.0345    69.8848     2.4069     0.1596     0.0494     8.7513
   81.5000   -24.8882     7.3396     7.0910    70.9379     2.4088     0.1616     0.0645     8.9897
   82.0000   -24.9724     7.5135     7.1479    71.9614     2.4107     0.1596     0.0832     8.9811
   82.5000   -25.0565     7.6668     7.2053    72.6466     2.4129     0.1540     0.1039     8.5713
   83.0000   -25.1406     7.6668     7.2542    72.6376     2.4178     0.1447     0.1246     8.2188
   83.5000   -25.2267     7.6668     7.2247    72.2635     2.4333     0.1341     0.1454     8.1238
   84.0000   -25.3429     7.5378     7.1992    71.8119     2.4517     0.1274     0.1540     8.1303
   84.5000   -25.4745     7.4074     7.1738    70.1800     2.4633     0.1329     0.1410     8.1472
   85.0000   -25.6064     7.2793     7.1485    68.4931     2.4577     0.1425     0.1185     8.1637
   85.5000   -25.7382     7.1534     7.1233    66.8113     2.4446     0.1516     0.0957     8.1777
   86.0000   -25.8566     7.0297     7.0981    65.1309     2.4281     0.1563     0.0749     8.1806
   86.5000   -25.8890     6.9081     7.0731    63.4468     2.4169     0.1607     0.0702     8.0828
   87.0000   -25.9236     6.7886     7.0481    61.7677     2.4118     0.1853     0.0551     8.1517
   87.5000   -25.9584     6.6711     7.0234    60.2599     2.4042     0.2615     0.0361     8.2282
   88.0000   -25.9932     6.5557     6.9985    59.9256     2.3878  -999.2500     0.0218     8.2418
   88.5000   -26.0281     6.4348     6.9915    60.1991     2.3719  -999.2500     0.0203     8.2362
   89.0000   -26.0629     6.1184     6.9274    60.6394     2.3560  -999.2500     0.0185     8.2298
   89.5000   -26.0977     5.7965     6.3168    61.0996     2.3479  -999.2500     0.0166     8.1851
   90.0000   -26.1326     5.4266     5.1404    62.2782     2.3368  -999.2500     0.0107     7.9368
   90.5000   -26.1675     4.9343     4.1831    64.4058     2.3089  -999.2500     0.0048     7.6981
   91.0000   -26.2023     4.3078     3.4039    66.5158     2.2719  -999.2500     0.0045     7.5429
   91.5000   -26.2392     3.7620     2.7697    68.6348     2.2220  -999.2500     0.0114     7.7343
   92.0000   -26.1624     3.2849     2.2546    71.2821     2.1717  -999.2500     0.0290     7.9666
   92.5000   -26.0418     2.8686     1.9099    76.8812     2.1215  -999.2500     0.0421     8.1994
   93.0000   -25.9204     2.5055     1.6989    82.4893     2.0712  -999.2500     0.0508     8.2884
   93.5000   -25.7990     2.3556     1.5273    87.0733     2.0285  -999.2500     0.0592     8.3701
   94.0000   -25.6742     2.2913     1.4844    86.2755     1.9947  -999.2500     0.0695     8.3522
   94.5000   -25.6487     2.2913     1.4847    84.2332     1.9610  -999.2500     0.0953     8.3055
   95.0000   -25.6483     2.3556     1.7436    82.2046     1.9438  -999.2500     0.1187     8.2858
   95.5000   -25.6487     2.5797     2.0117    80.0655     2.0196  -999.2500     0.1059     8.9053
   96.0000   -25.6487     2.8956     2.3214    76.2043     2.1987     0.2673     0.1957    10.2016
   96.5000   -25.6487     3.2505     2.7686    72.0382     2.3249     0.2123     0.1115     8.0843
   97.0000   -25.6487     3.8259     3.4843    67.8538     2.3821     0.1680     0.0509     8.1189
   97.5000   -25.6487     4.6571     4.4098    64.0233     2.4253     0.1309     0.0420     8.0148
   98.0000   -25.6487     5.6656     5.7188    60.3986     2.4190     0.1336     0.0363     7.9343
   98.5000   -25.6487     6.6254     7.4096    57.2004     2.4088     0.1377     0.0383     7.8597
   99.0000   -25.6476     7.3214     9.5965    56.8060     2.4045     0.1441     0.0441     7.7773
   99.5000   -25.6409     7.5964    10.2032    57.5883     2.4074     0.1527     0.0499     7.6712
  100.0000   -25.9017     7.8095    10.2977    58.9950     2.4105     0.1614     0.0480     7.5641
  100.5000   -26.1881     7.8818     9.8134    59.8969     2.4103     0.1701     0.0432     7.4568
  101.0000   -26.4750     7.8818     9.0508    60.6881     2.3995     0.1795     0.0364     7.3497
  101.5000   -26.7612     7.7378     7.7350    61.4632     2.3802     0.1895     0.0298     7.2392
  102.0000   -27.0464     7.3960     6.5456    62.2907     2.3609     0.2005     0.0231     7.1727
  102.5000   -27.3329     7.0563     5.5384    63.8667     2.3410     0.2121     0.0164     7.1373
  103.0000   -27.4537     6.4825     4.6142    69.4668     2.3145     0.2368     0.0104     7.1114
  103.5000   -27.7609     5.9007     4.6174    75.9851     2.2838     0.2631     0.0125     7.1126
  104.0000   -28.0564     5.3710     4.6480    82.5661     2.2390     0.2751     0.0264     7.1168
  104.5000   -27.8171     5.1575     4.6958    88.9977     2.2161     0.2603     0.0404     7.1218
  105.0000   -26.9022     5.2454     4.7430    86.2673     2.2526     0.2289     0.0432     7.1267
  105.5000   -25.8316     5.4714     4.7922    80.0413     2.3144     0.1975     0.0374     7.1308
  106.0000   -24.7593     6.0474     4.9594    71.7386     2.3764     0.1652     0.0311     7.1789
  106.5000   -23.7695     6.6850     6.0012    63.4872     2.4115     0.1656     0.0247     7.2387
  107.0000   -23.4341     7.3895     7.2566    59.8400     2.4055     0.1706     0.0183     7.2998
  107.5000   -23.2364     8.1681     8.7747    60.1349     2.3958     0.1758     0.0116     7.3226
  108.0000   -23.2600     8.6238    10.6104    62.5557     2.3859     0.1810     0.0130     7.3363
  108.5000   -22.8679     9.0036    12.2692    64.9751     2.3760     0.1851     0.0163     7.3548
  109.0000   -22.2352     9.4002    12.4976    66.2347     2.3675     0.1808     0.0267     7.4885
  109.5000   -21.5896     9.8142    12.6049    66.6509     2.3726     0.1764     0.0367     7.6270
  110.0000   -20.9386    10.2464    12.8434    66.6844     2.3780     0.1739     0.0467     7.7652
  110.5000   -20.2984    10.6977    13.7757    64.9734     2.3835     0.1797     0.0548     7.9033
  111.0000   -19.8460    11.1689    14.6804    63.1057     2.3799     0.1845     0.0554     7.9763
  111.5000   -19.8311    11.4416    15.6469    61.3683     2.3731     0.1892     0.0561     8.0361
  112.0000   -19.8071    11.6452    16.1989    61.5372     2.3642     0.1918     0.0622     8.0951
  112.5000   -19.7849    11.8523    16.7700    62.0429     2.3595     0.1843     0.0711     8.1220
  113.0000   -19.7623    12.0118    17.3612    62.5064     2.3684     0.1843     0.0730     8.1109
  113.5000   -19.7396    12.1400    17.9732    63.1435     2.3683     0.1825     0.0738     8.0996
  114.0000   -19.7171    12.2696    18.1921    65.5262     2.3681     0.1759     0.0745     8.0882
  114.5000   -19.6945    12.4006    18.3805    68.4931     2.3779     0.1778     0.0753     8.0768
  115.0000   -19.6719    12.5329    18.5709    70.0837     2.3795     0.1742     0.0760     8.0655
