~VERSION INFORMATION
 VERS.                2.0:   CWLS LOG ASCII STANDARD - VERSION 2.0
 WRAP.                 NO:   ONE LINE PER DEPTH STEP
~WELL INFORMATION
#MNEM.UNIT      DATA TYPE    INFORMATION
#----------   ------------   ------------------------------
 STRT.F           14.0000:   START DEPTH
 STOP.F          549.0000:   STOP DEPTH
 STEP.F            0.5000:   STEP LENGTH
 NULL.          -999.2500:   NO VALUE
 COMP.   LAWRENCE-ALLISON:   COMPANY
 WELL.    NPR 3 #58-64SX3:   WELL
 FLD .           NPR NO 3:   FIELD
 LOC .       S3 T38N R78W:   LOCATION
 CNTY.            NATRONA:   COUNTY
 STAT.            WYOMING:   STATE
 CTRY. UNITED STATES OF AMERICA:   COUNTRY
 SRVC.      Dresser Atlas:   SERVICE COMPANY
 DATE.        05-DEC-1984:   LOGDATE
 API .       490251099700:   API NUMBER
~CURVE INFORMATION
#MNEM.UNIT       API CODE    CURVE DESCRIPTION
#----------   ------------   ------------------------------
 DEPT.F                  :   
 RFOC.OHMM   07 220 04 00:   RESISTIVITY FOCUSED LOG
 RILD.OHMM   07 120 46 00:   INDUCTION LOG DEEP RESISTIVITY
 RILM.OHMM   07 120 44 00:   INDUCTION LOG MEDIUM RESISTIVITY
 SPR .MV     07 010 01 00:   SPONTANEOUS POTENTIAL
 DT  .US/F   60 520 00 00:   INTERVAL TRANSIT TIME
 CALD.IN     45 280 60 00:   CALIPER FROM DENSITY LOG
 CORR.G/C3   45 356 01 00:   DENSITY CORRECTION
 CNC .DEC    42 890 03 00:   NEUTRON POROSITY SANDSTONE
 DEN .G/C3   45 350 01 00:   COMPENSATED BULK DENSTIY
 GRD .GAPI   45 310 01 00:   GAMMA RAY FROM DENSITY LOG
 PORD.DEC    45 890 12 00:   POROSITY DENSITY SANDSTONE
~PARAMETER INFORMATION
#MNEM.UNIT          VALUE    DESCRIPTION
#----------   ------------   ------------------------------
 PD  .                 GL:   PERMANENT DATUM
 EPD .F              5188:   ELEVATION PERMANENT DATUM
 LMF .                 KB:   LOG MEASURED FROM
 DMF .                 KB:   DRILLING MEASURED FROM
 EGL .F              5188:   GROUND LEVEL
 DATE.        05-DEC-1984:   RUN DATE
 RUN .                  1:   RUN NUMBER
 DD  .F               556:   DEPTH DRILLER
 DL  .F               551:   DEPTH LOGGER
 BLI .F               548:   BOTTOM LOG INTERVAL
 CS  .IN            8.625:   CASING SIZE
 CBD .F                20:   CASING BOTTOM DRILLER
 CBL .F                20:   CASING BOTTOM LOGGER
 BS  .IN            7.875:   BIT SIZE
 BSD .F               556:   BIT SIZE AT DEPTH
 DFT .          KCL WATER:   DRILLING FLUID TYPE
 MSS .           FLOWLINE:   MUD SAMPLE SOURCE
 RMS .OHMM            .36:   RESISTIVITY MUD SAMPLE
 MST .F                70:   MUD SAMPLE TEMPERATURE
 RMF .OHMM            .26:   RESISTIVITY MUD FILTRATE SAMPLE
 MFST.F                70:   MUD FILTRATE SAMPLE TEMPERATURE
 RMC .OHMM            .46:   RESISTIVITY MUD CAKE
 MCST.F                70:   MUD CAKE SAMPLE TEMPERATURE
 MFSS.               CALC:   MUD FILTRATE SAMPLE SOURCE
 MCSS.               CALC:   MUD CAKE SAMPLE SOURCE
 RMB .OHMM            .29:   RESISTIVITY MUD AT BHT
 BHT .F                85:   BOTTOM HOLE TEMPERATURE
 TCS .HRS               3:   TIME CURCULATED STOPPED
 MRT .F               100:   MAXIMUM RECORDED TEMPERATURE
 LUN .               6274:   LOGGING UNIT NUMBER
 LUL .               GLTE:   LOGGING UNIT LOCATION
 ENGI.             PAUTIO:   RECORDING ENGINEER
 WITN.       GROONS/LUERS:   WITNESSED BY
 CLNT.            A2DTECH:   CLIENT CODE
 ORIG.           5" PRINT:   ORIGIN OF DATA
 UWI .       490251099700:   UNIQUE WELL ID
 DICO. A2D Technologies, Inc.:   DIGITIZING COMPANY
~OTHER INFORMATION
~A   DEPT     RFOC       RILD       RILM        SPR         DT       CALD       CORR          CNC      DEN         GRD      PORD   
# ...
  441.0000    12.7185    12.9563    11.9948   -58.2124    89.8677     8.0286     0.0069     0.2423     2.4949    97.4427     0.1100
  441.5000    12.6159    12.8506    11.8955   -58.5339    90.3428     8.0430     0.0102     0.2436     2.4981   101.1342     0.1106
  442.0000    12.5142    12.6140    11.7111   -58.7015    90.6681     8.0419     0.0230     0.2484     2.5022   106.3689     0.1081
  442.5000    12.4133    12.4583    11.6140   -58.8692    90.8346     8.0254     0.0328     0.2500     2.5075   105.4308     0.1050
  443.0000    12.2237    12.2667    11.4340   -58.8831    91.1599     8.0089     0.0498     0.2510     2.5083   104.8014     0.1017
  443.5000    12.0370    12.0780    11.2567   -59.0621    91.8026     8.0078     0.0434     0.2513     2.5106   104.4836     0.1000
  444.0000    11.7669    11.9795    11.0822   -59.2185    92.3660     8.0067     0.0386     0.2495     2.5122   105.7029     0.0997
  444.5000    11.5869    11.7949    10.9904   -59.2323    92.6913     8.0057     0.0418     0.2471     2.5138   106.3080     0.0994
  445.0000    11.3271    11.6137    10.8200   -59.2667    92.7784     8.0046     0.0481     0.2463     2.5161   106.9136     0.0982
  445.5000    11.1489    11.6035    10.6523   -59.4138    92.7862     8.0035     0.0512     0.2476     2.5201   108.1355     0.0960
  446.0000    10.9762    11.4249    10.4872   -59.4277    92.9528     8.0025     0.0417     0.2629     2.5232   110.9012     0.0973
  446.5000    10.8061    11.3266    10.4003   -59.4415    93.1193     8.0014     0.0273     0.2680     2.5041   109.9629     0.0999
  447.0000    10.6505    11.2267    10.2390   -59.3008    93.3652     8.0003     0.0241     0.2747     2.5049   108.7160     0.1009
  447.5000    10.4877    11.0515    10.1542   -59.3157    93.6111     7.9992     0.0352     0.2802     2.5112   108.0867     0.0998
  448.0000    10.4015    10.9741    10.1439   -59.3318    94.0212     7.9981     0.0447     0.2757     2.5184   110.3579     0.0974
  448.5000    10.3932    10.8864    10.2081   -59.4994    94.3519     7.9971     0.0399     0.2627     2.5136   113.3092     0.0975
  449.0000    10.3849    10.8751    10.1975   -59.5108    94.5889     7.9958     0.0319     0.2576     2.5080   112.3680     0.1010
  449.5000    10.4527    10.8656    10.1872   -59.5270    94.6760     7.9947     0.0239     0.2528     2.5056   109.2694     0.1027
  450.0000    10.6000    10.8578    10.2501   -58.7723    94.6831     7.9938     0.0175     0.2507     2.5072   106.7901     0.1037
  450.5000    10.5895    10.8466    10.1693   -58.9446    94.6107     8.0235     0.0141     0.2498     2.5031   107.0947     0.1082
  451.0000    10.7387    10.8355    10.3107   -59.1169    94.3796     8.0223     0.0140     0.2502     2.5005   109.0246     0.1101
  451.5000    10.7095    10.9039    10.3003   -59.1353    94.0691     8.0208     0.0106     0.2518     2.4958   112.8901     0.1114
  452.0000    10.6828    10.8928    10.3696   -59.1537    93.9173     8.0196     0.0104     0.2544     2.4933   110.6992     0.1118
  452.5000    10.6562    11.1231    10.3592   -59.4798    94.1759     8.0183     0.0119     0.2579     2.4949   110.0577     0.1115
  453.0000    10.5576    11.1117    10.3509   -59.8060    94.4092     8.0171     0.0151     0.2621     2.4980   111.2680     0.1102
  453.5000    10.3978    11.1003    10.2673   -60.1321    94.6543     8.0159     0.0263     0.2715     2.5011   112.7869     0.1080
  454.0000    10.3154    10.9279    10.2590   -60.1505    94.8993     8.0148     0.0384     0.2784     2.5058   115.8551     0.1052
  454.5000    10.2337    10.7581    10.1021   -60.1689    95.1444     8.0292     0.0430     0.2749     2.5129   113.3556     0.1027
  455.0000    10.0788    10.5910    10.0206   -60.1874    95.3895     8.0277     0.0444     0.2718     2.5192   111.3865     0.0986
  455.5000     9.8409    10.5031     9.9397   -60.3597    95.7933     8.0265     0.0475     0.2693     2.5231   108.0581     0.0939
  456.0000     9.4934    10.3399     9.7164   -60.3781    96.1971     8.0253     0.0489     0.2674     2.5278   108.6511     0.0894
  456.5000     9.0808    10.1793     9.6380   -60.3965    96.6009     8.0241     0.0503     0.2652     2.5261   109.5588     0.0914
  457.0000     8.8137    10.0948     9.4906   -60.5688    96.8513     8.0074     0.0453     0.2608     2.5236   111.0716     0.0935
  457.5000     8.6803     9.9380     9.4829   -60.4288    97.1706     8.0062     0.0483     0.2650     2.5212   113.2079     0.0983
  458.0000     8.6116     9.9278     9.4064   -60.2980    97.4172     8.0049     0.0498     0.2714     2.5187   117.8132     0.0972
  458.5000     8.4812     9.8453     9.3304   -60.3164    97.5035     8.0192     0.0432     0.2759     2.5226   117.4803     0.0947
  459.0000     8.4141     9.8352     9.1877   -60.1764    97.4294     8.0179     0.0398     0.2765     2.5257   118.6906     0.0928
  459.5000     8.1666     9.8252     8.9160   -60.0410    97.3569     8.0010     0.0381     0.2732     2.5296   121.1354     0.0900
  460.0000     7.9265     9.8151     8.6523   -60.0640    97.1276     7.9998     0.0363     0.2712     2.5272   123.2716     0.0935
  460.5000     7.8637     9.8051     8.3965   -60.0824    97.2139     7.9986     0.0345     0.2814     2.5207   119.1524     0.0968
  461.0000     7.8586     9.7236     8.1482   -60.1009    97.5383     7.9973     0.0427     0.2881     2.5167   114.4568     0.0971
  461.5000     7.8534     9.5726     7.7925   -60.1193    98.1802     7.9961     0.0549     0.2872     2.5142   104.6782     0.0962
  462.0000     7.9071     9.4239     7.6733   -59.9793   101.0763     7.9949     0.0611     0.2844     2.5181   100.0243     0.0965
  462.5000     8.0181     9.2775     7.7816   -59.8485   103.0093     7.9937     0.0529     0.2816     2.5173   101.2346     0.0982
  463.0000     8.1307     9.2005     7.8881   -59.8669   103.2805     7.9925     0.0368     0.2781     2.5148   103.8027     0.0985
  463.5000     8.3052     9.2585     8.0564   -59.8853   102.4162     7.9913     0.0255     0.2743     2.5148   109.3747     0.0985
  464.0000     8.5442     9.3170     8.2886   -59.9038   100.6771     7.9900     0.0253     0.2750     2.5155   118.4396     0.0976
  464.5000     8.9209     9.4446     8.5900   -59.9222    99.1762     8.0043     0.0315     0.2769     2.5210   115.3289     0.0951
  465.0000     9.3823     9.6443     8.9676   -59.9406    97.8339     8.0031     0.0393     0.2782     2.5281   110.6750     0.0907
  465.5000     9.8676     9.9205     9.3618   -59.8052    96.8885     8.0018     0.0471     0.2721     2.5346   106.6383     0.0857
  466.0000    10.3780    10.2046     9.9899   -59.7795    96.1812     8.0006     0.0597     0.2669     2.5359   104.1449     0.0844
  466.5000    10.6008    10.6516    10.4290   -59.6836    95.2358     7.9994     0.0691     0.2669     2.5302   105.6638     0.0886
  467.0000    10.8284    10.9567    10.8082   -59.5482    94.1265     7.9981     0.0705     0.2666     2.5301   108.1087     0.0899
  467.5000    10.9822    11.2705    10.9607   -59.5712    93.6362     7.9967     0.0623     0.2635     2.5317   109.9362     0.0877
  468.0000    10.9733    11.5088    10.8700   -59.4312    93.1156     7.9957     0.0507     0.2585     2.5380   111.4552     0.0849
  468.5000    10.8864    11.4970    10.7822   -59.4542    93.0414     7.9942     0.0333     0.2559     2.5442   111.7456     0.0824
  469.0000    10.5662    11.4015    10.6173   -59.4708    93.2089     7.9930     0.0395     0.2576     2.5481   111.4066     0.0786
  469.5000    10.3306    11.3068    10.4550   -59.4911    93.3746     8.0074     0.0489     0.2567     2.5536   111.6914     0.0764
  470.0000    10.1003    11.2129    10.3705   -59.5538    93.4609     8.0060     0.0583     0.2516     2.5520   112.5926     0.0790
  470.5000    10.0203    11.1198    10.2868   -59.7033    93.5472     8.0048     0.0644     0.2475     2.5495   113.5144     0.0793
  471.0000    10.0887    11.0275    10.1295   -59.8523    93.7129     8.0036     0.0627     0.2483     2.5479   114.1276     0.0790
