~VERSION INFORMATION
 VERS.                2.0:   CWLS LOG ASCII STANDARD - VERSION 2.0
 WRAP.                 NO:   ONE LINE PER DEPTH STEP
~WELL INFORMATION
#MNEM.UNIT      DATA TYPE    INFORMATION
#----------   ------------   ------------------------------
 STRT.F           30.0000:   START DEPTH
 STOP.F          618.0000:   STOP DEPTH
 STEP.F            0.5000:   STEP LENGTH
 NULL.          -999.2500:   NO VALUE
 COMP. FENNIX & SCISSON, INC.:   COMPANY
 WELL.       NPR #88-S-10:   WELL
 FLD .              NPR-3:   FIELD
 LOC .      S10 T38N R78W:   LOCATION
 CNTY.            NATRONA:   COUNTY
 STAT.            WYOMING:   STATE
 CTRY. UNITED STATES OF AMERICA:   COUNTRY
 SRVC.              Welex:   SERVICE COMPANY
 DATE.        22-APR-1977:   LOGDATE
 API .       490251034200:   API NUMBER
~CURVE INFORMATION
#MNEM.UNIT       API CODE    CURVE DESCRIPTION
#----------   ------------   ------------------------------
 DEPT.F                  :   
 CALD.IN     45 280 60 00:   CALIPER FROM DENSITY LOG
 GRD .GAPI   45 310 01 00:   GAMMA RAY FROM DENSITY LOG
 CORR.G/C3   45 356 01 00:   DENSITY CORRECTION
 RHOB.G/C3   45 350 01 00:   BULK DENSITY
 DPHI.DEC    45 890 12 00:   DENSITY POROSITY SANDSTONE
 ILD .OHMM   07 120 46 00:   INDUCTION LOG DEEP
 ILM .OHMM   07 120 44 00:   INDUCTION LOG MEDIUM
 SGRD.OHMM   07 220 05 00:   SHALLOW GUARD RESISTIVITY
 SPR .MV     07 010 01 00:   SPONTANEOUS POTENTIAL FROM RES.
~PARAMETER INFORMATION
#MNEM.UNIT          VALUE    DESCRIPTION
#----------   ------------   ------------------------------
 PD  .                 GL:   PERMANENT DATUM
 EPD .F              5255:   ELEVATION PERMANENT DATUM
 LMF .                 GL:   LOG MEASURED FROM
 DMF .                 GL:   DRILLING MEASURED FROM
 EGL .F              5255:   GROUND LEVEL
 DATE.        22-APR-1977:   RUN DATE
 RUN .                  1:   RUN NUMBER
 DD  .F               630:   DEPTH DRILLER
 DL  .F               620:   DEPTH LOGGER
 BLI .F               618:   BOTTOM LOG INTERVAL
 TLI .F                38:   TOP LOG INTERVAL
 CS  .IN            8.625:   CASING SIZE
 CBD .F                40:   CASING BOTTOM DRILLER
 BS  .IN            7.875:   BIT SIZE
 BSD .F               630:   BIT SIZE AT DEPTH
 DFT .            KCL GEL:   DRILLING FLUID TYPE
 DFD .                9.0:   DRILLING FLUID DENSITY
 DFV .                 40:   DRILLING FLUID VISCOSITY
 DFPH.                8.0:   DRILLING FLUID PH
 DFL .                6.4:   DRILLING FLUID LOSS
 MSS .            MUD PIT:   MUD SAMPLE SOURCE
 RMS .OHMM            .20:   RESISTIVITY MUD SAMPLE
 MST .F                65:   MUD SAMPLE TEMPERATURE
 RMF .OHMM            .18:   RESISTIVITY MUD FILTRATE SAMPLE
 MFST.F                65:   MUD FILTRATE SAMPLE TEMPERATURE
 RMC .OHMM            .28:   RESISTIVITY MUD CAKE
 MCST.F                65:   MUD CAKE SAMPLE TEMPERATURE
 MFSS.               MEAS:   MUD FILTRATE SAMPLE SOURCE
 MCSS.               MEAS:   MUD CAKE SAMPLE SOURCE
 RMB .OHMM            .18:   RESISTIVITY MUD AT BHT
 BHT .F                71:   BOTTOM HOLE TEMPERATURE
 TCS .HRS            0300:   TIME CURCULATED STOPPED
 MRT .F                71:   MAXIMUM RECORDED TEMPERATURE
 LUN .               8611:   LOGGING UNIT NUMBER
 LUL .             CASPER:   LOGGING UNIT LOCATION
 ENGI.          T. JOYNER:   RECORDING ENGINEER
 WITN.           ROB LYON:   WITNESSED BY
 CLNT.            A2DTECH:   CLIENT CODE
 ORIG.           5" PRINT:   ORIGIN OF DATA
 UWI .       490251034200:   UNIQUE WELL ID
 DICO. A2D Technologies, Inc.:   DIGITIZING COMPANY
~OTHER INFORMATION
~A   DEPT     CALD        GRD       CORR       RHOB       DPHI        ILD        ILM       SGRD        SPR   
# ...
  541.0000     7.7611   100.2453     0.0165     2.4504     0.1214     9.1850     9.7190    15.3893   -13.9763
  541.5000     7.7762   100.8478     0.0166     2.4474     0.1217     9.2466     9.8506    15.1820   -13.9852
  542.0000     7.7913   101.5803     0.0136     2.4212     0.1262     9.3086    10.0531    15.0715   -14.1430
  542.5000     7.8064   104.4464     0.0091     2.4145     0.1391     9.3710    10.1193    15.0652   -14.1519
  543.0000     7.8066   107.1440     0.0046     2.4152     0.1418     9.3656    10.1858    15.0590   -14.4584
  543.5000     7.8067   106.3985     0.0032     2.4204     0.1403     8.9833    10.1123    15.0528   -14.4674
  544.0000     7.8069   104.9044     0.0017     2.4242     0.1388     8.6762     9.8336    15.0286   -14.6251
  544.5000     7.8220   112.3925     0.0018     2.4182     0.1409     8.5612     9.6955    14.9370   -14.7828
  545.0000     7.8221   112.2458     0.0003     2.4159     0.1424     8.5516     9.6922    14.6240   -15.0894
  545.5000     7.8223   111.3505    -0.0012     2.4137     0.1421     8.4989     9.9600    14.5175   -15.0983
  546.0000     7.8224   110.3056    -0.0011     2.4167     0.1403     8.5559    10.3773    14.4119   -15.2560
  546.5000     7.8226   108.8116    -0.0011     2.4152     0.1405     8.6133    10.6640    14.4059   -15.4137
  547.0000     7.8227   107.6170    -0.0010     2.4129     0.1407     8.7306    10.6603    14.4000   -15.5715
  547.5000     7.8229   105.9733    -0.0010     2.4144     0.1409     8.8499    10.5106    14.4951   -15.7292
  548.0000     7.8230   101.3356    -0.0009     2.4151     0.1408     8.9713    10.2210    14.5894   -15.7381
  548.5000     7.8232   103.4344    -0.0024     2.4121     0.1444     9.0314    10.0775    14.5819   -15.8959
  549.0000     7.8233   105.5332    -0.0024     2.4099     0.1447     9.0291    10.0047    14.5758   -15.7560
  549.5000     7.8235   108.6799    -0.0008     2.4076     0.1459     9.0272     9.9325    14.4697   -15.7649
  550.0000     7.8386   109.4307    -0.0008     2.4058     0.1501     9.0315    10.0671    14.3659   -15.9226
  550.5000     7.8387   109.7305    -0.0068     2.4001     0.1516     9.0998    10.1746    14.5579   -16.0719
  551.0000     7.8389   110.0299    -0.0068     2.3987     0.1516     9.1437    10.3396    14.4422   -16.2679
  551.5000     7.8390   112.2755    -0.0068     2.4009     0.1501     8.7690    10.4080    14.2334   -16.3970
  552.0000     7.8392   113.9222    -0.0053     2.4039     0.1471     8.4686    10.2601    14.0275   -16.5546
  552.5000     7.8393   109.8802    -0.0053     2.4061     0.1457     8.2920     9.9767    13.8439   -16.7123
  553.0000     7.8245   108.5329    -0.0024     2.4076     0.1472     8.2886     9.7012    13.7422   -16.8699
  553.5000     7.7948   109.2814     0.0006     2.4106     0.1472     8.4001     9.4333    13.6413   -16.8787
  554.0000     7.7949   111.3772     0.0023     2.4129     0.1460     8.4547     9.1097    13.5411   -17.0364
  554.5000     7.7951   109.7305     0.0036     2.4144     0.1442     8.5105     9.1690    13.4417   -17.1940
  555.0000     7.8102   108.5329     0.0021     2.4136     0.1445     8.5650     9.4869    13.4353   -17.2028
  555.5000     7.7954   108.0838     0.0021     2.4099     0.1469     8.5614     9.8159    13.3366   -17.3605
  556.0000     7.7806   107.9341     0.0021     2.4046     0.1484     8.4992    10.0172    13.3302   -17.5181
  556.5000     7.7957   109.8802     0.0006     2.4009     0.1505     8.3219     9.8079    13.2323   -17.8245
  557.0000     7.7958   110.9281     0.0003     2.4001     0.1511     8.1483     9.6030    13.1351   -17.9822
  557.5000     7.7960   111.6766    -0.0010     2.4001     0.1496     7.9236     9.3378    12.9491   -18.1448
  558.0000     7.7961   112.8743     0.0005     2.4001     0.1481     7.7051     9.2060    12.7657   -18.4464
  558.5000     7.7963   114.0719     0.0035     2.4031     0.1457     7.4926     9.2660    12.5849   -18.6230
  559.0000     7.7964   116.4671     0.0071     2.4129     0.1341     7.2860     9.3909    12.4066   -18.7877
  559.5000     7.7966   117.2156     0.0128     2.4263     0.1275     7.0364     9.5165    12.2309   -19.0702
  560.0000     7.7967   115.5689     0.0201     2.4380     0.1253     6.7954     9.0641    12.0576   -19.3766
  560.5000     7.7969   114.9701     0.0276     2.4413     0.1245     6.5175     8.5150    11.8869   -19.5343
  561.0000     7.7970   115.8683     0.0291     2.4361     0.1281     6.1655     8.3371    11.7185   -19.6919
  561.5000     7.7972   116.6168     0.0291     2.4259     0.1368     5.9544     8.3923    11.3943   -19.8495
  562.0000     7.8123   116.9162     0.0275     2.4141     0.1452     5.6328     8.2162    11.0730   -20.0072
  562.5000     7.7975   121.8563     0.0245     2.4114     0.1451     5.3654     7.5083    10.3898   -20.0160
  563.0000     7.7976   122.9042     0.0200     2.4152     0.1365     5.1806     6.8142     9.3402   -20.1736
  563.5000     7.7828   123.5030     0.0184     2.4232     0.1275     5.0368     6.4013     8.3966   -20.3313
  564.0000     7.7830   122.3054     0.0169     2.4571     0.1143     5.0020     6.1392     7.0149   -20.1913
  564.5000     7.7831   110.9281     0.0169     2.5089     0.1033     5.0382     6.3084     6.4548   -20.0491
  565.0000     7.7833   108.2335     0.0154     2.5116     0.1021     5.1778     6.9453     6.7242   -19.9091
  565.5000     7.7984   106.8862     0.0124     2.5046     0.1049     5.4010     7.3872     9.3572   -19.7691
  566.0000     7.7985   107.3353     0.0093     2.4980     0.1061     5.7068     7.7496    12.1538   -19.4821
  566.5000     7.8136   108.0838     0.0063     2.4966     0.1066     6.1796     8.1297    12.8383   -19.1935
  567.0000     7.8287   109.8802     0.0063     2.4974     0.1042     6.6633     8.4116    13.0103   -18.9048
  567.5000     7.8289   111.6766     0.0063     2.4990     0.1052     7.0379     8.7032    13.0026   -18.7649
  568.0000     7.8290   110.9281     0.0062     2.5028     0.1066     7.4336     9.0067    12.9964   -18.6230
  568.5000     7.8292   108.0838     0.0092     2.5072     0.1045     7.6382     9.3211    12.9902   -18.3362
  569.0000     7.8144   107.4850     0.0122     2.5055     0.1034     7.7410     9.4428    12.9840   -18.3450
  569.5000     7.8145   108.6826     0.0122     2.5026     0.1037     7.8459     9.4388    12.8886   -18.0562
  570.0000     7.7997   111.0778     0.0122     2.5050     0.1046     7.9515     9.3693    12.7939   -18.0672
  570.5000     7.7999   113.4731     0.0122     2.5109     0.1076     8.0585     9.3011    12.7878   -17.7784
  571.0000     7.8000   113.4731     0.0122     2.5108     0.1076     8.2226     9.4264    13.0488   -17.7873
  571.5000     7.8002   113.6228     0.0122     2.5071     0.1063     8.3341     9.6862    13.5000   -17.6451
  572.0000     7.8153   115.2695     0.0106     2.5056     0.1028     8.5037     9.9532    13.8708   -17.5051
  572.5000     7.8154   116.9162     0.0106     2.5056     0.1013     8.6777    10.2993    14.1540   -17.3673
  573.0000     7.8156   116.4671     0.0091     2.5071     0.1016     8.8562    10.7291    14.4428   -17.3761
  573.5000     7.8007   114.6707     0.0106     2.5094     0.1004     9.0365    11.0248    14.6364   -17.2340
  574.0000     7.8009   111.9761     0.0106     2.5146     0.0989     9.1581    11.3287    14.7386   -17.2450
  574.5000     7.8011   109.4311     0.0121     2.5161     0.0980     9.2186    11.1689    14.8254   -17.1050
  575.0000     7.8012   109.1317     0.0121     2.5213     0.0981     9.3417    10.8604    14.8351   -17.1138
  575.5000     7.8014   108.9820     0.0120     2.5295     0.0990     9.4024    10.8560    15.0169   -17.1227
  576.0000     7.8015   108.9820     0.0120     2.5213     0.1029     9.4645    11.5467    15.1136   -16.9827
  576.5000     7.8166   106.8862     0.0135     2.5026     0.1050     9.5260    12.3664    15.2090   -16.9915
  577.0000     7.8467   105.6886     0.0135     2.4989     0.1065     9.6532    12.5332    15.2018   -17.0003
