~VERSION INFORMATION
 VERS.                2.0:   CWLS LOG ASCII STANDARD - VERSION 2.0
 WRAP.                 NO:   ONE LINE PER DEPTH STEP
~WELL INFORMATION
#MNEM.UNIT      DATA TYPE    INFORMATION
#----------   ------------   ------------------------------
 STRT.F            8.0000:   START DEPTH
 STOP.F          614.0000:   STOP DEPTH
 STEP.F            0.5000:   STEP LENGTH
 NULL.          -999.2500:   NO VALUE
 COMP. FENIX & SCISSON INC:   COMPANY
 WELL.       SX 10 #34-10:   WELL
 FLD .             TEAPOT:   FIELD
 LOC .      S10 T38N R78W:   LOCATION
 CNTY.            NATRONA:   COUNTY
 STAT.            WYOMING:   STATE
 CTRY. UNITED STATES OF AMERICA:   COUNTRY
 SRVC.            Unknown:   SERVICE COMPANY
 DATE.        29-JUN-1992:   LOGDATE
 API .       490251065800:   API NUMBER
~CURVE INFORMATION
#MNEM.UNIT       API CODE    CURVE DESCRIPTION
#----------   ------------   ------------------------------
 DEPT.F                  :   
 SPR .MV     05 010 01 00:   SPONTANEOUS POTENTIAL
 ILD .OHMM   05 120 46 00:   INDUCTION LOG DEEP
 SN  .OHMM   05 040 16 00:   SHORT NORMAL 16"
 GR  .GAPI   30 310 01 00:   GAMMA RAY
~PARAMETER INFORMATION
#MNEM.UNIT          VALUE    DESCRIPTION
#----------   ------------   ------------------------------
 PD  .                 GL:   PERMANENT DATUM
 EPD .F              5244:   ELEVATION PERMANENT DATUM
 LMF .                 KB:   LOG MEASURED FROM
 DMF .                 KB:   DRILLING MEASURED FROM
 EKB .F              5246:   KELLING BUSHING
 EGL .F              5244:   GROUND LEVEL
 DATE.        29-JUN-1992:   RUN DATE
 RUN .                  1:   RUN NUMBER
 DD  .F               620:   DEPTH DRILLER
 DL  .F               381:   DEPTH LOGGER
 BLI .F               381:   BOTTOM LOG INTERVAL
 TLI .F                 8:   TOP LOG INTERVAL
 BS  .IN            7.875:   BIT SIZE
 BSD .F               620:   BIT SIZE AT DEPTH
 DFT .                KCL:   DRILLING FLUID TYPE
 LUN .                509:   LOGGING UNIT NUMBER
 LUL .           GILLETTE:   LOGGING UNIT LOCATION
 ENGI.          O. METORF:   RECORDING ENGINEER
 WITN.         JEFF CLARK:   WITNESSED BY
 CLNT.            A2DTECH:   CLIENT CODE
 ORIG.           5" PRINT:   ORIGIN OF DATA
 UWI .       490251065800:   UNIQUE WELL ID
 DICO. A2D Technologies, Inc.:   DIGITIZING COMPANY
~OTHER INFORMATION
~A    DEPT     SPR        ILD         SN          GR  
# ...
  519.0000   -46.0844    10.5551    12.4262  -999.2500
  519.5000   -46.0858    11.2323    12.7734  -999.2500
  520.0000   -46.2372    12.2033    12.8613  -999.2500
  520.5000   -46.2386    12.1192    12.8603  -999.2500
  521.0000   -46.2400    11.8706    12.7707  -999.2500
  521.5000   -46.3917    11.3101    12.6819  -999.2500
  522.0000   -46.3932    10.4102    12.5070  -999.2500
  522.5000   -46.3946     9.9874    12.4201  -999.2500
  523.0000   -46.3960     9.7826    12.3338  -999.2500
  523.5000   -46.2475     9.2565    12.4187  -999.2500
  524.0000   -46.2493     9.1295    12.4174  -999.2500
  524.5000   -46.2507     9.0666    12.3311  -999.2500
  525.0000   -46.2522     9.0666    12.1611  -999.2500
  525.5000   -46.1037     9.0042    12.0766  -999.2500
  526.0000   -46.4050     8.8194    12.1595  -999.2500
  526.5000   -46.8565     8.8194    12.1585  -999.2500
  527.0000   -47.0079     8.7587    12.1577  -999.2500
  527.5000   -47.0093     8.7587    12.0732  -999.2500
  528.0000   -47.1607     8.6984    11.9893  -999.2500
  528.5000   -47.3120     8.5790    11.7423  -999.2500
  529.0000   -47.6133     8.5790    11.6607  -999.2500
  529.5000   -47.6151     8.6385    11.6599  -999.2500
  530.0000   -47.6165     8.6385    11.7402  -999.2500
  530.5000   -47.4676     8.6385    11.7392  -999.2500
  531.0000   -47.7693     8.5790    11.6574  -999.2500
  531.5000   -48.5203     8.5200    11.6567  -999.2500
  532.0000   -48.5221     8.4613    11.6559  -999.2500
  532.5000   -48.5236     8.4613    11.4952  -999.2500
  533.0000   -48.5250     8.4613    11.4153  -999.2500
  533.5000   -48.6763     8.5200    11.3357  -999.2500
  534.0000   -49.1275     8.5790    11.4138  -999.2500
  534.5000   -49.1293     8.5790    11.3343  -999.2500
  535.0000   -49.2807     8.6385    11.3335  -999.2500
  535.5000   -49.2821     8.6984    11.3328  -999.2500
  536.0000   -49.2835     8.6984    11.3318  -999.2500
  536.5000   -49.2850     8.7587    11.2531  -999.2500
  537.0000   -49.2868     8.8194    11.2523  -999.2500
  537.5000   -49.5880     8.8194    11.2516  -999.2500
  538.0000   -49.8893     8.8194    11.2508  -999.2500
  538.5000   -50.1906     8.5790    11.3283  -999.2500
  539.0000   -50.0419     8.4030    11.2492  -999.2500
  539.5000   -50.3436     8.2877    11.2484  -999.2500
  540.0000   -50.4950     8.1740    11.3259  -999.2500
  540.5000   -50.3461     8.1177    11.3249  -999.2500
  541.0000   -50.3483     8.1177    11.3240  -999.2500
  541.5000   -50.3497     8.0618    11.1678  -999.2500
  542.0000   -50.3511     7.9511    11.1671  -999.2500
  542.5000   -50.3522     7.8964    11.0895  -999.2500
  543.0000   -50.4648     7.8964    11.0124  -999.2500
  543.5000   -50.5773     7.8964    11.0115  -999.2500
  544.0000   -50.6899     7.8964    11.0108  -999.2500
  544.5000   -50.8024     7.8964    11.0100  -999.2500
  545.0000   -50.9150     7.8420    10.9335  -999.2500
  545.5000   -50.9614     7.8964    10.9328  -999.2500
  546.0000   -51.1128     7.8964    11.0079  -999.2500
  546.5000   -50.9639     7.8964    11.0070  -999.2500
  547.0000   -50.9657     7.8964    11.0062  -999.2500
  547.5000   -51.1171     7.8964    11.0055  -999.2500
  548.0000   -51.1188     7.8964    11.0813  -999.2500
  548.5000   -51.2702     7.8964    11.0802  -999.2500
  549.0000   -51.4216     7.8964    11.0795  -999.2500
  549.5000   -51.5729     7.8964    11.0787  -999.2500
  550.0000   -51.5740     7.9511    11.0782  -999.2500
  550.5000   -51.5727     7.9213    11.0408  -999.2500
  551.0000   -51.5708     7.8964    11.0033  -999.2500
  551.5000   -51.5693     7.8964    11.0042  -999.2500
  552.0000   -51.5679     7.8964    11.0050  -999.2500
  552.5000   -51.7167     7.8964    11.0057  -999.2500
  553.0000   -51.7149     7.8964    10.9307  -999.2500
  553.5000   -51.5635     7.8420    10.7814  -999.2500
  554.0000   -51.5620     7.8420    10.7821  -999.2500
  554.5000   -51.7108     7.7880    10.7830  -999.2500
  555.0000   -52.6086     7.7344    10.7838  -999.2500
  555.5000   -52.9073     7.6811    10.7099  -999.2500
  556.0000   -52.9051     7.6283    10.5638  -999.2500
  556.5000   -53.3534     7.5757    10.4197  -999.2500
  557.0000   -53.5026     7.4718    10.3485  -999.2500
  557.5000   -53.8007     7.3692    10.2779  -999.2500
  558.0000   -53.9491     7.2681    10.2078  -999.2500
  558.5000   -53.9473     7.2180    10.1384  -999.2500
  559.0000   -54.0961     7.1683     9.9311  -999.2500
  559.5000   -54.2446     7.0700     9.8634  -999.2500
  560.0000   -54.3930     6.9729     9.7288  -999.2500
  560.5000   -54.3912     6.8772     9.5959  -999.2500
  561.0000   -54.5400     6.8772     9.3350  -999.2500
  561.5000   -54.6878     6.8772     9.0811  -999.2500
  562.0000   -54.6863     6.7362     8.8342  -999.2500
  562.5000   -54.8348     6.0311     8.6535  -999.2500
  563.0000   -54.8333     5.4751     8.3603  -999.2500
  563.5000   -54.9821     5.2166     8.0213  -999.2500
  564.0000   -54.8304     5.0047     7.6961  -999.2500
  564.5000   -54.6790     4.9703     7.3332  -999.2500
  565.0000   -54.5276     5.0047     7.0358  -999.2500
  565.5000   -53.9265     5.0394     7.2337  -999.2500
  566.0000   -53.4748     5.1095     7.5403  -999.2500
  566.5000   -53.7736     5.2166     7.8059  -999.2500
  567.0000   -53.7718     5.5130     8.4229  -999.2500
  567.5000   -53.7703     5.9484     8.9022  -999.2500
  568.0000   -53.7688     6.5074     9.3440  -999.2500
  568.5000   -53.7674     7.0213     9.6731  -999.2500
  569.0000   -53.6160     7.4203     9.9448  -999.2500
  569.5000   -53.3147     7.4718    10.0839  -999.2500
  570.0000   -53.1633     7.4203    10.1545  -999.2500
  570.5000   -52.8620     7.4203    10.2258  -999.2500
  571.0000   -52.2605     7.4718    10.4406  -999.2500
  571.5000   -52.2590     7.6283    10.5866  -999.2500
  572.0000   -52.2575     7.8420    10.7347  -999.2500
  572.5000   -52.2561     7.9511    10.8848  -999.2500
  573.0000   -52.2546     7.9511    11.1135  -999.2500
  573.5000   -52.2531     8.0063    11.3470  -999.2500
  574.0000   -52.2517     8.0618    11.4265  -999.2500
  574.5000   -52.2502     8.1177    11.5065  -999.2500
  575.0000   -52.0988     8.2877    11.5073  -999.2500
  575.5000   -51.4977     8.3452    11.5878  -999.2500
  576.0000   -51.4958     8.5200    11.6692  -999.2500
  576.5000   -51.4944     8.5790    11.6700  -999.2500
  577.0000   -51.4929     8.6385    11.6707  -999.2500
  577.5000   -51.4914     8.6984    11.6715  -999.2500
  578.0000   -51.4900     8.7587    11.6723  -999.2500
  578.5000   -51.4885     8.7587    11.6731  -999.2500
  579.0000   -51.4871     8.7587    11.6739  -999.2500
  579.5000   -51.4856     8.7587    11.7556  -999.2500
  580.0000   -52.0842     8.7587    11.7564  -999.2500
  580.5000   -52.2327     8.7587    11.7572  -999.2500
  581.0000   -52.2305     8.6984    11.7582  -999.2500
  581.5000   -52.2290     8.5790    11.6776  -999.2500
  582.0000   -52.2275     8.5200    11.6788  -999.2500
  582.5000   -52.0762     8.5200    11.5990  -999.2500
  583.0000   -52.2250     8.5790    11.6000  -999.2500
  583.5000   -52.0732     8.5790    11.6008  -999.2500
  584.0000   -52.0718     8.5790    11.6015  -999.2500
  584.5000   -52.2206     8.5200    11.6023  -999.2500
  585.0000   -52.6689     8.3452    11.6031  -999.2500
  585.5000   -52.6671     8.2306    11.6039  -999.2500
  586.0000   -52.6653     8.1740    11.6047  -999.2500
  586.5000   -52.6638     8.2306    11.6057  -999.2500
  587.0000   -52.6623     8.1740    11.5261  -999.2500
  587.5000   -52.6609     8.1740    11.4475  -999.2500
  588.0000   -52.6594     8.1177    11.4487  -999.2500
  588.5000   -52.5080     8.0618    11.3704  -999.2500
  589.0000   -52.5065     7.9511    11.3714  -999.2500
  589.5000   -52.6550     7.8964    11.2939  -999.2500
  590.0000   -53.1037     7.8420    11.1394  -999.2500
  590.5000   -53.2522     7.8420    11.0635  -999.2500
  591.0000   -53.2500     7.7344    10.9126  -999.2500
  591.5000   -53.3988     7.6283    10.8380  -999.2500
