~VERSION INFORMATION
 VERS.                2.0:   CWLS LOG ASCII STANDARD - VERSION 2.0
 WRAP.                 NO:   ONE LINE PER DEPTH STEP
~WELL INFORMATION
#MNEM.UNIT      DATA TYPE    INFORMATION
#----------   ------------   ------------------------------
 STRT.F            8.0000:   START DEPTH
 STOP.F          500.0000:   STOP DEPTH
 STEP.F            0.5000:   STEP LENGTH
 NULL.          -999.2500:   NO VALUE
 COMP. FENIX & SCISSON INC:   COMPANY
 WELL. 65 12 SX 3FI #65-3:   WELL
 FLD .             TEAPOT:   FIELD
 LOC .       S3 T38N R78W:   LOCATION
 CNTY.            NATRONA:   COUNTY
 STAT.            WYOMING:   STATE
 CTRY. UNITED STATES OF AMERICA:   COUNTRY
 SRVC.              Welex:   SERVICE COMPANY
 DATE.        01-JUN-1980:   LOGDATE
 API .       490251082400:   API NUMBER
~CURVE INFORMATION
#MNEM.UNIT       API CODE    CURVE DESCRIPTION
#----------   ------------   ------------------------------
 DEPT.F                  :   
 GRD .GAPI   45 310 01 00:   GAMMA RAY FROM DENSITY LOG
 CALD.IN     45 280 60 00:   CALIPER
 RHOB.G/C3   45 350 01 00:   BULK DENSITY
 CORR.G/C3   45 356 01 00:   DENSITY CORRECTION
 DPHI.DEC    45 890 12 00:   DENSITY POROSITY SANDSTONE
 NPHI.DEC    42 890 03 00:   NEUTRON POROSITY SANDSTONE
 SPR .MV     07 010 01 00:   SPONTANEOUS POTENTIAL
 SGRD.OHMM   07 220 05 00:   SHALLOW GUARD RESISTIVITY
 ILD .OHMM   07 120 46 00:   INDUCTION LOG DEEP
 ILM .OHMM   07 120 44 00:   INDUCTION LOG MEDIUM
~PARAMETER INFORMATION
#MNEM.UNIT          VALUE    DESCRIPTION
#----------   ------------   ------------------------------
 PD  .                 GL:   PERMANENT DATUM
 EPD .F              5155:   ELEVATION PERMANENT DATUM
 LMF .                 KB:   LOG MEASURED FROM
 DAPD.F                 4:   FEET ABOVE PERMANENT DATUM
 DMF .                 KB:   DRILLING MEASURED FROM
 EKB .F              5159:   KELLING BUSHING
 EGL .F              5155:   GROUND LEVEL
 DATE.             6-1-80:   RUN DATE
 RUN .                  1:   RUN NUMBER
 DD  .F               505:   DEPTH DRILLER
 DL  .F               502:   DEPTH LOGGER
 BLI .F               500:   BOTTOM LOG INTERVAL
 TLI .F                20:   TOP LOG INTERVAL
 BS  .IN            9.875:   BIT SIZE
 BSD .F               505:   BIT SIZE AT DEPTH
 DFT .      OIL BASED MUD:   DRILLING FLUID TYPE
 MSS .            MUD PIT:   MUD SAMPLE SOURCE
 RMS .OHMM             .9:   RESISTIVITY MUD SAMPLE
 MST .F                65:   MUD SAMPLE TEMPERATURE
 RMF .OHMM            .72:   RESISTIVITY MUD FILTRATE SAMPLE
 MFST.F                65:   MUD FILTRATE SAMPLE TEMPERATURE
 RMC .OHMM           1.08:   RESISTIVITY MUD CAKE
 MCST.F                65:   MUD CAKE SAMPLE TEMPERATURE
 MFSS.           MEASURED:   MUD FILTRATE SAMPLE SOURCE
 MCSS.           MEASURED:   MUD CAKE SAMPLE SOURCE
 RMB .OHMM            .71:   RESISTIVITY MUD AT BHT
 BHT .F                76:   BOTTOM HOLE TEMPERATURE
 TCS .HRS               2:   TIME CURCULATED STOPPED
 MRT .F                76:   MAXIMUM RECORDED TEMPERATURE
 LUN .               9685:   LOGGING UNIT NUMBER
 LUL .             CASPER:   LOGGING UNIT LOCATION
 ENGI.               REIN:   RECORDING ENGINEER
 WITN.            RHOADES:   WITNESSED BY
 CLNT.            A2DTECH:   CLIENT CODE
 ORIG.        2" 5" PRINT:   ORIGIN OF DATA
 UWI .       490251082400:   UNIQUE WELL ID
 DICO. A2D Technologies, Inc.:   DIGITIZING COMPANY
~OTHER INFORMATION
~A    DEPT     GRD       CALD       RHOB       CORR       DPHI       NPHI        SPR        SGRD         ILD        ILM 
    8.0000  -999.2500  -999.2500  -999.2500  -999.2500  -999.2500  -999.2500   -22.5838    46.2990     6.6824     8.1021
    8.5000  -999.2500  -999.2500  -999.2500  -999.2500  -999.2500  -999.2500   -22.5838    46.2990     6.6824     8.1021
    9.0000  -999.2500  -999.2500  -999.2500  -999.2500  -999.2500  -999.2500   -22.5838    46.2990     6.6824     8.1021
    9.5000  -999.2500  -999.2500  -999.2500  -999.2500  -999.2500  -999.2500   -22.5838    46.7278     6.7222     8.1531
   10.0000  -999.2500  -999.2500  -999.2500  -999.2500  -999.2500  -999.2500   -22.5838    46.2990     6.6824     8.1021
   10.5000  -999.2500  -999.2500  -999.2500  -999.2500  -999.2500  -999.2500   -22.5839    46.2990     6.6824     8.1021
   11.0000  -999.2500  -999.2500  -999.2500  -999.2500  -999.2500  -999.2500   -22.5817    46.2992     6.6824     8.1021
   11.5000  -999.2500  -999.2500  -999.2500  -999.2500  -999.2500  -999.2500   -22.5718    46.2987     6.6825     8.1021
   12.0000  -999.2500  -999.2500  -999.2500  -999.2500  -999.2500  -999.2500   -22.9350    46.3052     6.6824     8.1008
   12.5000  -999.2500  -999.2500  -999.2500  -999.2500  -999.2500  -999.2500   -23.2894    46.1164     6.6762     8.1272
   13.0000  -999.2500  -999.2500  -999.2500  -999.2500  -999.2500  -999.2500   -23.6444    45.8187     6.6431     8.1904
   13.5000  -999.2500  -999.2500  -999.2500  -999.2500  -999.2500  -999.2500   -23.9981    45.5208     6.6108     8.2538
   14.0000  -999.2500  -999.2500  -999.2500  -999.2500  -999.2500  -999.2500   -24.3548    45.2249     6.5786     8.3176
   14.5000  -999.2500  -999.2500  -999.2500  -999.2500  -999.2500  -999.2500   -24.7291    44.9309     6.5466     8.3819
   15.0000  -999.2500  -999.2500  -999.2500  -999.2500  -999.2500  -999.2500   -24.3634    44.6389     6.5148     8.4467
   15.5000  -999.2500  -999.2500  -999.2500  -999.2500  -999.2500  -999.2500   -23.0222    44.3488     6.4831     8.5121
   16.0000  -999.2500  -999.2500  -999.2500  -999.2500  -999.2500  -999.2500   -21.5246    44.0606     6.4516     8.5606
   16.5000  -999.2500  -999.2500  -999.2500  -999.2500  -999.2500  -999.2500   -20.0318    43.7742     6.3724     8.3209
   17.0000  -999.2500  -999.2500  -999.2500  -999.2500  -999.2500  -999.2500   -20.5908    43.4194     6.2723     8.1357
   17.5000  -999.2500  -999.2500  -999.2500  -999.2500  -999.2500  -999.2500   -21.2368    43.6022     6.1737     7.9547
   18.0000  -999.2500  -999.2500  -999.2500  -999.2500  -999.2500  -999.2500   -19.6240    43.8465     6.0967     7.6241
   18.5000  -999.2500  -999.2500  -999.2500  -999.2500  -999.2500  -999.2500   -18.1545    44.0923     6.0410     7.2078
   19.0000  -999.2500  -999.2500  -999.2500  -999.2500  -999.2500  -999.2500   -19.9972    44.3396     4.4007     6.6768
   19.5000  -999.2500  -999.2500  -999.2500  -999.2500  -999.2500  -999.2500   -22.0014    44.5888     2.8673     6.0566
   20.0000  -999.2500  -999.2500  -999.2500  -999.2500  -999.2500  -999.2500   -22.7024    44.8369     5.6395     5.4857
   20.5000  -999.2500  -999.2500  -999.2500  -999.2500  -999.2500  -999.2500   -22.2663    45.0406     5.0425     4.9433
   21.0000  -999.2500  -999.2500  -999.2500  -999.2500  -999.2500  -999.2500   -20.8495    44.4938     4.3831     4.4452
   21.5000  -999.2500  -999.2500  -999.2500  -999.2500  -999.2500  -999.2500   -19.1395    44.0369     3.8099     3.9974
   22.0000  -999.2500  -999.2500  -999.2500  -999.2500  -999.2500  -999.2500   -17.4225    43.5842     3.2672     3.6072
   22.5000  -999.2500  -999.2500  -999.2500  -999.2500  -999.2500  -999.2500   -15.7102    43.1364     2.9824     3.2673
   23.0000  -999.2500  -999.2500  -999.2500  -999.2500  -999.2500  -999.2500   -13.9822    42.9143     2.6960     2.9594
   23.5000  -999.2500  -999.2500  -999.2500  -999.2500  -999.2500  -999.2500   -13.3237    42.7727     2.4372     2.6802
   24.0000  -999.2500  -999.2500  -999.2500  -999.2500  -999.2500  -999.2500   -13.3120    42.6258     2.2031     2.4275
   24.5000  -999.2500  -999.2500  -999.2500  -999.2500  -999.2500  -999.2500   -13.3116    41.6962     2.0322     2.3235
   25.0000  -999.2500  -999.2500  -999.2500  -999.2500  -999.2500  -999.2500   -13.3063    40.8096     1.9802     2.2464
   25.5000  -999.2500  -999.2500  -999.2500  -999.2500  -999.2500  -999.2500   -13.6218    39.9464     1.9296     2.1821
   26.0000  -999.2500  -999.2500  -999.2500  -999.2500  -999.2500  -999.2500   -14.0220    38.8360     1.8802     2.2336
   26.5000  -999.2500  -999.2500  -999.2500  -999.2500  -999.2500  -999.2500   -14.4240    36.5969     1.8331     2.2795
   27.0000  -999.2500  -999.2500  -999.2500  -999.2500  -999.2500  -999.2500   -14.8255    34.4870     1.8695     2.3264
   27.5000  -999.2500  -999.2500  -999.2500  -999.2500  -999.2500  -999.2500   -15.2269    32.6721     1.9144     2.3699
   28.0000  -999.2500  -999.2500  -999.2500  -999.2500  -999.2500  -999.2500   -15.6282    35.2004     1.9604     2.5019
   28.5000  -999.2500  -999.2500  -999.2500  -999.2500  -999.2500  -999.2500   -16.0296    37.1179     2.0091     2.6294
   29.0000  -999.2500  -999.2500  -999.2500  -999.2500  -999.2500  -999.2500   -16.4309    25.5088     2.1185     2.7634
   29.5000  -999.2500  -999.2500  -999.2500  -999.2500  -999.2500  -999.2500   -16.8323    15.1149     2.2382     2.9043
   30.0000  -999.2500  -999.2500  -999.2500  -999.2500  -999.2500  -999.2500   -17.2336    13.2198     2.3646     3.0523
   30.5000  -999.2500  -999.2500  -999.2500  -999.2500  -999.2500  -999.2500   -17.6350    12.7067     2.4982     3.2079
   31.0000  -999.2500  -999.2500  -999.2500  -999.2500  -999.2500  -999.2500   -18.0363    12.1197     2.6392     3.3714
   31.5000  -999.2500  -999.2500  -999.2500  -999.2500  -999.2500  -999.2500   -18.4377    11.4796     2.7882     3.5433
   32.0000  -999.2500  -999.2500     2.3381     0.1018  -999.2500  -999.2500   -18.8394    10.8698     2.9149     3.6657
   32.5000  -999.2500  -999.2500     2.3381     0.1018  -999.2500  -999.2500   -19.2413    10.6895     3.0386     3.7762
   33.0000  -999.2500  -999.2500     2.3381     0.1018  -999.2500  -999.2500   -19.6240    10.5941     3.1676     3.8900
   33.5000  -999.2500  -999.2500     2.3381     0.1018  -999.2500  -999.2500   -19.7956    10.5001     3.3021     4.0072
   34.0000    93.8114  -999.2500     2.2970    -0.0025     0.2217  -999.2500   -19.9581    10.0300     3.4206     4.1235
   34.5000    93.8114    11.1486     2.3008    -0.0025     0.2227  -999.2500   -20.1182     9.4493     3.4853     4.2179
   35.0000    94.0080    10.9535     2.3060    -0.0104     0.2253     0.3390   -20.1426     9.1264     3.5542     4.3144
   35.5000    94.4915    10.8035     2.3007    -0.0178     0.2260     0.3390   -19.7219     9.2681     3.6244     4.4131
   36.0000    95.0996    10.8048     2.2842    -0.0259     0.2229     0.3403   -19.3098     9.4416     3.6960     4.5042
   36.5000    95.7179    10.8251     2.3143     0.0180     0.2134     0.3432   -18.8983     9.5560     3.7690     4.5604
   37.0000    96.3276    10.8446     2.3435     0.0357     0.2039     0.3422   -18.4869     9.1174     3.8434     4.6123
   37.5000    97.3376    10.8638     2.3476     0.0332     0.1975     0.3375   -18.0752     8.7977     3.8979     4.6648
   38.0000    98.3390    10.8831     2.3256     0.0181     0.2069     0.3428   -17.6651     8.4891     3.9197     4.7156
   38.5000    99.2514    10.9023     2.3125     0.0135     0.2163     0.3501   -17.2513     8.1903     3.9417     4.6911
   39.0000   101.2241    10.8638     2.3177     0.0135     0.2122     0.3537   -17.1396     7.8787     3.9638     4.6677
   39.5000   102.7078    10.8169     2.3239     0.0269     0.2069     0.3477   -17.2760     7.8838     3.9860     4.6443
   40.0000   104.1473    10.7702     2.3300     0.0345     0.2053     0.3403   -17.4156     7.9625     4.0084     4.6293
   40.5000   103.0787    10.7489     2.3468     0.0426     0.1928     0.3377   -17.5568     8.0342     4.0308     4.7332
   41.0000   103.0128    10.7697     2.3725     0.0525     0.1829     0.3356   -17.8059     8.1021     4.0574     4.8666
