~VERSION INFORMATION
 VERS.                2.0:   CWLS LOG ASCII STANDARD - VERSION 2.0
 WRAP.                 NO:   ONE LINE PER DEPTH STEP
~WELL INFORMATION
#MNEM.UNIT      DATA TYPE    INFORMATION
#----------   ------------   ------------------------------
 STRT.F            0.0000:   START DEPTH
 STOP.F         1110.0000:   STOP DEPTH
 STEP.F            0.5000:   STEP LENGTH
 NULL.          -999.2500:   NO VALUE
 COMP. FENIX & SCISSON INC:   COMPANY
 WELL. NAVAL PETROLEUM RESERVE 3 SX-1 #63-14:   WELL
 FLD .       TEA POT DOME:   FIELD
 LOC .      S14 T38N R78W:   LOCATION
 CNTY.            NATRONA:   COUNTY
 STAT.            WYOMING:   STATE
 CTRY. UNITED STATES OF AMERICA:   COUNTRY
 SRVC.            Unknown:   SERVICE COMPANY
 DATE.        15-APR-1978:   LOGDATE
 API .       490251061500:   API NUMBER
~CURVE INFORMATION
#MNEM.UNIT       API CODE    CURVE DESCRIPTION
#----------   ------------   ------------------------------
 DEPT.F                  :   
 NPHI.DEC    42 890 03 00:   NEUTRON POROSITY SANDSTONE
 GRD .GAPI   45 310 01 00:   GAMMA RAY FROM DENSITY LOG
 CALD.IN     45 280 60 00:   CALIPER FROM DENSITY LOG
 RHOB.G/C3   45 350 01 00:   BULK DENSITY
 DPHI.DEC    45 890 12 00:   DENSITY POROSITY SANDSTONE
 CORR.G/C3   45 356 01 00:   DENSITY CORRECTION
 SPR .MV     05 010 01 00:   SPONTANEOUS POTENTIAL FROM RES.
 SN  .OHMM   05 040 16 00:   SHORT NORMAL 16"
 ILD .OHMM   05 120 46 00:   INDUCTION LOG DEEP
~PARAMETER INFORMATION
#MNEM.UNIT          VALUE    DESCRIPTION
#----------   ------------   ------------------------------
 PD  .                 GL:   PERMANENT DATUM
 EPD .F              5253:   ELEVATION PERMANENT DATUM
 LMF .                 KB:   LOG MEASURED FROM
 DAPD.F                 4:   FEET ABOVE PERMANENT DATUM
 DMF .                 KB:   DRILLING MEASURED FROM
 EKB .F              5257:   KELLING BUSHING
 EGL .F              5253:   GROUND LEVEL
 DATE.          4-15-1978:   RUN DATE
 RUN .                  1:   RUN NUMBER
 DD  .F              1095:   DEPTH DRILLER
 DL  .F              1102:   DEPTH LOGGER
 BLI .F              1100:   BOTTOM LOG INTERVAL
 TLI .F               850:   TOP LOG INTERVAL
 CS  .IN            9.625:   CASING SIZE
 CBD .F                40:   CASING BOTTOM DRILLER
 CBL .F                40:   CASING BOTTOM LOGGER
 BS  .IN            7.875:   BIT SIZE
 BSD .F              1095:   BIT SIZE AT DEPTH
 DFT .                KCL:   DRILLING FLUID TYPE
 DFD .                8.6:   DRILLING FLUID DENSITY
 DFV .                 30:   DRILLING FLUID VISCOSITY
 DFPH.                 10:   DRILLING FLUID PH
 DFL .                  8:   DRILLING FLUID LOSS
 MSS .           FLOWLINE:   MUD SAMPLE SOURCE
 RMS .OHMM            .46:   RESISTIVITY MUD SAMPLE
 MST .F                58:   MUD SAMPLE TEMPERATURE
 RMF .OHMM             .5:   RESISTIVITY MUD FILTRATE SAMPLE
 MFST.F                60:   MUD FILTRATE SAMPLE TEMPERATURE
 RMC .OHMM             .5:   RESISTIVITY MUD CAKE
 MCST.F                60:   MUD CAKE SAMPLE TEMPERATURE
 MFSS.           MEASURED:   MUD FILTRATE SAMPLE SOURCE
 RMB .OHMM            .33:   RESISTIVITY MUD AT BHT
 BHT .F                80:   BOTTOM HOLE TEMPERATURE
 TCS .HRS               6:   TIME CURCULATED STOPPED
 MRT .F                80:   MAXIMUM RECORDED TEMPERATURE
 LUN .               2958:   LOGGING UNIT NUMBER
 LUL .               CASP:   LOGGING UNIT LOCATION
 ENGI.             MILLER:   RECORDING ENGINEER
 WITN.           MCGINLEY:   WITNESSED BY
 CLNT.            A2DTECH:   CLIENT CODE
 ORIG.      2" & 5" PRINT:   ORIGIN OF DATA
 UWI .       490251061500:   UNIQUE WELL ID
 DICO. A2D Technologies, Inc.:   DIGITIZING COMPANY
~OTHER INFORMATION
~A    DEPT    NPHI         GRD      CALD       RHOB       DPHI       CORR        SPR         SN        ILD   
# ...
  365.0000  -999.2500    99.5351     7.6762     2.3765     0.1492     0.0481   -54.1910     5.8162     5.5357
  365.5000  -999.2500    99.9544     7.6652     2.3760     0.1494     0.0485   -54.1920     5.7572     5.4591
  366.0000  -999.2500    99.7004     7.7008     2.3755     0.1495     0.0490   -54.1916     5.6989     5.3843
  366.5000  -999.2500    99.3447     7.7674     2.3751     0.1499     0.0494   -54.1916     5.6410     5.3106
  367.0000  -999.2500    97.2813     7.8196     2.3714     0.1508     0.0498   -54.1916     5.5838     5.2375
  367.5000  -999.2500    95.4399     7.8026     2.3667     0.1516     0.0502   -54.1916     5.5051     5.1267
  368.0000  -999.2500    95.4999     7.7661     2.3652     0.1506     0.0505   -54.1916     5.2680     4.9366
  368.5000  -999.2500    93.6336     7.7298     2.3619     0.1531     0.0482   -54.1917     5.0412     4.7536
  369.0000  -999.2500    93.4700     7.7083     2.3549     0.1604     0.0459   -54.1761     4.8241     4.5773
  369.5000  -999.2500    96.2700     7.6929     2.3525     0.1629     0.0435   -54.1482     4.6164     4.4075
  370.0000  -999.2500    94.7568     7.6666     2.3384     0.1672     0.0411   -54.1201     4.4176     4.2441
  370.5000  -999.2500    95.9399     7.5757     2.3253     0.1749     0.0387   -54.0920     4.2274     4.0865
  371.0000  -999.2500   103.3355     7.4961     2.3416     0.1805     0.0393   -54.0639     4.0460     3.9354
  371.5000  -999.2500   110.6936     7.4870     2.3693     0.1678     0.0546   -54.0358     4.0460     3.8286
  372.0000  -999.2500   115.3979     7.5014     2.3751     0.1580     0.0697   -54.0084     4.0460     3.8386
  372.5000  -999.2500   113.4375     7.5573     2.4017     0.1494     0.0635   -54.0174     4.0460     3.8486
  373.0000  -999.2500   108.0578     7.6227     2.4063     0.1423     0.0571   -54.0774     4.0854     3.8585
  373.5000  -999.2500   102.5862     7.7331     2.4119     0.1352     0.0620   -54.1366     4.2471     3.9259
  374.0000  -999.2500    97.1699     7.8421     2.4178     0.1291     0.0668   -54.1961     4.4153     4.1726
  374.5000  -999.2500    93.1609     7.9293     2.4193     0.1289     0.0716   -54.2555     4.5902     4.4348
  375.0000  -999.2500    93.4103     7.9926     2.4200     0.1286     0.0764   -54.3149     4.7210     4.5923
  375.5000  -999.2500    92.2791     8.0332     2.4206     0.1277     0.0811   -54.3743     4.8198     4.6885
  376.0000  -999.2500    90.8387     8.0470     2.4204     0.1259     0.0859   -54.4337     4.8143     4.6831
  376.5000  -999.2500    94.7643     8.1406     2.4130     0.1300     0.0880   -54.4931     4.8082     4.6772
  377.0000  -999.2500    94.9999     8.2133     2.4047     0.1353     0.0865   -54.5525     4.8022     4.6713
  377.5000  -999.2500    95.0666     8.1533     2.3964     0.1387     0.0851   -54.6119     4.7961     4.6654
  378.0000  -999.2500    95.4697     8.0069     2.3880     0.1421     0.0823   -54.6714     4.7900     4.6595
  378.5000  -999.2500    94.1285     7.8615     2.3783     0.1455     0.0789   -54.7312     4.7838     4.6537
  379.0000  -999.2500    93.2789     7.7164     2.3669     0.1505     0.0755   -54.7887     4.7786     4.6478
  379.5000  -999.2500    92.6923     7.5712     2.3554     0.1605     0.0722   -54.7908     4.6275     4.4881
  380.0000  -999.2500    90.9793     7.4257     2.3372     0.1734     0.0687   -54.7906     4.3877     4.2379
  380.5000  -999.2500    89.3035     7.3050     2.3051     0.1864     0.0624   -54.7915     4.1611     4.0089
  381.0000  -999.2500    87.6469     7.3362     2.2731     0.1993     0.0502   -54.7985     3.9465     3.5493
  381.5000  -999.2500    88.4509     7.3724     2.2410     0.2125     0.0421   -54.5065     3.6832     3.0670
  382.0000  -999.2500    91.1290     7.3599     2.2090     0.2259     0.0413   -54.1700     3.2773     2.6503
  382.5000  -999.2500    90.9692     7.3457     2.1829     0.2393     0.0410   -53.8322     2.9171     2.5341
  383.0000  -999.2500    91.2702     7.3759     2.1867     0.2393     0.0552   -53.4964     2.5056     2.4380
  383.5000  -999.2500    93.0910     7.4783     2.2075     0.2354     0.0642   -53.1589     2.5390     2.4698
  384.0000  -999.2500    94.8879     7.5740     2.2793     0.2245     0.0686   -52.9712     2.5834     2.5130
  384.5000  -999.2500    94.1350     7.4860     2.3259     0.1871     0.0658   -52.9174     2.6443     2.5718
  385.0000  -999.2500    88.0385     7.3886     2.3578     0.1683     0.0520   -52.8671     2.7057     2.6323
  385.5000  -999.2500    87.0412     7.2918     2.3621     0.1606     0.0446   -52.8159     2.9929     2.7417
  386.0000  -999.2500    90.2504     7.2033     2.3619     0.1592     0.0448   -52.8841     3.3992     3.1063
  386.5000  -999.2500    89.0445     7.2165     2.3582     0.1614     0.0452   -53.0426     3.8645     3.7560
  387.0000  -999.2500    87.2299     7.2325     2.3518     0.1650     0.0456   -53.2024     4.1599     4.0121
  387.5000  -999.2500    87.0089     7.2477     2.3519     0.1681     0.0460   -53.3643     4.5182     4.3957
  388.0000  -999.2500    87.8705     7.2506     2.3518     0.1664     0.0465   -53.4179     4.4620     4.3383
  388.5000  -999.2500    89.1579     7.1663     2.3518     0.1644     0.0441   -53.4487     4.3639     4.2449
  389.0000  -999.2500    91.2318     7.2396     2.3519     0.1662     0.0410   -53.4790     4.2367     4.1213
  389.5000  -999.2500    93.3118     7.4188     2.3554     0.1669     0.0388   -53.5096     4.2856     4.1398
  390.0000  -999.2500    94.6118     7.5961     2.3644     0.1633     0.0408   -53.5403     4.3631     4.1688
  390.5000  -999.2500    94.4531     7.7730     2.3666     0.1597     0.0427   -53.5708     4.4364     4.1980
  391.0000  -999.2500    95.2498     7.9245     2.3674     0.1560     0.0445   -53.5933     4.4358     4.2367
  391.5000  -999.2500    95.4196     8.0374     2.3665     0.1546     0.0470   -53.5928     4.4379     4.1749
  392.0000  -999.2500    92.1413     8.0903     2.3625     0.1568     0.0589   -53.5928     4.2810     4.0867
  392.5000  -999.2500    91.1550     8.0896     2.3574     0.1591     0.0623   -53.5928     4.1651     4.0003
  393.0000  -999.2500    94.2467     8.0718     2.3523     0.1613     0.0693   -53.5928     4.0518     3.9158
  393.5000  -999.2500    95.3313     8.0540     2.3459     0.1643     0.0770   -53.5929     3.9358     3.8285
  394.0000  -999.2500    97.1114     8.0308     2.3347     0.1727     0.0805   -53.5935     3.8013     3.6830
  394.5000  -999.2500    98.4439     7.9710     2.3219     0.1811     0.0791   -53.5904     3.6640     3.5350
  395.0000  -999.2500    98.4272     7.9014     2.3091     0.1896     0.0776   -53.4784     3.5317     3.3930
  395.5000  -999.2500    97.9802     7.7858     2.3079     0.1953     0.0772   -53.3591     3.4041     3.2566
  396.0000  -999.2500    97.8096     7.6685     2.3106     0.1945     0.0809   -53.2401     3.2811     3.1263
  396.5000  -999.2500    98.0995     7.5829     2.3348     0.1802     0.0906   -53.1212     3.1626     3.0899
  397.0000  -999.2500    96.7266     7.5183     2.3640     0.1656     0.0975   -53.0021     3.0483     3.0694
  397.5000  -999.2500    93.4215     7.4542     2.3793     0.1525     0.0983   -52.8830     2.9856     3.1728
  398.0000  -999.2500    90.1362     7.3901     2.3838     0.1484     0.0882   -52.7925     3.0999     3.2411
  398.5000  -999.2500    87.6215     7.3260     2.3829     0.1477     0.0838   -52.8448     3.2262     3.4612
  399.0000  -999.2500    88.7611     7.2609     2.3819     0.1477     0.0823   -53.0774     3.6595     3.7346
  399.5000  -999.2500    92.7864     7.2392     2.3811     0.1488     0.0812   -53.3025     4.3155     4.0297
  400.0000  -999.2500    96.8506     7.3078     2.3781     0.1511     0.0723   -53.5368     4.4262     4.3315
  400.5000  -999.2500    97.7426     7.3840     2.3749     0.1538     0.0658   -53.6175     4.6015     4.4862
  401.0000  -999.2500    97.7514     7.4629     2.3718     0.1564     0.0638   -53.6673     4.6944     4.5679
