~VERSION INFORMATION
 VERS.                2.0:   CWLS LOG ASCII STANDARD - VERSION 2.0
 WRAP.                 NO:   ONE LINE PER DEPTH STEP
~WELL INFORMATION
#MNEM.UNIT      DATA TYPE    INFORMATION
#----------   ------------   ------------------------------
 STRT.F           36.0000:   START DEPTH
 STOP.F          592.0000:   STOP DEPTH
 STEP.F            0.5000:   STEP LENGTH
 NULL.          -999.2500:   NO VALUE
 COMP. FENIX & SCISSON INC:   COMPANY
 WELL.           S #35-10:   WELL
 FLD .              NPR-3:   FIELD
 LOC .      S10 T38N R78W:   LOCATION
 CNTY.            NATRONA:   COUNTY
 STAT.            WYOMING:   STATE
 CTRY. UNITED STATES OF AMERICA:   COUNTRY
 SRVC.              Welex:   SERVICE COMPANY
 DATE.        07-MAR-1977:   LOGDATE
 API .       490251029000:   API NUMBER
~CURVE INFORMATION
#MNEM.UNIT       API CODE    CURVE DESCRIPTION
#----------   ------------   ------------------------------
 DEPT.F                  :   
 SPR .MV     07 010 01 00:   SPONTANEOUS POTENTIAL
 ILM .OHMM   07 120 44 00:   INDUCTION LOG MEDIUM
 ILD .OHMM   07 120 46 00:   INDUCTION LOG DEEP
 SGRD.OHMM   07 220 05 00:   SHALLOW GUARD RESISTIVITY
 CALD.IN     45 280 60 00:   CALIPER FROM DENSITY LOG
 RHOB.G/C3   45 350 01 00:   BULK DENSITY
 CORR.G/C3   45 356 01 00:   DENSITY CORRECTION
 DPHI.DEC    45 890 12 00:   DENSITY POROSITY SANDSTONE
 GRD .GAPI   45 310 01 00:   GAMMA RAY FROM DENSITY LOG
~PARAMETER INFORMATION
#MNEM.UNIT          VALUE    DESCRIPTION
#----------   ------------   ------------------------------
 PD  .                 GL:   PERMANENT DATUM
 EPD .F              5234:   ELEVATION PERMANENT DATUM
 LMF .                 GL:   LOG MEASURED FROM
 DMF .                 GL:   DRILLING MEASURED FROM
 EGL .F              5234:   GROUND LEVEL
 DATE.             3-7-77:   RUN DATE
 RUN .                  1:   RUN NUMBER
 DD  .F               600:   DEPTH DRILLER
 DL  .F               593:   DEPTH LOGGER
 BLI .F               591:   BOTTOM LOG INTERVAL
 TLI .F                35:   TOP LOG INTERVAL
 CS  .IN            8.625:   CASING SIZE
 CBD .F                42:   CASING BOTTOM DRILLER
 CBL .F                42:   CASING BOTTOM LOGGER
 BS  .IN            7.875:   BIT SIZE
 BSD .F               600:   BIT SIZE AT DEPTH
 DFT .            KCL MUD:   DRILLING FLUID TYPE
 MSS .          FLOW LINE:   MUD SAMPLE SOURCE
 RMS .OHMM            .40:   RESISTIVITY MUD SAMPLE
 MST .F                58:   MUD SAMPLE TEMPERATURE
 RMF .OHMM            .33:   RESISTIVITY MUD FILTRATE SAMPLE
 MFST.F                58:   MUD FILTRATE SAMPLE TEMPERATURE
 RMC .OHMM            .44:   RESISTIVITY MUD CAKE
 MCST.F                58:   MUD CAKE SAMPLE TEMPERATURE
 MFSS.           FANN KIT:   MUD FILTRATE SAMPLE SOURCE
 MCSS.           FANN KIT:   MUD CAKE SAMPLE SOURCE
 RMB .OHMM            .31:   RESISTIVITY MUD AT BHT
 BHT .F                62:   BOTTOM HOLE TEMPERATURE
 TCS .HRS               3:   TIME CURCULATED STOPPED
 MRT .F                62:   MAXIMUM RECORDED TEMPERATURE
 LUN .               8611:   LOGGING UNIT NUMBER
 LUL .           GILLETTE:   LOGGING UNIT LOCATION
 ENGI.            C. DOAK:   RECORDING ENGINEER
 WITN.      L. STUEBINGER:   WITNESSED BY
 CLNT.            A2DTECH:   CLIENT CODE
 ORIG.        2" 5" PRINT:   ORIGIN OF DATA
 UWI .       490251029000:   UNIQUE WELL ID
 DICO. A2D Technologies, Inc.:   DIGITIZING COMPANY
~OTHER INFORMATION
~A   DEPT      SPR        ILM        ILD       SGRD         CALD       RHOB      CORR        DPHI       GRD  
# ...
  109.0000   -48.9198     9.3654     7.6489    11.0677     7.7938     2.4714     0.0384     0.1026   130.5998
  109.5000   -48.8797     9.6199     7.7420    10.8462     7.7949     2.4804     0.0411     0.0992   132.3312
  110.0000   -48.8393     9.8495     7.7706    10.6501     7.7960     2.4896     0.0426     0.0958   134.7277
  110.5000   -48.7791    10.0594     7.7979    10.5715     7.7971     2.4915     0.0433     0.0941   137.0873
  111.0000   -48.6300    10.2737     7.8254    10.7673     7.7982     2.4891     0.0399     0.0948   137.5876
  111.5000   -48.4831    10.4750     7.8532    11.0430     7.8012     2.4866     0.0373     0.0956   137.4904
  112.0000   -48.4358    10.6620     7.8810    11.3752     7.8174     2.4838     0.0348     0.0975   139.1066
  112.5000   -48.4884    10.8770     7.9090    11.8018     7.8337     2.4756     0.0323     0.1000   140.2048
  113.0000   -48.5411    11.0964     7.9370    11.6484     7.8499     2.4680     0.0299     0.1054   139.0124
  113.5000   -48.5940    11.2739     7.9651    11.3792     7.8591     2.4639     0.0274     0.1101   136.7591
  114.0000   -48.6467    11.1927     7.9934    11.6026     7.8606     2.4596     0.0258     0.1116   133.9736
  114.5000   -48.6994    11.1142     8.0217    12.0186     7.8412     2.4553     0.0259     0.1131   132.9613
  115.0000   -48.7521    11.0362     8.0502    11.7991     7.8189     2.4521     0.0250     0.1146   133.4917
  115.5000   -48.8048    10.9589     8.0787    11.5562     7.8164     2.4522     0.0237     0.1161   133.8614
  116.0000   -48.8575    10.8665     8.1321    11.1742     7.8146     2.4528     0.0225     0.1161   131.8443
  116.5000   -48.9102    11.0070     8.2991    11.4632     7.8129     2.4566     0.0233     0.1142   129.0655
  117.0000   -48.9629    11.2480     8.4695    11.9683     7.8111     2.4608     0.0258     0.1114   129.0092
  117.5000   -49.0157    11.4932     8.6434    12.2918     7.8094     2.4650     0.0284     0.1086   130.4346
  118.0000   -49.0684    11.7438     8.7995    12.4707     7.8076     2.4653     0.0291     0.1085   131.8848
  118.5000   -49.1211    11.9213     8.9293    12.5995     7.8059     2.4630     0.0258     0.1091   132.3174
  119.0000   -49.1739    11.9922     9.0716    12.7073     7.8041     2.4607     0.0263     0.1098   130.9594
  119.5000   -49.2271    12.0640     9.2125    12.8133     7.8024     2.4636     0.0308     0.1081   129.7194
  120.0000   -49.2812    12.1320     9.3719    12.9356     7.8006     2.4768     0.0354     0.1013   128.9522
  120.5000   -49.3354    12.0932     9.5301    12.7313     7.8004     2.4906     0.0396     0.0942   126.6374
  121.0000   -49.3928    12.0353     9.6910    12.4696     7.8088     2.4873     0.0372     0.0961   125.9079
  121.5000   -49.3347    11.9783     9.8546    12.7403     7.8171     2.4828     0.0358     0.0980   126.3703
  122.0000   -49.2417    11.9217    10.0209    13.0548     7.8253     2.4806     0.0362     0.0972   127.4024
  122.5000   -49.1479    11.8652    10.1901    12.4990     7.8336     2.4873     0.0403     0.0950   130.4540
  123.0000   -49.0542    11.8018    10.3036    12.1311     7.8418     2.4867     0.0439     0.0973   131.5999
  123.5000   -48.9605    11.8288    10.3462    13.9206     7.8500     2.4799     0.0419     0.0997   130.9415
  124.0000   -48.8688    11.8600    10.3889    13.6481     7.8583     2.4738     0.0395     0.1022   129.9709
  124.5000   -48.8506    11.8913    10.4323    13.4460     7.8665     2.4724     0.0378     0.1030   127.4689
  125.0000   -48.9813    11.9105    10.4747    13.2449     7.8748     2.4727     0.0393     0.1024   124.9092
  125.5000   -49.1093    11.7237    10.4079    13.0549     7.8787     2.4812     0.0425     0.0991   124.9010
  126.0000   -49.2283    11.5398    10.3404    13.1832     7.8787     2.4941     0.0456     0.0930   126.0960
  126.5000   -49.3253    11.3588    10.2737    13.2941     7.8788     2.5030     0.0488     0.0870   128.5214
  127.0000   -49.4208    11.1448    10.2075    12.3512     7.8789     2.5094     0.0519     0.0817   128.8781
  127.5000   -49.5164    10.9577    10.0482    12.5315     7.8783     2.5155     0.0537     0.0787   127.5342
  128.0000   -49.6120    10.7736     9.9592    12.8175     7.8636     2.5159     0.0524     0.0779   126.1168
  128.5000   -49.7076    10.5927     9.8711    12.3557     7.8584     2.5126     0.0509     0.0790   127.9725
  129.0000   -49.8032    10.4160     9.7837    12.9356     7.8588     2.5097     0.0497     0.0813   130.5832
  129.5000   -49.8988    10.2341     9.6971    12.5054     7.8589     2.5113     0.0514     0.0813   133.2162
  130.0000   -49.9944    10.0917     9.6112    12.1311     7.8609     2.5165     0.0537     0.0785   134.1517
  130.5000   -50.0901    10.0618     9.5261    12.2478     7.8656     2.5195     0.0523     0.0759   133.8423
  131.0000   -50.1857    10.0142     9.4418    12.4608     7.8703     2.5138     0.0493     0.0795   132.1698
  131.5000   -50.2813     9.9668     9.3582    12.5845     7.8750     2.5080     0.0462     0.0833   130.5613
  132.0000   -50.3769     9.9197     9.2974    12.2215     7.8787     2.4990     0.0432     0.0890   128.8353
  132.5000   -50.4725     9.9140     9.3129    12.0393     7.8741     2.4901     0.0401     0.0926   132.0590
  133.0000   -50.5684    10.0209     9.3252    12.2429     7.8693     2.4888     0.0371     0.0949   136.2718
  133.5000   -50.6635    10.1039     9.3375    11.9044     7.8647     2.4821     0.0340     0.0989   139.3341
  134.0000   -50.7618    10.1875     9.3498    11.6680     7.8598     2.4742     0.0309     0.1031   141.2184
  134.5000   -50.6439    10.2845     9.3621    11.6031     7.8588     2.4663     0.0279     0.1073   142.8164
  135.0000   -50.4085    10.2579     9.3744    11.5385     7.8590     2.4620     0.0258     0.1117   141.5767
  135.5000   -50.2115    10.2174     9.3829    11.4814     7.8631     2.4598     0.0258     0.1118   138.0628
  136.0000   -50.3876    10.1771     9.3838    12.3557     7.8673     2.4596     0.0258     0.1095   134.2642
  136.5000   -50.5603    10.1369     9.3373    12.2846     7.8715     2.4634     0.0263     0.1079   130.2792
  137.0000   -50.7316    10.0054     9.2771    12.1592     7.8757     2.4674     0.0288     0.1089   132.5422
  137.5000   -50.9081    10.0246     9.2173    12.0352     7.8799     2.4736     0.0311     0.1047   136.7947
  138.0000   -51.0863    10.0554     9.1579    11.9124     7.8842     2.4803     0.0335     0.1000   141.0224
  138.5000   -51.2652    10.0862     9.0988    11.7909     7.8884     2.4872     0.0359     0.0950   144.2688
  139.0000   -51.4440    10.1171     9.0402    11.6706     7.8925     2.4876     0.0378     0.0960   144.0752
  139.5000   -51.6192    10.1481     8.9821    11.5515     7.8968     2.4820     0.0370     0.0984   143.5083
  140.0000   -51.7688    10.1792     8.9234    11.4822     7.8986     2.4765     0.0362     0.1008   142.7062
  140.5000   -51.9199    10.1906     8.8289    11.7911     7.8986     2.4759     0.0363     0.1026   141.4769
  141.0000   -52.0711    10.0918     8.6130    12.0187     7.8986     2.4807     0.0387     0.1007   140.9873
  141.5000   -52.2224    10.0236     8.4046    12.2478     7.8986     2.4853     0.0397     0.0989   143.6322
  142.0000   -52.3733     9.9559     8.2009    12.3557     7.8986     2.4813     0.0374     0.0983   148.6994
  142.5000   -52.5254     9.8887     8.0022    11.8072     7.8986     2.4777     0.0350     0.0996   152.0825
  143.0000   -52.5967     9.8235     7.8078    11.2466     7.8986     2.4809     0.0325     0.1010   148.2241
  143.5000   -52.6191     9.5693     7.6506    10.7082     7.8986     2.4817     0.0301     0.1007   143.3290
  144.0000   -52.6403     9.4789     7.5132    10.1961     7.8986     2.4788     0.0318     0.0998   138.2532
  144.5000   -52.6617     9.3831     7.3789     9.7076     7.8981     2.4806     0.0345     0.0982   133.1131
  145.0000   -52.6831     9.2974     7.2468     9.2406     7.9034     2.4866     0.0374     0.0959   127.9879
