~VERSION INFORMATION
 VERS.                2.0:   CWLS LOG ASCII STANDARD - VERSION 2.0
 WRAP.                 NO:   ONE LINE PER DEPTH STEP
~WELL INFORMATION
#MNEM.UNIT      DATA TYPE    INFORMATION
#----------   ------------   ------------------------------
 STRT.F           12.0000:   START DEPTH
 STOP.F          664.5000:   STOP DEPTH
 STEP.F            0.5000:   STEP LENGTH
 NULL.          -999.2500:   NO VALUE
 COMP. LAWRENCE/ALLISON INC:   COMPANY
 WELL.   23-16 SHX #14-14:   WELL
 FLD .             TEAPOT:   FIELD
 LOC .      S14 T38N R78W:   LOCATION
 CNTY.            NATRONA:   COUNTY
 STAT.            WYOMING:   STATE
 CTRY. UNITED STATES OF AMERICA:   COUNTRY
 SRVC.           Gearhart:   SERVICE COMPANY
 DATE.        03-JUL-1987:   LOGDATE
 API .       490251114200:   API NUMBER
~CURVE INFORMATION
#MNEM.UNIT       API CODE    CURVE DESCRIPTION
#----------   ------------   ------------------------------
 DEPT.F                  :   
 RILD.OHMM   07 120 46 00:   INDUCTION LOG DEEP RESISTIVITY
 RILM.OHMM   07 120 44 00:   INDUCTION LOG MEDIUM RESISTIVITY
 GRR .GAPI   07 310 01 00:   GAMMA RAY FROM RES. LOG
~PARAMETER INFORMATION
#MNEM.UNIT          VALUE    DESCRIPTION
#----------   ------------   ------------------------------
 PD  .                 GL:   PERMANENT DATUM
 EPD .F              5203:   ELEVATION PERMANENT DATUM
 LMF .                 KB:   LOG MEASURED FROM
 DAPD.F                 8:   FEET ABOVE PERMANENT DATUM
 DMF .                 KB:   DRILLING MEASURED FROM
 EKB .F              5211:   KELLING BUSHING
 EDF .F              5210:   DRILLING FLOOR
 EGL .F              5203:   GROUND LEVEL
 DATE.             7-3-87:   RUN DATE
 RUN .                  1:   RUN NUMBER
 DD  .F               679:   DEPTH DRILLER
 DL  .F               672:   DEPTH LOGGER
 BLI .F               664:   BOTTOM LOG INTERVAL
 TLI .F                48:   TOP LOG INTERVAL
 CS  .IN            8.625:   CASING SIZE
 CBD .F                48:   CASING BOTTOM DRILLER
 CBL .F                48:   CASING BOTTOM LOGGER
 BS  .IN            7.875:   BIT SIZE
 BSD .F               679:   BIT SIZE AT DEPTH
 DFT .               FOAM:   DRILLING FLUID TYPE
 TCS .HRS            1345:   TIME CURCULATED STOPPED
 TLAB.HRS            1450:   TIME LOGGER AT BOTTOM
 MRT .F                80:   MAXIMUM RECORDED TEMPERATURE
 LUN .               7597:   LOGGING UNIT NUMBER
 LUL .           GILLETTE:   LOGGING UNIT LOCATION
 ENGI.            WANGLER:   RECORDING ENGINEER
 WITN.             STRONG:   WITNESSED BY
 CLNT.            A2DTECH:   CLIENT CODE
 ORIG.       2", 5" PRINT:   ORIGIN OF DATA
 UWI .       490251114200:   UNIQUE WELL ID
 DICO. A2D Technologies, Inc.:   DIGITIZING COMPANY
~OTHER INFORMATION
~A   DEPT     RILD       RILM         GRR  
# ...
  467.0000     5.6867     5.3230   130.0215
  467.5000     5.5090     5.1386   129.4449
  468.0000     5.4225     4.9552   131.6335
  468.5000     5.4225     4.8390   134.5744
  469.0000     5.4225     4.7609   136.3359
  469.5000     5.4729     4.8524   134.8469
  470.0000     5.6200     5.0836   133.9321
  470.5000     5.8538     5.3150   133.9482
  471.0000     6.0973     5.5570   132.3809
  471.5000     6.3509     5.8100   129.7578
  472.0000     6.6152     6.0746   127.1209
  472.5000     6.8907     6.3511   124.6198
  473.0000     7.1769     6.6392   122.9570
  473.5000     7.4306     6.9632   125.1283
  474.0000     7.4465     6.9612   127.8381
  474.5000     7.4624     7.0885   130.2584
  475.0000     7.4783     7.0553   130.7293
  475.5000     7.4972     7.0347   129.5577
  476.0000     7.4861     7.0141   127.9319
  476.5000     7.4721     6.9935   126.2674
  477.0000     7.4584     6.9730   125.4249
  477.5000     7.4447     6.9526   125.4186
  478.0000     7.4310     6.9322   127.0363
  478.5000     7.4174     6.9117   129.2269
  479.0000     7.4037     6.8976   131.4740
  479.5000     7.3901     6.8980   131.9447
  480.0000     7.3766     6.8979   130.8162
  480.5000     7.3625     6.8979   129.3416
  481.0000     7.3597     6.8979   129.8946
  481.5000     7.3597     6.8979   130.9041
  482.0000     7.3597     6.8979   131.9558
  482.5000     7.3597     6.8979   132.6617
  483.0000     7.3597     6.8979   131.2163
  483.5000     7.3597     6.8979   129.3320
  484.0000     7.3601     6.8979   128.7574
  484.5000     7.3585     6.8981   130.4512
  485.0000     7.3632     6.8979   132.0999
  485.5000     7.1852     6.8979   133.7316
  486.0000     7.0519     6.7782   133.9440
  486.5000     6.9207     6.6704   133.9773
  487.0000     6.7920     6.5644   134.1216
  487.5000     6.6657     6.4600   134.2844
  488.0000     6.5417     6.3573   134.6509
  488.5000     6.4201     6.2563   135.9659
  489.0000     6.2998     6.1564   138.0665
  489.5000     6.2105     6.0613   136.6044
  490.0000     6.1090     5.8919   134.7796
  490.5000     6.0100     5.6910   134.3685
  491.0000     5.9127     5.4970   136.9713
  491.5000     5.8147     5.3079   139.5046
  492.0000     5.7294     5.1266   141.6931
  492.5000     5.7331     5.1309   139.5463
  493.0000     5.7321     5.1282   135.9733
  493.5000     5.8436     5.3924   132.3866
  494.0000     6.0331     5.5832   128.8018
  494.5000     6.2287     5.7807   125.1879
  495.0000     6.4309     5.9852   123.8837
  495.5000     6.6410     6.1969   125.1098
  496.0000     6.7714     6.3465   127.6030
  496.5000     6.7714     6.3465   128.1105
  497.0000     6.4788     5.9992   127.6531
  497.5000     6.1994     5.7242   127.2026
  498.0000     5.9320     5.4618   127.0469
  498.5000     5.6761     5.2113   127.7787
  499.0000     5.4313     4.9724   129.2092
  499.5000     5.1971     4.7445   130.4795
  500.0000     5.0822     4.6329   135.0866
  500.5000     5.1388     4.7172   140.1425
  501.0000     5.2529     4.8878   137.7967
  501.5000     5.3695     5.0648   133.5540
  502.0000     5.5108     5.2570   130.6665
  502.5000     5.8087     5.4953   130.5679
  503.0000     6.1239     5.7468   130.3248
  503.5000     6.4565     6.0097   129.0681
  504.0000     6.8050     6.2831   126.9145
  504.5000     7.0268     6.4651   124.7466
  505.0000     7.1307     6.6420   122.5919
  505.5000     7.2391     6.7929   121.2009
  506.0000     7.3492     6.9472   121.7133
  506.5000     7.4610     7.1052   125.1772
  507.0000     7.5745     7.2664   128.5670
  507.5000     7.6897     7.4281   131.2238
  508.0000     7.7800     7.4972   129.3165
  508.5000     7.8454     7.5892   127.8569
  509.0000     7.9249     7.6247   127.8767
  509.5000     8.0052     7.6604   126.6573
  510.0000     8.0864     7.6962   124.3215
  510.5000     8.1684     7.7322   121.9278
  511.0000     8.2512     7.7683   120.7919
  511.5000     8.3349     7.8047   119.9799
  512.0000     8.3840     7.8412   119.4278
  512.5000     8.4046     7.8778   119.6138
  513.0000     8.4252     7.9147   119.8823
  513.5000     8.4459     7.9591   122.5925
  514.0000     8.4667     8.0676   125.3901
  514.5000     8.4875     8.1777   127.8267
  515.0000     8.5084     8.2892   127.7567
  515.5000     8.5345     8.4022   122.5763
  516.0000     8.2541     8.5174   117.4990
  516.5000     7.7643     8.6135   114.4824
  517.0000     7.3043     8.6204   116.1772
  517.5000     6.8714     7.4284   118.7640
  518.0000     6.4652     6.3181   119.8323
  518.5000     6.1727     5.3725   120.4199
  519.0000     6.0595     4.9644   123.3366
  519.5000     6.0595     4.5902   133.4412
  520.0000     6.0595     4.5902   143.3753
  520.5000     6.3115     5.2546   149.0209
  521.0000     6.6387     6.1240   131.2508
  521.5000     7.0991     7.0942   120.1415
  522.0000     7.9942     7.7548   112.6285
  522.5000     8.9422     8.4468   111.6906
  523.0000     9.5294     9.2010   111.7077
  523.5000    10.2794     9.8058   111.7068
  524.0000    10.2703     9.8970   113.1941
  524.5000    10.3800     9.8735   115.8713
  525.0000    10.4548     9.8395   118.5055
  525.5000    10.5301     9.8055   121.1318
  526.0000    10.6059     9.7717   123.5952
  526.5000    10.7450     9.7375   123.5846
  527.0000    11.4806     9.7120   121.1584
  527.5000    12.2679     9.8058   118.1098
  528.0000    13.1094    10.2740   114.0767
  528.5000    14.0079    11.4492   107.1881
  529.0000    14.9681    12.7588   100.0600
  529.5000    15.9941    14.2183    90.6978
  530.0000    17.0904    15.8446    79.9906
  530.5000    17.8705    17.6570    69.2864
  531.0000    18.6781    18.5702    61.3216
  531.5000    19.5221    19.1600    57.1626
  532.0000    20.4043    19.7619    57.2542
  532.5000    20.9474    20.0040    60.8401
  533.0000    20.7408    20.0026    64.3096
  533.5000    20.5402    19.6419    67.7694
  534.0000    20.3415    19.3547    71.2306
  534.5000    20.1448    19.0716    74.6561
  535.0000    19.9499    18.9195    77.4567
  535.5000    19.7570    18.9195    76.6138
  536.0000    19.5660    18.9195    75.5967
  536.5000    19.3769    18.9195    74.5629
  537.0000    19.1874    18.5714    74.2979
  537.5000    18.9923    18.2203    74.5408
  538.0000    18.6325    17.8758    74.7802
  538.5000    18.2834    17.5379    75.0458
  539.0000    17.9408    17.2064    77.6694
  539.5000    17.6047    16.8811    80.3476
  540.0000    17.2746    16.5619    81.8475
  540.5000    16.9495    16.2488    80.4216
  541.0000    16.6199    15.9417    78.4304
  541.5000    16.6398    15.8596    78.8949
  542.0000    16.6661    15.8068    81.8421
  542.5000    16.6925    15.7542    83.8721
  543.0000    16.7190    15.7018    83.8378
  543.5000    16.7454    15.6496    84.2660
  544.0000    16.7719    15.5975    85.6021
  544.5000    16.7985    15.5771    86.2964
  545.0000    16.8251    15.7446    85.5634
  545.5000    16.8517    15.7816    84.3453
  546.0000    16.8783    15.8184    81.9276
  546.5000    16.9051    15.8551    78.7397
  547.0000    16.9304    15.8921    77.7779
  547.5000    16.8489    15.9293    78.5329
  548.0000    16.7718    15.9666    79.7113
  548.5000    16.6950    16.0039    80.9003
  549.0000    16.6186    16.0160    82.0886
  549.5000    16.5425    16.0174    83.2712
  550.0000    16.4667    15.9091    84.4632
  550.5000    16.3914    15.8268    85.0396
  551.0000    16.3163    15.7450    85.0552
  551.5000    16.2416    15.6636    83.4083
  552.0000    16.1672    15.5771    80.1199
  552.5000    16.0932    15.6314    80.5852
  553.0000    16.0157    15.6899    83.1214
  553.5000    16.3251    15.7486    85.6529
  554.0000    16.9279    15.8074    88.1501
  554.5000    17.8372    15.8682    88.7624
  555.0000    18.8293    16.5431    89.1990
  555.5000    19.8764    17.4581    89.5345
  556.0000    20.9817    18.4013    85.4873
  556.5000    22.1437    22.7290    78.5148
  557.0000    23.4789    28.0981    71.4914
  557.5000    24.8888    30.8535    64.4793
