~VERSION INFORMATION
 VERS.                2.0:   CWLS LOG ASCII STANDARD - VERSION 2.0
 WRAP.                 NO:   ONE LINE PER DEPTH STEP
~WELL INFORMATION
#MNEM.UNIT      DATA TYPE    INFORMATION
#----------   ------------   ------------------------------
 STRT.F           28.0000:   START DEPTH
 STOP.F          494.0000:   STOP DEPTH
 STEP.F            0.5000:   STEP LENGTH
 NULL.          -999.2500:   NO VALUE
 COMP.    FENIX & SCISSON:   COMPANY
 WELL.        67-S-3 #3-3:   WELL
 FLD .             TEAPOT:   FIELD
 LOC .       S3 T38N R78W:   LOCATION
 CNTY.            NATRONA:   COUNTY
 STAT.            WYOMING:   STATE
 CTRY. UNITED STATES OF AMERICA:   COUNTRY
 SRVC.           BIRDWELL:   SERVICE COMPANY
 DATE.        15-OCT-1978:   LOGDATE
 API .       490251072100:   API NUMBER
~CURVE INFORMATION
#MNEM.UNIT       API CODE    CURVE DESCRIPTION
#----------   ------------   ------------------------------
 DEPT.F                  :   
 ILD .OHMM   05 120 46 00:   INDUCTION LOG DEEP
 SN  .OHMM   05 040 16 00:   SHORT NORMAL 16"
 SPR .MV     05 010 01 00:   SPONTANEOUS POTENTIAL FROM RES.
 CALD.IN     45 280 60 00:   CALIPER FROM DENSITY LOG
 CORR.G/C3   45 356 01 00:   DENSITY CORRECTION
 DPHI.DEC    45 890 12 00:   DENSITY POROSITY SANDSTONE
 GRD .GAPI   45 310 01 00:   GAMMA RAY FROM DENSITY LOG
 RHOB.G/C3   45 350 01 00:   BULK DENSITY
~PARAMETER INFORMATION
#MNEM.UNIT          VALUE    DESCRIPTION
#----------   ------------   ------------------------------
 PD  .                 GL:   PERMANENT DATUM
 EPD .F              5173:   ELEVATION PERMANENT DATUM
 LMF .                 KB:   LOG MEASURED FROM
 DAPD.F                 4:   FEET ABOVE PERMANENT DATUM
 DMF .                 KB:   DRILLING MEASURED FROM
 EKB .F              5177:   KELLING BUSHING
 EGL .F              5173:   GROUND LEVEL
 DATE.        15-OCT-1978:   RUN DATE
 RUN .                  1:   RUN NUMBER
 DD  .F               492:   DEPTH DRILLER
 DL  .F               494:   DEPTH LOGGER
 BLI .F               488:   BOTTOM LOG INTERVAL
 TLI .F                46:   TOP LOG INTERVAL
 CS  .IN            8.625:   CASING SIZE
 CBD .F                40:   CASING BOTTOM DRILLER
 BS  .IN            7.875:   BIT SIZE
 BSD .F               492:   BIT SIZE AT DEPTH
 DFT .                KCL:   DRILLING FLUID TYPE
 DFD .                8.7:   DRILLING FLUID DENSITY
 DFV .                 35:   DRILLING FLUID VISCOSITY
 DFPH.                  9:   DRILLING FLUID PH
 LUN .               2958:   LOGGING UNIT NUMBER
 LUL .               CASP:   LOGGING UNIT LOCATION
 ENGI.             MILLER:   RECORDING ENGINEER
 WITN.           DINSMORE:   WITNESSED BY
 CLNT.            A2DTECH:   CLIENT CODE
 ORIG.           5" PRINT:   ORIGIN OF DATA
 UWI .       490251072100:   UNIQUE WELL ID
 DICO. A2D Technologies, Inc.:   DIGITIZING COMPANY
~OTHER INFORMATION
~A   DEPT      ILD         SN        SPR       CALD       CORR       DPHI         GRD      RHOB   
# ...
   68.5000     7.1087     8.2318   -48.5901     8.0503     0.0154     0.1388   137.1090     2.4728
   69.0000     7.2575     8.2717   -48.5829     8.0505    -0.0011     0.1406   143.8427     2.4663
   69.5000     7.4608     8.3116   -48.7274     8.0203     0.0050     0.1415   149.0726     2.4595
   70.0000     7.6699     8.3221   -48.8690     7.9592     0.0168     0.1412   147.8505     2.4550
   70.5000     7.7763     8.3870   -48.8631     7.9315     0.0288     0.1403   145.9087     2.4543
   71.0000     7.8853     8.5541   -48.8560     7.9317     0.0453     0.1387   142.4744     2.4565
   71.5000     7.9937     8.6727   -48.7014     7.9318     0.0738     0.1250   136.3536     2.4618
   72.0000     8.1045     8.8536   -48.3980     7.9021     0.1188     0.1019   124.7103     2.4715
   72.5000     8.1039     8.9145   -47.3505     7.8724     0.1608     0.0827   118.5894     2.4948
   73.0000     8.1598     9.0378   -45.8567     7.8427     0.1758     0.0815   116.4984     2.5240
   73.5000     8.2160     9.0372   -45.2557     7.7981     0.1728     0.1004   113.8104     2.5541
   74.0000     8.2153     9.0366   -45.2499     7.6788     0.1562     0.1169   112.1672     2.5334
   74.5000     8.2147     9.0358   -44.9464     7.6342     0.1089     0.1268   112.0164     2.5082
   75.0000     8.2142     9.0352   -44.9405     7.6517     0.0736     0.1400   112.7861     2.4918
   75.5000     8.2135     9.0346   -44.9335     7.6942     0.0345     0.1478   112.9090     2.4640
   76.0000     8.2130     9.0340   -44.9277     7.7242     0.0074     0.1487   113.2057     2.4468
   76.5000     8.2124     9.0334   -44.6243     7.7542     0.0044     0.1420   118.8759     2.4423
   77.0000     8.2119     9.0328   -44.3209     7.7842     0.0119     0.1343   119.7703     2.4505
   77.5000     8.1546     9.0322   -44.0175     7.8142     0.0209     0.1224   116.7834     2.4685
   78.0000     8.1541     9.0399   -43.7141     7.8143     0.0283     0.1200   109.9163     2.4805
   78.5000     8.0973     9.0936   -43.7083     7.8145     0.0298     0.1200   107.2283     2.4835
   79.0000     8.0966     9.0928   -43.7024     7.8296     0.0283     0.1206   107.3761     2.4904
   79.5000     7.9847     9.0922   -43.5466     7.8446     0.0237     0.1215   114.5388     2.4985
   80.0000     7.9842     9.1548   -43.0944     7.8597     0.0175     0.1260   117.7015     2.4918
   80.5000     7.9836     9.1541   -42.9398     7.8599     0.0057     0.1326   117.3483     2.4873
   81.0000     7.9831     9.2808   -42.7852     7.8749    -0.0019     0.1428   115.1311     2.4775
   81.5000     8.0397     9.2802   -42.7794     7.8751    -0.0049     0.1467   113.1893     2.4573
   82.0000     8.0934     9.2794   -42.9225     7.8752    -0.0034     0.1476   110.5013     2.4475
   82.5000     8.0927     9.3433   -42.9167     7.8754    -0.0005     0.1440   112.5897     2.4453
   83.0000     8.1485     9.4725   -43.0597     7.8606     0.0025     0.1392   112.5879     2.4475
   83.5000     8.1478     9.5377   -43.0525     7.8607     0.0025     0.1341   112.2879     2.4543
   84.0000     8.3183     9.6032   -43.0467     7.8605     0.0010     0.1284   112.5850     2.4641
   84.5000     8.5514     9.7360   -43.0410     7.8461     0.0009     0.1218   118.5537     2.4792
   85.0000     8.8541     9.8029   -43.0352     7.8463     0.0009     0.1272   119.8955     2.4858
   85.5000     9.1633     9.8793   -41.6901     7.8614     0.0024     0.1281   119.1224     2.4873
   86.0000     9.4201    10.0760   -40.6427     7.8764     0.0053     0.1260   116.4219     2.4783
   86.5000     9.6839    10.1454   -40.3383     7.8766     0.0098     0.1218   101.8311     2.4775
   87.0000     9.8865    10.2857   -40.0169     7.8618     0.0143     0.1188   103.0236     2.4843
   87.5000    10.0934    10.3565   -39.7311     7.8619     0.0158     0.1179   104.3655     2.4903
   88.0000    10.3046    10.4276   -39.8755     7.8621     0.0157     0.1159   104.9610     2.4925
   88.5000    10.6696    10.4991   -40.0186     7.8772     0.0157     0.1113   105.4077     2.4955
   89.0000    11.2736    10.4983   -39.8625     7.9379     0.0157     0.1077   104.5103     2.4993
   89.5000    11.7511    10.4975   -39.2615     8.0167     0.0171     0.1029   101.2253     2.5077
   90.0000    12.0803    10.4968   -38.8093     8.1164     0.0216     0.0951    99.8805     2.5229
   90.5000    12.4190    10.4961   -38.6547     8.1614     0.0233     0.0939    99.8726     2.5345
   91.0000    12.6789    10.4954   -38.7978     8.1615     0.0291     0.0948   100.7732     2.5382
   91.5000    12.7659    10.4947   -38.4929     8.1467     0.0395     0.0982   100.6224     2.5345
   92.0000    12.7615    10.4940   -38.0407     8.1469     0.0500     0.1033    99.2773     2.5262
   92.5000    12.6759    10.4210   -37.8862     8.1470     0.0575     0.1087    99.4255     2.5195
   93.0000    12.5876    10.4203   -37.8804     8.1322     0.0635     0.1178    98.9759     2.5135
   93.5000    12.4136    10.4194   -37.8746     8.1175     0.0635     0.1271    95.9894     2.4940
   94.0000    12.4128    10.3470   -37.8688     8.0864     0.0754     0.1264    95.2420     2.4783
   94.5000    12.2412    10.3463   -37.8631     8.0282     0.0889     0.1165   100.7626     2.4775
   95.0000    12.0721    10.3456   -37.8571     7.9687     0.1211     0.0940   105.3880     2.4847
   95.5000    11.9052    10.2029   -37.8501     7.8793     0.1555     0.0709   109.1179     2.5339
   96.0000    11.7405    10.2023   -37.5467     7.8346     0.1594     0.0658   111.9522     2.5765
   96.5000    11.5782    10.0616   -37.3921     7.8198     0.1534     0.0685   114.3607     2.5817
   97.0000    11.2611     9.9915   -37.3863     7.8200     0.1338     0.0844   116.2040     2.5727
   97.5000    11.1055     9.9220   -37.2317     7.8350     0.0872     0.1027   116.8732     2.5517
   98.0000    10.9520     9.7852   -37.2260     7.8203     0.0392     0.1279   111.4983     2.5195
   98.5000    10.7261     9.6502   -37.3690     7.8204     0.0181     0.1345   112.0938     2.4850
   99.0000    10.5745     9.5831   -37.5120     7.8057     0.0151     0.1354   113.1371     2.4640
   99.5000    10.3595     9.5825   -37.5048     7.7760     0.0120     0.1348   114.1804     2.4655
  100.0000    10.2165     9.8500   -37.3342     7.7612     0.0090     0.1344   119.5229     2.4678
  100.5000    10.3589     9.8481   -37.1174     7.7613     0.0090     0.1337   133.0777     2.4663
  101.0000    10.1460     9.8461   -37.2024     7.7465     0.0060     0.1306   135.3731     2.4685
  101.5000    10.2165     9.7764   -37.2024     7.7318     0.0030     0.1297   126.4179     2.4745
  102.0000    10.2970     9.7744   -37.5000     7.7170    -0.0015     0.1309   126.1194     2.4775
  102.5000    10.3589     9.6372   -37.2024     7.7022    -0.0030     0.1369   127.0149     2.4768
  103.0000    10.3589     9.4287   -36.9048     7.6875    -0.0045     0.1417   127.1642     2.4692
  103.5000    10.2165     9.2427   -36.3095     7.6428    -0.0045     0.1480   126.4179     2.4552
  104.0000    10.0759     9.1773   -36.3095     7.6281    -0.0030     0.1498   120.8955     2.4445
  104.5000     9.8688     9.1122   -36.3095     7.6282    -0.0030     0.1498   122.2388     2.4445
  105.0000     9.6659     9.0477   -36.3095     7.5985    -0.0015     0.1498   125.2338     2.4415
  105.5000     9.5329     8.9836   -36.3095     7.5987     0.0015     0.1492   125.8209     2.4415
  106.0000     9.3975     8.8585   -36.4583     7.5988     0.0030     0.1489   120.2985     2.4438
  106.5000     9.3369     8.8567   -36.4583     7.6139     0.0030     0.1492   114.9254     2.4468
  107.0000     9.4018     8.8545   -36.6071     7.6140     0.0030     0.1531   114.0299     2.4445
  107.5000     9.5992     8.8527   -36.6071     7.6291     0.0015     0.1627   114.4776     2.4354
  108.0000     9.8007     8.7900   -36.6071     7.6448     0.0015     0.1660   117.1642     2.4160
  108.5000     9.9373     8.7278   -36.4583     7.6913     0.0015     0.1654   118.2090     2.4100
