~VERSION INFORMATION
 VERS.                2.0:   CWLS LOG ASCII STANDARD - VERSION 2.0
 WRAP.                 NO:   ONE LINE PER DEPTH STEP
~WELL INFORMATION
#MNEM.UNIT      DATA TYPE    INFORMATION
#----------   ------------   ------------------------------
 STRT.F           39.0000:   START DEPTH
 STOP.F          478.0000:   STOP DEPTH
 STEP.F            0.5000:   STEP LENGTH
 NULL.          -999.2500:   NO VALUE
 COMP. FENIX & SCISSON, INC.:   COMPANY
 WELL.  S-3 NPR #3 #46S-3:   WELL
 FLD .              NPR-3:   FIELD
 LOC .       S3 T38N R78W:   LOCATION
 CNTY.            NATRONA:   COUNTY
 STAT.            WYOMING:   STATE
 CTRY. UNITED STATES OF AMERICA:   COUNTRY
 SRVC.      Dresser Atlas:   SERVICE COMPANY
 DATE.        28-MAR-1977:   LOGDATE
 API .       490251034100:   API NUMBER
~CURVE INFORMATION
#MNEM.UNIT       API CODE    CURVE DESCRIPTION
#----------   ------------   ------------------------------
 DEPT.F                  :   
 ILD .OHMM   07 120 46 00:   INDUCTION LOG DEEP
 ILM .OHMM   07 120 44 00:   INDUCTION LOG MEDIUM
 SFL .OHMM   07 220 01 00:   SHALLOW FOCUSED LOG RESISTIVITY
 SPR .MV     07 010 01 00:   SPONTANEOUS POTENTIAL
 CALD.IN     45 280 60 00:   CALIPER FROM DENSITY LOG
 GRD .GAPI   45 310 01 00:   GAMMA RAY FROM DENSITY LOG
 DPHI.DEC    45 890 12 00:   DENSITY POROSITY SANDSTONE
 RHOB.G/C3   45 350 01 00:   BULK DENSITY
 DRHO.G/C3   45 356 01 00:   DENSITY CORRECTION
~PARAMETER INFORMATION
#MNEM.UNIT          VALUE    DESCRIPTION
#----------   ------------   ------------------------------
 PD  .                 GL:   PERMANENT DATUM
 EPD .F              5186:   ELEVATION PERMANENT DATUM
 LMF .                 KB:   LOG MEASURED FROM
 DAPD.F                 3:   FEET ABOVE PERMANENT DATUM
 DMF .                 KB:   DRILLING MEASURED FROM
 EKB .F              5189:   KELLING BUSHING
 EGL .F              5186:   GROUND LEVEL
 DATE.        28-MAR-1977:   RUN DATE
 RUN .                  1:   RUN NUMBER
 DD  .F               480:   DEPTH DRILLER
 DL  .F               480:   DEPTH LOGGER
 BLI .F               478:   BOTTOM LOG INTERVAL
 TLI .F                40:   TOP LOG INTERVAL
 CS  .IN            8.625:   CASING SIZE
 CBD .F                40:   CASING BOTTOM DRILLER
 CBL .F                40:   CASING BOTTOM LOGGER
 BS  .IN            7.875:   BIT SIZE
 BSD .F               480:   BIT SIZE AT DEPTH
 DFT .           CHEM GEL:   DRILLING FLUID TYPE
 DFD .                8.9:   DRILLING FLUID DENSITY
 DFV .                 39:   DRILLING FLUID VISCOSITY
 DFPH.                 11:   DRILLING FLUID PH
 DFL .                 16:   DRILLING FLUID LOSS
 MSS .           FLOWLINE:   MUD SAMPLE SOURCE
 RMS .OHMM           0.41:   RESISTIVITY MUD SAMPLE
 MST .F                40:   MUD SAMPLE TEMPERATURE
 RMF .OHMM           0.29:   RESISTIVITY MUD FILTRATE SAMPLE
 MFST.F                62:   MUD FILTRATE SAMPLE TEMPERATURE
 RMC .OHMM           0.28:   RESISTIVITY MUD CAKE
 MCST.F                62:   MUD CAKE SAMPLE TEMPERATURE
 MFSS.               MEAS:   MUD FILTRATE SAMPLE SOURCE
 MCSS.               MEAS:   MUD CAKE SAMPLE SOURCE
 RMB .OHMM           0.26:   RESISTIVITY MUD AT BHT
 BHT .F                62:   BOTTOM HOLE TEMPERATURE
 TCS .HRS               6:   TIME CURCULATED STOPPED
 MRT .F                62:   MAXIMUM RECORDED TEMPERATURE
 LUN .               6145:   LOGGING UNIT NUMBER
 LUL .              GLTTE:   LOGGING UNIT LOCATION
 ENGI.              RANCK:   RECORDING ENGINEER
 WITN.     MR. STUEBINGER:   WITNESSED BY
 CLNT.            A2DTECH:   CLIENT CODE
 ORIG.           5" PRINT:   ORIGIN OF DATA
 UWI .       490251034100:   UNIQUE WELL ID
 DICO. A2D Technologies, Inc.:   DIGITIZING COMPANY
~OTHER INFORMATION
~A   DEPT      ILD        ILM        SFL        SPR       CALD         GRD      DPHI       RHOB       DRHO   
# ...
  294.5000    20.3397    20.3563    30.5497   -33.1141     7.7979    76.2143     0.2124     2.2976    -0.0025
  295.0000    20.0717    19.9428    30.1439   -33.2443     7.7706    73.9939     0.2115     2.2968    -0.0054
  295.5000    19.9423    19.8159    28.9367   -33.2187     7.7572    73.7113     0.2042     2.3098    -0.0052
  296.0000    19.8172    20.1104    26.0848   -33.1983     7.7443    74.6354     0.1952     2.3373    -0.0021
  296.5000    19.4234    20.1227    26.1043   -33.6283     7.7468    75.2551     0.1801     2.3572     0.0013
  297.0000    19.3015    19.8553    26.1238   -33.7631     7.7787    75.8747     0.1744     2.3633     0.0058
  297.5000    18.9062    19.1782    25.4047   -33.7375     7.7956    76.5147     0.1735     2.3634     0.0089
  298.0000    18.2822    18.5149    24.7491   -33.8679     7.8126    79.0627     0.1734     2.3635     0.0106
  298.5000    17.9129    18.0364    24.9407   -33.9970     7.8146    80.1308     0.1734     2.3636     0.0108
  299.0000    17.4349    17.4300    24.7860   -34.2768     7.8399    80.3021     0.1730     2.3644     0.0124
  299.5000    17.2051    16.9595    22.0340   -34.7017     7.8487    78.3806     0.1715     2.3675     0.0126
  300.0000    16.9755    17.0889    22.2046   -34.9816     7.8508    74.2186     0.1673     2.3728     0.0127
  300.5000    16.9899    18.2102    23.6591   -35.2614     7.8536    74.6874     0.1633     2.3759     0.0144
  301.0000    16.8830    19.1355    25.2089   -35.3963     7.8564    76.3520     0.1612     2.3789     0.0131
  301.5000    16.7773    20.1184    25.7605   -35.6710     7.8591    78.4650     0.1605     2.3821     0.0118
  302.0000    16.6720    20.8367    25.7797   -35.9509     7.8619    79.3823     0.1617     2.3829     0.0105
  302.5000    16.3407    19.7175    24.7474   -36.0811     7.8647    80.1500     0.1638     2.3807     0.0076
  303.0000    15.7916    17.3959    24.0807   -36.2122     7.8675    81.3722     0.1658     2.3785     0.0049
  303.5000    15.3677    16.2283    23.9314   -36.4901     7.8702    83.0692     0.1664     2.3764     0.0035
  304.0000    15.2686    15.7927    23.7874   -36.4659     7.8730    84.2520     0.1640     2.3765     0.0022
  304.5000    15.1728    15.8023    23.4714   -36.4363     7.8758    86.5145     0.1615     2.3818     0.0024
  305.0000    15.2919    16.0347    23.4932   -36.5656     7.8786    87.8801     0.1612     2.3841     0.0041
  305.5000    15.4093    16.3874    23.8407   -36.8383     7.8814    87.4521     0.1646     2.3789     0.0057
  306.0000    15.6366    16.8775    24.3624   -36.9670     7.8841    85.5292     0.1671     2.3737     0.0074
  306.5000    15.8693    17.2304    24.8361   -37.2445     7.8869    84.2043     0.1662     2.3739     0.0091
  307.0000    16.1030    17.2409    24.6309   -37.3725     7.8897    82.2814     0.1644     2.3778     0.0093
  307.5000    16.3402    17.3725    24.4190   -37.5006     7.8927    78.8491     0.1628     2.3792     0.0065
  308.0000    16.5809    17.5051    24.4373   -37.4775     7.8944    78.7347     0.1616     2.3793     0.0021
  308.5000    16.8251    17.7625    24.4604   -37.4508     7.8962    81.0023     0.1609     2.3794    -0.0007
  309.0000    17.0729    17.8981    24.8365   -37.4287     7.9128    81.6205     0.1606     2.3810    -0.0035
  309.5000    17.0746    18.1613    25.1894   -37.4066     7.9146    81.6409     0.1588     2.3863    -0.0033
  310.0000    17.0729    18.2999    25.7407   -37.3844     7.9317    81.3623     0.1572     2.3946    -0.0031
  310.5000    17.0713    18.1720    27.0475   -37.0620     7.9400    80.9291     0.1569     2.3977    -0.0015
  311.0000    16.9595    18.0482    28.2233   -36.4393     7.9499    80.9796     0.1587     2.3940    -0.0008
  311.5000    16.7433    17.9243    26.7133   -35.6664     7.9516    80.3770     0.1610     2.3855     0.0004
  312.0000    16.5224    17.7110    23.0948   -34.7434     7.9536    79.5005     0.1646     2.3694     0.0021
  312.5000    16.3081    17.4806    23.1122   -32.6192     7.9553    79.2219     0.1700     2.3620     0.0039
  313.0000    16.0620    17.3563    23.1295   -28.8433     7.9570    79.8452     0.1717     2.3636     0.0058
  313.5000    15.8914    17.0288    22.9855   -27.0194     7.9588    80.3140     0.1684     2.3696     0.0086
  314.0000    15.6818    16.6938    23.0035   -26.6967     7.9431    80.6333     0.1651     2.3750     0.0103
  314.5000    15.4818    16.3619    22.2327   -26.8250     7.9030    80.2052     0.1611     2.3780     0.0125
  315.0000    15.2810    16.0365    21.3289   -26.9475     7.7704    79.7771     0.1599     2.3788     0.0151
  315.5000    15.1883    15.7141    22.0038   -26.9254     7.6080    79.3483     0.1604     2.3789     0.0153
  316.0000    15.2019    15.5097    22.5998   -26.9033     7.7291    79.8178     0.1589     2.3791     0.0140
  316.5000    15.1097    15.3113    22.6167   -26.8812     7.8204    80.5859     0.1553     2.3851     0.0125
  317.0000    15.0214    15.3250    22.1656   -26.8591     7.8819    81.2089     0.1513     2.3934     0.0099
  317.5000    14.9303    15.3387    21.5726   -26.8369     7.9284    80.3324     0.1468     2.3987     0.0085
  318.0000    14.9436    15.3519    21.1383   -26.8148     7.9116    79.4508     0.1425     2.4003     0.0057
  318.5000    14.9569    15.3662    21.3061   -26.7927     7.7677    80.0742     0.1410     2.4004     0.0059
  319.0000    14.9702    15.4878    21.4712   -26.7706     7.8743    80.3935     0.1419     2.4035     0.0046
  319.5000    14.9835    15.6689    21.4873   -26.8994     7.9507    79.5170     0.1509     2.4073     0.0033
  320.0000    14.9968    15.7971    21.2059   -26.8765     7.9972    76.9962     0.1580     2.4066     0.0005
  320.5000    15.0102    15.8707    20.7827   -27.0045     7.9243    76.2692     0.1610     2.3983    -0.0009
  321.0000    15.0235    16.1000    20.6541   -26.9820     7.8664    75.2018     0.1630     2.3892    -0.0022
  321.5000    15.0369    16.1144    20.9601   -27.1105     7.8382    72.8770     0.1663     2.3768    -0.0035
  322.0000    15.1557    16.2420    21.2737   -27.0828     7.7803    73.0468     0.1711     2.3679    -0.0048
  322.5000    15.3824    16.3706    21.5884   -27.2164     7.6477    73.8145     0.1732     2.3650    -0.0046
  323.0000    15.5069    16.0450    21.7516   -27.1887     7.7096    74.1338     0.1698     2.3680    -0.0025
  323.5000    15.6293    15.8328    21.4668   -27.1666     7.7860    74.3037     0.1662     2.3771     0.0002
  324.0000    15.6432    15.7400    21.4869   -27.1445     7.8773    74.4735     0.1621     2.3892     0.0049
  324.5000    15.3330    15.6408    21.5031   -27.1224     7.9387    74.9423     0.1559     2.4013     0.0066
  325.0000    15.1308    15.6583    21.5193   -27.2504     7.9404    76.0090     0.1534     2.4066     0.0082
  325.5000    15.1476    16.0046    21.6860   -27.3371     7.9571    76.1788     0.1558     2.4019     0.0099
  326.0000    15.2672    16.2445    23.4309   -27.4741     7.9589    74.7095     0.1630     2.3805     0.0086
  326.5000    15.3877    16.3733    26.2136   -27.6111     7.9606    73.5340     0.1708     2.3603     0.0028
  327.0000    15.4014    16.3878    33.0142   -27.7607     7.9176    72.8019     0.1731     2.3679     0.0000
  327.5000    15.3080    16.0420    34.4659   -27.7386     7.7406    73.5747     0.1665     2.3875    -0.0029
  328.0000    15.2150    15.5273    34.3373   -27.7970     7.4882    74.7909     0.1517     2.4168     0.0033
  328.5000    15.0141    15.0071    26.1769   -27.8910     7.5202    76.0070     0.1318     2.4371     0.0095
  329.0000    14.7088    14.5044    18.9672   -27.9850     7.6563    77.2232     0.1285     2.4403     0.0142
  329.5000    14.2315    14.2159    19.9301   -28.0790     7.8073    78.1464     0.1282     2.4350     0.0144
  330.0000    13.6606    13.7397    20.7965   -28.1729     7.8986    79.0982     0.1306     2.4282     0.0145
  330.5000    13.2967    13.6531    19.5472   -28.3566     7.9003    79.8304     0.1350     2.4198     0.0132
