~VERSION INFORMATION
 VERS.                2.0:   CWLS LOG ASCII STANDARD - VERSION 2.0
 WRAP.                 NO:   ONE LINE PER DEPTH STEP
~WELL INFORMATION
#MNEM.UNIT      DATA TYPE    INFORMATION
#----------   ------------   ------------------------------
 STRT.F           60.0000:   START DEPTH
 STOP.F         1143.0000:   STOP DEPTH
 STEP.F            0.5000:   STEP LENGTH
 NULL.          -999.2500:   NO VALUE
 COMP. U S NAVY-INTEX OIL:   COMPANY
 WELL.    N.P.R . 3 #63-2:   WELL
 FLD .             TEAPOT:   FIELD
 LOC .       S2 T38N R78W:   LOCATION
 CNTY.            NATRONA:   COUNTY
 STAT.            WYOMING:   STATE
 CTRY. UNITED STATES OF AMERICA:   COUNTRY
 SRVC. Schlumberger Well Surveying Corp:   SERVICE COMPANY
 DATE.        24-MAY-1964:   LOGDATE
 API .       490250645500:   API NUMBER
~CURVE INFORMATION
#MNEM.UNIT       API CODE    CURVE DESCRIPTION
#----------   ------------   ------------------------------
 DEPT.F                  :   
 SPR .MV     05 010 01 00:   SPONTANEOUS POTENTIAL FROM RES.
 ASN .OHMM   05 041 16 00:   AMPLIFIED SHORT NORMAL 16"
 ILD .OHMM   05 120 46 00:   INDUCTION LOG DEEP
 CILD.MMHO   05 110 46 00:   CONDUCTIVITY INDUCTION LOG DEEP
 CALS.IN     60 280 50 00:   CALIPER FROM SONIC LOG
 DT  .US/F   60 520 33 00:   INTERVAL TRANSIT TIME
~PARAMETER INFORMATION
#MNEM.UNIT          VALUE    DESCRIPTION
#----------   ------------   ------------------------------
 PD  .                 GL:   PERMANENT DATUM
 EPD .F              5181:   ELEVATION PERMANENT DATUM
 LMF .                 KB:   LOG MEASURED FROM
 DAPD.F                 5:   FEET ABOVE PERMANENT DATUM
 DMF .                 KB:   DRILLING MEASURED FROM
 EKB .F              5186:   KELLING BUSHING
 EGL .F              5181:   GROUND LEVEL
 DATE.        24-MAY-1964:   RUN DATE
 RUN .                  1:   RUN NUMBER
 DD  .F              1140:   DEPTH DRILLER
 DL  .F              1144:   DEPTH LOGGER
 BLI .F              1143:   BOTTOM LOG INTERVAL
 TLI .F                82:   TOP LOG INTERVAL
 CS  .IN            8.625:   CASING SIZE
 CBD .F                10:   CASING BOTTOM DRILLER
 BS  .IN            7.875:   BIT SIZE
 BSD .F              1140:   BIT SIZE AT DEPTH
 DFT .            GEL/OIL:   DRILLING FLUID TYPE
 DFD .                9.0:   DRILLING FLUID DENSITY
 DFV .                 63:   DRILLING FLUID VISCOSITY
 DFPH.                8.0:   DRILLING FLUID PH
 DFL .                7.6:   DRILLING FLUID LOSS
 MSS .           FLOWLINE:   MUD SAMPLE SOURCE
 RMS .OHMM           0.87:   RESISTIVITY MUD SAMPLE
 MST .F                84:   MUD SAMPLE TEMPERATURE
 RMF .OHMM           0.43:   RESISTIVITY MUD FILTRATE SAMPLE
 MFST.F                84:   MUD FILTRATE SAMPLE TEMPERATURE
 RMC .OHMM           1.52:   RESISTIVITY MUD CAKE
 MCST.F                84:   MUD CAKE SAMPLE TEMPERATURE
 MFSS.                 FP:   MUD FILTRATE SAMPLE SOURCE
 MCSS.                 FP:   MUD CAKE SAMPLE SOURCE
 TCS .HRS               2:   TIME CURCULATED STOPPED
 LUN .               4507:   LOGGING UNIT NUMBER
 LUL .               CSPR:   LOGGING UNIT LOCATION
 ENGI.             DANNER:   RECORDING ENGINEER
 WITN.          JORGENSEN:   WITNESSED BY
 CLNT.            A2DTECH:   CLIENT CODE
 ORIG.       2", 5" PRINT:   ORIGIN OF DATA
 UWI .       490250645500:   UNIQUE WELL ID
 DICO. A2D Technologies, Inc.:   DIGITIZING COMPANY
~OTHER INFORMATION
~A   DEPT      SPR          ASN        ILD      CILD      CALS         DT   
# ...
  216.0000   -42.2952     7.8207     6.0060   173.8252  -999.2500  -999.2500
  216.5000   -42.2944     7.6410     5.9309   177.4802  -999.2500  -999.2500
  217.0000   -42.4444     7.3112     5.8559   179.9297  -999.2500  -999.2500
  217.5000   -42.5941     7.1832     5.8077   182.1912  -999.2500  -999.2500
  218.0000   -42.6646     7.3409     5.7613   182.7723  -999.2500  -999.2500
  218.5000   -42.7566     7.4580     5.7057   182.4221  -999.2500  -999.2500
  219.0000   -42.8930     7.5206     5.6306   182.0473  -999.2500  -999.2500
  219.5000   -42.8923     7.3405     5.5470   185.0779  -999.2500  -999.2500
  220.0000   -43.0421     7.2284     5.4054   188.6044  -999.2500  -999.2500
  220.5000   -43.1920     7.2053     5.4054   194.8951  -999.2500  -999.2500
  221.0000   -43.2158     7.2051     5.3303   198.0220  -999.2500  -999.2500
  221.5000   -43.3411     7.1802     5.2553   200.9488  -999.2500  -999.2500
  222.0000   -43.2811     7.0998     5.2553   199.4597  -999.2500  -999.2500
  222.5000   -43.1890     6.9248     5.2553   197.7784  -999.2500  -999.2500
  223.0000   -43.0944     6.7606     5.2553   194.9198  -999.2500  -999.2500
  223.5000   -43.0010     6.6930     5.2553   192.4999  -999.2500  -999.2500
  224.0000   -42.8855     6.9361     5.3303   188.9255  -999.2500  -999.2500
  224.5000   -42.8848     7.2490     5.4054   184.4740  -999.2500  -999.2500
  225.0000   -42.7335     7.4388     5.5556   181.0994  -999.2500  -999.2500
  225.5000   -42.7325     7.5786     5.7057   177.6380  -999.2500  -999.2500
  226.0000   -42.7319     7.7027     5.8674   174.7314  -999.2500  -999.2500
  226.5000   -42.7311     7.7582     5.9309   172.7485  -999.2500  -999.2500
  227.0000   -42.7304     7.5481     5.9309   174.7594  -999.2500  -999.2500
  227.5000   -42.7296     7.4965     5.8741   177.1585  -999.2500  -999.2500
  228.0000   -42.8794     7.4729     5.7830   178.8557  -999.2500  -999.2500
  228.5000   -42.8787     7.4626     5.7057   180.8300  -999.2500  -999.2500
  229.0000   -42.8780     7.4576     5.6306   182.6757  -999.2500  -999.2500
  229.5000   -43.1210     7.5174     5.6306   183.8705  -999.2500  -999.2500
  230.0000   -43.2128     7.5702     5.6306   183.8856  -999.2500  -999.2500
  230.5000   -43.3276     7.5391     5.6306   183.9006  -999.2500  -999.2500
  231.0000   -43.3966     7.2770     5.6306   183.1636  -999.2500  -999.2500
  231.5000   -43.4767     7.3005     5.6306   182.3996  -999.2500  -999.2500
  232.0000   -43.4758     7.4123     5.7057   180.6328  -999.2500  -999.2500
  232.5000   -43.4751     7.5135     5.7952   177.1861  -999.2500  -999.2500
  233.0000   -43.4744     7.6515     5.9309   174.1115  -999.2500  -999.2500
  233.5000   -43.4736     7.7561     6.0382   170.4369  -999.2500  -999.2500
  234.0000   -43.3223     7.8307     6.1632   166.8373  -999.2500  -999.2500
  234.5000   -43.3214     7.8746     6.3063   162.6105  -999.2500  -999.2500
  235.0000   -43.1702     7.9165     6.4027   159.9413  -999.2500  -999.2500
  235.5000   -43.0188     7.9584     6.3814   159.9548  -999.2500  -999.2500
  236.0000   -42.8675     8.0003     6.3423   160.8232  -999.2500  -999.2500
  236.5000   -42.8667     8.0421     6.2856   163.7529  -999.2500  -999.2500
  237.0000   -42.7153     8.0698     6.0811   166.9278  -999.2500  -999.2500
  237.5000   -42.7146     8.0472     5.9497   172.0640  -999.2500  -999.2500
  238.0000   -42.7249     7.8746     5.7057   177.0983  -999.2500  -999.2500
  238.5000   -42.8637     7.6847     5.5388   183.9534  -999.2500  -999.2500
  239.0000   -42.8629     7.4968     5.3709   192.4419  -999.2500  -999.2500
  239.5000   -42.8622     7.2975     5.1051   197.3742  -999.2500  -999.2500
  240.0000   -42.8614     7.0625     4.8849   202.2590  -999.2500  -999.2500
  240.5000   -43.0114     6.8694     4.8048   204.8219  -999.2500  -999.2500
  241.0000   -43.0104     6.8092     4.9550   201.1520  -999.2500  -999.2500
  241.5000   -43.1604     6.8794     5.2768   193.2923  -999.2500  -999.2500
  242.0000   -43.1596     7.2023     5.7808   185.4326  -999.2500  -999.2500
  242.5000   -43.2505     7.5253     6.2068   177.5729  -999.2500  -999.2500
  243.0000   -43.3088     7.8483     6.4830   169.7132  -999.2500  -999.2500
  243.5000   -43.3079     8.1713     6.7568   161.8535  -999.2500  -999.2500
  244.0000   -43.3072     8.4834     6.9379   153.9938  -999.2500  -999.2500
  244.5000   -43.2962     8.6005     7.1345   147.4258  -999.2500  -999.2500
  245.0000   -43.1550     8.7121     7.3048   144.0512  -999.2500  -999.2500
  245.5000   -43.1094     8.9312     7.3574   142.0079  -999.2500  -999.2500
  246.0000   -43.0030     9.0867     7.2823   141.2449  -999.2500  -999.2500
  246.5000   -42.8516     8.9477     7.2072   143.0049  -999.2500  -999.2500
  247.0000   -42.8293     8.6756     7.1229   145.2413  -999.2500  -999.2500
  247.5000   -42.5488     8.6349     6.9820   148.8326  -999.2500  -999.2500
  248.0000   -42.4920     8.7509     6.8799   151.7473  -999.2500  -999.2500
  248.5000   -42.2462     8.8952     6.6817   155.8300  -999.2500  -999.2500
  249.0000   -42.2455     8.9208     6.5170   158.7549  -999.2500  -999.2500
  249.5000   -42.4282     8.8280     6.3063   161.2427  -999.2500  -999.2500
  250.0000   -42.6957     8.4858     6.1562   164.4076  -999.2500  -999.2500
  250.5000   -42.8456     8.1249     5.9721   167.0707  -999.2500  -999.2500
  251.0000   -43.0050     7.8382     5.7755   170.2118  -999.2500  -999.2500
  251.5000   -43.1453     7.7191     5.6306   174.0411  -999.2500  -999.2500
  252.0000   -43.2953     7.6001     5.6306   179.4778  -999.2500  -999.2500
  252.5000   -43.2944     7.4810     5.5556   182.3065  -999.2500  -999.2500
  253.0000   -43.4443     7.3788     5.5964   182.3193  -999.2500  -999.2500
  253.5000   -43.4435     7.3603     5.6427   181.5815  -999.2500  -999.2500
  254.0000   -43.4427     7.3977     5.7057   178.4337  -999.2500  -999.2500
  254.5000   -43.4420     7.5395     5.8107   176.7672  -999.2500  -999.2500
  255.0000   -43.4413     7.7046     5.9322   173.3449  -999.2500  -999.2500
  255.5000   -43.4405     7.8087     6.0060   170.8357  -999.2500  -999.2500
  256.0000   -43.4398     7.9223     6.1001   168.0021  -999.2500  -999.2500
  256.5000   -43.4389     8.0490     6.2312   165.1084  -999.2500  -999.2500
  257.0000   -43.4383     8.1095     6.3063   163.3885  -999.2500  -999.2500
  257.5000   -43.4375     8.1837     6.4646   160.6182  -999.2500  -999.2500
  258.0000   -43.4368     8.2548     6.6066   159.0763  -999.2500  -999.2500
  258.5000   -43.4360     8.3126     6.6325   157.5226  -999.2500  -999.2500
  259.0000   -43.4352     8.3781     6.7568   156.1468  -999.2500  -999.2500
  259.5000   -43.4345     8.4430     6.6066   155.9841  -999.2500  -999.2500
  260.0000   -43.4337     8.4838     6.4415   159.1868  -999.2500  -999.2500
  260.5000   -43.2823     8.4976     6.3063   163.7823  -999.2500  -999.2500
  261.0000   -43.2816     8.3915     6.1234   168.0268  -999.2500  -999.2500
  261.5000   -43.2809     7.9726     6.0019   172.0345  -999.2500  -999.2500
  262.0000   -43.2801     7.7419     5.8298   176.1145  -999.2500  -999.2500
  262.5000   -43.2794     7.5525     5.6838   180.5347  -999.2500  -999.2500
  263.0000   -43.1279     7.4174     5.5556   184.1293  -999.2500  -999.2500
  263.5000   -43.1273     7.3329     5.5556   184.8916  -999.2500  -999.2500
  264.0000   -43.1184     7.2672     5.6416   181.8982  -999.2500  -999.2500
  264.5000   -42.9752     7.3851     5.7057   178.4865  -999.2500  -999.2500
  265.0000   -42.8238     7.5308     5.7808   177.2842  -999.2500  -999.2500
  265.5000   -42.8230     7.6865     5.7809   176.6717  -999.2500  -999.2500
  266.0000   -42.8223     7.7465     5.8559   175.9337  -999.2500  -999.2500
  266.5000   -42.8215     7.7912     5.8559   175.9487  -999.2500  -999.2500
  267.0000   -42.6701     7.7910     5.8559   175.9639  -999.2500  -999.2500
  267.5000   -42.6694     7.7499     5.8559   178.4259  -999.2500  -999.2500
