~VERSION INFORMATION
 VERS.                2.0:   CWLS LOG ASCII STANDARD - VERSION 2.0
 WRAP.                 NO:   ONE LINE PER DEPTH STEP
~WELL INFORMATION
#MNEM.UNIT      DATA TYPE    INFORMATION
#----------   ------------   ------------------------------
 STRT.F            0.0000:   START DEPTH
 STOP.F         3315.0000:   STOP DEPTH
 STEP.F            0.5000:   STEP LENGTH
 NULL.          -999.2500:   NO VALUE
 COMP. LAWRENCE/ALLISON INC     84-AX-:   COMPANY
 WELL.          SHX3 #1-3:   WELL
 FLD .            WILDCAT:   FIELD
 LOC .       S3 T38N R78W:   LOCATION
 CNTY.            NATRONA:   COUNTY
 STAT.            WYOMING:   STATE
 CTRY. UNITED STATES OF AMERICA:   COUNTRY
 SRVC.      Dresser Atlas:   SERVICE COMPANY
 DATE.        20-JAN-1986:   LOGDATE
 API .       490251104200:   API NUMBER
~CURVE INFORMATION
#MNEM.UNIT       API CODE    CURVE DESCRIPTION
#----------   ------------   ------------------------------
 DEPT.F                  :   
 SPR .MV     07 010 01 00:   SPONTANEOUS POTENTIAL
 RILD.OHMM   07 120 46 00:   INDUCTION LOG DEEP RESISTIVITY
 RILM.OHMM   07 120 44 00:   INDUCTION LOG MEDIUM RESISTIVITY
 RFOC.OHMM   07 220 04 00:   RESISTIVITY FOCUSED LOG
 AC  .US/F   60 520 00 00:   ACCOUSTIC
 CALD.IN     45 280 60 00:   CALIPER FROM DENSITY
 CORR.G/C3   45 356 01 00:   DENSITY CORRECTION
 DEN .G/C3   45 350 01 00:   COMPENSATED BULK DENSTIY
 PORD.DEC    45 890 12 00:   POROSITY DENSITY SANDSTONE
 CNC .DEC    42 890 03 00:   NEUTRON POROSITY SANDSTONE
 GRR .GAPI   07 310 01 00:   GAMMA RAY
~PARAMETER INFORMATION
#MNEM.UNIT          VALUE    DESCRIPTION
#----------   ------------   ------------------------------
 PD  .                 GL:   PERMANENT DATUM
 EPD .F              5136:   ELEVATION PERMANENT DATUM
 LMF .                 KB:   LOG MEASURED FROM
 DAPD.F                11:   FEET ABOVE PERMANENT DATUM
 DMF .                 KB:   DRILLING MEASURED FROM
 EKB .F              5147:   KELLING BUSHING
 EGL .F              5136:   GROUND LEVEL
 DATE.        26-JAN-1986:   RUN DATE
 RUN .                  1:   RUN NUMBER
 DD  .F              3320:   DEPTH DRILLER
 DL  .F              3317:   DEPTH LOGGER
 BLI .F              3315:   BOTTOM LOG INTERVAL
 CS  .IN            8.625:   CASING SIZE
 CBD .F               550:   CASING BOTTOM DRILLER
 CBL .F               592:   CASING BOTTOM LOGGER
 BS  .IN            7.875:   BIT SIZE
 BSD .F              3320:   BIT SIZE AT DEPTH
 DFT .        POLYMER KCL:   DRILLING FLUID TYPE
 DFD .                9.1:   DRILLING FLUID DENSITY
 DFV .                 38:   DRILLING FLUID VISCOSITY
 DFPH.                 10:   DRILLING FLUID PH
 DFL .                8.5:   DRILLING FLUID LOSS
 MSS .           FLOWLINE:   MUD SAMPLE SOURCE
 RMS .OHMM           .435:   RESISTIVITY MUD SAMPLE
 MST .F                72:   MUD SAMPLE TEMPERATURE
 RMF .OHMM           .352:   RESISTIVITY MUD FILTRATE SAMPLE
 MFST.F                72:   MUD FILTRATE SAMPLE TEMPERATURE
 RMC .OHMM            .54:   RESISTIVITY MUD CAKE
 MCST.F                72:   MUD CAKE SAMPLE TEMPERATURE
 MFSS.               MEAS:   MUD FILTRATE SAMPLE SOURCE
 MCSS.               MEAS:   MUD CAKE SAMPLE SOURCE
 RMB .OHMM            .29:   RESISTIVITY MUD AT BHT
 BHT .F               108:   BOTTOM HOLE TEMPERATURE
 TCS .HRS               3:   TIME CURCULATED STOPPED
 MRT .F               108:   MAXIMUM RECORDED TEMPERATURE
 LUN .               6274:   LOGGING UNIT NUMBER
 LUL .               GLTE:   LOGGING UNIT LOCATION
 ENGI.             RAUTIO:   RECORDING ENGINEER
 WITN.             STRONG:   WITNESSED BY
 CLNT.            A2DTECH:   CLIENT CODE
 ORIG.       2", 5" PRINT:   ORIGIN OF DATA
 UWI .       490251104200:   UNIQUE WELL ID
 DICO. A2D Technologies, Inc.:   DIGITIZING COMPANY
~OTHER INFORMATION
~A    DEPT     SPR       RILD       RILM       RFOC         AC       CALD       CORR        DEN       PORD        CNC        GRR   
# ...
 2562.0000   -48.9805     7.4239     7.7549     8.2890    82.1322     8.7618     0.0267     2.5172     0.0792     0.2567    59.3309
 2562.5000   -49.1303     7.2728     7.6391     8.5814    81.2344     8.7761     0.0312     2.5149     0.0805     0.2585    58.1342
 2563.0000   -49.1284     7.1737     7.3871     8.8842    80.6642     8.7600     0.0176     2.5110     0.0839     0.2576    56.7861
 2563.5000   -49.1269     7.0276     7.2349     8.8944    80.4425     8.7440    -0.0230     2.5057     0.0860     0.2573    57.1022
 2564.0000   -49.1254     6.9322     7.1352     8.2317    80.4490     8.7431    -0.0426     2.5041     0.0871     0.2607    59.3851
 2564.5000   -49.1239     6.8853     7.0858     7.7874    80.9805     8.7421    -0.0472     2.5057     0.0871     0.2622    60.6089
 2565.0000   -49.1224     6.8394     7.0368     7.6270    82.3390     8.7412    -0.0021     2.5203     0.0811     0.2619    60.4677
 2565.5000   -48.9696     6.7935     6.9881     7.6801    83.4720     8.7403     0.0339     2.5393     0.0717     0.2628    61.5437
 2566.0000   -48.9681     6.7012     7.0858     7.7364    84.0787     8.7548     0.0745     2.5558     0.0622     0.2670    63.0701
 2566.5000   -48.8153     6.7026     7.1352     7.7336    84.2343     8.7690     0.0654     2.5700     0.0527     0.2709    64.1426
 2567.0000   -48.8138     6.7040     7.1849     7.7336    83.7884     8.7831     0.0518     2.5790     0.0428     0.2731    63.8536
 2567.5000   -48.6610     6.7094     7.2853     7.8516    83.4176     8.7821     0.0563     2.5812     0.0421     0.2673    62.0517
 2568.0000   -48.6595     6.8006     7.3360     8.1183    83.2722     8.7812     0.0838     2.5744     0.0467     0.2592    59.9472
 2568.5000   -48.6580     6.8581     7.3871     8.1183    83.2023     8.7802     0.1032     2.5743     0.0468     0.2613    59.2009
 2569.0000   -48.6565     6.9468     7.3871     7.8962    83.2828     8.7793     0.1058     2.5712     0.0471     0.2680    59.6717
 2569.5000   -48.8064     7.0454     7.3871     7.7336    83.4383     8.7784     0.0712     2.5666     0.0477     0.2652    60.4417
 2570.0000   -48.9561     7.0468     7.3871     7.8962    83.2883     8.7775     0.0425     2.5643     0.0519     0.2609    60.9091
 2570.5000   -49.1059     7.0483     7.4386     8.2317    83.0538     8.7615     0.0260     2.5658     0.0522     0.2560    60.6200
 2571.0000   -49.4070     7.0497     7.4386     8.4632    82.5094     8.7606     0.0184     2.5679     0.0507     0.2480    59.1207
 2571.5000   -49.4054     7.0512     7.4386     8.5221    81.8062     8.7597     0.0138     2.5686     0.0495     0.2393    58.2265
 2572.0000   -49.2526     7.1017     7.4386     8.1748    81.5846     8.7588     0.0183     2.5670     0.0492     0.2342    58.6939
 2572.5000   -49.0998     7.1032     7.4904     7.9511    81.6662     8.7579     0.0423     2.5655     0.0495     0.2387    60.5229
 2573.0000   -48.9470     7.1541     7.5426     7.6801    81.7466     8.7569     0.0513     2.5631     0.0514     0.2405    60.9903
 2573.5000   -48.6430     7.1556     7.5951     8.0064    81.3759     8.7560     0.0453     2.5631     0.0526     0.2354    61.1551
 2574.0000   -48.4720     7.2069     7.7013     8.7013    80.8547     8.7704     0.0617     2.5645     0.0529     0.2321    60.2609
 2574.5000   -48.1861     7.2084     7.8089     8.9461    80.2584     8.7693     0.0752     2.5675     0.0493     0.2309    59.2155
 2575.0000   -48.0333     7.2601     7.8633     8.2890    79.9628     8.7685     0.0632     2.5689     0.0466     0.2291    59.2290
 2575.5000   -48.0318     7.2616     7.7531     8.0064    79.8176     8.7676     0.0449     2.5703     0.0463     0.2285    59.5451
 2576.0000   -48.0300     7.2631     7.6444     8.0622    79.6712     8.7667     0.0296     2.5612     0.0469     0.2288    59.7099
 2576.5000   -48.1797     7.2143     7.5374     8.5221    79.5273     8.7507     0.0209     2.5499     0.0499     0.2418    59.5722
 2577.0000   -48.4812     7.1643     7.3871     8.8847    79.3068     8.7498     0.0224     2.5445     0.0563     0.2518    59.4342
 2577.5000   -48.7819     7.0646     7.2769     9.0083    79.1617     8.7336     0.0313     2.5437     0.0635     0.2436    59.4480
 2578.0000   -48.9320     6.8163     7.1352     8.6246    79.3967     8.7327     0.0388     2.5497     0.0641     0.2370    62.4872
 2578.5000   -49.0814     6.5435     6.8918     7.5317    80.6401     8.7167     0.0358     2.5526     0.0596     0.2349    65.8291
 2579.0000   -49.0799     6.2861     6.6567     6.7235    82.3464     8.7158     0.0252     2.5473     0.0587     0.2343    65.6765
 2579.5000   -48.9271     6.1152     6.4745     6.5933    82.2664     8.6998     0.0282     2.5397     0.0617     0.2346    61.1337
 2580.0000   -48.7744     5.9904     6.3852     7.5743    81.5198     8.7142     0.0432     2.5387     0.0684     0.2476    59.0618
 2580.5000   -48.7729     5.9091     6.3410     8.2890    80.8482     8.6980     0.0506     2.5494     0.0603     0.2587    61.1244
 2581.0000   -48.7714     5.9103     6.2972     7.4183    80.7018     8.6971     0.0521     2.5601     0.0530     0.2593    64.1507
 2581.5000   -48.9211     5.9527     6.3410     7.1160    81.5277     8.6962     0.0626     2.5628     0.0509     0.2531    65.3051
 2582.0000   -49.0713     5.9954     6.3852     7.1655    82.8187     8.6951     0.0806     2.5544     0.0542     0.2428    63.9571
 2582.5000   -49.2211     6.0384     6.4745     7.0668    83.4254     8.7096     0.0941     2.5664     0.0588     0.2255    64.1225
 2583.0000   -49.2192     6.0817     6.5650     6.7788    83.3554     8.7236     0.0755     2.5784     0.0512     0.2069    63.3824
 2583.5000   -49.2177     6.0829     6.6567     6.5025    82.9094     8.7530     0.0427     2.5858     0.0422     0.1975    60.0677
 2584.0000   -49.2162     6.1265     6.7968     6.7319    80.5086     8.7824     0.0157     2.5707     0.0395     0.1942    52.8195
 2584.5000   -49.2147     6.1705     6.9881     8.1748    76.5288     8.7969     0.0217     2.5593     0.0440     0.2214    51.3168
 2585.0000   -49.2132     6.3016     7.0858     9.6553    74.8047     8.8109     0.0262     2.5561     0.0525     0.2317    53.6030
 2585.5000   -49.2117     6.6167     7.1849    10.7884    74.7346     8.8100     0.0442     2.5599     0.0552     0.2356    57.5499
 2586.0000   -49.2102     6.8995     7.2349     9.1342    76.6948     8.8091     0.0637     2.5507     0.0543     0.2346    61.3456
 2586.5000   -49.2087     7.0952     7.2853     7.5220    79.4171     8.8080     0.0681     2.5399     0.0561     0.2303    61.0566
 2587.0000   -49.2072     7.2460     7.3360     7.0180    79.7880     8.8071     0.0305     2.5349     0.0625     0.2235    59.7086
 2587.5000   -49.2057     7.1932     7.3360     7.1160    79.3798     8.8062    -0.0011     2.5341     0.0673     0.2229    57.7554
 2588.0000   -49.0529     6.9468     7.2853     7.7336    78.2957     8.8054    -0.0147     2.5325     0.0700     0.2269    57.0091
 2588.5000   -49.0514     6.8114     7.1849     8.5817    77.8485     8.8045     0.0003     2.5302     0.0716     0.2395    58.0850
 2589.0000   -48.8986     6.8131     7.1352     8.7619    77.9302     8.8036     0.0183     2.5263     0.0719     0.2365    59.3088
 2589.5000   -48.7458     6.9579     7.1352     8.1697    78.9880     8.8027     0.0318     2.5248     0.0722     0.2263    59.6216
 2590.0000   -48.5930     7.0566     7.1849     7.7195    79.6699     8.8018     0.0107     2.5247     0.0743     0.2208    58.2769
 2590.5000   -48.5915     7.1567     7.2349     7.5220    79.8254     8.8007    -0.0105     2.5239     0.0752     0.2212    57.8332
 2591.0000   -48.5900     7.1582     7.3360     7.7874    79.8306     8.7998    -0.0150     2.5216     0.0743     0.2272    58.7578
 2591.5000   -48.5885     7.2092     7.3871     8.1183    79.8358     8.7838    -0.0105     2.5181     0.0746     0.2381    60.7381
 2592.0000   -48.7383     7.1112     7.3871     8.3466    79.8410     8.7830     0.0000     2.5214     0.0798     0.2441    60.1465
