~VERSION INFORMATION
 VERS.                2.0:   CWLS LOG ASCII STANDARD - VERSION 2.0
 WRAP.                 NO:   ONE LINE PER DEPTH STEP
~WELL INFORMATION
#MNEM.UNIT      DATA TYPE    INFORMATION
#----------   ------------   ------------------------------
 STRT.F           14.0000:   START DEPTH
 STOP.F          583.0000:   STOP DEPTH
 STEP.F            0.5000:   STEP LENGTH
 NULL.          -999.2500:   NO VALUE
 COMP. LAWRENCE/ALLISON INC:   COMPANY
 WELL.     NPR3 #34-66 SX:   WELL
 FLD .          MPR NO. 3:   FIELD
 LOC .      S10 T38N R78W:   LOCATION
 CNTY.            NATRONA:   COUNTY
 STAT.            WYOMING:   STATE
 CTRY. UNITED STATES OF AMERICA:   COUNTRY
 SRVC.           Gearhart:   SERVICE COMPANY
 DATE.        19-JUN-1986:   LOGDATE
 API .       490251109400:   API NUMBER
~CURVE INFORMATION
#MNEM.UNIT       API CODE    CURVE DESCRIPTION
#----------   ------------   ------------------------------
 DEPT.F                  :   
 GRR .GAPI   07 310 01 00:   GAMMA RAY
 RILD.OHMM   07 120 46 00:   INDUCTION LOG DEEP RESISTIVITY
 RILM.OHMM   07 120 44 00:   INDUCTION LOG MEDIUM RESISTIVITY
~PARAMETER INFORMATION
#MNEM.UNIT          VALUE    DESCRIPTION
#----------   ------------   ------------------------------
 PD  .                 GL:   PERMANENT DATUM
 EPD .F              5262:   ELEVATION PERMANENT DATUM
 LMF .                 KB:   LOG MEASURED FROM
 DAPD.F                 5:   FEET ABOVE PERMANENT DATUM
 DMF .                 KB:   DRILLING MEASURED FROM
 EKB .F              5267:   KELLING BUSHING
 EGL .F              5262:   GROUND LEVEL
 DATE.        19-JUN-1986:   RUN DATE
 RUN .                  1:   RUN NUMBER
 DD  .F               609:   DEPTH DRILLER
 DL  .F               602:   DEPTH LOGGER
 BLI .F               592:   BOTTOM LOG INTERVAL
 TLI .F                47:   TOP LOG INTERVAL
 CS  .IN            8.625:   CASING SIZE
 CBD .F                47:   CASING BOTTOM DRILLER
 CBL .F                46:   CASING BOTTOM LOGGER
 BS  .IN            7.875:   BIT SIZE
 BSD .F               609:   BIT SIZE AT DEPTH
 DFT .               FOAM:   DRILLING FLUID TYPE
 TCS .HRS            0130:   TIME CURCULATED STOPPED
 TLAB.HRS            0330:   TIME LOGGER AT BOTTOM
 MRT .F                65:   MAXIMUM RECORDED TEMPERATURE
 LUN .               7609:   LOGGING UNIT NUMBER
 LUL .           GILLETTE:   LOGGING UNIT LOCATION
 ENGI.         WEATHERMON:   RECORDING ENGINEER
 WITN.           JENNINGS:   WITNESSED BY
 CLNT.            A2DTECH:   CLIENT CODE
 ORIG.           5" PRINT:   ORIGIN OF DATA
 UWI .       490251109400:   UNIQUE WELL ID
 DICO. A2D Technologies, Inc.:   DIGITIZING COMPANY
~OTHER INFORMATION
~A   DEPT      GRR       RILD       RILM   
# ...
  196.0000   116.6144     9.2347     9.2186
  196.5000   116.3070     9.4319     9.3507
  197.0000   118.1305     9.4990     9.5513
  197.5000   119.6496     9.7018     9.6879
  198.0000   118.4290     9.7709     9.8957
  198.5000   112.6421     9.9120    10.0373
  199.0000   111.1171    10.0600    10.2526
  199.5000   110.8097    10.2653    10.4726
  200.0000   112.0241    10.4301    10.6973
  200.5000   108.3682    10.6649    10.8424
  201.0000   105.0167    10.8653    11.0105
  201.5000   103.1872    11.0995    11.2491
  202.0000   102.5747    11.4187    11.4123
  202.5000   101.0497    11.5023    11.6595
  203.0000   101.6556    11.6689    11.8382
  203.5000   103.4791    11.7543    12.0859
  204.0000   102.8674    11.9237    12.2612
  204.5000   101.6468    12.0956    12.3519
  205.0000   100.1217    12.1841    12.4433
  205.5000    98.8422    12.2732    12.4476
  206.0000    96.7665    12.2766    12.5397
  206.5000    94.0239    12.2807    12.5439
  207.0000    94.3261    12.1973    12.4603
  207.5000    94.3224    12.0305    12.3772
  208.0000    94.0150    11.8668    12.2096
  208.5000    92.1856    11.7870    12.0432
  209.0000    90.3541    11.7077    11.9629
  209.5000    90.7407    11.6290    11.7999
  210.0000    96.1334    11.5507    11.7211
  210.5000   100.6967    11.4738    11.6430
  211.0000    97.9540    11.3966    11.5654
  211.5000    96.1246    11.3997    11.4883
  212.0000    95.8179    11.4028    11.4932
  212.5000    97.6407    11.3261    11.4156
  213.0000    99.1599    11.3292    11.4204
  213.5000   100.3738    11.3330    11.4243
  214.0000   100.9797    11.3361    11.4282
  214.5000   101.5863    11.3392    11.4322
  215.0000   101.5826    11.3423    11.4370
  215.5000   101.5797    11.3453    11.3607
  216.0000   100.3591    11.3484    11.3646
  216.5000    97.3120    11.3515    11.2878
  217.0000    97.0046    11.3553    11.1349
  217.5000    97.6098    11.2789    11.0606
  218.0000   100.9554    11.2820    10.9100
  218.5000   102.1708    11.2061    10.8372
  219.0000   102.4723    11.0529    10.7650
  219.5000   101.2510    10.9017    10.6183
  220.0000    99.1171    10.5978    10.5484
  220.5000    98.2009    10.3846    10.5519
  221.0000    98.2364    10.3147    10.5555
  221.5000    99.4119    10.3182    10.5591
  222.0000   100.0185    10.3210    10.5628
  222.5000    98.1884    10.2509    10.7169
  223.0000    97.5766    10.1826    10.7962
  223.5000    97.5737    10.1855    10.8760
  224.0000    97.8751    10.1889    10.8797
  224.5000   100.3075    10.1916    10.8063
  225.0000    97.8184    10.1944    10.5111
  225.5000    96.3435    10.1251    10.2231
  226.0000    95.7317    10.0570    10.0131
  226.5000    96.6420     9.9201    10.0174
  227.0000    97.8567     9.9229    10.0208
  227.5000    99.6802     9.8561     9.9531
  228.0000   100.2861     9.7898     9.8867
  228.5000    95.6702     9.7932     9.8208
  229.0000    92.0603     9.7958     9.8250
  229.5000    90.2309     9.7985     9.8283
  230.0000    88.0970     9.8011     9.8318
  230.5000    89.3117     9.7300     9.8359
  231.0000    92.0485     9.6021     9.8392
  231.5000    94.7853     9.4052     9.6371
  232.0000    96.9132     9.3413     9.4392
  232.5000    99.1122     9.0857     9.1806
  233.0000   100.2559     8.8365     8.9920
  233.5000   100.5574     8.5941     8.7456
  234.0000   102.0757     8.4127     8.5557
  234.5000   107.2478     8.2447     8.3320
  235.0000   109.9846     8.1314     8.1609
  235.5000   109.6772     8.0767     8.0490
  236.0000   106.2933     7.9663     7.9953
  236.5000   102.8787     7.9127     7.9987
  237.0000    99.9264     7.9711     8.0579
  237.5000    99.3146     8.0342     8.1176
  238.0000    99.3117     8.1457     8.2360
  238.5000    99.9176     8.2054     8.4144
  239.0000   101.4367     8.3823     8.5365
  239.5000   102.0619     8.4436     8.5996
  240.0000    98.0416     8.5653     8.7244
  240.5000    95.3388     8.6280     8.7274
  241.0000    96.5535     8.6356     8.7919
  241.5000   100.8124     8.7553     8.8571
  242.0000   104.4624     8.8194     9.0496
  242.5000   105.9823     8.8839     9.1166
  243.0000   103.2389     8.9489     9.1840
  243.5000   101.4094     9.0779     9.2520
  244.0000   104.5154     9.1444     9.3204
  244.5000   108.7087     9.2821     9.3894
  245.0000   109.0109     9.2787     9.3926
  245.5000   107.4852     9.2169     9.3959
  246.0000   107.1785     9.2194     9.3331
  246.5000   110.5234     9.1568     9.2067
  247.0000   112.6514     9.0952     9.1445
  247.5000   110.5074     9.0983     9.1484
  248.0000   107.7301     9.1008     9.1516
  248.5000   104.7184     9.1038     9.1547
  249.0000   102.5875     9.1063     9.1578
  249.5000   100.7610     9.1087     9.2263
  250.0000   100.1522     9.1173     9.2940
  250.5000   101.3699     9.1592     9.2960
  251.0000   102.8919     9.1794     9.2980
  251.5000   103.1964     9.0533     9.2347
  252.0000   102.5875     8.9913     9.1076
  252.5000   101.9787     8.9302     9.0461
  253.0000   100.4566     8.9325     8.9846
  253.5000   100.1522     8.9343     8.9235
  254.0000   102.2831     8.9362     8.9253
  254.5000   105.3272     8.8754     8.8645
  255.0000   103.1355     8.7534     8.8581
  255.5000    99.5434     8.6940     8.7443
  256.0000    96.8036     8.6349     8.7465
  256.5000    95.8904     8.6371     8.7483
  257.0000    96.1948     8.5784     8.6884
  257.5000    97.7169     8.5202     8.6296
  258.0000    99.5434     8.4623     8.5101
  258.5000   100.1522     8.2876     8.3844
  259.0000    99.8478     8.1741     8.2203
  259.5000   100.1522     8.0054     8.1643
  260.0000   101.3699     7.7853     7.9399
  260.5000   103.8052     7.5713     7.7213
  261.0000   105.3272     7.3553     7.5087
  261.5000   106.5449     7.1607     7.3000
  262.0000   107.1537     7.1121     7.1013
  262.5000   107.1537     7.1139     7.0530
  263.0000   106.2405     7.1153     7.1042
  263.5000   105.3272     7.1669     7.1558
  264.0000   104.1096     7.2704     7.3098
  264.5000   102.5875     7.4260     7.4671
  265.0000   101.3699     7.6394     7.6817
  265.5000   100.1522     7.8585     7.8474
  266.0000   103.5008     7.9713     7.9602
  266.5000   106.5449     8.0290     8.0745
  267.0000   107.1537     8.0307     8.1332
  267.5000   106.8493     8.0323     8.1918
  268.0000   103.8052     8.0340     8.0795
  268.5000   100.1522     8.0360     8.0245
  269.0000    98.9001     7.9810     7.9699
  269.5000    98.3257     7.9268     7.9157
  270.0000    98.6301     7.8182     7.9177
  270.5000   103.5008     7.7108     7.8634
  271.0000   106.8493     7.6048     7.7556
  271.5000   109.8935     7.4918     7.6488
  272.0000   109.8935     7.3459     7.4907
  272.5000   109.8935     7.1943     7.2338
  273.0000   112.3288     6.9475     6.9853
  273.5000   114.4597     6.7565     6.7454
  274.0000   110.8067     6.4792     6.5597
  274.5000   105.9361     6.3902     6.2459
  275.0000   102.8919     6.3841     6.0314
  275.5000   102.5875     6.3036     5.9067
  276.0000   102.6241     6.3052     6.0342
  276.5000   102.8919     6.3957     6.2076
  277.0000   102.2831     6.5792     6.3859
  277.5000   101.3699     6.7679     6.6624
  278.0000   101.0655     7.0124     6.9999
  278.5000   100.4566     7.2894     7.3044
  279.0000   105.0228     7.6308     7.5662
  279.5000   106.2405     7.7948     7.7291
  280.0000   103.5008     7.8513     7.8401
  280.5000   102.5875     7.9639     7.9528
  281.0000   109.2846     8.0782     8.0105
  281.5000   113.8508     8.1367     8.0122
  282.0000   113.2420     8.2539     8.0734
  282.5000   108.3714     8.2556     8.2445
  283.0000   106.2405     8.3154     8.3043
  283.5000   107.4581     8.3757     8.3646
  284.0000   108.6758     8.4364     8.4253
  284.5000   110.5023     8.4976     8.4865
  285.0000   111.7199     8.5592     8.4882
  285.5000   112.9376     8.6217     8.4900
  286.0000   111.1111     8.6234     8.6732
  286.5000   107.2999     8.7471     8.7361
