~VERSION INFORMATION
 VERS.                2.0:   CWLS LOG ASCII STANDARD - VERSION 2.0
 WRAP.                 NO:   ONE LINE PER DEPTH STEP
~WELL INFORMATION
#MNEM.UNIT      DATA TYPE    INFORMATION
#----------   ------------   ------------------------------
 STRT.F           32.0000:   START DEPTH
 STOP.F          501.0000:   STOP DEPTH
 STEP.F            0.5000:   STEP LENGTH
 NULL.          -999.2500:   NO VALUE
 COMP.    FENIX & SCISSON:   COMPANY
 WELL.    NPR "SX" #75-10:   WELL
 FLD .             TEAPOT:   FIELD
 LOC .      S10 T38N R78W:   LOCATION
 CNTY.            NATRONA:   COUNTY
 STAT.            WYOMING:   STATE
 CTRY. UNITED STATES OF AMERICA:   COUNTRY
 SRVC.              Welex:   SERVICE COMPANY
 DATE.        08-MAR-1977:   LOGDATE
 API .       490251029200:   API NUMBER
~CURVE INFORMATION
#MNEM.UNIT       API CODE    CURVE DESCRIPTION
#----------   ------------   ------------------------------
 DEPT.F                  :   
 SPR .MV     07 010 01 00:   SPONTANEOUS POTENTIAL
 ILD .OHMM   07 120 46 00:   INDUCTION LOG DEEP
 ILM .OHMM   07 120 44 00:   INDUCTION LOG MEDIUM
 SGRD.OHMM   07 221 05 00:   SHALLOW SHORT GUARD RESISTIVITY
 GRD .GAPI   45 310 01 00:   GAMMA RAY FROM DENSITY LOG
 CALD.IN     45 280 60 00:   CALIPER FROM DENSITY LOG
 CORR.G/C3   45 356 01 00:   DENSITY CORRECTION
 RHOB.G/C3   45 350 01 00:   BULK DENSITY
 DPHI.DEC    45 890 12 00:   DENSITY POROSITY SANDSTONE
~PARAMETER INFORMATION
#MNEM.UNIT          VALUE    DESCRIPTION
#----------   ------------   ------------------------------
 PD  .                 GL:   PERMANENT DATUM
 EPD .F              5184:   ELEVATION PERMANENT DATUM
 LMF .                 GL:   LOG MEASURED FROM
 DAPD.F                GL:   FEET ABOVE PERMANENT DATUM
 EGL .F              5184:   GROUND LEVEL
 DATE.          03-8-1977:   RUN DATE
 RUN .                  1:   RUN NUMBER
 DD  .F               510:   DEPTH DRILLER
 DL  .F               505:   DEPTH LOGGER
 BLI .F               503:   BOTTOM LOG INTERVAL
 TLI .F                35:   TOP LOG INTERVAL
 CS  .IN            8.625:   CASING SIZE
 CBD .F                42:   CASING BOTTOM DRILLER
 CBL .F                43:   CASING BOTTOM LOGGER
 BS  .IN            7.875:   BIT SIZE
 BSD .F               510:   BIT SIZE AT DEPTH
 DFT .            KCL MUD:   DRILLING FLUID TYPE
 DFD .                8.6:   DRILLING FLUID DENSITY
 DFV .                 36:   DRILLING FLUID VISCOSITY
 DFPH.                9.5:   DRILLING FLUID PH
 DFL .                  2:   DRILLING FLUID LOSS
 MSS .           FLOWLINE:   MUD SAMPLE SOURCE
 RMS .OHMM            .49:   RESISTIVITY MUD SAMPLE
 MST .F                56:   MUD SAMPLE TEMPERATURE
 RMF .OHMM            .42:   RESISTIVITY MUD FILTRATE SAMPLE
 MFST.F                56:   MUD FILTRATE SAMPLE TEMPERATURE
 RMC .OHMM            .62:   RESISTIVITY MUD CAKE
 MCST.F                56:   MUD CAKE SAMPLE TEMPERATURE
 MFSS.               MEAS:   MUD FILTRATE SAMPLE SOURCE
 MCSS.               MEAS:   MUD CAKE SAMPLE SOURCE
 RMB .OHMM            .44:   RESISTIVITY MUD AT BHT
 BHT .F                62:   BOTTOM HOLE TEMPERATURE
 TCS .HRS               2:   TIME CURCULATED STOPPED
 MRT .F                62:   MAXIMUM RECORDED TEMPERATURE
 LUN .               8611:   LOGGING UNIT NUMBER
 LUL .           GILLETTE:   LOGGING UNIT LOCATION
 ENGI.            C. DOAK:   RECORDING ENGINEER
 WITN.           S. BURNE:   WITNESSED BY
 CLNT.            A2DTECH:   CLIENT CODE
 ORIG.        2" 5" PRINT:   ORIGIN OF DATA
 UWI .       490251029200:   UNIQUE WELL ID
 DICO. A2D Technologies, Inc.:   DIGITIZING COMPANY
~OTHER INFORMATION
~A   DEPT      SPR        ILD        ILM       SGRD         GRD        CALD      CORR        RHOB     DPHI   
# ...
  105.0000   -39.6120    10.3503    16.9593    18.3460   112.4302     8.0476     0.0493     2.4821     0.0979
  105.5000   -39.6179    10.6374    15.1828    25.1959   114.3810     8.0498     0.0539     2.4784     0.1006
  106.0000   -39.6250    10.7831    13.6865    19.6219   114.0964     8.0985     0.0600     2.4773     0.1023
  106.5000   -39.7799    10.9295    12.8520    14.8977   112.6195     8.1153     0.0646     2.4898     0.0942
  107.0000   -39.9349    11.0022    12.4190    13.8036   111.4406     8.1305     0.0693     2.4989     0.0855
  107.5000   -40.0899    10.9229    12.0778    13.8946   110.8545     8.1028     0.0724     2.5124     0.0810
  108.0000   -40.2449    10.7703    11.9091    14.0843   113.2558     8.0900     0.0755     2.5156     0.0792
  108.5000   -40.4000    10.5467    11.7428    13.5066   113.1168     8.0772     0.0726     2.5088     0.0806
  109.0000   -40.4071    10.3993    11.9028    13.1338   114.1768     8.0639     0.0636     2.4976     0.0872
  109.5000   -40.5621    10.1834    11.9820    13.3132   115.0844     8.0367     0.0577     2.4811     0.0962
  110.0000   -40.5678     9.9034    11.4931    13.4010   113.9055     8.0537     0.0533     2.4699     0.1079
  110.5000   -40.4229     9.6305    11.9748    13.3954   111.5344     8.0707     0.0519     2.4617     0.1097
  111.0000   -40.2806     9.4305    12.3918    13.2989   109.4614     8.1026     0.0535     2.4610     0.1088
  111.5000   -40.1373     9.2348    12.4752    12.9266   107.9845     8.1345     0.0551     2.4671     0.1039
  112.0000   -39.8460     9.1057    12.2156    12.3171   108.2959     8.1664     0.0583     2.4739     0.1012
  112.5000   -39.5532     9.0407    12.1283    11.8952   109.3526     8.1834     0.0599     2.4784     0.0994
  113.0000   -39.5589     9.0382    12.0418    11.8095   110.5582     8.1407     0.0615     2.4807     0.0988
  113.5000   -39.2662     9.0353    12.6334    12.1361   112.0619     8.0832     0.0616     2.4800     0.0991
  114.0000   -39.2719     9.0961    12.8950    12.6453   111.3302     8.0108     0.0617     2.4771     0.1017
  114.5000   -39.1284     9.1560    12.6267    13.1757   110.1513     7.9533     0.0588     2.4740     0.1029
  115.0000   -39.4328     9.2177    11.9455    12.1231   108.8234     7.9106     0.0574     2.4682     0.1059
  115.5000   -39.5891     9.3427    11.1462    12.2876   108.0883     7.8978     0.0559     2.4705     0.1063
  116.0000   -39.5948     9.3402    10.2409    12.6275   109.8935     7.8850     0.0531     2.4689     0.1080
  116.5000   -39.8991     9.3372     9.7038    12.8886   111.8443     7.9170     0.0515     2.4590     0.1176
  117.0000   -40.3526     9.1433     9.5031    12.6186   114.6893     7.9787     0.0471     2.4472     0.1199
  117.5000   -40.8061     8.9535     9.7664    11.9361   116.1930     8.0553     0.0443     2.4412     0.1238
  118.0000   -41.1244     8.7676    10.2463    12.0981   116.5011     8.1170     0.0445     2.4417     0.1238
  118.5000   -41.4160     8.5856    10.2493    12.0109   112.7921     8.1489     0.0446     2.4446     0.1235
  119.0000   -41.4217     8.4073     9.7526    11.5197   108.7816     8.1356     0.0447     2.4415     0.1238
  119.5000   -41.4275     8.2894     9.8223    10.6736   107.0033     8.1233     0.0451     2.4346     0.1259
  120.0000   -41.4332     8.1735    10.2347    10.8234   109.4045     8.1099     0.0464     2.4305     0.1273
  120.5000   -41.4390     8.1151    10.5183    11.4281   111.0573     8.0971     0.0450     2.4358     0.1252
  121.0000   -41.4448     8.0572    10.8098    11.6634   111.2197     8.1146     0.0406     2.4403     0.1234
  121.5000   -41.6011     8.0550    11.0329    11.5793   111.0835     8.1615     0.0377     2.4426     0.1234
  122.0000   -41.6069     7.9974    11.0269    11.1827   111.5446     8.1785     0.0363     2.4344     0.1252
  122.5000   -41.6126     7.9402    10.7262    11.1021   111.8561     8.1954     0.0379     2.4270     0.1278
  123.0000   -41.7676     7.9377    10.3597    11.3307   111.1243     8.1975     0.0425     2.4368     0.1260
  123.5000   -41.7733     7.9356     9.8008    11.2481   109.6474     8.1842     0.0456     2.4458     0.1218
  124.0000   -41.9284     7.9335     9.2084    11.1670   108.0214     8.1868     0.0457     2.4474     0.1209
  124.5000   -42.0848     7.9864     8.8938    11.0103   108.9290     8.1442     0.0474     2.4467     0.1212
  125.0000   -42.0905     7.9837     9.2035    10.8557   110.7308     8.1309     0.0490     2.4505     0.1203
  125.5000   -42.0963     8.0374     9.6669    10.6296   109.7010     8.1181     0.0475     2.4528     0.1190
  126.0000   -42.2512     8.0348     9.5867    10.6988   111.0557     8.1207     0.0461     2.4506     0.1187
  126.5000   -42.2570     8.0326     9.1323    11.6997   113.7516     8.0925     0.0432     2.4326     0.1247
  127.0000   -42.2627     8.0305     8.9429    11.3772   114.5102     8.1100     0.0418     2.4252     0.1301
  127.5000   -42.2687     8.0284     9.0647    10.8368   113.6294     8.1419     0.0435     2.4268     0.1295
  128.0000   -42.2756     8.0257     9.5107    10.5382   112.4506     8.1738     0.0436     2.4336     0.1264
  128.5000   -42.4306     7.9684     9.8500    10.6863   111.1227     8.2057     0.0452     2.4359     0.1261
  129.0000   -42.4364     7.8570     9.9074    11.1283   109.7948     8.2227     0.0468     2.4344     0.1264
  129.5000   -42.4421     7.8009     9.7012    11.3575   109.0631     8.2094     0.0469     2.4292     0.1282
  130.0000   -42.4479     7.7452     9.6987    10.8930   110.7158     8.1822     0.0485     2.4263     0.1276
  130.5000   -42.3043     7.6369     9.9674    10.5199   111.9214     8.1539     0.0471     2.4323     0.1267
  131.0000   -42.3115     7.5297    10.2436    10.5097   112.3819     8.1411     0.0472     2.4339     0.1265
  131.5000   -42.3173     7.4245    10.3831    10.8073   113.5876     8.1437     0.0428     2.4377     0.1242
  132.0000   -42.1737     7.2704    10.3083    10.5086   116.4326     8.1458     0.0399     2.4332     0.1261
  132.5000   -42.1795     7.2184    10.1644    10.3619   119.2776     8.1628     0.0400     2.4265     0.1294
  133.0000   -42.1852     7.1176     9.8851    11.0217   121.9736     8.1798     0.0401     2.4176     0.1335
  133.5000   -42.0338     7.0181     9.2875    10.9422   122.7321     8.1968     0.0432     2.4214     0.1307
  134.0000   -41.4519     6.9675     8.6065     9.9272   121.8513     8.1985     0.0509     2.4334     0.1270
  134.5000   -40.8606     6.9177     8.1985     9.0745   118.7351     8.1830     0.0540     2.4432     0.1240
  135.0000   -40.4186     6.8683     8.4257     9.3901   115.6188     8.1555     0.0526     2.4478     0.1210
  135.5000   -40.4243     6.8665     8.6591     9.1946   113.9929     8.1131     0.0511     2.4478     0.1199
  136.0000   -40.4301     6.8647     7.2348     8.8797   113.4098     8.0559     0.0482     2.4486     0.1220
  136.5000   -40.4358     6.8628     7.5386     9.1885   115.3610     8.0151     0.0453     2.4509     0.1209
  137.0000   -40.4430     6.8606     8.0749     9.9890   115.8214     8.0173     0.0424     2.4503     0.1195
  137.5000   -41.0457     6.8588     8.0173    10.2550   115.8349     8.0355     0.0410     2.4466     0.1195
  138.0000   -41.4992     6.8098     7.9599     9.3707   116.5934     8.0820     0.0396     2.4399     0.1215
  138.5000   -41.8035     6.8080     8.4671     8.8033   117.6500     8.1442     0.0367     2.4384     0.1247
  139.0000   -42.2570     6.8062     9.0695     9.1095   118.8557     8.1896     0.0368     2.4340     0.1268
  139.5000   -42.4120     6.8515     9.4503     9.8250   120.3594     8.1916     0.0370     2.4303     0.1278
  140.0000   -42.7164     6.8492     9.1907    10.0968   121.1180     8.1788     0.0355     2.4303     0.1266
  140.5000   -42.8727     6.8953     8.6948     9.8857   119.6410     8.1511     0.0372     2.4364     0.1260
  141.0000   -43.0276     6.9412     8.1691     9.6807   117.7170     8.1383     0.0403     2.4342     0.1269
