~VERSION INFORMATION
 VERS.                2.0:   CWLS LOG ASCII STANDARD - VERSION 2.0
 WRAP.                 NO:   ONE LINE PER DEPTH STEP
~WELL INFORMATION
#MNEM.UNIT      DATA TYPE    INFORMATION
#----------   ------------   ------------------------------
 STRT.F           24.0000:   START DEPTH
 STOP.F          570.0000:   STOP DEPTH
 STEP.F            0.5000:   STEP LENGTH
 NULL.          -999.2500:   NO VALUE
 COMP. FENIX & SCISSON INC:   COMPANY
 WELL.   NPR-3 #32SX10-10:   WELL
 FLD .  TEAPOT COME NPR-3:   FIELD
 LOC .      S10 T38N R78W:   LOCATION
 CNTY.            NATRONA:   COUNTY
 STAT.            WYOMING:   STATE
 CTRY. UNITED STATES OF AMERICA:   COUNTRY
 SRVC.            Unknown:   SERVICE COMPANY
 DATE.        27-JUN-1978:   LOGDATE
 API .       490251065300:   API NUMBER
~CURVE INFORMATION
#MNEM.UNIT       API CODE    CURVE DESCRIPTION
#----------   ------------   ------------------------------
 DEPT.F                  :   
 CALD.IN     45 280 60 00:   CALIPER FROM DENSITY LOG
 GRD .GAPI   45 310 01 00:   GAMMA RAY FROM DENSITY LOG
 CORR.G/C3   45 356 01 00:   DENSITY CORRECTION
 DPHI.DEC    45 890 12 00:   DENSITY POROSITY SANDSTONE
 RHOB.G/C3   45 350 01 00:   BULK DENSITY
 SPR .MV     05 010 01 00:   SPONTANEOUS POTENTIAL FROM RES.
 SN  .OHMM   05 040 16 00:   SHORT NORMAL 16"
 ILD .OHMM   05 120 46 00:   INDUCTION LOG DEEP
~PARAMETER INFORMATION
#MNEM.UNIT          VALUE    DESCRIPTION
#----------   ------------   ------------------------------
 PD  .                 GL:   PERMANENT DATUM
 EPD .F              5239:   ELEVATION PERMANENT DATUM
 LMF .                 GL:   LOG MEASURED FROM
 DAPD.F                 4:   FEET ABOVE PERMANENT DATUM
 DMF .                 GL:   DRILLING MEASURED FROM
 EKB .F              5243:   KELLING BUSHING
 EGL .F              5239:   GROUND LEVEL
 DATE.        27-JUN-1978:   RUN DATE
 RUN .                  1:   RUN NUMBER
 DD  .F               565:   DEPTH DRILLER
 DL  .F               574:   DEPTH LOGGER
 BLI .F               572:   BOTTOM LOG INTERVAL
 TLI .F                30:   TOP LOG INTERVAL
 CS  .IN            8.625:   CASING SIZE
 CBD .F                40:   CASING BOTTOM DRILLER
 CBL .F                40:   CASING BOTTOM LOGGER
 BS  .IN            7.875:   BIT SIZE
 BSD .F               565:   BIT SIZE AT DEPTH
 DFT .                KCL:   DRILLING FLUID TYPE
 DFD .                8.7:   DRILLING FLUID DENSITY
 DFV .                 35:   DRILLING FLUID VISCOSITY
 DFPH.                 10:   DRILLING FLUID PH
 DFL .                 14:   DRILLING FLUID LOSS
 MSS .           FLOWLINE:   MUD SAMPLE SOURCE
 RMS .OHMM            .36:   RESISTIVITY MUD SAMPLE
 MST .F                78:   MUD SAMPLE TEMPERATURE
 RMF .OHMM             .3:   RESISTIVITY MUD FILTRATE SAMPLE
 MFST.F                86:   MUD FILTRATE SAMPLE TEMPERATURE
 RMC .OHMM            .36:   RESISTIVITY MUD CAKE
 MCST.F                87:   MUD CAKE SAMPLE TEMPERATURE
 MFSS.               MEAS:   MUD FILTRATE SAMPLE SOURCE
 MCSS.               MEAS:   MUD CAKE SAMPLE SOURCE
 RMB .OHMM            3.9:   RESISTIVITY MUD AT BHT
 BHT .F                72:   BOTTOM HOLE TEMPERATURE
 TCS .HRS            0300:   TIME CURCULATED STOPPED
 MRT .F                72:   MAXIMUM RECORDED TEMPERATURE
 LUN .               2938:   LOGGING UNIT NUMBER
 LUL .               CASP:   LOGGING UNIT LOCATION
 ENGI.            POINTER:   RECORDING ENGINEER
 WITN.         ZARGARNIAN:   WITNESSED BY
 CLNT.            A2DTECH:   CLIENT CODE
 ORIG.     2.5", 5" PRINT:   ORIGIN OF DATA
 UWI .       490251065300:   UNIQUE WELL ID
 DICO. A2D Technologies, Inc.:   DIGITIZING COMPANY
~OTHER INFORMATION
~A   DEPT     CALD         GRD      CORR       DPHI       RHOB        SPR         SN        ILD   
# ...
  510.0000     7.5484   148.8876     0.0413     0.1165     2.4986   -22.9851     9.9643     9.8841
  510.5000     7.5484   138.2276     0.0246     0.1031     2.5310   -22.9851     9.8298     9.8841
  511.0000     7.5782   126.9390     0.0162     0.0946     2.5332   -22.9851     9.8101     9.8841
  511.5000     7.6528   120.8673     0.0149     0.0945     2.5333   -22.9851     9.6748     9.7498
  512.0000     7.6677   117.9159     0.0152     0.0951     2.5327   -22.9851     9.5412     9.7056
  512.5000     7.6677   118.0849     0.0154     0.0957     2.5328   -22.9851     9.4097     9.5718
  513.0000     7.6677   118.8482     0.0156     0.0959     2.5329   -23.2836     9.2798     9.3116
  513.5000     7.6826   119.6116     0.0142     0.0959     2.5322   -23.5821     9.1518     9.0128
  514.0000     7.6826   127.3620     0.0159     0.0970     2.5308   -23.8806     8.9026     8.6925
  514.5000     7.6826   131.9852     0.0161     0.0988     2.5294   -24.4776     8.5065     8.4103
  515.0000     7.6826   131.6096     0.0178     0.0948     2.5340   -24.7761     8.1598     8.0689
  515.5000     7.6826   124.3153     0.0180     0.0921     2.5416   -24.7827     7.7208     7.6362
  516.0000     7.6080   115.7068     0.0197     0.0909     2.5424   -25.0879     7.3052     7.2825
  516.5000     7.5335   119.4419     0.0214     0.0881     2.5433   -25.6716     6.9700     6.9334
  517.0000     7.5484   120.3538     0.0216     0.0839     2.5481   -25.6716     6.5929     6.7378
  517.5000     7.5633   117.9968     0.0218     0.0832     2.5517   -25.3731     6.2256     6.6907
  518.0000     7.6379   113.4007     0.0220     0.0835     2.5518   -25.0347     6.2591     6.7378
  518.5000     7.6677   110.4596     0.0206     0.0841     2.5497   -24.7296     6.5711     6.9738
  519.0000     7.6826   111.8172     0.0178     0.0851     2.5475   -24.1260     6.9486     7.3207
  519.5000     7.6826   120.7529     0.0166     0.0903     2.5446   -23.5225     7.5518     7.8422
  520.0000     7.6826   123.2993     0.0153     0.0965     2.5312   -22.9188     8.2076     8.4657
  520.5000     7.6826   123.6169     0.0155     0.0998     2.5246   -22.6866     8.7284     9.0706
  521.0000     7.6826   122.2842     0.0172     0.1015     2.5232   -22.9851     9.2011     9.6400
  521.5000     7.6677   120.0762     0.0189     0.1021     2.5210   -22.9851     9.4578    10.0203
  522.0000     7.6728   119.9634     0.0206     0.0978     2.5294   -22.9851     9.5894    10.0203
  522.5000     7.6821   119.5431     0.0208     0.0942     2.5340   -22.6866     9.5905     9.8841
  523.0000     7.6914   118.0776     0.0224     0.0954     2.5325   -22.3881     9.7240     9.8841
  523.5000     7.7007   120.3269     0.0226     0.0968     2.5274   -21.9768     9.8593    10.0203
  524.0000     7.7100   122.2789     0.0243     0.1019     2.5230   -21.3731     9.8604    10.1584
  524.5000     7.7193   122.8936     0.0290     0.1009     2.5239   -21.1940     9.9976    10.2984
  525.0000     7.7286   122.3197     0.0322     0.0979     2.5307   -21.1940    10.1367    10.2984
  525.5000     7.7379   118.3282     0.0339     0.0943     2.5376   -21.1940    10.4196    10.4403
  526.0000     7.7393   115.6740     0.0356     0.0915     2.5414   -21.1940    10.5646    10.7300
  526.5000     7.7415   109.4537     0.0358     0.0909     2.5430   -21.1940    10.8594    10.8778
  527.0000     7.7437   108.5824     0.0360     0.0902     2.5423   -21.1940    11.0105    11.0277
  527.5000     7.7459   110.5548     0.0346     0.0893     2.5424   -21.3598    11.1637    11.3337
  528.0000     7.7482   111.2986     0.0349     0.0901     2.5395   -21.4925    11.4753    11.4899
  528.5000     7.7504   111.1697     0.0335     0.0883     2.5427   -21.7910    11.3203    11.4899
  529.0000     7.7376   111.9382     0.0338     0.0865     2.5480   -21.7910    11.3216    11.6482
  529.5000     7.7249   114.0388     0.0339     0.0852     2.5496   -21.7910    11.1688    11.6482
  530.0000     7.7122   115.2479     0.0341     0.0846     2.5504   -21.4925    11.1700    11.6482
  530.5000     7.7149   113.7824     0.0343     0.0833     2.5513   -21.4925    11.1713    11.8087
  531.0000     7.7016   112.0197     0.0346     0.0818     2.5529   -21.1940    11.1658    11.8087
  531.5000     7.6889   110.8514     0.0347     0.0806     2.5537   -20.8955    11.0217    11.8087
  532.0000     7.6762   114.1408     0.0349     0.0814     2.5538   -20.8955    11.0230    11.8087
  532.5000     7.6635   119.2132     0.0351     0.0823     2.5524   -20.8955    11.0243    11.8087
  533.0000     7.6513   120.7194     0.0368     0.0822     2.5510   -20.8955    11.0255    11.6482
  533.5000     7.6536   119.8444     0.0370     0.0825     2.5503   -20.8955    11.0268    11.6482
  534.0000     7.6557   119.4229     0.0372     0.0834     2.5497   -21.1940    11.0280    11.6482
  534.5000     7.6579   124.5004     0.0344     0.0812     2.5514   -21.1940    11.0293    11.6482
  535.0000     7.6452   126.8982     0.0316     0.0797     2.5576   -21.1940    11.0305    11.4899
  535.5000     7.6480   128.2559     0.0258     0.0793     2.5597   -21.1940    11.0318    11.4899
  536.0000     7.6502   127.5334     0.0215     0.0838     2.5531   -21.1940    11.0331    11.4899
  536.5000     7.6524   126.9543     0.0202     0.0888     2.5442   -21.1940    11.0344    11.4877
  537.0000     7.6546   127.4256     0.0189     0.0894     2.5413   -21.1940    11.0356    11.3337
  537.5000     7.6568   127.0002     0.0176     0.0939     2.5354   -21.4925    11.0369    11.3273
  538.0000     7.6435   125.9805     0.0163     0.0938     2.5318   -21.4925    11.0381    11.1797
  538.5000     7.6462   124.9599     0.0165     0.0983     2.5281   -21.7910    11.0394    11.1797
  539.0000     7.6484   126.1699     0.0151     0.0961     2.5297   -21.7910    11.0406    11.0277
  539.5000     7.6506   129.9050     0.0124     0.0952     2.5305   -22.0896    11.0419    11.0131
  540.0000     7.6378   132.9073     0.0111     0.0954     2.5284   -22.0896    11.0432    10.8778
  540.5000     7.6252   132.9182     0.0098     0.0984     2.5277   -22.0896    11.0444    10.7300
  541.0000     7.6125   131.0114     0.0085     0.0990     2.5270   -22.0896    10.8953    10.5841
  541.5000     7.5998   126.7227     0.0072     0.0992     2.5264   -22.0896    10.8966    10.4403
  542.0000     7.5848   119.1600     0.0074     0.0992     2.5258   -22.0896    10.6714    10.4403
  542.5000     7.5744   124.8318     0.0076     0.0991     2.5259   -22.0896    10.5242    10.2984
  543.0000     7.5617   127.5268     0.0078     0.0991     2.5260   -22.0896    10.4612    10.2984
  543.5000     7.5644   128.1416     0.0065     0.0990     2.5253   -22.0896    10.4626    10.2984
  544.0000     7.5666   128.1620     0.0067     0.0990     2.5247   -22.0896    10.4638    10.2673
  544.5000     7.5688   128.1824     0.0068     0.0997     2.5233   -22.0896    10.3223    10.1584
  545.0000     7.5710   128.2028     0.0070     0.1035     2.5189   -22.0896    10.1832    10.0203
  545.5000     7.5578   128.2232     0.0072     0.1067     2.5122   -22.0896    10.0457     9.8841
  546.0000     7.5605   128.2435     0.0075     0.1075     2.5101   -22.2023    10.0468     9.8841
  546.5000     7.5627   126.4655     0.0077     0.1078     2.5094   -22.3881     9.9110     9.8841
  547.0000     7.5649   125.7634     0.0078     0.1077     2.5103   -22.3881     9.9123     9.8841
  547.5000     7.5671   125.9324     0.0080     0.1080     2.5111   -22.3881     9.7785     9.8841
  548.0000     7.5693   126.2500     0.0082     0.1080     2.5097   -22.3881     9.7796     9.8393
  548.5000     7.5716   128.0535     0.0084     0.1079     2.5091   -22.5340     9.7807     9.7498
  549.0000     7.5742   132.2343     0.0086     0.1109     2.5084   -22.6866     9.6486     9.7498
  549.5000     7.5764   132.5519     0.0073     0.1093     2.5085   -22.6866     9.6497     9.7001
  550.0000     7.5786   132.7209     0.0075     0.1078     2.5116   -22.6866     9.6508     9.5663
