~VERSION INFORMATION
 VERS.                2.0:   CWLS LOG ASCII STANDARD - VERSION 2.0
 WRAP.                 NO:   ONE LINE PER DEPTH STEP
~WELL INFORMATION
#MNEM.UNIT      DATA TYPE    INFORMATION
#----------   ------------   ------------------------------
 STRT.F            0.5000:   START DEPTH
 STOP.F         2271.5000:   STOP DEPTH
 STEP.F            0.5000:   STEP LENGTH
 NULL.          -999.2500:   NO VALUE
 COMP. BROWN JOHN E&C INC:   COMPANY
 WELL. NPR 3 STX-11 #27-11:   WELL
 FLD .             TEAPOT:   FIELD
 LOC .      S11 T38N R78W:   LOCATION
 CNTY.            NATRONA:   COUNTY
 STAT.            WYOMING:   STATE
 CTRY. UNITED STATES OF AMERICA:   COUNTRY
 SRVC.      Dresser Atlas:   SERVICE COMPANY
 DATE.        20-JAN-1993:   LOGDATE
 API .       490251108500:   API NUMBER
~CURVE INFORMATION
#MNEM.UNIT       API CODE    CURVE DESCRIPTION
#----------   ------------   ------------------------------
 DEPT.F                  :   
 ILD .OHMM   07 120 46 00:   INDUCTION LOG DEEP
 ILM .OHMM   07 120 44 00:   INDUCTION LOG MEDIUM
 GRR .GAPI   07 310 01 00:   GAMMA RAY FROM RES. LOG.
~PARAMETER INFORMATION
#MNEM.UNIT          VALUE    DESCRIPTION
#----------   ------------   ------------------------------
 PD  .                 GL:   PERMANENT DATUM
 EPD .F              5187:   ELEVATION PERMANENT DATUM
 LMF .                 KB:   LOG MEASURED FROM
 DAPD.F                12:   FEET ABOVE PERMANENT DATUM
 DMF .                 KB:   DRILLING MEASURED FROM
 EKB .F            5198.8:   KELLING BUSHING
 EDF .F            5197.8:   DRILLING FLOOR
 EGL .F              5187:   GROUND LEVEL
 DATE.            1-20-93:   RUN DATE
 RUN .                  1:   RUN NUMBER
 DD  .F              2279:   DEPTH DRILLER
 DL  .F              2279:   DEPTH LOGGER
 BLI .F              2271:   BOTTOM LOG INTERVAL
 TLI .F               692:   TOP LOG INTERVAL
 CS  .IN            8.625:   CASING SIZE
 CBD .F               689:   CASING BOTTOM DRILLER
 CBL .F               692:   CASING BOTTOM LOGGER
 BS  .IN            7.875:   BIT SIZE
 BSD .F              2279:   BIT SIZE AT DEPTH
 DFT .                OIL:   DRILLING FLUID TYPE
 BHT .F                92:   BOTTOM HOLE TEMPERATURE
 TCS .HRS               2:   TIME CURCULATED STOPPED
 MRT .F                92:   MAXIMUM RECORDED TEMPERATURE
 LUN .            HL-6274:   LOGGING UNIT NUMBER
 LUL .             CASPER:   LOGGING UNIT LOCATION
 ENGI.             RAUTIO:   RECORDING ENGINEER
 WITN.             STRONG:   WITNESSED BY
 CLNT.            A2DTECH:   CLIENT CODE
 ORIG.  2", 5", 20" PRINT:   ORIGIN OF DATA
 UWI .       490251108500:   UNIQUE WELL ID
 DICO. A2D Technologies, Inc.:   DIGITIZING COMPANY
~OTHER INFORMATION
~A    DEPT     ILD        ILM         GRR  
# ...
 2002.5000     8.5442     8.4172   152.7277
 2003.0000     8.5529     8.4316   153.4850
 2003.5000     8.5617     8.4460   150.1286
 2004.0000     8.5704     8.4605   145.2114
 2004.5000     8.5793     8.4751   140.7491
 2005.0000     8.5881     8.4894   141.5888
 2005.5000     8.5951     8.5040   144.9830
 2006.0000     8.3808     8.5156   148.7215
 2006.5000     8.1892     8.3530   152.4218
 2007.0000     8.0578     8.3438   152.8256
 2007.5000     8.0582     8.3347   152.8400
 2008.0000     8.0582     8.3255   152.1560
 2008.5000     8.0644     8.3164   148.3942
 2009.0000     8.0853     8.3074   144.8059
 2009.5000     8.1060     8.2981   146.1682
 2010.0000     8.1312     8.2890   148.8863
 2010.5000     7.9893     8.1659   146.1185
 2011.0000     7.8518     8.0258   142.7502
 2011.5000     7.7170     7.8881   144.3536
 2012.0000     7.5845     7.7528   146.5390
 2012.5000     7.4546     7.6198   146.0839
 2013.0000     7.4160     7.5583   143.5719
 2013.5000     7.4160     7.6230   141.0701
 2014.0000     7.4160     7.6696   141.1249
 2014.5000     7.4160     7.7164   144.8602
 2015.0000     7.4466     7.7634   148.5908
 2015.5000     7.5082     7.8106   151.2653
 2016.0000     7.5703     7.8583   149.3047
 2016.5000     7.6330     7.9061   144.1146
 2017.0000     7.6961     7.9239   142.2766
 2017.5000     7.7598     7.9501   140.6757
 2018.0000     7.8002     7.9763   139.6625
 2018.5000     7.8383     8.0027   141.0651
 2019.0000     7.8765     8.0291   144.9105
 2019.5000     7.9110     8.0582   147.4830
 2020.0000     7.8856     8.0382   145.9407
 2020.5000     7.8577     8.0098   144.3846
 2021.0000     7.8215     7.9803   145.4064
 2021.5000     7.7662     7.9417   147.3665
 2022.0000     7.7113     7.9032   146.2508
 2022.5000     7.6567     7.8649   145.1281
 2023.0000     7.6025     7.8268   144.7462
 2023.5000     7.5541     7.7889   144.1490
 2024.0000     7.5537     7.7511   141.9669
 2024.5000     7.4892     7.6986   139.8029
 2025.0000     7.5250     7.7189   138.8460
 2025.5000     7.5699     7.7672   137.8593
 2026.0000     7.6151     7.8158   135.7560
 2026.5000     7.6606     7.8646   133.0184
 2027.0000     7.7063     7.9138   133.6868
 2027.5000     7.7523     7.9633   136.9763
 2028.0000     7.8292     8.0131   140.2468
 2028.5000     7.9200     8.0682   143.0804
 2029.0000     8.0119     8.1681   142.3775
 2029.5000     8.1049     8.2692   141.6521
 2030.0000     8.1989     8.3624   142.8732
 2030.5000     8.2941     8.3738   144.3586
 2031.0000     8.3903     8.3851   144.9900
 2031.5000     8.4876     8.3965   145.7470
 2032.0000     8.5302     8.4079   147.3946
 2032.5000     8.5489     8.4193   148.9263
 2033.0000     8.5677     8.4308   148.3694
 2033.5000     8.5941     8.4376   145.4133
 2034.0000     8.5343     8.3049   142.4934
 2034.5000     8.4121     8.2033   139.5791
 2035.0000     8.2916     8.1030   137.5274
 2035.5000     8.2013     8.0039   141.0548
 2036.0000     8.1776     7.9060   144.9806
 2036.5000     8.1541     7.8382   148.9071
 2037.0000     8.1306     7.9383   152.4132
 2037.5000     8.1071     8.0302   150.4747
 2038.0000     8.0836     8.1235   146.7574
 2038.5000     8.0606     8.2206   143.0277
 2039.0000     8.1374     8.3446   141.7404
 2039.5000     8.2262     8.4704   141.3854
 2040.0000     8.3160     8.5982   141.1695
 2040.5000     8.4101     8.7278   143.4145
 2041.0000     8.5751     8.8595   146.3811
 2041.5000     8.7434     8.9931   144.9375
 2042.0000     8.9149     9.1288   141.3043
 2042.5000     9.0238     9.2009   138.7329
 2043.0000     9.0678     9.2457   143.7333
 2043.5000     9.1119     9.2907   149.2931
 2044.0000     9.1652     9.3369   154.8689
 2044.5000     9.1204     9.3082   157.6204
 2045.0000     9.0505     9.2725   155.1657
 2045.5000     8.9812     9.2369   152.2603
 2046.0000     8.9124     9.2014   149.7918
 2046.5000     8.8399     9.1696   147.8001
 2047.0000     8.8603     9.1696   147.2829
 2047.5000     8.8859     9.1696   146.9526
 2048.0000     8.9115     9.1697   145.3702
 2048.5000     8.9373     9.1697   142.5289
 2049.0000     8.9630     9.1697   139.6909
 2049.5000     8.9890     9.1697   137.1417
 2050.0000     9.0330     9.1697   138.1299
 2050.5000     9.0954     9.1697   139.6182
 2051.0000     9.1582     9.1696   139.1729
 2051.5000     9.2215     9.1697   138.0898
 2052.0000     9.2852     9.1695   138.1127
 2052.5000     9.3401     9.1967   139.9252
 2053.0000     9.2561     9.2471   140.7184
 2053.5000     9.1826     9.2976   142.0532
 2054.0000     9.1096     9.3402   143.7938
 2054.5000     9.0372     9.2812   145.5418
 2055.0000     8.9653     9.2306   147.2672
 2055.5000     8.8943     9.1802   148.4225
 2056.0000     8.8373     9.1697   146.8425
 2056.5000     8.8829     9.1865   144.1705
 2057.0000     8.9290     9.1988   141.9035
 2057.5000     8.9752     9.2111   141.6485
 2058.0000     9.0217     9.2234   141.3375
 2058.5000     9.0685     9.2356   141.0153
 2059.0000     9.1155     9.2477   140.5067
 2059.5000     9.1629     9.2540   139.1364
 2060.0000     9.2109     9.2332   138.2664
 2060.5000     9.2547     9.2184   141.1262
 2061.0000     9.1302     9.2036   144.3119
 2061.5000     9.0151     9.1889   144.2751
 2062.0000     8.9015     9.1745   141.3362
 2062.5000     8.7893     9.0802   138.3527
 2063.0000     8.6785     8.9499   139.4083
 2063.5000     8.5690     8.8227   144.1560
 2064.0000     8.4610     8.6970   147.5779
 2064.5000     8.3534     8.5745   147.1349
 2065.0000     8.2845     8.5158   146.7630
 2065.5000     8.3164     8.5164   148.4689
 2066.0000     8.3404     8.5170   150.8970
 2066.5000     8.3644     8.5170   151.6138
 2067.0000     8.3885     8.5170   150.2180
 2067.5000     8.4127     8.5170   146.8218
 2068.0000     8.4369     8.5165   143.4897
 2068.5000     8.4612     8.5170   141.0822
 2069.0000     8.4856     8.5639   143.1260
 2069.5000     8.5100     8.7995   145.8111
 2070.0000     8.5346     9.0869   148.5061
 2070.5000     8.5591     9.0850   150.7110
 2071.0000     8.5838     9.0856   149.5438
 2071.5000     8.6085     9.0854   148.9494
 2072.0000     8.6333     9.1142   149.4451
 2072.5000     8.6582     9.1590   149.9341
 2073.0000     8.6832     9.2039   150.3172
 2073.5000     8.7082     9.2547   147.6873
 2074.0000     8.7332     9.1303   144.9008
 2074.5000     8.7561     9.0020   143.3529
 2075.0000     8.7668     9.0457   143.9349
 2075.5000     8.7883     9.1090   142.0946
 2076.0000     8.8098     9.1728   139.7866
 2076.5000     8.8373     9.2370   138.4963
 2077.0000     8.7085     9.2547   141.6248
 2077.5000     8.5341     8.9176   144.0565
 2078.0000     8.3633     8.6723   144.1292
 2078.5000     8.1959     8.4316   144.2440
 2079.0000     8.0582     8.2847   144.4872
 2079.5000     8.0772     8.3055   149.3697
 2080.0000     8.0936     8.3209   157.8528
 2080.5000     8.1100     8.3364   165.2927
 2081.0000     8.1264     8.3520   161.9922
 2081.5000     8.2084     8.4134   155.9867
 2082.0000     8.2358     8.5449   150.8853
 2082.5000     8.3695     8.6784   151.0743
 2083.0000     8.5045     8.8140   153.9607
 2083.5000     8.6421     8.9901   156.5405
 2084.0000     8.7818     9.1700   154.3197
 2084.5000     8.9238     9.0674   150.3558
 2085.0000     9.0020     8.9479   146.3054
 2085.5000     8.8675     8.8294   142.2561
 2086.0000     8.7763     8.7128   138.2635
 2086.5000     8.6860     8.5978   135.6945
 2087.0000     8.6502     8.4843   137.2704
 2087.5000     8.6215     8.3613   137.9346
 2088.0000     8.5929     8.4052   137.9245
 2088.5000     8.5645     8.4388   139.1849
 2089.0000     8.5358     8.3290   140.8586
 2089.5000     8.5151     8.2088   140.0362
 2090.0000     8.4984     8.2254   138.5517
 2090.5000     8.4819     8.2595   139.5597
 2091.0000     8.4655     8.2930   141.9640
 2091.5000     8.4493     8.3266   144.3020
 2092.0000     8.4401     8.3617   144.3994
 2092.5000     8.4526     8.3611   144.7859
 2093.0000     8.4627     8.3612   145.8007
