~VERSION INFORMATION
 VERS.                2.0:   CWLS LOG ASCII STANDARD - VERSION 2.0
 WRAP.                 NO:   ONE LINE PER DEPTH STEP
~WELL INFORMATION
#MNEM.UNIT      DATA TYPE    INFORMATION
#----------   ------------   ------------------------------
 STRT.F           70.0000:   START DEPTH
 STOP.F          990.0000:   STOP DEPTH
 STEP.F            0.5000:   STEP LENGTH
 NULL.          -999.2500:   NO VALUE
 COMP. U S NAVY/INTEX OIL CO:   COMPANY
 WELL.      NPR 3 #55 S-2:   WELL
 FLD .            WILDCAT:   FIELD
 LOC .       S2 T38N R78W:   LOCATION
 CNTY.            NATRONA:   COUNTY
 STAT.            WYOMING:   STATE
 CTRY. UNITED STATES OF AMERICA:   COUNTRY
 SRVC.         Lane Wells:   SERVICE COMPANY
 DATE.        23-MAR-1960:   LOGDATE
 API .       490250968000:   API NUMBER
~CURVE INFORMATION
#MNEM.UNIT       API CODE    CURVE DESCRIPTION
#----------   ------------   ------------------------------
 DEPT.F                  :   
 SPR .MV     05 010 01 00:   SPONTANEOUS POTENTIAL FROM RES.
 ASN .OHMM   05 041 16 00:   AMPLIFIED SHORT NORMAL 16"
 ILD .OHMM   05 120 46 00:   INDUCTION LOG DEEP
 CILD.MMHO   05 110 46 00:   CONDUCTIVITY INDUCTION LOG DEEP
~PARAMETER INFORMATION
#MNEM.UNIT          VALUE    DESCRIPTION
#----------   ------------   ------------------------------
 PD  .                 GL:   PERMANENT DATUM
 EPD .F              5163:   ELEVATION PERMANENT DATUM
 LMF .                 KB:   LOG MEASURED FROM
 DAPD.F                 5:   FEET ABOVE PERMANENT DATUM
 DMF .                 KB:   DRILLING MEASURED FROM
 EKB .F              5168:   KELLING BUSHING
 EGL .F              5163:   GROUND LEVEL
 DATE.        23-MAR-1960:   RUN DATE
 RUN .                  1:   RUN NUMBER
 DD  .F              1010:   DEPTH DRILLER
 DL  .F               992:   DEPTH LOGGER
 BLI .F               990:   BOTTOM LOG INTERVAL
 TLI .F                70:   TOP LOG INTERVAL
 CS  .IN            8.625:   CASING SIZE
 CBD .F                12:   CASING BOTTOM DRILLER
 BS  .IN            7.875:   BIT SIZE
 BSD .F              1010:   BIT SIZE AT DEPTH
 DFT .   GEL-OIL EMULSION:   DRILLING FLUID TYPE
 DFD .                9.5:   DRILLING FLUID DENSITY
 DFV .                 40:   DRILLING FLUID VISCOSITY
 MSS .           FLOWLINE:   MUD SAMPLE SOURCE
 RMS .OHMM            2.8:   RESISTIVITY MUD SAMPLE
 MST .F                74:   MUD SAMPLE TEMPERATURE
 RMF .OHMM            2.0:   RESISTIVITY MUD FILTRATE SAMPLE
 MFST.F                74:   MUD FILTRATE SAMPLE TEMPERATURE
 RMC .OHMM            3.9:   RESISTIVITY MUD CAKE
 MCST.F                74:   MUD CAKE SAMPLE TEMPERATURE
 MFSS.          MUD PRESS:   MUD FILTRATE SAMPLE SOURCE
 MCSS.          MUD PRESS:   MUD CAKE SAMPLE SOURCE
 RMB .OHMM            2.8:   RESISTIVITY MUD AT BHT
 BHT .F                74:   BOTTOM HOLE TEMPERATURE
 MRT .F                74:   MAXIMUM RECORDED TEMPERATURE
 LUN .             L-4474:   LOGGING UNIT NUMBER
 LUL .             CASPER:   LOGGING UNIT LOCATION
 ENGI.             NELSON:   RECORDING ENGINEER
 WITN.          JORGENSEN:   WITNESSED BY
 CLNT.            A2DTECH:   CLIENT CODE
 ORIG.       2", 5" PRINT:   ORIGIN OF DATA
 UWI .       490250968000:   UNIQUE WELL ID
 DICO. A2D Technologies, Inc.:   DIGITIZING COMPANY
~OTHER INFORMATION
~A   DEPT      SPR          ASN        ILD      CILD  
# ...
  800.0000   -41.0120     6.6980     5.0336   222.4984
  800.5000   -40.7442     6.5482     4.9366   230.4717
  801.0000   -40.7429     6.3978     4.7622   233.1807
  801.5000   -40.7416     6.1930     4.6267   237.4128
  802.0000   -41.1398     6.0024     4.4240   241.7621
  802.5000   -41.1384     5.7561     4.2884   250.7438
  803.0000   -41.2703     5.5383     4.2200   257.4958
  803.5000   -41.2690     5.2667     4.1515   268.2908
  804.0000   -40.9996     5.0360     4.1502   276.3904
  804.5000   -40.7337     4.9138     4.1489   280.4468
  805.0000   -40.8655     4.8454     4.1476   280.4602
  805.5000   -41.1305     4.9112     4.1462   275.0826
  806.0000   -41.2872     5.0709     4.2123   268.3574
  806.5000   -41.6602     5.2843     4.3449   261.6322
  807.0000   -41.7920     5.6454     4.4107   250.8638
  807.5000   -42.0574     6.0199     4.5436   241.4432
  808.0000   -42.1892     6.2736     4.6765   233.3704
  808.5000   -41.9212     6.4200     4.8094   227.9928
  809.0000   -41.7868     6.5126     4.9423   225.3074
  809.5000   -41.6523     6.5784     5.0081   221.2804
  810.0000   -41.6510     6.6576     5.1410   218.5988
  810.5000   -41.3834     6.7233     5.2067   215.9165
  811.0000   -41.3820     6.7891     5.2725   214.5822
  811.5000   -41.5142     6.8415     5.2711   214.5958
  812.0000   -41.6460     6.8938     5.3370   214.6091
  812.5000   -42.1770     6.9328     5.3353   214.6227
  813.0000   -42.3092     6.9583     5.3340   214.6360
  813.5000   -42.7071     6.9707     5.3327   214.6496
  814.0000   -42.9720     6.9690     5.3313   214.6656
  814.5000   -42.9707     6.9140     5.2629   214.6790
  815.0000   -42.7030     6.8321     5.2616   216.0400
  815.5000   -42.1691     6.7637     5.2602   217.4012
  816.0000   -42.3009     6.6953     5.2589   217.4144
  816.5000   -42.4456     6.6402     5.1905   218.7754
  817.0000   -42.6978     6.5718     5.1891   220.1366
  817.5000   -42.8296     6.5302     5.1878   221.4976
  818.0000   -43.0946     6.5423     5.1865   222.8586
  818.5000   -43.0930     6.5812     5.1180   221.5210
  819.0000   -43.0916     6.5799     5.1167   225.5806
  819.5000   -43.0903     6.5506     5.0482   230.9848
  820.0000   -42.9559     6.4412     5.0469   235.0414
  820.5000   -42.8214     6.3170     4.9114   240.4454
  821.0000   -42.6869     6.1654     4.9100   244.5020
  821.5000   -42.5524     5.9171     4.8416   248.5584
  822.0000   -42.1517     5.7192     4.8403   252.6148
  822.5000   -41.8840     5.6038     4.7718   255.3236
  823.0000   -41.6164     5.5219     4.7705   256.6846
  823.5000   -41.3488     5.4669     4.7020   255.3502
  824.0000   -41.2143     5.5998     4.6336   252.5607
  824.5000   -41.2130     5.7058     4.6322   249.9862
  825.0000   -41.0785     5.7716     4.5637   251.5725
  825.5000   -41.0772     5.7840     4.5622   258.1024
  826.0000   -41.0759     5.6213     4.4266   263.5066
  826.5000   -41.0746     5.4589     4.3581   267.5630
  827.0000   -41.0732     5.3501     4.3568   267.5764
  827.5000   -41.0719     5.3223     4.3555   266.2386
  828.0000   -41.0706     5.4280     4.4216   263.5598
  828.5000   -41.0693     5.4804     4.4874   259.5300
  829.0000   -41.0679     5.5193     4.6200   254.1526
  829.5000   -40.9332     5.6656     4.6857   248.7750
  830.0000   -41.0653     5.8925     4.8186   242.0498
  830.5000   -41.0637     6.0656     4.8848   235.3246
  831.0000   -41.0624     6.1851     4.9505   229.9472
  831.5000   -41.0611     6.2509     5.0163   225.9174
  832.0000   -41.1932     6.2898     5.0821   224.5796
  832.5000   -41.5910     6.3153     5.1479   224.5962
  833.0000   -41.9892     6.2872     5.2133   224.6096
  833.5000   -42.1214     6.2187     5.2120   225.9706
  834.0000   -41.7202     6.1369     5.2107   225.9840
  834.5000   -42.1184     6.0550     5.2094   224.6496
  835.0000   -42.1171     5.9865     5.2080   221.9676
  835.5000   -42.2492     5.9584     5.2738   219.2854
  836.0000   -42.3808     5.9973     5.4067   213.7473
  836.5000   -42.5126     6.1839     5.6738   205.6155
  837.0000   -42.9107     6.3839     5.9441   193.7224
  837.5000   -43.1757     6.5839     6.2808   182.9540
  838.0000   -43.7070     6.8938     6.6255   174.8810
  838.5000   -43.8394     7.2976     7.0423   164.1128
  839.0000   -43.9769     7.6746     7.8145   153.3444
  839.5000   -44.1026     8.1498     8.3501   143.9238
  840.0000   -44.1012     8.6925     8.8857   134.5032
  840.5000   -43.9668     9.3709     9.5555   126.4302
  841.0000   -44.7641    10.3666    10.2253   118.3572
  841.5000   -45.8280    11.9691    10.9622   110.2844
  842.0000   -46.7588    13.0416    11.6991   103.5592
  842.5000   -47.6895    13.9127    12.4361    96.8340
  843.0000   -48.7535    14.5825    13.5086    91.4564
  843.5000   -49.8174    15.1852    14.5139    87.4234
  844.0000   -50.3490    15.5883    15.3180    83.3962
  844.5000   -50.3474    16.0604    15.7193    80.7143
  845.0000   -50.3461    16.4609    16.1207    78.0326
  845.5000   -50.4779    16.7235    16.4549    76.6982
  846.0000   -50.6101    16.7893    16.6553    75.3640
  846.5000   -51.0079    16.7879    16.7211    75.3773
  847.0000   -51.2729    16.7865    16.9207    75.3909
  847.5000   -51.4051    16.8524    17.1879    75.4044
  848.0000   -51.5367    16.9182    17.3208    75.4177
  848.5000   -51.4021    16.8494    17.4537    75.4340
  849.0000   -51.4008    16.7810    17.3852    75.4472
  849.5000   -51.2663    16.5783    17.2497    76.8082
  850.0000   -51.2650    16.3756    17.0470    78.1682
  850.5000   -51.3981    16.1729    16.4398    78.1945
  851.0000   -51.5392    15.9126    15.9674    80.9206
  851.5000   -51.7976    15.6986    15.4278    82.2952
  852.0000   -51.9308    15.5624    14.9553    83.6696
  852.5000   -51.9308    15.4258    14.6171    83.6964
  853.0000   -51.7976    15.3567    14.3460    85.0710
  853.5000   -51.6644    15.2876    14.1420    86.4454
  854.0000   -51.2650    15.1514    13.9380    86.4722
  854.5000   -50.9987    15.0151    13.7340    87.8468
  855.0000   -50.5992    14.8789    13.5971    89.2212
  855.5000   -50.1997    14.8098    13.4602    89.2480
  856.0000   -50.0666    14.7407    13.3904    90.6226
  856.5000   -50.0666    14.7387    13.3878    90.6494
  857.0000   -50.0666    14.7367    13.4529    90.6762
  857.5000   -50.0666    14.7347    13.5167    92.0506
  858.0000   -50.1997    14.8004    13.5812    92.0774
  858.5000   -50.5992    14.8655    13.5785    92.1042
  859.0000   -50.5992    14.9972    13.6429    92.1310
  859.5000   -50.5992    14.9952    13.6402    93.5056
  860.0000   -50.3329    14.9933    13.5705    94.8800
  860.5000   -50.0666    15.0584    13.6349    94.9068
  861.0000   -49.9334    15.1235    13.5651    93.5860
  861.5000   -49.6671    15.1886    13.5691    93.6128
  862.0000   -49.2676    15.2538    13.6269    93.6396
  862.5000   -48.8682    15.3971    13.7025    92.3181
  863.0000   -48.3356    16.0546    14.0236    92.3454
  863.5000   -47.9361    16.6567    14.4237    92.3722
  864.0000   -48.3356    17.3929    14.8237    91.0513
  864.5000   -48.4861    18.3977    15.0224    88.3826
  865.0000   -47.9361    19.2682    14.9526    87.0618
  865.5000   -47.1371    19.8702    14.6815    84.3932
  866.0000   -46.3382    20.0700    14.4103    87.1159
  866.5000   -45.8056    17.9199    14.0050    91.1859
  867.0000   -45.4061    16.7099    13.3312    94.0786
  867.5000   -45.2730    15.4998    12.3218    99.3262
  868.0000   -45.4167    14.5582    11.7151   103.3962
  868.5000   -45.6870    13.8851    11.2427   106.1240
  869.0000   -45.8241    13.4133    10.9715   107.4984
  869.5000   -46.0719    13.0757    10.7004   110.2208
  870.0000   -45.8056    12.8053    10.4964   112.9430
  870.5000   -45.2730    12.5349    10.2924   114.3174
  871.0000   -44.7403    12.3315    10.0884   117.0396
  871.5000   -44.2077    12.1282    10.0186   118.4142
  872.0000   -43.9414    11.9920    10.0160   121.1364
  872.5000   -44.2077    11.8558     9.9462   122.5108
