~VERSION INFORMATION
 VERS.                2.0:   CWLS LOG ASCII STANDARD - VERSION 2.0
 WRAP.                 NO:   ONE LINE PER DEPTH STEP
~WELL INFORMATION
#MNEM.UNIT      DATA TYPE    INFORMATION
#----------   ------------   ------------------------------
 STRT.F           19.5000:   START DEPTH
 STOP.F         1292.5000:   STOP DEPTH
 STEP.F            0.5000:   STEP LENGTH
 NULL.          -999.2500:   NO VALUE
 COMP. FENIX & SCISSON INC:   COMPANY
 WELL.  NPR-3 "SX" #74-14:   WELL
 FLD .             TEAPOT:   FIELD
 LOC .      S14 T38N R78W:   LOCATION
 CNTY.            NATRONA:   COUNTY
 STAT.            WYOMING:   STATE
 CTRY. UNITED STATES OF AMERICA:   COUNTRY
 SRVC.            Unknown:   SERVICE COMPANY
 DATE.        22-MAR-1978:   LOGDATE
 API .       490251060300:   API NUMBER
~CURVE INFORMATION
#MNEM.UNIT       API CODE    CURVE DESCRIPTION
#----------   ------------   ------------------------------
 DEPT.F                  :   
 SPR .MV     05 010 01 00:   SPONTANEOUS POTENTIAL
 SN  .OHMM   05 040 16 00:   SHORT NORMAL 16'
 ILD .OHMM   05 120 46 00:   INDUCTION LOG DEEP
 CALD.IN     45 280 60 00:   CALIPER
 GRD .GAPI   45 310 01 00:   GAMMA RAY FROM DENSITY LOG
 CORR.G/C3   45 356 01 00:   DENSITY CORRECTION
 RHOB.G/C3   45 350 01 00:   BULK DENSITY
 DPHI.DEC    45 890 12 00:   DENSITY POROSITY SANDSTONE
~PARAMETER INFORMATION
#MNEM.UNIT          VALUE    DESCRIPTION
#----------   ------------   ------------------------------
 PD  .                 GL:   PERMANENT DATUM
 EPD .F              5312:   ELEVATION PERMANENT DATUM
 LMF .                 KB:   LOG MEASURED FROM
 DMF .                 KB:   DRILLING MEASURED FROM
 EKB .F              5316:   KELLING BUSHING
 EGL .F              5312:   GROUND LEVEL
 DATE.          3-22-1978:   RUN DATE
 RUN .                  1:   RUN NUMBER
 DD  .F              1280:   DEPTH DRILLER
 DL  .F              1292:   DEPTH LOGGER
 BLI .F              1286:   BOTTOM LOG INTERVAL
 TLI .F                50:   TOP LOG INTERVAL
 CS  .IN            8.625:   CASING SIZE
 CBD .F                50:   CASING BOTTOM DRILLER
 CBL .F                50:   CASING BOTTOM LOGGER
 BS  .IN            7.875:   BIT SIZE
 BSD .F              1280:   BIT SIZE AT DEPTH
 DFT .                KCL:   DRILLING FLUID TYPE
 DFD .                8.6:   DRILLING FLUID DENSITY
 DFV .                 31:   DRILLING FLUID VISCOSITY
 DFPH.               10.5:   DRILLING FLUID PH
 DFL .               11.6:   DRILLING FLUID LOSS
 MSS .            MUD PIT:   MUD SAMPLE SOURCE
 RMS .OHMM            .38:   RESISTIVITY MUD SAMPLE
 MST .F                52:   MUD SAMPLE TEMPERATURE
 RMF .OHMM            .32:   RESISTIVITY MUD FILTRATE SAMPLE
 MFST.F                66:   MUD FILTRATE SAMPLE TEMPERATURE
 RMC .OHMM             .4:   RESISTIVITY MUD CAKE
 MCST.F                68:   MUD CAKE SAMPLE TEMPERATURE
 MFSS.           MEASURED:   MUD FILTRATE SAMPLE SOURCE
 RMB .OHMM            .24:   RESISTIVITY MUD AT BHT
 BHT .F                82:   BOTTOM HOLE TEMPERATURE
 TCS .HRS               4:   TIME CURCULATED STOPPED
 MRT .F                82:   MAXIMUM RECORDED TEMPERATURE
 LUN .               2958:   LOGGING UNIT NUMBER
 LUL .               CASP:   LOGGING UNIT LOCATION
 ENGI.            POINTER:   RECORDING ENGINEER
 WITN.           MCGINLEY:   WITNESSED BY
 CLNT.            A2DTECH:   CLIENT CODE
 ORIG.        2" 5" PRINT:   ORIGIN OF DATA
 UWI .       490251060300:   UNIQUE WELL ID
 DICO. A2D Technologies, Inc.:   DIGITIZING COMPANY
~OTHER INFORMATION
~A   DEPT      SPR         SN        ILD       CALD         GRD      CORR       RHOB       DPHI   
# ...
 1072.5000   -44.8113     5.5013     5.0168     8.0883   103.1867    -0.0017     2.4741     0.0966
 1073.0000   -44.8595     5.8806     5.0168     8.0876   105.4131     0.0007     2.4671     0.0933
 1073.5000   -44.9120     6.2165     5.2158     8.0869   106.9800     0.0031     2.4731     0.0886
 1074.0000   -44.7916     6.5717     5.6886     8.0863   109.6328     0.0055     2.4831     0.0860
 1074.5000   -44.6188     6.9471     6.1683     8.0856   111.3550     0.0078     2.4851     0.0831
 1075.0000   -44.4486     7.3439     6.5389     8.0849   110.3352     0.0100     2.4892     0.0803
 1075.5000   -44.4005     7.6668     6.9316     8.0842   104.8272     0.0099     2.4934     0.0748
 1076.0000   -44.7205     7.7329     7.2315     8.0835   104.6409     0.0168     2.4996     0.0682
 1076.5000   -45.0286     7.8182     7.3468     8.0828   107.7890     0.0258     2.5077     0.0616
 1077.0000   -45.3170     7.9045     7.4647     8.0821   113.2014     0.0246     2.5171     0.0617
 1077.5000   -45.4445     7.9917     7.5844     8.0815   119.3738     0.0183     2.5262     0.0628
 1078.0000   -45.3072     8.0799     7.6690     8.0808   114.6550     0.0122     2.5280     0.0663
 1078.5000   -44.8185     8.1779     7.6758     8.0801   104.4386     0.0103     2.5175     0.0730
 1079.0000   -44.5385     8.1867     7.6827     8.0794   104.2156     0.0107     2.5092     0.0786
 1079.5000   -44.5736     8.1994     7.6895     8.0787   108.2389     0.0112     2.5016     0.0781
 1080.0000   -44.6063     8.2121     7.6964     8.0780   112.0612     0.0117     2.4986     0.0772
 1080.5000   -44.6416     8.2249     7.7032     8.0773   116.3534     0.0112     2.4998     0.0767
 1081.0000   -44.6768     8.2376     7.7101     8.0767   113.9958     0.0088     2.5013     0.0792
 1081.5000   -44.7102     8.2504     7.7170     8.0760   111.7174     0.0064     2.4993     0.0825
 1082.0000   -44.8166     8.2632     7.7238     8.0753   109.7755     0.0088     2.4945     0.0866
 1082.5000   -44.9444     8.2760     7.7309     8.0746   108.3704     0.0133     2.4841     0.0906
 1083.0000   -45.0729     8.2889     7.7381     8.0739   103.9289     0.0242     2.4795     0.0834
 1083.5000   -45.2012     8.3017     7.7745     8.0732    99.6438     0.0336     2.4859     0.0827
 1084.0000   -45.3198     8.3146     7.8118     8.0725    89.7411     0.0392     2.4902     0.0842
 1084.5000   -45.3782     8.3275     7.8488     8.0719    88.0180     0.0418     2.4897     0.0867
 1085.0000   -45.4324     8.3404     7.9349     8.0712    91.5501     0.0439     2.4865     0.0905
 1085.5000   -45.4863     8.3533     8.3852     8.0705   100.0089     0.0461     2.4822     0.0961
 1086.0000   -45.4668     8.3663     8.8610     8.0698   102.7169     0.0609     2.4738     0.1018
 1086.5000   -45.3500     8.3797     9.2214     8.0691   105.2356     0.0862     2.4558     0.1065
 1087.0000   -45.2314     8.3939     9.1056     8.0684   113.5102     0.1114     2.4528     0.1099
 1087.5000   -45.1362     8.4090     8.4471     8.0677   120.4480     0.1366     2.4505     0.1164
 1088.0000   -45.6114     8.4118     7.2687     8.0671   115.0553     0.1558     2.4383     0.1261
 1088.5000   -46.0994     7.6180     6.2527     8.0664   109.5675     0.1120     2.4197     0.1649
 1089.0000   -46.1186     6.9523     5.4556     8.0657   104.1510     0.0036     2.3910     0.1587
 1089.5000   -46.1200     6.1355     5.0168     8.0650   100.0541    -0.0900     2.3212     0.1398
 1090.0000   -45.7461     5.3959     5.0168     8.0643    99.7128    -0.0203     2.2023     0.1210
 1090.5000   -45.1081     5.3965     5.2053     8.0636   100.9585    -0.0047     2.2953     0.1021
 1091.0000   -45.2358     5.4591     5.2053     8.0630   101.5704    -0.0049     2.4835     0.0853
 1091.5000   -45.3289     5.5361     5.1575     8.0623   101.6056    -0.0056     2.4880     0.0846
 1092.0000   -44.9730     5.5331     5.5320     8.0616   102.9618    -0.0032     2.4850     0.0838
 1092.5000   -44.4646     7.2408     6.0860     8.0609   107.0178     0.0024     2.4898     0.0795
 1093.0000   -44.3641     8.8597     7.4502     8.0602   105.2731     0.0050     2.4935     0.0756
 1093.5000   -44.4130     9.2347     8.9628     8.0595   103.7302     0.0066     2.5009     0.0763
 1094.0000   -44.4684     9.4819     9.2385     8.0587   102.4176     0.0082     2.5029     0.0777
 1094.5000   -44.5237    10.5870     9.5655     8.0569   101.5215     0.0094     2.4994     0.0791
 1095.0000   -44.5784     9.9280     9.5303     8.0552   103.9319     0.0182     2.4959     0.0761
 1095.5000   -44.6330    10.0899     9.4519     8.0535   105.0455     0.0277     2.4969     0.0725
 1096.0000   -44.6872    10.2977     9.3903     8.0518   104.9678     0.0306     2.5027     0.0728
 1096.5000   -44.6987    10.0173     9.5374     8.0501   105.6760     0.0331     2.5066     0.0759
 1097.0000   -44.6382     9.8338     9.6845     8.0484   106.0203     0.0358     2.5007     0.0772
 1097.5000   -44.5787     9.9966     9.8305     8.0466   104.1768     0.0397     2.4998     0.0785
 1098.0000   -44.5190    10.1352     9.7902     8.0449    95.5061     0.0501     2.4978     0.0798
 1098.5000   -44.4595    10.2774     9.7532     8.0432    81.8787     0.0609     2.4933     0.0830
 1099.0000   -44.3998    10.4213     9.7436     8.0416    71.8348     0.0737     2.4921     0.0870
 1099.5000   -44.3348    10.6965    10.1706     8.0393    69.5761     0.0890     2.4876     0.0879
 1100.0000   -44.4644    11.1019    10.5033     8.0003    68.2647     0.0919     2.4795     0.0940
 1100.5000   -44.6714    11.5239    10.8469     7.9601    68.4661     0.0950     2.4686     0.1046
 1101.0000   -44.7115    11.9619    11.6554     7.9465    69.1600     0.0977     2.4578     0.1155
 1101.5000   -43.5689    12.4166    12.5824     7.8662    70.9686     0.0928     2.4368     0.1274
 1102.0000   -42.2969    12.8481    13.5830     7.7074    72.7272     0.0887     2.4164     0.1392
 1102.5000   -41.9133    12.9168    14.6632     7.6869    74.5052     0.1085     2.3963     0.1505
 1103.0000   -41.6919    12.9805    15.3616     7.5916    77.6825     0.1242     2.3784     0.1357
 1103.5000   -40.6751    13.0445    15.8787     7.5256    79.2185     0.1238     2.3871     0.1394
 1104.0000   -39.6727    13.1088    15.8886     7.5253    77.7142     0.1229     2.3991     0.1478
 1104.5000   -38.6841    13.2084    15.8849     7.5247    76.3888     0.1168     2.3825     0.1545
 1105.0000   -37.8145    13.1349    15.8836     7.5247    76.6835     0.1045     2.3711     0.1562
 1105.5000   -37.5321    12.9771    15.8829     7.5248    76.5147     0.0922     2.3690     0.1610
 1106.0000   -37.4886    12.8213    15.5740     7.5248    75.4453     0.0916     2.3644     0.1649
 1106.5000   -37.4435    12.6673    15.2206     7.5248    76.9662     0.0937     2.3577     0.1569
 1107.0000   -37.4006    12.6098    14.8751     7.5246    79.7612     0.0959     2.3650     0.1502
 1107.5000   -37.3558    12.5953    14.5365     7.5239    81.2532     0.0981     2.3720     0.1441
 1108.0000   -37.4661    12.5809    14.4467     7.5290    78.9349     0.1003     2.3807     0.1413
 1108.5000   -37.6439    12.5664    14.3645     7.6290    77.6891     0.1011     2.3901     0.1363
 1109.0000   -37.7481    12.5520    14.2827     7.6709    78.2042     0.0982     2.3994     0.1308
 1109.5000   -37.7480    12.5376    14.2011     7.7434    79.6498     0.0935     2.4076     0.1341
 1110.0000   -37.7479    12.5232    14.1198     7.8360    81.4194     0.0739     2.4053     0.1423
 1110.5000   -37.7509    12.5089    14.0390     7.9288    77.1100     0.0535     2.3960     0.1505
 1111.0000   -37.8618    12.4945    13.9587     8.0213    76.3139     0.0462     2.3878     0.1488
 1111.5000   -38.4321    12.4802    13.8793     8.0689    75.6583     0.0433     2.3867     0.1473
 1112.0000   -39.0048    12.4659    13.8307     8.0385    75.5576     0.0406     2.3856     0.1470
 1112.5000   -39.5250    12.4516    13.8319     8.0094    75.4978     0.0380     2.3826     0.1481
