~VERSION INFORMATION
 VERS.                2.0:   CWLS LOG ASCII STANDARD - VERSION 2.0
 WRAP.                 NO:   ONE LINE PER DEPTH STEP
~WELL INFORMATION
#MNEM.UNIT      DATA TYPE    INFORMATION
#----------   ------------   ------------------------------
 STRT.F           90.0000:   START DEPTH
 STOP.F          928.0000:   STOP DEPTH
 STEP.F            0.5000:   STEP LENGTH
 NULL.          -999.2500:   NO VALUE
 COMP.  UNITED STATE NAVY:   COMPANY
 WELL.      NPR 3 #58-S-2:   WELL
 FLD .             TEAPOT:   FIELD
 LOC .       S2 T38N R78W:   LOCATION
 CNTY.            NATRONA:   COUNTY
 STAT.            WYOMING:   STATE
 CTRY. UNITED STATES OF AMERICA:   COUNTRY
 SRVC.       Schlumberger:   SERVICE COMPANY
 DATE.        26-JUN-1962:   LOGDATE
 API .       490250639500:   API NUMBER
~CURVE INFORMATION
#MNEM.UNIT       API CODE    CURVE DESCRIPTION
#----------   ------------   ------------------------------
 DEPT.F                  :   
 ASN .OHMM   05 041 16 00:   AMPLIFIED SHORT NORMAL 16"
 ILD .OHMM   05 120 46 00:   INDUCTION LOG DEEP
 CILD.MMHO   05 110 46 00:   CONDUCTIVITY INDUCTION LOG DEEP
 SPR .MV     05 010 01 00:   SPONTANEOUS POTENTIAL FROM RES.
 GR  .GAPI   30 310 01 00:   GAMMA RAY
~PARAMETER INFORMATION
#MNEM.UNIT          VALUE    DESCRIPTION
#----------   ------------   ------------------------------
 PD  .                 KB:   PERMANENT DATUM
 EKB .F              5189:   KELLING BUSHING
 EGL .F              5184:   GROUND LEVEL
 DATE.        26-JUN-1962:   RUN DATE
 RUN .                  1:   RUN NUMBER
 DD  .F               925:   DEPTH DRILLER
 DL  .F               929:   DEPTH LOGGER
 BLI .F               928:   BOTTOM LOG INTERVAL
 TLI .F                90:   TOP LOG INTERVAL
 BS  .IN             6.75:   BIT SIZE
 BSD .F               925:   BIT SIZE AT DEPTH
 DFT .       OIL EMULSION:   DRILLING FLUID TYPE
 DFD .                 10:   DRILLING FLUID DENSITY
 DFV .                 50:   DRILLING FLUID VISCOSITY
 DFL .                3.7:   DRILLING FLUID LOSS
 RMS .OHMM            4.7:   RESISTIVITY MUD SAMPLE
 MST .F                83:   MUD SAMPLE TEMPERATURE
 RMF .OHMM            3.8:   RESISTIVITY MUD FILTRATE SAMPLE
 MFST.F                83:   MUD FILTRATE SAMPLE TEMPERATURE
 RMC .OHMM            4.4:   RESISTIVITY MUD CAKE
 MCST.F                83:   MUD CAKE SAMPLE TEMPERATURE
 TCS .HRS               1:   TIME CURCULATED STOPPED
 LUN .               2503:   LOGGING UNIT NUMBER
 LUL .               CSPR:   LOGGING UNIT LOCATION
 ENGI.             DANNER:   RECORDING ENGINEER
 WITN.          JORGENSEN:   WITNESSED BY
 CLNT.            A2DTECH:   CLIENT CODE
 ORIG.      2" & 5" PRINT:   ORIGIN OF DATA
 UWI .       490250639500:   UNIQUE WELL ID
 DICO. A2D Technologies, Inc.:   DIGITIZING COMPANY
~OTHER INFORMATION
~A   DEPT        ASN        ILD      CILD       SPR         GR   
# ...
  761.0000     5.7603     5.7304   208.6914   -48.7911    72.2793
  761.5000     6.1666     6.2566   195.1427   -48.1863    72.1913
  762.0000     6.8128     6.7079   181.5939   -47.4326    70.7993
  762.5000     7.0841     7.1592   160.5263   -47.5746    77.3401
  763.0000     7.3105     7.3855   148.4605   -47.7164    65.5981
  763.5000     7.4919     7.5369   142.4112   -47.8582    63.3788
  764.0000     7.6583     7.6134   139.4286   -47.8507    69.7710
  764.5000     7.7947     7.6898   139.4135   -47.8433    60.4666
  765.0000     7.8562     7.7663   139.3985   -47.9851    50.0155
  765.5000     7.8727     7.8427   139.3835   -48.1353    49.8691
  766.0000     7.8892     7.9192   138.6165   -48.5790    53.2903
  766.5000     7.9206     7.9956   137.0948   -48.9695    63.9917
  767.0000     7.9521     7.9971   136.3280   -49.1507    76.4761
  767.5000     7.9986     7.9986   135.5612   -48.9922    80.0452
  768.0000     8.0300     8.0568   135.5462   -48.6863    72.0243
  768.5000     8.0615     8.0170   137.7869   -48.6788    70.0949
  769.0000     8.0780     7.9772   139.2758   -48.6714    74.4069
  769.5000     8.0795     7.9298   141.5165   -48.9625    57.9173
  770.0000     8.0210     8.0059   140.7496   -49.2537    55.6907
  770.5000     7.9475     7.8575   139.9828   -49.5448    58.0711
  771.0000     7.8720     7.9343   139.2160   -49.6865    51.5369
  771.5000     7.8156     8.0107   136.1935   -49.2313    67.2903
  772.0000     7.9450     8.3870   130.9155   -48.7722    70.5622
  772.5000     8.2683     8.6134   127.1411   -48.3134    75.9143
  773.0000     8.5700     8.6149   126.3780   -48.0150    70.4195
  773.5000     8.6764     8.4664   137.6376   -48.0074    68.7873
  774.0000     8.6479     7.7183   151.9083   -48.0179    84.0956
  774.5000     8.4096     7.0451   170.6891   -48.4406    88.1105
  775.0000     7.9463     6.1470   193.2306   -47.9602    85.5874
  775.5000     6.8833     5.6238   206.7495   -47.6507    70.8801
  776.0000     6.0002     5.6253   205.9827   -47.5209    73.2605
  776.5000     6.0467     5.7767   205.2159   -47.5135    73.5599
  777.0000     6.2431     5.8531   205.2009   -47.5061    66.8771
  777.5000     6.0796     5.9296   205.9416   -47.9464    65.5428
  778.0000     5.9908     6.0810   202.1635   -48.8345    59.8994
  778.5000     7.0122     6.3074   187.1110   -47.9316    61.3875
  779.0000     8.1681     7.2084   160.0284   -47.7749    50.3957
  779.5000     8.9342     8.5632   140.4646   -47.4690    66.5948
  780.0000     9.3255     9.3204   117.8932   -47.3123    65.8541
  780.5000     9.6568     9.6946   108.1039   -47.7527    70.9098
  781.0000     9.7332     9.7631   105.0814   -48.0456    72.2493
  781.5000     9.8247     9.8396   108.8259   -48.0363    67.3489
  782.0000     9.9011     9.7660   111.8185   -48.0289    67.7976
  782.5000     9.9176     9.7679   113.3110   -48.0215    60.5205
  783.0000     9.9191     9.6940   114.0480   -48.0141    51.3110
  783.5000     9.9356     9.6959   114.0293   -48.0067    40.9127
  784.0000     9.9790     9.6974   111.7587   -48.1485    29.7716
  784.5000    10.2074     9.6235   108.7362   -48.1411    23.8310
  785.0000    10.5026    10.4500   104.2100   -48.1336    11.5011
  785.5000    10.9761    10.9012    98.9319   -48.2773     9.2745
  786.0000    12.2520    11.0526    94.4057   -48.7158    10.6148
  786.5000    13.0031    11.3540    89.8795   -49.4547     6.7552
  787.0000    13.6043    11.7303    82.3458   -49.8950    10.3236
  787.5000    13.9056    12.7063    73.7392   -52.1264     8.2470
  788.0000    14.4318    13.9821    66.3714   -55.2533    13.0048
  788.5000    17.2069    15.0331    61.2075   -56.1414    21.3287
  789.0000    18.6327    16.0091    58.1657   -58.2235    21.6289
  789.5000    18.6342    16.3854    56.7068   -62.3952    22.0776
  790.0000    19.3853    16.6867    54.4361   -66.4177    20.2975
  790.5000    19.5367    16.8381    52.9173   -67.5209    24.9067
  791.0000    18.9235    16.9146    53.6548   -65.3580    30.8532
  791.5000    18.6401    16.8411    55.8918   -66.8432    29.5189
  792.0000    19.3363    16.4638    57.3844   -69.2238    28.7782
  792.5000    19.1304    15.9346    60.3732   -69.6716    37.9936
  793.0000    18.3451    15.4053    61.8620   -67.7135    32.6474
  793.5000    18.1963    14.9510    63.3546   -65.6060    29.0850
  794.0000    17.7484    14.4218    66.3434   -63.6478    22.5501
  794.5000    17.6746    13.9268    69.3360   -61.0582    11.8547
  795.0000    17.6764    13.7034    70.8248   -58.8359     9.1831
  795.5000    17.6026    13.7049    70.8099   -58.4256    18.2499
  796.0000    17.7543    13.7814    70.7950   -59.1499    20.1838
  796.5000    17.9807    13.9328    69.2763   -58.8579    12.3116
  797.0000    17.7573    14.0842    68.5094   -58.4027    16.0300
  797.5000    17.0841    14.3105    66.9907   -58.8431    13.9527
  798.0000    16.4859    14.7618    64.7202   -58.9851    10.5382
  798.5000    20.0856    15.0631    62.4496   -60.1715     0.0000
  799.0000    21.7363    15.3645    60.1790   -59.1193     4.4520
  799.5000    20.3884    15.6658    57.9084   -58.8134    12.4787
  800.0000    20.8597    16.1171    56.0497   -60.0000    24.8143
  800.5000    23.6917    16.5077    53.9744   -64.1726    19.7652
  801.0000    24.0695    16.9471    51.8309   -63.7189    21.9970
  801.5000    23.3228    17.3995    51.0564   -64.3100    18.7311
  802.0000    21.2269    18.0010    50.2820   -66.9905    16.5033
  802.5000    22.5792    18.3034    49.5076   -68.9264    17.2511
  803.0000    25.2059    18.5307    49.4851   -67.5756    21.8603
  803.5000    24.9090    18.6064    49.4625   -64.8831    27.3611
  804.0000    21.2389    18.3818    49.4400   -64.1323    23.3522
  804.5000    20.8670    18.0090    50.1750   -67.1099    20.6806
  805.0000    22.0694    17.7111    50.9043   -68.5965    13.9971
  805.5000    22.4472    17.4910    52.3799   -67.2473    15.0401
  806.0000    20.4263    17.3403    53.1149   -63.3607    26.4844
  806.5000    19.6039    17.1143    53.8442   -61.1159    28.3088
  807.0000    19.5319    16.5161    56.0773   -61.7070    24.1130
  807.5000    18.7861    15.9184    58.3048   -62.4473    22.7786
  808.0000    18.3385    15.3993    59.7917   -63.6353    21.9829
  808.5000    18.7921    15.2556    62.0248   -70.1965    20.8529
  809.0000    18.0454    15.0285    64.2522   -71.9816    17.5870
  809.5000    17.2988    14.7259    65.7334   -70.0353    16.1041
  810.0000    16.7021    14.2779    66.4684   -62.8652    27.5483
  810.5000    16.1804    13.8351    68.6959   -58.2323    24.4310
  811.0000    15.8085    13.5372    71.6809   -57.4801    24.5825
  811.5000    15.4367    13.3143    73.1677   -58.2204    26.9629
  812.0000    15.1399    13.1724    73.8971   -58.6637    16.7133
  812.5000    15.1429    13.2496    73.1170   -58.2085    16.0972
  813.0000    15.0702    13.3268    72.3426   -57.9040    19.9882
  813.5000    15.0739    13.3291    71.5682   -57.7502    27.4206
  814.0000    15.1519    13.4063    70.0419   -57.8935    28.6123
  814.5000    15.2298    13.5585    68.5156   -58.0368    23.8604
  815.0000    15.3827    13.6357    68.4930   -58.4771    19.8515
  815.5000    15.4607    13.7879    67.7186   -59.3667    24.9065
  816.0000    15.5387    13.8651    67.6961   -60.8532    25.2120
  816.5000    15.6916    13.9423    67.6736   -61.2965    25.6554
  817.0000    15.6946    13.9446    67.6510   -60.3935    27.1442
  817.5000    15.6976    13.9468    67.6285   -59.3428    30.1190
  818.0000    15.6248    13.9491    68.3635   -59.0383    28.4875
  818.5000    15.6286    13.9513    68.3353   -59.1831    30.1249
  819.0000    15.5559    13.9536    68.3128   -59.3264    31.0194
  819.5000    15.4847    13.9558    68.2902   -58.4234    25.5246
  820.0000    15.4877    13.8830    68.2677   -58.2682    32.3627
  820.5000    15.4149    13.8853    68.2451   -57.6652    31.6227
  821.0000    15.3437    13.8021    68.9801   -57.0622    35.7861
  821.5000    15.1968    13.6648    68.9519   -56.9070    29.8456
