~VERSION INFORMATION
 VERS.                2.0:   CWLS LOG ASCII STANDARD - VERSION 2.0
 WRAP.                 NO:   ONE LINE PER DEPTH STEP
~WELL INFORMATION
#MNEM.UNIT      DATA TYPE    INFORMATION
#----------   ------------   ------------------------------
 STRT.F           30.0000:   START DEPTH
 STOP.F          458.0000:   STOP DEPTH
 STEP.F            0.5000:   STEP LENGTH
 NULL.          -999.2500:   NO VALUE
 COMP. FENIX & SCISSON INC:   COMPANY
 WELL. NPR 3 #53 SX 10-10:   WELL
 FLD .             TEAPOT:   FIELD
 LOC .      S10 T38N R78W:   LOCATION
 CNTY.            NATRONA:   COUNTY
 STAT.            WYOMING:   STATE
 CTRY. UNITED STATES OF AMERICA:   COUNTRY
 SRVC.              Welex:   SERVICE COMPANY
 DATE.        16-APR-1977:   LOGDATE
 API .       490251033200:   API NUMBER
~CURVE INFORMATION
#MNEM.UNIT       API CODE    CURVE DESCRIPTION
#----------   ------------   ------------------------------
 DEPT.F                  :   
 SPR .MV     07 010 01 00:   SPONTANEOUS POTENTIAL FROM RES.
 ILD .OHMM   07 120 46 00:   INDUCTION LOG DEEP
 ILM .OHMM   07 120 44 00:   INDUCTION LOG MEDIUM
 SGRD.OHMM   07 220 05 00:   SHALLOW GUARD RESISTIVITY
 GRD .GAPI   45 310 01 00:   GAMMA RAY FROM DENSITY LOG
 CALD.IN     45 280 60 00:   CALIPER FROM DENSITY LOG
 CORR.G/C3   45 356 01 00:   DENSITY CORRECTION
 RHOB.G/C3   45 350 01 00:   BULK DENSITY
 DPHI.DEC    45 890 12 00:   DENSITY POROSITY SANDSTONE
~PARAMETER INFORMATION
#MNEM.UNIT          VALUE    DESCRIPTION
#----------   ------------   ------------------------------
 PD  .                 GL:   PERMANENT DATUM
 EPD .F              5180:   ELEVATION PERMANENT DATUM
 LMF .                 GL:   LOG MEASURED FROM
 DMF .                 GL:   DRILLING MEASURED FROM
 EGL .F              5180:   GROUND LEVEL
 DATE.        16-APR-1977:   RUN DATE
 RUN .                  1:   RUN NUMBER
 DD  .F               455:   DEPTH DRILLER
 DL  .F               461:   DEPTH LOGGER
 BLI .F               459:   BOTTOM LOG INTERVAL
 TLI .F                30:   TOP LOG INTERVAL
 CS  .IN            8.625:   CASING SIZE
 BS  .IN            7.875:   BIT SIZE
 BSD .F               455:   BIT SIZE AT DEPTH
 DFT .            KCL MUD:   DRILLING FLUID TYPE
 DFD .                8.9:   DRILLING FLUID DENSITY
 TCS .HRS            0600:   TIME CURCULATED STOPPED
 MRT .F                66:   MAXIMUM RECORDED TEMPERATURE
 ENGI.               DOAK:   RECORDING ENGINEER
 WITN.      B. HARRINGTON:   WITNESSED BY
 CLNT.            A2DTECH:   CLIENT CODE
 ORIG.           5" PRINT:   ORIGIN OF DATA
 UWI .       490251033200:   UNIQUE WELL ID
 DICO. A2D Technologies, Inc.:   DIGITIZING COMPANY
~OTHER INFORMATION
~A   DEPT      SPR        ILD        ILM       SGRD         GRD        CALD      CORR        RHOB     DPHI   
# ...
  212.5000   -47.4404     5.0254     5.8923     7.8914   126.9349     7.8367     0.0094     2.3735     0.1658
  213.0000   -47.4271     4.9946     5.4642     6.2407   123.2423     7.8237     0.0081     2.3698     0.1684
  213.5000   -47.4138     4.9283     5.4290     4.8339   119.6983     7.8256     0.0053     2.3729     0.1672
  214.0000   -47.4005     4.9663     5.6243     6.1305   118.9719     7.8275     0.0055     2.3902     0.1569
  214.5000   -46.9421     5.1442     6.2862    10.2792   120.4855     7.8444     0.0057     2.4091     0.1419
  215.0000   -46.7804     5.4401     6.8343    10.2135   123.1822     7.8391     0.0059     2.4219     0.1320
  215.5000   -46.4619     5.7930     7.1776    10.2177   126.4733     7.8335     0.0091     2.4333     0.1274
  216.0000   -46.1602     6.1263     7.3326    10.4361   129.6157     7.8355     0.0108     2.4393     0.1250
  216.5000   -46.1469     6.3457     7.4393    10.5858   131.1237     7.8373     0.0125     2.4424     0.1246
  217.0000   -46.1335     6.6186     7.3915    10.7376   130.5515     7.8393     0.0127     2.4425     0.1237
  217.5000   -46.2690     6.6227     7.2956    10.8166   128.7906     7.8415     0.0129     2.4396     0.1237
  218.0000   -46.5525     6.4460     7.1502    10.8210   125.6923     7.8434     0.0131     2.4336     0.1257
  218.5000   -46.6876     6.1452     7.1043    10.8255   126.4574     7.8453     0.0118     2.4239     0.1281
  219.0000   -46.9677     5.9813     7.2588    10.8299   125.8852     7.8472     0.0105     2.4165     0.1314
  219.5000   -47.3996     5.8208     6.8724    10.8344   125.2878     7.8491     0.0076     2.4098     0.1367
  220.0000   -47.8314     5.5885     6.4172    10.6163   128.1582     7.8511     0.0063     2.4039     0.1415
  220.5000   -48.1149     5.3278     5.9509     8.7512   128.9841     7.8381     0.0049     2.3984     0.1493
  221.0000   -48.2533     5.1856     5.6732     5.9440   127.9053     7.8400     0.0022     2.3973     0.1539
  221.5000   -48.2367     5.1168     5.5602     4.6041   127.1845     7.8121     0.0024     2.4056     0.1490
  222.0000   -47.9267     5.0847     5.6022     5.2891   125.7207     7.8140     0.0031     2.4239     0.1348
  222.5000   -47.7650     5.0886     6.0091    10.7119   122.1767     7.8160     0.0134     2.4486     0.1248
  223.0000   -47.7517     5.1626     6.2242    10.8656   124.3140     7.8179     0.0196     2.4644     0.1149
  223.5000   -47.5901     5.3107     6.3633     9.5318   127.7761     7.8198     0.0243     2.4713     0.1064
  224.0000   -47.2801     5.5009     6.5535     7.5379   129.8211     7.8217     0.0245     2.4623     0.1073
  224.5000   -47.1184     5.6979     7.0247    10.3649   121.5969     7.8236     0.0217     2.4624     0.1105
  225.0000   -46.8084     6.0257     7.4234    10.9589   117.1371     7.8554     0.0219     2.4662     0.1099
  225.5000   -46.4984     6.2445     7.7347    10.9727   114.8800     7.8573     0.0205     2.4685     0.1093
  226.0000   -46.4851     6.5130     8.1233    11.5919   116.0964     7.8741     0.0177     2.4596     0.1125
  226.5000   -46.4719     6.8894     8.5906    11.5967   117.7530     7.8611     0.0164     2.4567     0.1140
  227.0000   -46.4586     7.1378     9.3396    11.9268   114.9519     7.8630     0.0151     2.4598     0.1131
  227.5000   -46.4453     7.4552     9.4102    12.2674   111.7051     7.8352     0.0153     2.4658     0.1108
  228.0000   -46.4320     7.7588     8.9711    12.0205   107.2696     7.8222     0.0155     2.4689     0.1083
  228.5000   -46.4188     7.9813     8.3769    11.9414   108.4804     7.8244     0.0157     2.4712     0.1070
  229.0000   -46.4055     8.2102     8.7978    11.9475   110.2856     7.8263     0.0174     2.4743     0.1069
  229.5000   -46.3922     8.2152     9.3039    11.6263   112.6851     7.8281     0.0176     2.4759     0.1054
  230.0000   -46.5306     8.2203     8.8698    11.3127   119.2452     7.8300     0.0193     2.4722     0.1047
  230.5000   -46.3657     8.1124     8.6917    11.7166   121.9419     7.8320     0.0210     2.4715     0.1053
  231.0000   -46.5041     7.8960     9.1931    11.8847   121.5182     7.8342     0.0212     2.4716     0.1056
  231.5000   -46.4875     7.7912     9.5224    11.9720   119.9059     7.8361     0.0214     2.4724     0.1055
  232.0000   -46.4742     7.8513     9.6610    12.1438   119.6253     7.8380     0.0216     2.4766     0.1046
  232.5000   -46.3126     8.0208     9.2102    12.3179   120.3959     7.8399     0.0218     2.4801     0.1031
  233.0000   -46.2993     8.1375     9.2798    12.6686   121.1609     7.8418     0.0220     2.4794     0.1021
  233.5000   -46.2860     8.1990     9.7461    12.6738   122.3718     7.8438     0.0237     2.4757     0.1036
  234.0000   -46.2727     8.2041    10.3068    12.6790   125.2171     7.8457     0.0239     2.4721     0.1057
  234.5000   -46.2595     8.2091    10.0318    11.3557   127.7652     7.8476     0.0256     2.4676     0.1092
  235.0000   -46.2462     8.2142     9.6300    10.2411   125.4099     7.8495     0.0258     2.4640     0.1134
  235.5000   -46.2329     8.2193     9.4367    10.6058   122.3117     7.8514     0.0260     2.4573     0.1149
  236.0000   -46.2196     8.0555    10.4761    11.9344   120.4468     7.8534     0.0246     2.4491     0.1148
  236.5000   -46.2062     8.0049    11.4685    13.0623   122.9503     7.8553     0.0233     2.4544     0.1151
  237.0000   -46.1929     7.8999    12.4684    14.0032   125.0526     7.8423     0.0235     2.4583     0.1163
  237.5000   -46.1795     7.6891    13.2772    14.1061   123.1431     7.8442     0.0252     2.4531     0.1199
  238.0000   -46.1662     7.4324    13.6580    14.2098   122.4223     7.8461     0.0269     2.4344     0.1291
  238.5000   -46.1528     7.0368    13.2020    14.6144   122.1471     7.8481     0.0271     2.4112     0.1351
  239.0000   -46.1395     6.8018    12.2405    13.8336   122.4676     7.8500     0.0212     2.3947     0.1458
  239.5000   -46.1261     6.5294    10.5762     7.9593   122.7969     7.8519     0.0140     2.3700     0.1698
  240.0000   -46.1101     6.3993     8.9518     5.0449   123.7098     7.8538     0.0094     2.3626     0.1722
  240.5000   -46.0968     6.4033     8.1003     4.8414   125.2511     7.8557     0.0038     2.3664     0.1689
  241.0000   -45.9352     6.4518     9.0940    11.9010   122.0515     7.8577     0.0025     2.3954     0.1538
  241.5000   -45.6252     6.5006    10.1524    15.4837   115.9792     7.8596     0.0103     2.4541     0.1225
  242.0000   -45.4635     6.6932    11.2909    15.0675   110.5192     7.8468     0.0195     2.4830     0.1000
  242.5000   -45.4503     7.0312    12.9971    14.8651   107.3223     7.8488     0.0242     2.4854     0.0975
  243.0000   -45.2886     7.4796    13.8401    15.5028   106.0071     7.8506     0.0259     2.4854     0.0975
  243.5000   -44.9786     7.9099    14.0415    15.9441   107.2180     7.8377     0.0230     2.4863     0.0966
  244.0000   -44.9653     8.3073    13.7596    15.9506   109.6175     7.8247     0.0233     2.4878     0.0953
  244.5000   -44.9520     8.6048    14.0589    15.9572   110.9769     7.8269     0.0235     2.4887     0.0954
  245.0000   -44.7904     9.0371    14.6635    15.9638   111.7365     7.8288     0.0267     2.4869     0.0965
  245.5000   -44.4804     9.3608    14.1718    15.9703   108.6438     7.8307     0.0284     2.4836     0.0979
  246.0000   -44.1704     9.8993    15.4097    15.9784   107.9174     7.8177     0.0301     2.4799     0.1033
  246.5000   -44.0087    10.1832    14.9986    16.3246   108.5394     7.8047     0.0318     2.4725     0.1111
  247.0000   -43.6987    10.7690    14.4956    16.6892   109.2989     7.7918     0.0350     2.4635     0.1152
  247.5000   -43.5371    11.6273    15.4383    17.8284   102.9373     7.7937     0.0367     2.4546     0.1176
  248.0000   -43.2271    12.9060    17.8620    21.4316    92.7068     7.7956     0.0414     2.4449     0.1224
  248.5000   -43.0654    13.9345    19.8264    30.8826    71.3322     7.7975     0.0431     2.4337     0.1262
