~VERSION INFORMATION
 VERS.                2.0:   CWLS LOG ASCII STANDARD - VERSION 2.0
 WRAP.                 NO:   ONE LINE PER DEPTH STEP
~WELL INFORMATION
#MNEM.UNIT      DATA TYPE    INFORMATION
#----------   ------------   ------------------------------
 STRT.F          748.0000:   START DEPTH
 STOP.F         2238.0000:   STOP DEPTH
 STEP.F            0.5000:   STEP LENGTH
 NULL.          -999.2500:   NO VALUE
 COMP. LAWRENCE/ALLISON INC:   COMPANY
 WELL. NPR 3 #36-2-SHX-10:   WELL
 FLD .             TEAPOT:   FIELD
 LOC .      S10 T38N R78W:   LOCATION
 CNTY.            NATRONA:   COUNTY
 STAT.            WYOMING:   STATE
 CTRY. UNITED STATES OF AMERICA:   COUNTRY
 SRVC.            Unknown:   SERVICE COMPANY
 DATE.        02-JUN-1984:   LOGDATE
 API .       490256012900:   API NUMBER
~CURVE INFORMATION
#MNEM.UNIT       API CODE    CURVE DESCRIPTION
#----------   ------------   ------------------------------
 DEPT.F                  :   
 ROP .MIN/FT 91 810 01 00:   RATE OF DRILLING PENETRATION
 TGAS.UNITS  91 830 01 00:   TOTAL GAS FROM HOTWIRE
~PARAMETER INFORMATION
#MNEM.UNIT          VALUE    DESCRIPTION
#----------   ------------   ------------------------------
 EKB .F              5223:   KELLING BUSHING
 EGL .F              5213:   GROUND LEVEL
 DATE.             6-2-84:   RUN DATE
 DD  .F              2238:   DEPTH DRILLER
 BLI .F              2238:   BOTTOM LOG INTERVAL
 TLI .F               740:   TOP LOG INTERVAL
 CS  .IN            8.625:   CASING SIZE
 CBD .F               717:   CASING BOTTOM DRILLER
 LUN .               T-83:   LOGGING UNIT NUMBER
 ENGI.            JOHNSON:   RECORDING ENGINEER
 WITN.           SCHERGER:   WITNESSED BY
 CLNT.            A2DTECH:   CLIENT CODE
 ORIG.           5" PRINT:   ORIGIN OF DATA
 UWI .       490256012900:   UNIQUE WELL ID
 DICO. A2D Technologies, Inc.:   DIGITIZING COMPANY
~OTHER INFORMATION
~A   DEPT        ROP     TGAS   
# ...
 1234.0000     1.3696   106.9839
 1234.5000     1.3093   110.1337
 1235.0000     1.2287   111.2024
 1235.5000     1.1278   113.3106
 1236.0000     1.0470   114.3792
 1236.5000     1.0071   115.4479
 1237.0000     0.9875   118.5977
 1237.5000     1.0494   118.6247
 1238.0000     1.0501   118.6475
 1238.5000     1.0711   118.6766
 1239.0000     1.1329   119.7431
 1239.5000     1.1539   118.7201
 1240.0000     1.2359   118.7533
 1240.5000     1.3382   118.7761
 1241.0000     1.4609   118.8072
 1241.5000     1.5022   118.8321
 1242.0000     1.4621   118.8591
 1242.5000     1.3004   118.8840
 1243.0000     1.1384   118.9089
 1243.5000     1.0578   117.8942
 1244.0000     1.0587   117.9212
 1244.5000     1.1406   117.9460
 1245.0000     1.2227   119.0126
 1245.5000     1.3656   119.0416
 1246.0000     1.4680   119.0665
 1246.5000     1.5500   119.0935
 1247.0000     1.5711   119.1184
 1247.5000     1.5512   119.1453
 1248.0000     1.4099   119.1702
 1248.5000     1.2886   119.1972
 1249.0000     1.0861   120.2638
 1249.5000     0.9038   120.2907
 1250.0000     0.8231   120.3177
 1250.5000     0.8240   119.2926
 1251.0000     0.8654   119.3258
 1251.5000     0.9677   119.3528
 1252.0000     1.0306   119.3797
 1252.5000     1.0369   119.4046
 1253.0000     1.0433   119.4316
 1253.5000     1.0496   119.4565
 1254.0000     1.0559   119.4834
 1254.5000     1.0622   119.5104
 1255.0000     1.0685   119.5353
 1255.5000     1.0750   119.5623
 1256.0000     1.1367   119.5851
 1256.5000     1.2187   118.5662
 1257.0000     1.2601   116.5078
 1257.5000     1.3218   116.5410
 1258.0000     1.3225   116.5659
 1258.5000     1.2417   116.5928
 1259.0000     1.1409   115.5781
 1259.5000     1.0197   115.6030
 1260.0000     0.9916   115.6300
 1260.5000     0.9782   114.6111
 1261.0000     0.9648   114.6402
 1261.5000     0.9514   114.6651
 1262.0000     0.9216   112.6004
 1262.5000     0.8409   112.6336
 1263.0000     0.7603   111.6106
 1263.5000     0.7406   124.0001
 1264.0000     0.7453   289.8957
 1264.5000     0.7506   225.2986
 1265.0000     0.7559   160.7015
 1265.5000     0.7613   137.7829
 1266.0000     0.7666   133.6474
 1266.5000     0.7719   131.5910
 1267.0000     0.7772   128.4888
 1267.5000     0.7825   126.4366
 1268.0000     0.7878   125.4115
 1268.5000     0.7931   124.3968
 1269.0000     0.7984   124.4321
 1269.5000     0.8037   124.4570
 1270.0000     0.8090   124.4839
 1270.5000     0.8143   124.5088
 1271.0000     0.8196   124.5358
 1271.5000     0.8249   124.5607
 1272.0000     0.8302   124.5877
 1272.5000     0.8355   124.6125
 1273.0000     0.8408   124.6395
 1273.5000     0.8461   124.6665
 1274.0000     0.8514   123.6435
 1274.5000     0.8567   124.7183
 1275.0000     0.8589   124.7432
 1275.5000     0.8595   126.8535
 1276.0000     0.8603   128.9617
 1276.5000     0.9017   128.9887
 1277.0000     0.9430   129.0136
 1277.5000     0.9641   129.0406
 1278.0000     1.0257   125.9363
 1278.5000     1.0468   124.9174
 1279.0000     1.1084   124.9527
 1279.5000     1.2108   121.8484
 1280.0000     1.3741   121.8796
 1280.5000     1.5374   120.8545
 1281.0000     1.8227   120.8897
 1281.5000     2.0876   120.9146
 1282.0000     1.9257   120.9416
 1282.5000     1.7842   120.9686
 1283.0000     1.6222   122.0351
 1283.5000     1.4603   125.1871
 1284.0000     1.2984   125.2120
 1284.5000     1.1365   126.2806
 1285.0000     0.9746   129.4305
 1285.5000     0.8128   128.4075
 1286.0000     0.9404   126.3491
 1286.5000     1.0390   125.3344
 1287.0000     1.1375   124.3279
 1287.5000     1.2361   122.2633
 1288.0000     1.2432   121.2507
 1288.5000     1.1662   121.2797
 1289.0000     1.0892   119.2233
 1289.5000     1.0597   118.1983
 1290.0000     1.0550   118.2335
 1290.5000     1.0504   117.2085
 1291.0000     1.0458   117.2437
 1291.5000     1.0411   117.2707
 1292.0000     1.0365   117.2956
 1292.5000     1.0318   117.3225
 1293.0000     1.0267   117.3474
 1293.5000     0.9847   218.4905
 1294.0000     0.9380   284.9437
 1294.5000     0.8913   209.9936
 1295.0000     0.8445   125.7845
 1295.5000     0.8065   121.6385
 1296.0000     0.8073   118.5384
 1296.5000     0.8080   117.5217
 1297.0000     0.8087   114.4257
 1297.5000     0.8095   113.4068
 1298.0000     0.8102   113.4421
 1298.5000     0.8109   113.4670
 1299.0000     0.8116   112.4461
 1299.5000     0.8123   112.4772
 1300.0000     0.8130   113.5458
 1300.5000     0.8137   113.5728
 1301.0000     0.8144   113.5977
 1301.5000     0.8151   112.5809
 1302.0000     0.8159   112.6079
 1302.5000     0.8166   112.6348
 1303.0000     0.8173   112.6597
 1303.5000     0.8180   113.7283
 1304.0000     0.8187   113.7532
 1304.5000     0.8194   113.7648
 1305.0000     0.8201   113.7779
 1305.5000     0.8208   113.7911
 1306.0000     0.8215   113.8043
 1306.5000     0.8223   113.8174
 1307.0000     0.8230   112.7875
 1307.5000     0.8237   112.8161
 1308.0000     1.3120   112.8363
 1308.5000     1.6179   112.8582
 1309.0000     1.6186   112.8783
 1309.5000     1.6396   112.8985
 1310.0000     1.6403   112.9204
 1310.5000     1.6205   112.9405
 1311.0000     1.5604   112.9607
 1311.5000     1.5407   112.9809
 1312.0000     1.4804   113.0011
 1312.5000     1.4607   113.0229
 1313.0000     1.4617   113.0448
 1313.5000     1.4624   113.0650
 1314.0000     1.4631   113.0852
 1314.5000     1.4842   113.1070
 1315.0000     1.6271   113.1289
 1315.5000     1.7702   113.1474
 1316.0000     1.8115   113.1692
 1316.5000     1.7916   114.2327
 1317.0000     1.6707   114.2529
 1317.5000     1.5493   114.2748
 1318.0000     1.4693   114.2950
 1318.5000     1.4717   114.3135
 1319.0000     1.4741   114.3370
 1319.5000     1.4765   114.3572
 1320.0000     1.4790   113.3306
 1320.5000     1.4814   113.3576
 1321.0000     1.4838   112.3293
 1321.5000     1.4862   111.3095
 1322.0000     1.4886   112.3781
 1322.5000     1.4910   113.4416
 1323.0000     1.4934   113.4618
 1323.5000     1.4958   113.4820
 1324.0000     1.4163   113.5038
 1324.5000     1.2341   113.5240
 1325.0000     1.0722   113.5442
 1325.5000     0.9306   113.5660
 1326.0000     0.8296   209.5094
 1326.5000     0.7289   292.7747
 1327.0000     0.6483   295.9199
 1327.5000     0.5271   292.8117
 1328.0000     0.4668   269.6205
 1328.5000     0.4064   114.7252
 1329.0000     0.3056   114.5345
 1329.5000     0.2654   114.3437
 1330.0000     0.2052   114.1530
 1330.5000     0.2082   113.9622
 1331.0000     0.2115   113.7715
 1331.5000     0.2147   113.5808
 1332.0000     0.2179   113.3900
 1332.5000     0.2212   113.1993
 1333.0000     0.2244   113.0085
 1333.5000     0.2277   112.8178
 1334.0000     0.2309   112.6270
 1334.5000     0.2341   112.4363
 1335.0000     0.2374   112.2455
 1335.5000     0.2406   112.0548
 1336.0000     0.2438   152.6494
 1336.5000     0.2471   323.3967
 1337.0000     0.2503   280.9321
 1337.5000     0.2536   236.5721
 1338.0000     0.2568   192.2122
 1338.5000     0.6037   147.8523
 1339.0000     0.8483   119.0361
 1339.5000     1.1132   118.2243
 1340.0000     1.3578   117.4125
 1340.5000     1.4398   116.6007
 1341.0000     1.3593   115.7889
 1341.5000     1.2582   114.9771
 1342.0000     1.1168   114.1653
 1342.5000     1.0969   113.3535
 1343.0000     1.1182   112.5417
 1343.5000     1.2612   111.7299
 1344.0000     1.3229   135.6013
 1344.5000     1.2828   218.5247
 1345.0000     1.1007   165.4124
 1345.5000     0.9387   113.3981
 1346.0000     0.7769   113.6377
 1346.5000     0.9192   113.8773
 1347.0000     1.0975   114.1169
 1347.5000     1.2758   114.3565
 1348.0000     1.4540   114.5026
 1348.5000     1.3699   114.5245
 1349.0000     1.2689   118.7113
 1349.5000     1.1681   122.8999
 1350.0000     1.1076   127.0867
 1350.5000     1.1695   129.1902
 1351.0000     1.2922   127.1220
 1351.5000     1.4149   122.9755
 1352.0000     1.4562   123.0041
 1352.5000     1.4363   124.0659
 1353.0000     1.3559   127.2111
 1353.5000     1.2752   122.0246
 1354.0000     1.2150   118.9131
 1354.5000     1.2768   117.8933
 1355.0000     1.3588   118.9619
