~VERSION INFORMATION
 VERS.                2.0:   CWLS LOG ASCII STANDARD - VERSION 2.0
 WRAP.                 NO:   ONE LINE PER DEPTH STEP
~WELL INFORMATION
#MNEM.UNIT      DATA TYPE    INFORMATION
#----------   ------------   ------------------------------
 STRT.F           57.5000:   START DEPTH
 STOP.F         4049.0000:   STOP DEPTH
 STEP.F            0.5000:   STEP LENGTH
 NULL.          -999.2500:   NO VALUE
 COMP. LAWRENCE/ALLISON INC:   COMPANY
 WELL.     NPR #3` #13-11:   WELL
 FLD .             NPR #3:   FIELD
 LOC .      S11 T38N R78W:   LOCATION
 CNTY.            NATRONA:   COUNTY
 STAT.            WYOMING:   STATE
 CTRY. UNITED STATES OF AMERICA:   COUNTRY
 SRVC.      Dresser Atlas:   SERVICE COMPANY
 DATE.        13-MAR-1986:   LOGDATE
 API .       490251106500:   API NUMBER
~CURVE INFORMATION
#MNEM.UNIT       API CODE    CURVE DESCRIPTION
#----------   ------------   ------------------------------
 DEPT.F                  :   
 CALR.IN     07 280 01 00:   CALIPER FROM RESISTIVITY
 GRR .GAPI   07 310 01 00:   GAMMA RAY FROM RESISTIVITY
 RILD.OHMM   07 120 46 00:   RESISTIVITY INDUCTION LOG DEEP
 RILM.OHMM   07 120 44 00:   RESISTIVITY INDUCTION LOG MEDIUM
 RFOC.OHMM   07 220 04 00:   RESISTIVITY FOCUSED LOG
 SPR .MV     07 010 01 00:   SPONTANEOUS POTENTIAL FROM RES.
 PORD.DEC    45 890 12 00:   POROSITY DENSITY SANDSTONE
 CNC .DEC    42 890 03 00:   COMPENSATED NEUTRON POROSITY SANDSTONE
 CORR.G/C3   45 356 01 00:   DENSITY CORRECTION
 DEN .G/C3   45 350 01 00:   COMPENSATED BULK DENSTIY
 DT  .US/F   60 520 00 00:   INTERVAL TRANSIT TIME
~PARAMETER INFORMATION
#MNEM.UNIT          VALUE    DESCRIPTION
#----------   ------------   ------------------------------
 PD  .                 GL:   PERMANENT DATUM
 EPD .F              5176:   ELEVATION PERMANENT DATUM
 LMF .                 KB:   LOG MEASURED FROM
 DAPD.F              11.8:   FEET ABOVE PERMANENT DATUM
 DMF .                 KB:   DRILLING MEASURED FROM
 EKB .F            5187.8:   KELLING BUSHING
 EGL .F              5176:   GROUND LEVEL
 DATE.        13-MAR-1986:   RUN DATE
 RUN .                  1:   RUN NUMBER
 DD  .F              4051:   DEPTH DRILLER
 DL  .F              4051:   DEPTH LOGGER
 BLI .F              4049:   BOTTOM LOG INTERVAL
 TLI .F               564:   TOP LOG INTERVAL
 CS  .IN            8.625:   CASING SIZE
 CBD .F               564:   CASING BOTTOM DRILLER
 CBL .F               564:   CASING BOTTOM LOGGER
 BS  .IN            7.875:   BIT SIZE
 BSD .F              4051:   BIT SIZE AT DEPTH
 DFT .          POLY- KCL:   DRILLING FLUID TYPE
 DFD .                8.9:   DRILLING FLUID DENSITY
 DFV .                 36:   DRILLING FLUID VISCOSITY
 DFPH.                8.5:   DRILLING FLUID PH
 DFL .               13.5:   DRILLING FLUID LOSS
 MSS .           FLOWLINE:   MUD SAMPLE SOURCE
 RMS .OHMM           .275:   RESISTIVITY MUD SAMPLE
 MST .F                55:   MUD SAMPLE TEMPERATURE
 RMF .OHMM           .206:   RESISTIVITY MUD FILTRATE SAMPLE
 MFST.F                55:   MUD FILTRATE SAMPLE TEMPERATURE
 RMC .OHMM           .344:   RESISTIVITY MUD CAKE
 MCST.F                55:   MUD CAKE SAMPLE TEMPERATURE
 MFSS.               CALC:   MUD FILTRATE SAMPLE SOURCE
 MCSS.               CALC:   MUD CAKE SAMPLE SOURCE
 RMB .OHMM           .092:   RESISTIVITY MUD AT BHT
 BHT .F               164:   BOTTOM HOLE TEMPERATURE
 TCS .HRS            0400:   TIME CURCULATED STOPPED
 MRT .F               164:   MAXIMUM RECORDED TEMPERATURE
 LUN .               6274:   LOGGING UNIT NUMBER
 LUL .           GILLETTE:   LOGGING UNIT LOCATION
 ENGI.             MILLER:   RECORDING ENGINEER
 WITN.             STRONG:   WITNESSED BY
 CLNT.            A2DTECH:   CLIENT CODE
 ORIG.         2.5" PRINT:   ORIGIN OF DATA
 UWI .       490251106500:   UNIQUE WELL ID
 DICO. A2D Technologies, Inc.:   DIGITIZING COMPANY
~OTHER INFORMATION
~A   DEPT     CALR         GRR      RILD       RILM       RFOC        SPR       PORD        CNC       CORR        DEN         DT   
# ...
 1491.0000    11.3932    91.0571     6.8235     6.6987     6.6854   -53.0213  -999.2500  -999.2500  -999.2500  -999.2500  -999.2500
 1491.5000    11.3926    90.8492     6.9102     6.7981     6.8157   -53.0229  -999.2500  -999.2500  -999.2500  -999.2500  -999.2500
 1492.0000    11.3614    92.0731     7.0069     6.8932     6.9695   -53.0244  -999.2500  -999.2500  -999.2500  -999.2500  -999.2500
 1492.5000    11.3607    93.9105     7.0069     6.9847     7.0668   -53.0259  -999.2500  -999.2500  -999.2500  -999.2500  -999.2500
 1493.0000    11.3601    97.5884     7.1049     6.9802     7.0298   -53.0274  -999.2500  -999.2500  -999.2500  -999.2500  -999.2500
 1493.5000    11.3289    98.6086     7.1049     6.8839     6.9695   -52.7238  -999.2500  -999.2500  -999.2500  -999.2500  -999.2500
 1494.0000    11.3283    92.6743     7.1049     6.6987     6.9695   -52.7256  -999.2500  -999.2500  -999.2500  -999.2500  -999.2500
 1494.5000    11.3277    90.2173     7.1049     6.6060     6.9695   -52.8287  -999.2500  -999.2500  -999.2500  -999.2500  -999.2500
 1495.0000    11.3271    88.9872     7.1049     6.5087     6.9695   -53.0335  -999.2500  -999.2500  -999.2500  -999.2500  -999.2500
 1495.5000    11.3265    87.7572     7.1005     6.2479     6.9695   -53.0351  -999.2500  -999.2500  -999.2500  -999.2500  -999.2500
 1496.0000    11.3259    87.7541     7.0069     6.2456     6.9695   -53.0366  -999.2500  -999.2500  -999.2500  -999.2500  -999.2500
 1496.5000    11.3253    88.3645     6.9102     6.1615     6.8734   -53.0381  -999.2500  -999.2500  -999.2500  -999.2500  -999.2500
 1497.0000    11.3247    90.2019     6.9073     6.2479     6.8734   -52.9380  -999.2500  -999.2500  -999.2500  -999.2500  -999.2500
 1497.5000    11.3241    90.8129     6.8149     6.3371     6.9070   -52.7360  -999.2500  -999.2500  -999.2500  -999.2500  -999.2500
 1498.0000    11.3234    90.1958     6.8149     6.6073     6.9695   -52.7378  -999.2500  -999.2500  -999.2500  -999.2500  -999.2500
 1498.5000    11.3530    87.7388     6.9102     6.7936     6.9695   -52.7393  -999.2500  -999.2500  -999.2500  -999.2500  -999.2500
 1499.0000    11.3219    85.8952     6.9112     6.9847     7.0668   -52.7409  -999.2500  -999.2500  -999.2500  -999.2500  -999.2500
 1499.5000    11.3215    85.8921     7.1049     7.0827     7.1992   -52.7424  -999.2500  -999.2500  -999.2500  -999.2500  -999.2500
 1500.0000    11.3210    86.5031     7.0069     7.1821     7.2656   -52.8195  -999.2500  -999.2500  -999.2500  -999.2500  -999.2500
 1500.5000    11.3206    90.7940     6.9117     7.0827     7.0674   -53.0457  -999.2500  -999.2500  -999.2500  -999.2500  -999.2500
 1501.0000    11.3507    94.4719     6.9131     6.9847     6.8745   -53.0427  -999.2500  -999.2500  -999.2500  -999.2500  -999.2500
 1501.5000    11.3502    91.4013     6.9145     6.6987     6.6869   -53.0396  -999.2500  -999.2500  -999.2500  -999.2500  -999.2500
 1502.0000    11.3498    88.9443     6.8206     6.6987     6.6873   -53.0366  -999.2500  -999.2500  -999.2500  -999.2500  -999.2500
 1502.5000    11.3493    88.3277     6.8220     6.6987     6.6878   -52.7286  -999.2500  -999.2500  -999.2500  -999.2500  -999.2500
 1503.0000    11.3794    88.9382     6.7293     6.7927     6.6882   -52.7256  -999.2500  -999.2500  -999.2500  -999.2500  -999.2500
 1503.5000    11.3790    91.3891     6.7307     6.9847     6.6887   -53.0274  -999.2500  -999.2500  -999.2500  -999.2500  -999.2500
 1504.0000    11.3785    95.0670     6.7321     6.9847     6.7826   -53.0244  -999.2500  -999.2500  -999.2500  -999.2500  -999.2500
 1504.5000    11.3475    99.3584     6.7335     7.1821     7.0713   -53.3262  -999.2500  -999.2500  -999.2500  -999.2500  -999.2500
 1505.0000    11.3164   101.1964     6.9246     7.4887     7.3723   -54.2378  -999.2500  -999.2500  -999.2500  -999.2500  -999.2500
 1505.5000    11.2854    99.9658     7.1212     7.7003     7.7934   -54.5396  -999.2500  -999.2500  -999.2500  -999.2500  -999.2500
 1506.0000    11.2238    97.5088     7.3234     7.4887     7.6866   -54.8415  -999.2500  -999.2500  -999.2500  -999.2500  -999.2500
 1506.5000    11.2233    95.0517     7.2238     7.3850     7.1721   -54.8383  -999.2500  -999.2500  -999.2500  -999.2500  -999.2500
 1507.0000    11.2229    93.6463     7.1257     7.0827     7.0737   -54.5304  -999.2500  -999.2500  -999.2500  -999.2500  -999.2500
 1507.5000    11.1918    95.6595     7.0288     7.0827     6.9767   -54.5274  -999.2500  -999.2500  -999.2500  -999.2500  -999.2500
 1508.0000    11.1914    93.8155     6.9333     6.9847     7.0747   -54.2194  -999.2500  -999.2500  -999.2500  -999.2500  -999.2500
 1508.5000    11.1909    90.7450     6.9347     6.9847     7.0752   -54.2164  -999.2500  -999.2500  -999.2500  -999.2500  -999.2500
 1509.0000    11.1905    90.7419     6.8405     6.8880     7.0757   -53.6036  -999.2500  -999.2500  -999.2500  -999.2500  -999.2500
 1509.5000    11.1900    93.8063     6.7475     6.8880     7.0762   -53.2956  -999.2500  -999.2500  -999.2500  -999.2500  -999.2500
 1510.0000    11.1895    95.0307     6.7489     6.8880     7.0767   -53.2926  -999.2500  -999.2500  -999.2500  -999.2500  -999.2500
 1510.5000    11.2197    93.1867     6.7503     6.8880     7.0772   -53.2895  -999.2500  -999.2500  -999.2500  -999.2500  -999.2500
 1511.0000    11.2192    91.9566     6.7517     6.8880     6.9802   -53.2865  -999.2500  -999.2500  -999.2500  -999.2500  -999.2500
 1511.5000    11.2187    93.1806     6.8476     6.8880     6.8845   -53.2834  -999.2500  -999.2500  -999.2500  -999.2500  -999.2500
 1512.0000    11.2183    92.5640     6.8490     6.9847     6.7901   -53.5852  -999.2500  -999.2500  -999.2500  -999.2500  -999.2500
 1512.5000    11.2178    90.1070     6.9463     6.9847     6.6970   -54.1919  -999.2500  -999.2500  -999.2500  -999.2500  -999.2500
 1513.0000    11.2174    88.2634     6.9478     6.9847     6.7911   -54.4938  -999.2500  -999.2500  -999.2500  -999.2500  -999.2500
 1513.5000    11.2169    87.0334     7.0464     6.9847     6.9826   -54.4907  -999.2500  -999.2500  -999.2500  -999.2500  -999.2500
 1514.0000    11.2164    87.0303     7.1465     7.0827     7.0806   -54.4877  -999.2500  -999.2500  -999.2500  -999.2500  -999.2500
 1514.5000    11.2160    87.6411     7.1480     7.2828     7.1800   -54.4846  -999.2500  -999.2500  -999.2500  -999.2500  -999.2500
 1515.0000    11.2155    88.8647     7.1495     7.3850     7.3825   -54.4816  -999.2500  -999.2500  -999.2500  -999.2500  -999.2500
 1515.5000    11.2151    90.7021     7.2510     7.4887     7.4862   -54.4785  -999.2500  -999.2500  -999.2500  -999.2500  -999.2500
 1516.0000    11.1840    90.6990     7.2525     7.4887     7.5912   -54.4754  -999.2500  -999.2500  -999.2500  -999.2500  -999.2500
 1516.5000    11.1836    90.6960     7.2540     7.4887     7.5918   -54.4724  -999.2500  -999.2500  -999.2500  -999.2500  -999.2500
 1517.0000    11.1831    90.6929     7.3570     7.4887     7.5923   -54.4693  -999.2500  -999.2500  -999.2500  -999.2500  -999.2500
 1517.5000    11.1827    91.9168     7.3585     7.4887     7.5928   -54.7712  -999.2500  -999.2500  -999.2500  -999.2500  -999.2500
 1518.0000    11.1822    91.3003     7.3601     7.4887     7.5934   -54.7681  -999.2500  -999.2500  -999.2500  -999.2500  -999.2500
 1518.5000    11.1817    91.2972     7.4646     7.4887     7.5939   -54.7651  -999.2500  -999.2500  -999.2500  -999.2500  -999.2500
 1519.0000    11.1813    90.6807     7.4661     7.5937     7.5944   -54.7620  -999.2500  -999.2500  -999.2500  -999.2500  -999.2500
 1519.5000    11.1808    90.6776     7.4677     7.7003     7.7010   -54.4541  -999.2500  -999.2500  -999.2500  -999.2500  -999.2500
 1520.0000    11.1804    90.6745     7.4693     7.8083     7.7014   -54.4510  -999.2500  -999.2500  -999.2500  -999.2500  -999.2500
 1520.5000    11.1799    90.6715     7.4708     7.8083     7.8096   -54.4480  -999.2500  -999.2500  -999.2500  -999.2500  -999.2500
 1521.0000    11.1795    88.2144     7.5769     7.9179     7.9192   -54.4449  -999.2500  -999.2500  -999.2500  -999.2500  -999.2500
