~VERSION INFORMATION
 VERS.                2.0:   CWLS LOG ASCII STANDARD - VERSION 2.0
 WRAP.                 NO:   ONE LINE PER DEPTH STEP
~WELL INFORMATION
#MNEM.UNIT      DATA TYPE    INFORMATION
#----------   ------------   ------------------------------
 STRT.F            8.5000:   START DEPTH
 STOP.F          642.0000:   STOP DEPTH
 STEP.F            0.5000:   STEP LENGTH
 NULL.          -999.2500:   NO VALUE
 COMP. FENIX & SCISSON INC:   COMPANY
 WELL. 26-36 S11 W1 #26-36 SX11:   WELL
 FLD .             TEAPOT:   FIELD
 LOC .      S11 T38N R78W:   LOCATION
 CNTY.            NATRONA:   COUNTY
 STAT.            WYOMING:   STATE
 CTRY. UNITED STATES OF AMERICA:   COUNTRY
 SRVC.      Dresser Atlas:   SERVICE COMPANY
 DATE.        16-JUL-1980:   LOGDATE
 API .       490251083500:   API NUMBER
~CURVE INFORMATION
#MNEM.UNIT       API CODE    CURVE DESCRIPTION
#----------   ------------   ------------------------------
 DEPT.F                  :   
 NPHI.DEC    42 890 03 00:   NEUTRON POROSITY SANDSTONE
 RHOB.G/C3   45 350 01 00:   BULK DENSITY
 CORR.G/C3   45 356 01 00:   DENSITY CORRECTION
 GRD .GAPI   45 310 01 00:   GAMMA RAY FROM DENSITY LOG
 CALD.IN     45 280 60 00:   CALIPER
 SPR .MV     07 010 01 00:   SPONTANEOUS POTENTIAL
 SFL .OHMM   07 220 01 00:   SHALLOW FOCUSED LOG RESISTIVITY
 ILD .OHMM   07 120 46 00:   INDUCTION LOG DEEP
 ILM .OHMM   07 120 44 00:   INDUCTION LOG MEDIUM
 DPHI.DEC    45 890 12 00:   DENSITY POROSITY SANDSTONE
~PARAMETER INFORMATION
#MNEM.UNIT          VALUE    DESCRIPTION
#----------   ------------   ------------------------------
 PD  .                 GL:   PERMANENT DATUM
 EPD .F              5184:   ELEVATION PERMANENT DATUM
 LMF .                 KB:   LOG MEASURED FROM
 DAPD.F                 5:   FEET ABOVE PERMANENT DATUM
 DMF .                 KB:   DRILLING MEASURED FROM
 EKB .F              5189:   KELLING BUSHING
 EGL .F              5184:   GROUND LEVEL
 DATE.            7-16-80:   RUN DATE
 RUN .                  1:   RUN NUMBER
 DD  .F               630:   DEPTH DRILLER
 DL  .F               637:   DEPTH LOGGER
 BLI .F               635:   BOTTOM LOG INTERVAL
 TLI .F                 8:   TOP LOG INTERVAL
 BS  .IN            7.875:   BIT SIZE
 BSD .F               630:   BIT SIZE AT DEPTH
 DFT .           CHEM GEL:   DRILLING FLUID TYPE
 DFD .                9.2:   DRILLING FLUID DENSITY
 DFV .                 65:   DRILLING FLUID VISCOSITY
 DFPH.                 10:   DRILLING FLUID PH
 DFL .                  8:   DRILLING FLUID LOSS
 MSS .           FLOWLINE:   MUD SAMPLE SOURCE
 RMS .OHMM            .61:   RESISTIVITY MUD SAMPLE
 MST .F                60:   MUD SAMPLE TEMPERATURE
 RMC .OHMM            .62:   RESISTIVITY MUD CAKE
 MCST.F                58:   MUD CAKE SAMPLE TEMPERATURE
 MFSS.               MEAS:   MUD FILTRATE SAMPLE SOURCE
 MCSS.               MEAS:   MUD CAKE SAMPLE SOURCE
 RMB .OHMM            .41:   RESISTIVITY MUD AT BHT
 BHT .F                90:   BOTTOM HOLE TEMPERATURE
 TCS .HRS               5:   TIME CURCULATED STOPPED
 MRT .F                90:   MAXIMUM RECORDED TEMPERATURE
 LUN .               6109:   LOGGING UNIT NUMBER
 LUL .              GLTTE:   LOGGING UNIT LOCATION
 ENGI.            GARONER:   RECORDING ENGINEER
 WITN.              AMEND:   WITNESSED BY
 CLNT.            A2DTECH:   CLIENT CODE
 ORIG.           5" PRINT:   ORIGIN OF DATA
 UWI .       490251083500:   UNIQUE WELL ID
 DICO. A2D Technologies, Inc.:   DIGITIZING COMPANY
~OTHER INFORMATION
~A    DEPT    NPHI       RHOB       CORR        GRD       CALD        SPR        SFL          ILD      ILM       DPHI   
# ...
  109.0000     0.2974     2.4973     0.0240    81.1084     7.8300   -37.1454    10.6098     7.4614     7.7772     0.1280
  109.5000     0.2992     2.4823     0.0200    80.7686     7.8300   -37.1489    10.4530     7.4135     7.7169     0.1283
  110.0000     0.3006     2.4674     0.0159    80.3513     7.8300   -37.1484    10.2904     7.3659     7.6571     0.1130
  110.5000     0.2979     2.4669     0.0141    79.9316     7.8300   -37.1479    10.0992     7.3186     7.5978     0.0950
  111.0000     0.2997     2.4910     0.0232    79.6840     7.8300   -37.1484    10.1057     7.2716     7.5389     0.0928
  111.5000     0.3006     2.5122     0.0337    80.2103     7.8300   -37.1485    10.0346     7.2249     7.4805     0.0991
  112.0000     0.2978     2.5196     0.0340    80.8053     7.8300   -37.1486     9.7810     7.1785     7.4226     0.1021
  112.5000     0.2878     2.5117     0.0310    81.4050     7.8300   -37.1486     9.5338     7.1324     7.3652     0.1046
  113.0000     0.2813     2.5074     0.0299    81.5828     7.8300   -37.1489     9.2930     7.0868     7.3082     0.1076
  113.5000     0.2780     2.5041     0.0298    81.2123     7.8300   -37.1490     9.0411     7.0413     7.2474     0.1184
  114.0000     0.2787     2.4948     0.0256    80.9040     7.8300   -37.1486     9.3128     6.9961     7.2473     0.1295
  114.5000     0.2946     2.4778     0.0162    81.4935     7.8300   -37.1497    10.1072     6.9843     7.2467     0.1295
  115.0000     0.3014     2.4647     0.0060    81.8374     7.8300   -37.1486    10.0979     6.9842     7.2468     0.1291
  115.5000     0.3018     2.4637     0.0040    81.4200     7.8300   -37.1470     9.7897     6.9842     7.2472     0.1266
  116.0000     0.2990     2.4644     0.0039    81.0777     7.8300   -37.1555     9.5316     6.9843     7.2470     0.1219
  116.5000     0.2913     2.4699     0.0051    81.6819     7.8300   -37.0744     9.3782     6.9843     7.2469     0.1203
  117.0000     0.2858     2.4753     0.0066    82.3944     7.8300   -36.8516     9.4511     6.9841     7.2469     0.1138
  117.5000     0.2968     2.4808     0.0082    82.3967     7.8300   -36.7373     9.5769     6.9841     7.2468     0.1195
  118.0000     0.2986     2.4799     0.0097    81.9119     7.8300   -36.7501     9.6997     6.9841     7.2469     0.1178
  118.5000     0.2986     2.4787     0.0112    81.4499     7.8300   -36.7380     9.8240     6.9841     7.2469     0.1164
  119.0000     0.2958     2.4832     0.0127    81.0500     7.8300   -36.8321     9.9179     6.9840     7.2471     0.1069
  119.5000     0.2938     2.4886     0.0143    80.7322     7.8300   -36.9826     9.8783     6.9842     7.2476     0.1163
  120.0000     0.2918     2.4943     0.0158    80.4908     7.8297   -37.1392     9.8323     6.9841     7.2468     0.1228
  120.5000     0.2918     2.4862     0.0149    81.3555     7.8438   -37.1455     9.7865     6.9838     7.2464     0.1248
  121.0000     0.2910     2.4731     0.0134    82.9092     7.8623   -37.1478     9.7365     6.9910     7.2497     0.1205
  121.5000     0.2902     2.4693     0.0119    84.4655     7.8699   -37.1843     9.7365     7.0146     7.2423     0.1139
  122.0000     0.2913     2.4769     0.0147    85.6873     7.8651   -37.2669     9.7365     7.0378     7.3666     0.1080
  122.5000     0.2918     2.4864     0.0183    84.3529     7.8571   -37.3454     9.8450     7.0606     7.4702     0.1092
  123.0000     0.2918     2.4960     0.0217    83.2681     7.8489   -37.4225    10.0514     7.0847     7.5769     0.1096
  123.5000     0.2954     2.4969     0.0198    83.7796     7.8408   -37.5013    10.2622     7.1117     7.6851     0.1105
  124.0000     0.2994     2.4959     0.0178    83.7826     7.8326   -37.5793    10.4826     7.0814     7.8076     0.1102
  124.5000     0.2999     2.4948     0.0159    82.3433     7.8319   -37.6578    10.2798     6.9911     7.7975     0.1051
  125.0000     0.2958     2.4956     0.0162    81.0103     7.8400   -37.7356    10.0761     6.9026     7.5850     0.0960
  125.5000     0.2925     2.5009     0.0214    81.1978     7.8478   -37.8145     9.8764     6.8153     7.4112     0.1043
  126.0000     0.2902     2.5161     0.0265    82.2292     7.8557   -37.8936     9.6807     6.7290     7.2419     0.1147
  126.5000     0.2925     2.5192     0.0292    83.2482     7.8636   -37.9470     9.4889     6.6439     7.0764     0.1178
  127.0000     0.2958     2.4982     0.0249    84.2651     7.8698   -37.9268     9.3009     6.5598     6.9143     0.1191
  127.5000     0.3006     2.4831     0.0206    85.2766     7.8528   -37.9082     9.1166     6.4768     6.7281     0.1155
  128.0000     0.3034     2.4824     0.0164    85.9353     7.8348   -37.8878     8.8782     6.3948     6.7335     0.1108
  128.5000     0.3149     2.4831     0.0138    84.8156     7.8167   -37.8677     9.0436     6.3685     6.6978     0.1045
  129.0000     0.3269     2.4961     0.0187    83.4617     7.8101   -37.8479     9.0710     6.3685     6.6451     0.0988
  129.5000     0.3274     2.5094     0.0259    82.0987     7.8100   -37.8277     9.1431     6.3685     6.6085     0.1242
  130.0000     0.3169     2.5192     0.0331    82.0129     7.8100   -37.8077     9.2157     6.3505     6.6080     0.1240
  130.5000     0.3131     2.4796     0.0240    82.2668     7.8100   -37.7878     9.2092     6.3157     6.5709     0.1220
  131.0000     0.3032     2.4723     0.0126    82.2996     7.8100   -37.7679     9.1014     6.2811     6.5199     0.1198
  131.5000     0.3007     2.4743     0.0080    82.2973     7.8100   -37.7479     8.9868     6.2467     6.4871     0.1220
  132.0000     0.2999     2.4773     0.0079    82.3072     7.8100   -37.7280     8.8734     6.2125     6.4871     0.1227
  132.5000     0.2807     2.4761     0.0070    82.8981     7.8100   -37.7081     8.7612     6.1785     6.4871     0.1231
  133.0000     0.2855     2.4757     0.0044    83.5762     7.8100   -37.6881     8.7158     6.1446     6.4871     0.1271
  133.5000     0.2911     2.4756     0.0039    83.1406     7.8125   -37.6684     8.7158     6.2140     6.4871     0.1367
  134.0000     0.2919     2.4734     0.0054    82.4100     7.8196   -37.6485     8.7158     6.3114     6.5545     0.1320
  134.5000     0.2932     2.4628     0.0036    81.6722     7.8266   -37.6283     8.9123     6.4104     6.6668     0.1222
  135.0000     0.3008     2.4546     0.0002    81.0608     7.8336   -37.6095     9.1584     6.5111     6.7810     0.1168
  135.5000     0.3068     2.4690     0.0026    82.0664     7.8406   -37.5882     9.4113     6.6136     6.8971     0.1155
  136.0000     0.3101     2.4833     0.0077    83.2422     7.8477   -37.5672     9.6712     6.7177     7.0152     0.1219
  136.5000     0.3139     2.4879     0.0127    84.0535     7.8464   -37.5575     9.9179     6.8224     7.1353     0.1303
  137.0000     0.3096     2.4792     0.0149    82.6213     7.8411   -37.4819     9.8887     6.9294     7.2575     0.1338
  137.5000     0.3026     2.4683     0.0086    81.1752     7.8358   -37.3585     9.7866     7.0381     7.3818     0.1427
  138.0000     0.3073     2.4575     0.0024    81.1400     7.8303   -37.2467     9.6856     7.1143     7.5194     0.1391
  138.5000     0.3071     2.4465    -0.0039    81.5971     7.8300   -37.1519     9.5856     7.1143     7.5194     0.1224
  139.0000     0.3017     2.4446    -0.0060    81.6575     7.8300   -37.1955     9.5585     7.1143     7.3818     0.1124
  139.5000     0.2957     2.4655    -0.0021    81.3596     7.8300   -37.2601     9.5585     7.0113     7.3053     0.1104
  140.0000     0.2902     2.4824     0.0024    81.0567     7.8300   -37.3272     9.5585     6.9030     7.2246     0.1252
  140.5000     0.2955     2.4933     0.0069    80.7539     7.8300   -37.3922     9.5585     6.8084     7.1447     0.1222
  141.0000     0.2990     2.4740     0.0097    80.8260     7.8300   -37.4579     9.7365     6.7241     7.0657     0.1179
  141.5000     0.2974     2.4699     0.0076    81.5163     7.8300   -37.5239     9.7365     6.6409     6.9876     0.1203
  142.0000     0.2974     2.4774     0.0056    82.1962     7.8300   -37.5896     9.5751     6.5587     6.9103     0.1148
