~VERSION INFORMATION
 VERS.                2.0:   CWLS LOG ASCII STANDARD - VERSION 2.0
 WRAP.                 NO:   ONE LINE PER DEPTH STEP
~WELL INFORMATION
#MNEM.UNIT      DATA TYPE    INFORMATION
#----------   ------------   ------------------------------
 STRT.F            0.0000:   START DEPTH
 STOP.F          528.0000:   STOP DEPTH
 STEP.F            0.5000:   STEP LENGTH
 NULL.          -999.2500:   NO VALUE
 COMP.   FLUOR DANIEL INC:   COMPANY
 WELL. NAVAL PETROLEUM RESERVE 3 SX-3 53 #2-3:   WELL
 FLD .             TEAPOT:   FIELD
 LOC .       S3 T38N R78W:   LOCATION
 CNTY.            NATRONA:   COUNTY
 STAT.            WYOMING:   STATE
 CTRY. UNITED STATES OF AMERICA:   COUNTRY
 SRVC.      Western Atlas:   SERVICE COMPANY
 DATE.        06-JUL-1995:   LOGDATE
 API .       490252273900:   API NUMBER
~CURVE INFORMATION
#MNEM.UNIT       API CODE    CURVE DESCRIPTION
#----------   ------------   ------------------------------
 DEPT.F                  :   
 GRR .GAPI   07 310 01 00:   GAMMA RAY FROM RES. LOG.
 RILD.OHMM   07 120 46 00:   INDUCTION LOG DEEP RESISTIVITY
 RILM.OHMM   07 120 44 00:   INDUCTION LOG MEDIUM
~PARAMETER INFORMATION
#MNEM.UNIT          VALUE    DESCRIPTION
#----------   ------------   ------------------------------
 PD  .                 GL:   PERMANENT DATUM
 EPD .F              5146:   ELEVATION PERMANENT DATUM
 LMF .                 KB:   LOG MEASURED FROM
 DAPD.F                10:   FEET ABOVE PERMANENT DATUM
 DMF .                 KB:   DRILLING MEASURED FROM
 EKB .F              5156:   KELLING BUSHING
 EDF .F              5155:   DRILLING FLOOR
 EGL .F              5146:   GROUND LEVEL
 DATE.             7-6-95:   RUN DATE
 RUN .                  1:   RUN NUMBER
 DD  .F               535:   DEPTH DRILLER
 DL  .F               536:   DEPTH LOGGER
 BLI .F               528:   BOTTOM LOG INTERVAL
 TLI .F                53:   TOP LOG INTERVAL
 CS  .IN            9.625:   CASING SIZE
 CBD .F                52:   CASING BOTTOM DRILLER
 CBL .F                53:   CASING BOTTOM LOGGER
 BS  .IN             8.75:   BIT SIZE
 BSD .F               535:   BIT SIZE AT DEPTH
 DFT .                AIR:   DRILLING FLUID TYPE
 BHT .F               102:   BOTTOM HOLE TEMPERATURE
 MRT .F               102:   MAXIMUM RECORDED TEMPERATURE
 LUN .            HL 6530:   LOGGING UNIT NUMBER
 LUL .             CASPER:   LOGGING UNIT LOCATION
 ENGI.             RAUTIO:   RECORDING ENGINEER
 WITN.             STRONG:   WITNESSED BY
 CLNT.            A2DTECH:   CLIENT CODE
 ORIG. 2", 2.5", 5" PRINT:   ORIGIN OF DATA
 UWI .       490252273900:   UNIQUE WELL ID
 DICO. A2D Technologies, Inc.:   DIGITIZING COMPANY
~OTHER INFORMATION
~A    DEPT      GRR      RILD       RILM   
# ...
  364.0000    94.4204    18.9279    18.2247
  364.5000    90.9003    18.6283    17.8769
  365.0000    88.9021    18.3137    17.5356
  365.5000    89.8765    17.8187    17.2008
  366.0000    91.9336    17.3913    16.8715
  366.5000    94.1703    16.9769    16.5506
  367.0000    96.1611    16.8302    16.3519
  367.5000    99.1436    16.7962    16.2692
  368.0000   101.2391    16.7620    16.1869
  368.5000   101.1806    16.7278    16.1050
  369.0000   100.6121    16.6936    16.0936
  369.5000    99.7775    16.6594    16.0935
  370.0000    97.1446    16.6253    16.0931
  370.5000    93.1286    16.5912    16.0964
  371.0000    89.5821    16.5481    15.9478
  371.5000    87.7020    16.5503    15.7218
  372.0000    88.0259    16.0083    15.4990
  372.5000    89.4590    15.6532    15.2793
  373.0000    92.6357    15.5005    15.0627
  373.5000    95.7750    15.3113    14.8859
  374.0000    96.7350    15.1244    14.7548
  374.5000    95.4316    14.9398    14.6248
  375.0000    94.2122    14.7575    14.4959
  375.5000    96.0826    14.5773    14.3682
  376.0000    98.5696    14.3994    14.2416
  376.5000   100.6022    14.2237    14.1162
  377.0000   100.3261    14.0500    13.9918
  377.5000   101.0277    13.8802    13.8685
  378.0000   103.5944    13.8120    13.7524
  378.5000   105.6081    13.7524    13.6258
  379.0000   104.5289    13.9499    13.6936
  379.5000   101.9811    14.1058    13.8261
  380.0000    99.3731    14.2635    13.9600
  380.5000    99.8711    14.4230    14.0952
  381.0000    99.5410    14.5841    14.2316
  381.5000    98.6069    14.7460    14.3694
  382.0000    99.6499    14.9122    14.5086
  382.5000   100.9764    15.0848    14.6490
  383.0000   101.0306    15.0848    14.8084
  383.5000   100.5973    15.0041    14.6171
  384.0000    97.8241    14.7393    14.4020
  384.5000    95.0994    14.4792    14.1901
  385.0000    94.9615    14.2237    13.9805
  385.5000    95.4913    13.9727    13.7779
  386.0000    96.6460    13.7261    13.5144
  386.5000    99.9619    13.4838    13.2540
  387.0000   104.0312    13.2459    12.9970
  387.5000   107.7536    13.0121    12.7448
  388.0000   106.6831    12.8160    12.4980
  388.5000   105.4873    12.5541    12.1947
  389.0000   105.7908    12.2976    12.2598
  389.5000   106.2858    12.0824    12.3785
  390.0000   107.0655    12.0824    12.4984
  390.5000   109.0368    12.1909    12.6194
  391.0000   109.0692    12.3174    12.9264
  391.5000   105.9909    12.5377    13.4643
  392.0000   102.8834    13.4999    14.0091
  392.5000   101.1386    14.4032    15.7333
  393.0000   103.0240    16.0049    17.6161
  393.5000   102.4488    17.8643    19.7243
  394.0000    97.6946    19.9396    22.0847
  394.5000    90.5445    22.2561    24.6259
  395.0000    83.7131    24.8417    26.5781
  395.5000    79.6315    27.7277    28.2900
  396.0000    78.0891    29.3560    28.0117
  396.5000    78.7456    29.2192    28.0395
  397.0000    79.5473    28.9855    27.1960
  397.5000    79.1947    28.6804    26.3868
  398.0000    78.2349    28.1911    25.5538
  398.5000    77.6179    27.5159    25.5538
  399.0000    77.7911    28.2900    27.2828
  399.5000    78.1884    28.5528    28.6295
  400.0000    77.4134    28.5528    29.6287
  400.5000    75.1785    28.5431    30.1818
  401.0000    75.9507    28.5379    30.1818
  401.5000    79.2933    23.9036    30.0379
  402.0000    82.4332    21.6355    29.7981
  402.5000    82.8659    25.1700    29.6287
  403.0000    82.8709    27.2382    28.8781
  403.5000    82.6025    27.9430    27.8552
  404.0000    80.9484    28.6660    27.2627
  404.5000    79.8516    29.4078    28.3148
  405.0000    80.1607    30.1687    29.2132
  405.5000    82.3502    30.9493    30.1481
  406.0000    84.0414    31.6101    30.7537
  406.5000    82.7251    31.4470    30.3758
  407.0000    77.6415    31.2415    30.0644
  407.5000    72.9800    31.0373    29.2206
  408.0000    73.9534    30.8345    27.8487
  408.5000    77.8383    30.0281    26.7631
  409.0000    81.2583    28.7840    25.9857
  409.5000    83.0277    27.5914    25.2164
  410.0000    84.8249    26.4482    24.3992
  410.5000    86.6227    25.3523    24.1730
  411.0000    88.3321    24.7620    23.9252
  411.5000    88.6637    24.3370    23.7316
  412.0000    88.8416    23.9193    24.0569
  412.5000    89.9918    23.5088    24.3804
  413.0000    91.4181    23.0823    24.7082
  413.5000    91.7671    23.2573    24.8546
  414.0000    90.1185    23.4444    24.4783
  414.5000    87.4467    23.6328    24.1004
  415.0000    84.7009    23.8173    23.7284
  415.5000    82.4602    24.2932    23.3621
  416.0000    86.4042    25.3186    23.0014
  416.5000    90.4779    25.1060    22.6464
  417.0000    92.4000    24.7535    22.3610
  417.5000    91.9758    24.4058    22.0064
  418.0000    90.5805    23.8416    21.8378
  418.5000    92.2887    21.5072    21.6980
  419.0000    95.4590    19.1689    21.5146
  419.5000    96.3350    16.3426    21.3328
  420.0000    93.2068    13.9309    20.9142
  420.5000    92.1305    12.3583    20.2544
  421.0000    93.5026    11.8254    19.6154
  421.5000    94.9461    11.3251    19.0082
  422.0000    95.7600    11.3251    18.8974
  422.5000    95.8286    11.3251    18.7931
  423.0000    97.1098    11.3051    18.6851
  423.5000    98.3642    11.1578    18.3785
  424.0000    97.8414    11.0152    17.8782
  424.5000    93.7867    11.3713    17.3922
  425.0000    91.2799    12.6182    16.9221
  425.5000    92.2745    14.4155    16.6127
  426.0000    93.6238    16.2431    16.3486
  426.5000    93.5064    16.2431    16.0886
  427.0000    92.2508    16.0614    15.8328
  427.5000    90.6685    15.9454    15.5810
  428.0000    89.1224    15.8020    15.3333
  428.5000    88.6913    15.6723    15.0853
  429.0000    90.4001    15.5436    14.8784
  429.5000    92.0678    15.4160    14.6715
  430.0000    93.7513    15.2895    14.4672
  430.5000    93.8120    15.1639    14.2657
  431.0000    92.4393    15.0291    14.1275
  431.5000    91.0094    14.7113    14.0598
  432.0000    91.8784    14.4003    13.9923
  432.5000    93.9498    14.0958    13.9252
  433.0000    96.0282    13.7977    13.8735
  433.5000    97.2224    13.5004    13.8242
  434.0000    96.7135    13.5004    13.7751
  434.5000    96.2225    13.5004    13.7260
  435.0000    96.6106    13.5004    13.6770
  435.5000    96.9069    13.5004    13.6261
  436.0000    96.6504    13.5004    13.6258
  436.5000    98.2682    13.5004    13.6258
  437.0000   101.0281    13.5004    13.6258
  437.5000   102.6879    13.5004    13.6258
  438.0000   100.7187    13.5004    13.6258
  438.5000    98.6262    13.5004    13.6258
  439.0000    96.9362    13.5006    13.6259
  439.5000    96.9605    13.5004    13.6261
  440.0000    97.7931    13.5021    13.6276
  440.5000    98.9751    13.4221    13.5883
  441.0000   100.1815    13.3619    13.4742
  441.5000   101.3666    13.3018    13.3610
  442.0000   104.0145    13.2420    13.2487
  442.5000   107.0524    13.1824    13.1374
  443.0000   106.4960    13.1169    13.0271
  443.5000   103.7957    13.0122    12.9176
  444.0000   100.5982    12.9083    12.8091
  444.5000   100.3139    12.8053    12.7015
  445.0000   102.8055    12.7030    12.5948
  445.5000   106.7764    12.6017    12.4882
  446.0000   107.5676    12.5011    12.4214
  446.5000   106.7243    12.4223    12.4220
  447.0000   106.5137    12.4637    12.4222
  447.5000   108.3068    12.4980    12.4223
  448.0000   110.1700    12.5324    12.4223
  448.5000   108.3315    12.5669    12.4223
  449.0000   106.1985    12.6014    12.4223
  449.5000   105.7075    12.6359    12.4223
  450.0000   107.8180    12.6542    12.4222
  450.5000   110.2658    12.5696    12.4065
  451.0000   109.5014    12.5043    12.3764
  451.5000   108.2863    12.4394    12.3461
  452.0000   105.8969    12.3748    12.3159
  452.5000   103.3450    12.3105    12.2858
  453.0000   102.9793    12.2466    12.2558
  453.5000   105.5879    12.1830    12.2258
  454.0000   111.2423    12.1197    12.1947
  454.5000   109.9022    12.0570    11.8556
