~VERSION INFORMATION
 VERS.                2.0:   CWLS LOG ASCII STANDARD - VERSION 2.0
 WRAP.                 NO:   ONE LINE PER DEPTH STEP
~WELL INFORMATION
#MNEM.UNIT      DATA TYPE    INFORMATION
#----------   ------------   ------------------------------
 STRT.F            0.0000:   START DEPTH
 STOP.F          978.0000:   STOP DEPTH
 STEP.F            0.5000:   STEP LENGTH
 NULL.          -999.2500:   NO VALUE
 COMP. FENIX & SCISSON INC:   COMPANY
 WELL. N.P.R #3 SX-14 #53:   WELL
 FLD .             TEAPOT:   FIELD
 LOC .      S14 T38N R78W:   LOCATION
 CNTY.            NATRONA:   COUNTY
 STAT.            WYOMING:   STATE
 CTRY. UNITED STATES OF AMERICA:   COUNTRY
 SRVC.              Welex:   SERVICE COMPANY
 DATE.        06-MAR-1977:   LOGDATE
 API .       490251029800:   API NUMBER
~CURVE INFORMATION
#MNEM.UNIT       API CODE    CURVE DESCRIPTION
#----------   ------------   ------------------------------
 DEPT.F                  :   
 SPR .MV     07 010 01 00:   SPONTANEOUS POTENTIAL
 SGRD.OHMM   07 220 05 00:   SHALLOW RESISTIVITY
 ILD .OHMM   07 120 46 00:   INDUCTION LOG DEEP
 ILM .OHMM   07 120 44 00:   INDUCTION LOG MEDIUM
 GRD .GAPI   45 310 01 00:   GAMMA RAY FROM DENSITY LOG
 CALD.IN     45 280 60 00:   CALIPER
 RHOB.G/C3   45 350 01 00:   BULK DENSITY
 DPHI.DEC    45 890 12 00:   DENSITY POROSITY SANDSTONE
 CORR.G/C3   45 356 01 00:   DENSITY CORRECTION
~PARAMETER INFORMATION
#MNEM.UNIT          VALUE    DESCRIPTION
#----------   ------------   ------------------------------
 PD  .                 GL:   PERMANENT DATUM
 EPD .F              5230:   ELEVATION PERMANENT DATUM
 LMF .                 GL:   LOG MEASURED FROM
 DMF .                 GL:   DRILLING MEASURED FROM
 EGL .F              5230:   GROUND LEVEL
 DATE.             3-6-77:   RUN DATE
 RUN .                  1:   RUN NUMBER
 DD  .F               989:   DEPTH DRILLER
 DL  .F               980:   DEPTH LOGGER
 BLI .F               978:   BOTTOM LOG INTERVAL
 TLI .F                50:   TOP LOG INTERVAL
 CS  .IN            8.625:   CASING SIZE
 CBD .F                42:   CASING BOTTOM DRILLER
 CBL .F                42:   CASING BOTTOM LOGGER
 BS  .IN            7.875:   BIT SIZE
 BSD .F               989:   BIT SIZE AT DEPTH
 DFT .            KCL MUD:   DRILLING FLUID TYPE
 DFD .                8.4:   DRILLING FLUID DENSITY
 DFV .                 30:   DRILLING FLUID VISCOSITY
 DFPH.                7.2:   DRILLING FLUID PH
 DFL .               14.4:   DRILLING FLUID LOSS
 MSS .            MUD PIT:   MUD SAMPLE SOURCE
 RMS .OHMM            .41:   RESISTIVITY MUD SAMPLE
 MST .F                48:   MUD SAMPLE TEMPERATURE
 RMF .OHMM            .39:   RESISTIVITY MUD FILTRATE SAMPLE
 MFST.F                48:   MUD FILTRATE SAMPLE TEMPERATURE
 RMC .OHMM            .55:   RESISTIVITY MUD CAKE
 MCST.F                48:   MUD CAKE SAMPLE TEMPERATURE
 MFSS.           FANN KIT:   MUD FILTRATE SAMPLE SOURCE
 MCSS.           FANN KIT:   MUD CAKE SAMPLE SOURCE
 RMB .OHMM            .34:   RESISTIVITY MUD AT BHT
 BHT .F                58:   BOTTOM HOLE TEMPERATURE
 TCS .HRS               2:   TIME CURCULATED STOPPED
 MRT .F                58:   MAXIMUM RECORDED TEMPERATURE
 LUN .               8611:   LOGGING UNIT NUMBER
 LUL .           GILLETTE:   LOGGING UNIT LOCATION
 ENGI.            C. DOAK:   RECORDING ENGINEER
 WITN.           S. BURKE:   WITNESSED BY
 CLNT.            A2DTECH:   CLIENT CODE
 ORIG.        2" 5" PRINT:   ORIGIN OF DATA
 UWI .       490251029800:   UNIQUE WELL ID
 DICO. A2D Technologies, Inc.:   DIGITIZING COMPANY
~OTHER INFORMATION
~A    DEPT     SPR       SGRD        ILD        ILM        GRD       CALD       RHOB       DPHI       CORR   
# ...
  474.5000   -44.1468    10.6134     7.7540     8.6425   123.4943     7.8028     2.4828     0.0989     0.0276
  475.0000   -44.1468    11.1121     7.8354     8.7010   122.0275     7.8028     2.4844     0.0985     0.0282
  475.5000   -44.1468    11.0319     7.9177     8.7661   120.9920     7.8028     2.4919     0.0943     0.0305
  476.0000   -44.1468    10.9701     8.0008     8.8713   121.4028     7.8028     2.4994     0.0897     0.0349
  476.5000   -44.1468    10.9099     8.0849     8.9779   121.9138     7.8028     2.5069     0.0851     0.0392
  477.0000   -44.1468    11.5005     8.2036     9.0857   122.4323     7.8028     2.5143     0.0804     0.0437
  477.5000   -44.1468    12.2932     8.3677     9.1948   122.9483     7.8028     2.5201     0.0769     0.0426
  478.0000   -44.1468    12.2654     8.5350     9.3052   123.4874     7.8028     2.5192     0.0789     0.0403
  478.5000   -44.1468    12.2264     8.7057     9.4191   123.3244     7.8028     2.5089     0.0855     0.0380
  479.0000   -44.1468    12.1808     8.8797     9.6034   123.1348     7.8028     2.4975     0.0920     0.0358
  479.5000   -44.1468    12.5293     9.0574     9.7951   123.7492     7.8028     2.4879     0.0941     0.0357
  480.0000   -44.1468    12.7531     9.2390     9.9906   121.8873     7.8028     2.4918     0.0920     0.0395
  480.5000   -44.1468    12.5236     9.5052    10.1899   117.8424     7.8028     2.4958     0.0899     0.0433
  481.0000   -44.1468    12.8288     9.4905    10.3933   113.8365     7.8028     2.4998     0.0879     0.0470
  481.5000   -44.1468    13.8883     9.4587    10.5164   111.7987     7.8028     2.5000     0.0879     0.0503
  482.0000   -44.1468    14.7931     9.4283    10.4429   111.2335     7.8028     2.4979     0.0890     0.0492
  482.5000   -44.1468    13.1848     9.3980    10.3908   112.0222     7.8032     2.4959     0.0907     0.0481
  483.0000   -44.1468    12.4052     9.3678    10.3390   113.5745     7.7870     2.4932     0.0924     0.0470
  483.5000   -44.1468    12.1808     9.3377    10.2875   114.0340     7.7673     2.4921     0.0942     0.0460
  484.0000   -44.1468    12.4919     9.3078    10.2362   114.0421     7.7692     2.4901     0.0942     0.0449
  484.5000   -44.1468    12.8172     9.2779    10.1852   114.3691     7.7777     2.4881     0.0948     0.0435
  485.0000   -44.1468    12.9895     9.2481    10.1344   116.3853     7.7864     2.4861     0.0972     0.0419
  485.5000   -44.1468    12.7952     9.2185    10.0839   118.3712     7.7950     2.4842     0.0984     0.0403
  486.0000   -44.1468    12.6642     9.1889    10.0337   119.1878     7.8027     2.4857     0.0973     0.0386
  486.5000   -44.1468    12.5349     9.1594     9.9836   118.6222     7.8022     2.4855     0.0964     0.0391
  487.0000   -44.1468    12.4074     9.1300     9.9339   116.5081     7.8016     2.4828     0.0981     0.0401
  487.5000   -44.1468    12.2932     9.1007     9.8843   114.2914     7.8010     2.4802     0.0997     0.0410
  488.0000   -44.1468    12.2587     9.0715     9.8351   113.9118     7.8004     2.4799     0.0997     0.0419
  488.5000   -44.1468    12.2274     9.0424     9.7861   114.4108     7.7998     2.4856     0.0966     0.0428
  489.0000   -44.1468    12.1962     9.0134     9.7373   115.3192     7.7992     2.4913     0.0934     0.0437
  489.5000   -44.1468    12.1650     8.9845     9.6887   117.7706     7.7986     2.4969     0.0903     0.0447
  490.0000   -44.1468    12.1340     8.9557     9.6537   122.4901     7.7980     2.5009     0.0884     0.0456
  490.5000   -44.1468    12.1030     8.9272     9.6208   126.2724     7.7975     2.4968     0.0896     0.0465
  491.0000   -44.1468    12.0720     8.9109     9.5881   125.4114     7.7969     2.4943     0.0907     0.0474
  491.5000   -44.1468    12.0412     8.9025     9.5554   123.4723     7.7963     2.4940     0.0915     0.0484
  492.0000   -44.1469    12.0103     8.8941     9.5229   125.7969     7.7957     2.4942     0.0902     0.0499
  492.5000   -44.1503    11.9787     8.8856     9.4904   127.3371     7.7951     2.5006     0.0875     0.0514
  493.0000   -44.1341    11.9591     8.8771     9.4581   123.5662     7.7945     2.5089     0.0848     0.0529
  493.5000   -43.9547    12.3535     8.8687     9.4191   120.9396     7.7939     2.5067     0.0848     0.0544
  494.0000   -43.9483    12.9895     8.8602     9.4970   119.0888     7.7934     2.5034     0.0864     0.0559
  494.5000   -43.9413    11.9615     8.8518     9.5966   121.7406     7.7928     2.5012     0.0876     0.0574
  495.0000   -43.9338    12.1004     8.8433     9.6975   124.7659     7.7922     2.5029     0.0865     0.0579
  495.5000   -43.9259    12.2897     8.8351     9.7995   125.4591     7.7916     2.5052     0.0853     0.0568
  496.0000   -43.9180    11.9941     8.7723     9.9027   125.0457     7.7910     2.5037     0.0856     0.0558
  496.5000   -43.9101    11.7415     8.6921    10.0441   125.0345     7.7904     2.4990     0.0894     0.0547
  497.0000   -43.9022    12.1808     8.6128     9.9976   124.6462     7.7898     2.4964     0.0904     0.0536
  497.5000   -43.8943    12.0584     8.5342     9.9217   123.7873     7.7892     2.4990     0.0891     0.0525
  498.0000   -43.8865    11.9591     8.4563     9.8471   124.1121     7.7887     2.5016     0.0876     0.0534
  498.5000   -43.8786    11.9591     8.3791     9.7732   124.0046     7.7881     2.5019     0.0862     0.0545
  499.0000   -43.8707    11.7901     8.3026     9.6999   123.7902     7.7875     2.5006     0.0876     0.0571
  499.5000   -43.8628    11.5120     8.2269     9.6274   124.2657     7.7869     2.4993     0.0893     0.0597
  500.0000   -43.8549    11.2496     8.1522     9.5544   124.0451     7.7863     2.4996     0.0887     0.0623
  500.5000   -43.8470    10.9099     8.0766     9.4847   123.5129     7.7857     2.5036     0.0853     0.0649
  501.0000   -43.8391    11.0265     7.9582     9.3063   123.8407     7.7851     2.5065     0.0821     0.0658
  501.5000   -43.8312    11.2455     7.7773     9.1323   124.3743     7.7846     2.5089     0.0815     0.0647
  502.0000   -43.8233    11.4225     7.6005     8.9615   124.1731     7.7840     2.5113     0.0809     0.0636
  502.5000   -43.8154    11.1676     7.4277     8.8327   124.2769     7.7834     2.5137     0.0803     0.0625
  503.0000   -43.8075    10.5456     7.2588     8.6351   125.4854     7.7829     2.5161     0.0798     0.0614
  503.5000   -43.7996     9.9581     7.0938     8.4490   127.9864     7.7840     2.5160     0.0797     0.0602
  504.0000   -43.7917     9.6723     6.9326     8.2669   130.9509     7.7852     2.5103     0.0826     0.0573
  504.5000   -43.7838     9.6409     6.7677     8.0888   133.9051     7.7863     2.5047     0.0856     0.0543
  505.0000   -43.7760     9.6095     6.8206     7.9111   135.6267     7.7875     2.4992     0.0886     0.0525
  505.5000   -43.7681     9.5783     6.8766     7.8388   136.1551     7.7887     2.5008     0.0888     0.0533
  506.0000   -43.7602     9.5472     6.9330     7.9661   134.0093     7.7899     2.5029     0.0852     0.0539
  506.5000   -43.7523     9.5060     6.9898     8.0974   131.6589     7.7911     2.4970     0.0908     0.0534
  507.0000   -43.7444     9.8964     7.0472     8.2308   129.3252     7.7923     2.4897     0.0954     0.0512
  507.5000   -43.7365    10.5061     7.1050     8.3664   127.5426     7.7935     2.4824     0.0974     0.0491
  508.0000   -43.7286    11.3181     7.1633     8.5053   128.3928     7.7947     2.4822     0.0982     0.0469
  508.5000   -43.7207    11.0196     7.2220     8.5921   126.2132     7.7959     2.4826     0.0990     0.0448
  509.0000   -43.7128    10.6363     7.2813     8.5485   122.9316     7.7970     2.4829     0.0999     0.0442
  509.5000   -43.7049    10.4203     7.3508     8.5163   120.2748     7.7982     2.4842     0.0985     0.0439
  510.0000   -43.6970    10.6048     7.3455     8.4842   119.0694     7.7994     2.4866     0.0967     0.0437
  510.5000   -43.6891    10.7380     7.3392     8.4522   120.4343     7.8006     2.4891     0.0950     0.0435
