~VERSION INFORMATION
 VERS.                2.0:   CWLS LOG ASCII STANDARD - VERSION 2.0
 WRAP.                 NO:   ONE LINE PER DEPTH STEP
~WELL INFORMATION
#MNEM.UNIT      DATA TYPE    INFORMATION
#----------   ------------   ------------------------------
 STRT.F            0.0000:   START DEPTH
 STOP.F          978.0000:   STOP DEPTH
 STEP.F            0.5000:   STEP LENGTH
 NULL.          -999.2500:   NO VALUE
 COMP. FENIX & SCISSON INC:   COMPANY
 WELL. N.P.R #3 SX-14 #53:   WELL
 FLD .             TEAPOT:   FIELD
 LOC .      S14 T38N R78W:   LOCATION
 CNTY.            NATRONA:   COUNTY
 STAT.            WYOMING:   STATE
 CTRY. UNITED STATES OF AMERICA:   COUNTRY
 SRVC.              Welex:   SERVICE COMPANY
 DATE.        06-MAR-1977:   LOGDATE
 API .       490251029800:   API NUMBER
~CURVE INFORMATION
#MNEM.UNIT       API CODE    CURVE DESCRIPTION
#----------   ------------   ------------------------------
 DEPT.F                  :   
 SPR .MV     07 010 01 00:   SPONTANEOUS POTENTIAL
 SGRD.OHMM   07 220 05 00:   SHALLOW RESISTIVITY
 ILD .OHMM   07 120 46 00:   INDUCTION LOG DEEP
 ILM .OHMM   07 120 44 00:   INDUCTION LOG MEDIUM
 GRD .GAPI   45 310 01 00:   GAMMA RAY FROM DENSITY LOG
 CALD.IN     45 280 60 00:   CALIPER
 RHOB.G/C3   45 350 01 00:   BULK DENSITY
 DPHI.DEC    45 890 12 00:   DENSITY POROSITY SANDSTONE
 CORR.G/C3   45 356 01 00:   DENSITY CORRECTION
~PARAMETER INFORMATION
#MNEM.UNIT          VALUE    DESCRIPTION
#----------   ------------   ------------------------------
 PD  .                 GL:   PERMANENT DATUM
 EPD .F              5230:   ELEVATION PERMANENT DATUM
 LMF .                 GL:   LOG MEASURED FROM
 DMF .                 GL:   DRILLING MEASURED FROM
 EGL .F              5230:   GROUND LEVEL
 DATE.             3-6-77:   RUN DATE
 RUN .                  1:   RUN NUMBER
 DD  .F               989:   DEPTH DRILLER
 DL  .F               980:   DEPTH LOGGER
 BLI .F               978:   BOTTOM LOG INTERVAL
 TLI .F                50:   TOP LOG INTERVAL
 CS  .IN            8.625:   CASING SIZE
 CBD .F                42:   CASING BOTTOM DRILLER
 CBL .F                42:   CASING BOTTOM LOGGER
 BS  .IN            7.875:   BIT SIZE
 BSD .F               989:   BIT SIZE AT DEPTH
 DFT .            KCL MUD:   DRILLING FLUID TYPE
 DFD .                8.4:   DRILLING FLUID DENSITY
 DFV .                 30:   DRILLING FLUID VISCOSITY
 DFPH.                7.2:   DRILLING FLUID PH
 DFL .               14.4:   DRILLING FLUID LOSS
 MSS .            MUD PIT:   MUD SAMPLE SOURCE
 RMS .OHMM            .41:   RESISTIVITY MUD SAMPLE
 MST .F                48:   MUD SAMPLE TEMPERATURE
 RMF .OHMM            .39:   RESISTIVITY MUD FILTRATE SAMPLE
 MFST.F                48:   MUD FILTRATE SAMPLE TEMPERATURE
 RMC .OHMM            .55:   RESISTIVITY MUD CAKE
 MCST.F                48:   MUD CAKE SAMPLE TEMPERATURE
 MFSS.           FANN KIT:   MUD FILTRATE SAMPLE SOURCE
 MCSS.           FANN KIT:   MUD CAKE SAMPLE SOURCE
 RMB .OHMM            .34:   RESISTIVITY MUD AT BHT
 BHT .F                58:   BOTTOM HOLE TEMPERATURE
 TCS .HRS               2:   TIME CURCULATED STOPPED
 MRT .F                58:   MAXIMUM RECORDED TEMPERATURE
 LUN .               8611:   LOGGING UNIT NUMBER
 LUL .           GILLETTE:   LOGGING UNIT LOCATION
 ENGI.            C. DOAK:   RECORDING ENGINEER
 WITN.           S. BURKE:   WITNESSED BY
 CLNT.            A2DTECH:   CLIENT CODE
 ORIG.        2" 5" PRINT:   ORIGIN OF DATA
 UWI .       490251029800:   UNIQUE WELL ID
 DICO. A2D Technologies, Inc.:   DIGITIZING COMPANY
~OTHER INFORMATION
~A    DEPT     SPR       SGRD        ILD        ILM        GRD       CALD       RHOB       DPHI       CORR   
# ...
  693.5000   -44.7421     9.2576     6.2534     7.9330   132.6471     7.8386     2.4298     0.1311     0.0339
  694.0000   -44.7421     9.3913     6.4355     7.9732   135.7186     7.8409     2.4244     0.1347     0.0332
  694.5000   -44.7420     9.4191     6.5833     8.0135   136.1481     7.8427     2.4190     0.1368     0.0325
  695.0000   -44.7420     9.4191     6.5864     8.0541   129.2025     7.8426     2.4225     0.1340     0.0336
  695.5000   -44.7412     9.3330     6.5823     8.0948   123.5409     7.8426     2.4276     0.1311     0.0351
  696.0000   -44.7765     9.2282     6.5255     8.1321   122.9163     7.8426     2.4321     0.1305     0.0366
  696.5000   -44.7725     9.0134     6.3498     8.0021   125.3381     7.8426     2.4314     0.1310     0.0380
  697.0000   -44.9805     8.8036     6.2245     7.8593   129.2698     7.8426     2.4330     0.1292     0.0395
  697.5000   -45.1381     8.5986     6.1016     7.7190   133.2694     7.8426     2.4349     0.1267     0.0410
  698.0000   -45.2361     8.4369     5.9811     7.5812   134.3454     7.8426     2.4262     0.1322     0.0423
  698.5000   -45.3205     8.3054     5.8644     7.4458   135.1694     7.8426     2.4171     0.1377     0.0409
  699.0000   -45.5302     8.1768     5.6621     7.3129   134.3089     7.8426     2.4082     0.1431     0.0360
  699.5000   -45.6724     8.0565     5.4517     7.1385   133.2774     7.8426     2.4026     0.1467     0.0296
  700.0000   -45.8076     7.8559     5.2488     6.8519   132.6556     7.8426     2.4132     0.1417     0.0300
  700.5000   -45.7834     7.6706     5.0533     6.5768   135.2450     7.8426     2.4300     0.1291     0.0319
  701.0000   -45.9282     7.4904     4.8652     6.3127   135.7437     7.8426     2.4470     0.1190     0.0377
  701.5000   -45.9547     7.3145     4.6841     6.0593   135.2808     7.8426     2.4644     0.1117     0.0441
  702.0000   -46.0694     6.7598     4.5182     5.8160   136.0223     7.8426     2.4641     0.1092     0.0478
  702.5000   -46.1251     5.8164     4.5182     5.7366   138.4520     7.8426     2.4532     0.1158     0.0436
  703.0000   -46.1117     4.9528     4.5610     5.9088   140.2232     7.8426     2.4378     0.1228     0.0382
  703.5000   -46.0986     6.0023     4.6989     6.1219   139.9443     7.8426     2.4302     0.1319     0.0330
  704.0000   -46.0853     7.3792     4.8409     6.3428   137.3181     7.8426     2.4346     0.1292     0.0349
  704.5000   -46.0721     8.1858     5.0014     6.5716   141.0109     7.8426     2.4393     0.1253     0.0379
  705.0000   -46.0590     8.5226     5.2157     6.8086   145.0406     7.8426     2.4443     0.1213     0.0408
  705.5000   -46.0458     8.8447     5.4391     7.0544   143.6407     7.8426     2.4535     0.1174     0.0437
  706.0000   -46.0326     8.9507     5.6720     7.3087   142.2654     7.8426     2.4631     0.1135     0.0467
  706.5000   -46.0194     8.9964     5.9150     7.5738   149.8708     7.8426     2.4664     0.1095     0.0496
  707.0000   -46.0063     8.7727     6.0917     7.6843   150.9070     7.8424     2.4670     0.1076     0.0525
  707.5000   -45.9931     8.5956     6.1647     7.7579   150.9992     7.8421     2.4706     0.1059     0.0555
  708.0000   -45.9799     9.0421     6.2386     7.7951   146.8405     7.8418     2.4769     0.1009     0.0582
  708.5000   -45.9667     9.5060     6.3134     7.8273   142.3282     7.8415     2.4832     0.0960     0.0576
  709.0000   -45.9535     9.4716     6.3891     7.8594   141.4913     7.8411     2.4841     0.0968     0.0568
  709.5000   -45.9404     9.4416     6.4657     7.8918   140.9319     7.8408     2.4793     0.1004     0.0539
  710.0000   -45.9272     9.4116     6.5431     7.9243   141.2402     7.8405     2.4718     0.1049     0.0483
  710.5000   -45.9140     9.3818     6.5838     7.9569   141.9937     7.8402     2.4645     0.1094     0.0484
  711.0000   -45.9008     9.3518     6.6445     7.9897   142.5737     7.8398     2.4646     0.1119     0.0484
  711.5000   -45.8877     9.3298     6.6445     8.0226   142.6718     7.8395     2.4755     0.1051     0.0511
  712.0000   -45.8745     9.3199     6.5788     8.0556   143.8971     7.8392     2.4850     0.0980     0.0564
  712.5000   -45.8613     9.3103     6.5663     8.0888   145.8551     7.8389     2.4818     0.0993     0.0554
  713.0000   -45.8481     9.3006     6.5538     8.1321   145.9312     7.8386     2.4788     0.1012     0.0545
  713.5000   -45.8350     9.2910     6.5413     8.1095   145.4074     7.8382     2.4780     0.0990     0.0536
  714.0000   -45.8218     9.2814     6.5289     8.0650   142.9147     7.8379     2.4827     0.0968     0.0528
  714.5000   -45.8086     9.2717     6.5164     8.0208   141.6764     7.8376     2.4861     0.0957     0.0519
  715.0000   -45.7954     9.2621     6.5040     7.9768   142.6142     7.8373     2.4860     0.0973     0.0510
  715.5000   -45.7822     9.2526     6.4916     7.9330   142.4767     7.8369     2.4860     0.0966     0.0509
  716.0000   -45.7691     9.2481     6.4793     7.9063   141.0775     7.8366     2.4878     0.0941     0.0544
  716.5000   -45.7560     9.3813     6.4669     7.8967   140.0252     7.8363     2.4907     0.0955     0.0554
  717.0000   -45.7426     9.5060     6.4546     7.8870   139.7631     7.8360     2.4858     0.0990     0.0532
  717.5000   -45.7151     9.4525     6.4423     7.8774   140.2159     7.8356     2.4783     0.1026     0.0511
  718.0000   -45.6586     9.3860     6.4300     7.8678   141.4606     7.8353     2.4706     0.1062     0.0489
  718.5000   -45.6026     9.3200     6.4178     7.8579   144.6523     7.8350     2.4629     0.1097     0.0467
  719.0000   -45.5465     9.2544     6.4049     7.8477   148.0232     7.8347     2.4574     0.1133     0.0482
  719.5000   -45.4904     9.1893     6.2678     7.8388   151.8939     7.8344     2.4679     0.1120     0.0505
  720.0000   -45.4343     9.1632     6.1256     7.6318   153.9137     7.8340     2.4783     0.1051     0.0528
  720.5000   -45.3783     9.2453     5.9866     7.4268   152.0501     7.8337     2.4887     0.0983     0.0551
  721.0000   -45.3222     9.3043     5.8510     7.2271   150.3816     7.8334     2.4911     0.0931     0.0575
  721.5000   -45.2661     9.3330     5.7183     7.0326   149.0594     7.8331     2.4889     0.0949     0.0583
  722.0000   -45.2100     7.8439     5.5887     6.8446   150.7861     7.8327     2.4866     0.0966     0.0584
  722.5000   -45.1510     7.2170     5.4621     6.7566   153.9619     7.8324     2.4816     0.0984     0.0577
  723.0000   -45.1806     8.4363     5.3383     6.7376   155.1259     7.8321     2.4697     0.1046     0.0526
  723.5000   -45.2373     8.1321     5.2173     6.7188   154.4796     7.8318     2.4599     0.1114     0.0482
  724.0000   -45.2947     8.2857     5.0991     6.6390   153.1046     7.8314     2.4601     0.1113     0.0483
  724.5000   -45.3518     8.6720     4.9835     6.4275   148.9091     7.8311     2.4603     0.1095     0.0483
  725.0000   -45.4090     8.4277     4.8706     6.2229   145.5551     7.8308     2.4648     0.1077     0.0483
  725.5000   -45.4660     8.1321     4.7602     6.0247   144.3755     7.8305     2.4693     0.1059     0.0483
  726.0000   -45.5232     5.8622     4.6523     5.8330   140.2539     7.8302     2.4738     0.1041     0.0483
  726.5000   -45.5803     4.9985     4.5182     5.6322   136.0671     7.8298     2.4785     0.1023     0.0484
  727.0000   -45.6376     6.5320     4.6304     5.5808   131.8806     7.8295     2.4729     0.1040     0.0484
  727.5000   -45.6937     7.0209     4.7899     5.8945   131.4811     7.8292     2.4662     0.1068     0.0484
  728.0000   -45.7211     7.7492     4.9549     6.1403   136.0122     7.8289     2.4660     0.1082     0.0481
  728.5000   -45.6731     8.6720     5.1256     6.3963   141.0115     7.8285     2.4624     0.1103     0.0456
  729.0000   -45.6265     8.5893     5.3021     6.6631   143.3417     7.8282     2.4517     0.1150     0.0432
  729.5000   -45.5801     8.4954     5.4847     6.9567   143.1779     7.8279     2.4411     0.1196     0.0407
