~VERSION INFORMATION
 VERS.                2.0:   CWLS LOG ASCII STANDARD - VERSION 2.0
 WRAP.                 NO:   ONE LINE PER DEPTH STEP
~WELL INFORMATION
#MNEM.UNIT      DATA TYPE    INFORMATION
#----------   ------------   ------------------------------
 STRT.F           20.0000:   START DEPTH
 STOP.F          805.5000:   STOP DEPTH
 STEP.F            0.5000:   STEP LENGTH
 NULL.          -999.2500:   NO VALUE
 COMP. FENIX & SCISSON INC:   COMPANY
 WELL.    16-SX-14 #16-14:   WELL
 FLD .             TEAPOT:   FIELD
 LOC .      S14 T38N R78W:   LOCATION
 CNTY.            NATRONA:   COUNTY
 STAT.            WYOMING:   STATE
 CTRY. UNITED STATES OF AMERICA:   COUNTRY
 SRVC.            Unknown:   SERVICE COMPANY
 DATE.        23-MAY-1978:   LOGDATE
 API .       490251063200:   API NUMBER
~CURVE INFORMATION
#MNEM.UNIT       API CODE    CURVE DESCRIPTION
#----------   ------------   ------------------------------
 DEPT.F                  :   
 SN  .OHMM   05 040 16 00:   SHORT NORMAL 16"
 ILD .OHMM   05 120 46 00:   INDUCTION LOG DEEP
 SPR .MV     05 010 01 00:   SPONTANEOUS POTENTIAL FROM RES.
 RHOB.G/C3   45 350 01 00:   BULK DENSITY
 DPOR.DEC    45 890 12 00:   DENSITY POROSITY SANDSTONE
 CORR.G/C3   45 356 01 00:   DENSITY CORRECTION
 GRD .GAPI   45 310 01 00:   GAMMA RAY FROM DENSITY LOG
 CALD.IN     45 280 60 00:   CALIPER FROM DENSITY LOG
~PARAMETER INFORMATION
#MNEM.UNIT          VALUE    DESCRIPTION
#----------   ------------   ------------------------------
 PD  .                 GL:   PERMANENT DATUM
 EPD .F              5246:   ELEVATION PERMANENT DATUM
 LMF .                 KB:   LOG MEASURED FROM
 DAPD.F                 4:   FEET ABOVE PERMANENT DATUM
 DMF .                 KB:   DRILLING MEASURED FROM
 EKB .F              5250:   KELLING BUSHING
 EGL .F              5246:   GROUND LEVEL
 DATE.          5-23-1978:   RUN DATE
 RUN .                  1:   RUN NUMBER
 DD  .F               825:   DEPTH DRILLER
 DL  .F               812:   DEPTH LOGGER
 BLI .F               805:   BOTTOM LOG INTERVAL
 TLI .F                40:   TOP LOG INTERVAL
 CS  .IN            8.625:   CASING SIZE
 CBD .F                40:   CASING BOTTOM DRILLER
 BS  .IN            7.875:   BIT SIZE
 BSD .F               825:   BIT SIZE AT DEPTH
 DFT .                KCL:   DRILLING FLUID TYPE
 DFD .                8.6:   DRILLING FLUID DENSITY
 DFV .                 30:   DRILLING FLUID VISCOSITY
 DFPH.                 11:   DRILLING FLUID PH
 DFL .                 14:   DRILLING FLUID LOSS
 MSS .            MUD PIT:   MUD SAMPLE SOURCE
 RMS .OHMM            .32:   RESISTIVITY MUD SAMPLE
 MST .F                72:   MUD SAMPLE TEMPERATURE
 RMF .OHMM            .28:   RESISTIVITY MUD FILTRATE SAMPLE
 MFST.F                72:   MUD FILTRATE SAMPLE TEMPERATURE
 RMC .OHMM            .50:   RESISTIVITY MUD CAKE
 MCST.F                82:   MUD CAKE SAMPLE TEMPERATURE
 MFSS.               MEAS:   MUD FILTRATE SAMPLE SOURCE
 RMB .OHMM            .31:   RESISTIVITY MUD AT BHT
 BHT .F                75:   BOTTOM HOLE TEMPERATURE
 TCS .HRS               2:   TIME CURCULATED STOPPED
 MRT .F                75:   MAXIMUM RECORDED TEMPERATURE
 LUN .               2958:   LOGGING UNIT NUMBER
 LUL .              CSPR.:   LOGGING UNIT LOCATION
 ENGI.             MILLER:   RECORDING ENGINEER
 WITN.            RHOADES:   WITNESSED BY
 CLNT.            A2DTECH:   CLIENT CODE
 ORIG.    1" , 2.5" PRINT:   ORIGIN OF DATA
 UWI .       490251063200:   UNIQUE WELL ID
 DICO. A2D Technologies, Inc.:   DIGITIZING COMPANY
~OTHER INFORMATION
~A   DEPT       SN        ILD        SPR       RHOB       DPOR       CORR         GRD      CALD   
# ...
  303.5000     7.2632     6.6246   -26.4366     2.4766     0.1244     0.0819    72.7915     6.7632
  304.0000     7.3551     6.6839   -26.4617     2.4774     0.1212     0.0900    73.3288     6.9700
  304.5000     7.4650     6.5753   -26.4868     2.4833     0.1140     0.0989    77.4748     7.1600
  305.0000     7.4005     6.4677   -26.5119     2.4892     0.1160     0.0970    81.9315     7.3326
  305.5000     7.2525     6.3618   -26.5364     2.4871     0.1199     0.0883    87.8206     7.3382
  306.0000     7.1073     6.2577   -26.5612     2.4810     0.1238     0.0865    92.6176     7.3420
  306.5000     6.9650     6.1553   -26.5857     2.4750     0.1276     0.0969    95.3866     7.3406
  307.0000     6.8255     6.0545   -26.6094     2.4741     0.1253     0.0863    93.6711     7.3413
  307.5000     6.6889     5.9554   -26.6375     2.4846     0.1204     0.0642    88.7840     7.3815
  308.0000     6.5550     5.8753   -26.6594     2.4921     0.1233     0.0470    84.9373     7.4320
  308.5000     6.4237     5.9026   -26.6792     2.4843     0.1316     0.0392    80.9624     7.4859
  309.0000     6.3609     5.9258   -26.8407     2.4705     0.1306     0.0305    84.7078     7.4902
  309.5000     6.5273     5.9492   -27.4142     2.4651     0.1300     0.0337    88.1427     7.4685
  310.0000     6.6974     5.9726   -27.9712     2.4668     0.1300     0.0372    85.7589     7.4497
  310.5000     6.8719     5.9961   -28.5520     2.4681     0.1300     0.0409    77.2251     7.4334
  311.0000     7.0637     6.0197   -28.7396     2.4692     0.1266     0.0446    73.9383     7.3868
  311.5000     7.0487     6.0434   -28.7474     2.4740     0.1211     0.0486    72.0248     7.3055
  312.0000     7.0211     6.0672   -28.7637     2.4784     0.1182     0.0483    70.0081     7.2229
  312.5000     6.9935     6.0911   -28.7849     2.4828     0.1153     0.0442    69.3685     7.1322
  313.0000     6.9661     6.1151   -28.8011     2.4874     0.1124     0.0404    71.5827     7.1516
  313.5000     6.9352     6.1392   -28.8188     2.4920     0.1132     0.0366    73.7793     7.2292
  314.0000     6.9998     6.1634   -28.8366     2.4925     0.1185     0.0342    73.7417     7.1909
  314.5000     7.0763     6.1876   -28.8539     2.4836     0.1238     0.0350    73.6725     7.1324
  315.0000     7.1535     6.2091   -28.8720     2.4746     0.1241     0.0357    73.6156     7.0793
  315.5000     7.2317     6.2296   -28.8900     2.4704     0.1233     0.0364    74.0234     7.0233
  316.0000     7.3234     6.2482   -28.9081     2.4698     0.1228     0.0371    74.4176     6.9716
  316.5000     7.3131     6.2666   -28.9261     2.4691     0.1240     0.0379    74.8108     6.9140
  317.0000     7.2929     6.2849   -28.9441     2.4683     0.1259     0.0386    75.2032     6.9843
  317.5000     7.2726     6.3035   -28.9622     2.4676     0.1278     0.0394    75.5892     7.1145
  318.0000     7.2523     6.3247   -28.9802     2.4669     0.1297     0.0401    76.0048     7.1865
  318.5000     7.2319     6.3093   -28.9991     2.4662     0.1316     0.0408    76.3684     7.1768
  319.0000     7.2116     6.2762   -29.0176     2.4653     0.1316     0.0416    76.6773     7.1341
  319.5000     7.1939     6.2432   -29.0352     2.4662     0.1279     0.0427    75.7524     7.0742
  320.0000     7.1390     6.2104   -29.0573     2.4693     0.1242     0.0440    74.8768     7.0115
  320.5000     7.0909     6.1777   -29.0698     2.4724     0.1205     0.0456    73.9043     7.0071
  321.0000     7.0621     6.1451   -29.0870     2.4752     0.1180     0.0403    73.5451     7.0558
  321.5000     7.0247     6.0969   -29.1294     2.4781     0.1242     0.0319    73.7006     7.1312
  322.0000     6.9879     6.1020   -28.8586     2.4729     0.1332     0.0307    73.8195     6.6197
  322.5000     6.9515     6.1177   -28.2229     2.4637     0.1311     0.0319    73.8208     6.7591
  323.0000     6.9335     6.1335   -27.6015     2.4652     0.1277     0.0330    74.5522     6.9199
  323.5000     6.8271     6.1492   -26.9768     2.4691     0.1243     0.0341    75.7557     7.1215
  324.0000     6.7321     6.1645   -26.7176     2.4771     0.1210     0.0352    76.1810     7.3544
  324.5000     6.6383     6.1801   -27.2664     2.4848     0.1176     0.0362    75.4214     7.1805
  325.0000     6.5619     6.1958   -27.7162     2.4909     0.1142     0.0373    74.8157     6.7576
  325.5000     6.7495     6.2115   -28.2056     2.4925     0.1108     0.0400    75.4188     6.7073
  326.0000     6.9105     6.2272   -28.6728     2.4946     0.1075     0.0453    75.9847     6.6657
  326.5000     7.0637     6.2430   -29.0888     2.4964     0.1044     0.0508    76.8005     6.6493
  327.0000     7.0977     6.2588   -28.9338     2.5050     0.1015     0.0529    75.3664     6.4804
  327.5000     7.1297     6.2746   -28.7857     2.5156     0.0988     0.0472    72.0462     6.0501
  328.0000     7.1617     6.2905   -28.6128     2.5260     0.0980     0.0563    71.1871     6.1390
  328.5000     7.1940     6.3064   -28.4494     2.5143     0.1124     0.0709    70.3260     6.4330
  329.0000     7.2264     6.3224   -28.2856     2.5021     0.1156     0.0799    70.7774     6.6885
  329.5000     7.2589     6.3383   -28.1201     2.4927     0.1151     0.0819    71.2157     6.9346
  330.0000     7.2916     6.3543   -27.9513     2.4922     0.1146     0.0848    73.5210     7.0024
  330.5000     7.3288     6.3702   -27.7902     2.4911     0.1142     0.0875    75.7355     7.0647
  331.0000     7.3288     6.3861   -27.6278     2.4920     0.1133     0.0901    77.9740     7.4483
  331.5000     7.3288     6.4027   -27.2800     2.4938     0.1121     0.0940    80.2049     6.7370
  332.0000     7.3288     6.4189   -26.6233     2.5035     0.1109     0.0847    80.0574     6.8394
  332.5000     7.3288     6.4352   -25.9552     2.5121     0.1097     0.0679    78.9453     7.0605
  333.0000     7.3288     6.5002   -26.1775     2.5061     0.1084     0.0509    77.6578     7.2260
  333.5000     7.3288     6.6031   -26.4407     2.5013     0.1077     0.0503    76.6441     7.3169
  334.0000     7.3288     6.7077   -26.7458     2.5008     0.1069     0.0497    77.0409     7.4472
  334.5000     7.4650     6.8140   -26.9728     2.5005     0.1060     0.0500    76.5379     7.4847
  335.0000     7.6150     6.9347   -27.5928     2.5003     0.1053     0.0500    75.8122     7.4859
  335.5000     7.7600     6.9593   -28.4858     2.5000     0.1080     0.0499    74.8849     7.4584
  336.0000     7.9078     7.0096   -28.5543     2.4999     0.1107     0.0500    76.2914     7.4289
  336.5000     8.0358     7.0602   -28.2605     2.4996     0.1124     0.0500    77.7029     7.4020
  337.0000     8.0358     7.1111   -27.9969     2.4993     0.1084     0.0500    79.4768     7.3731
  337.5000     8.0358     7.1625   -27.7360     2.4995     0.1116     0.0501    80.6572     7.3436
  338.0000     8.0358     7.2142   -27.4664     2.4947     0.1180     0.0499    81.1187     7.3191
  338.5000     8.0358     7.2663   -27.2013     2.4864     0.1200     0.0496    80.6708     7.2866
  339.0000     8.0358     7.3187   -26.9349     2.4800     0.1224     0.0426    79.9163     7.2462
  339.5000     8.0358     7.3716   -26.6678     2.4768     0.1248     0.0359    78.7057     7.0176
  340.0000     8.0358     7.4248   -26.4008     2.4734     0.1272     0.0344    77.5881     6.7973
  340.5000     8.0358     7.4784   -26.1359     2.4703     0.1292     0.0353    77.4480     6.8737
  341.0000     8.0358     7.5324   -25.8702     2.4668     0.1214     0.0362    77.2847     6.9528
  341.5000     8.0778     7.5868   -25.6025     2.4710     0.1140     0.0369    77.1849     7.0473
  342.0000     8.1324     7.6415   -25.4888     2.4785     0.1132     0.0378    77.4494     7.1294
  342.5000     8.1852     7.6967   -25.4876     2.4861     0.1132     0.0385    79.4773     7.2119
  343.0000     8.4069     7.7523   -25.6892     2.4885     0.1154     0.0394    82.5742     7.1530
  343.5000     8.6260     7.8082   -26.3544     2.4866     0.1195     0.0401    83.7992     7.0903
