~VERSION INFORMATION
 VERS.                2.0:   CWLS LOG ASCII STANDARD - VERSION 2.0
 WRAP.                 NO:   ONE LINE PER DEPTH STEP
~WELL INFORMATION
#MNEM.UNIT      DATA TYPE    INFORMATION
#----------   ------------   ------------------------------
 STRT.F           60.0000:   START DEPTH
 STOP.F          894.0000:   STOP DEPTH
 STEP.F            0.5000:   STEP LENGTH
 NULL.          -999.2500:   NO VALUE
 COMP.           U S NAVY:   COMPANY
 WELL. RES 3 TEAPOT DOM #27S-35:   WELL
 FLD .        TEAPOT DOME:   FIELD
 LOC .      S35 T39N R78W:   LOCATION
 CNTY.            NATRONA:   COUNTY
 STAT.            WYOMING:   STATE
 CTRY. UNITED STATES OF AMERICA:   COUNTRY
 SRVC. Schlumberger Well Surveying Corp:   SERVICE COMPANY
 DATE.        30-JUL-1959:   LOGDATE
 API .       490250650600:   API NUMBER
~CURVE INFORMATION
#MNEM.UNIT       API CODE    CURVE DESCRIPTION
#----------   ------------   ------------------------------
 DEPT.F                  :   
 SPS .MV     60 010 01 00:   SPONTANEOUS POTENTIAL FROM SONIC
 DT  .US/F   60 520 32 00:   INTERVAL TRANSIT TIME
~PARAMETER INFORMATION
#MNEM.UNIT          VALUE    DESCRIPTION
#----------   ------------   ------------------------------
 PD  .                 GL:   PERMANENT DATUM
 EPD .F              5101:   ELEVATION PERMANENT DATUM
 LMF .                 KB:   LOG MEASURED FROM
 DAPD.F                 4:   FEET ABOVE PERMANENT DATUM
 DMF .                 KB:   DRILLING MEASURED FROM
 EKB .F              5105:   KELLING BUSHING
 EGL .F              5101:   GROUND LEVEL
 DATE.        30-JUL-1959:   RUN DATE
 RUN .                  1:   RUN NUMBER
 DD  .F               897:   DEPTH DRILLER
 DL  .F               897:   DEPTH LOGGER
 BLI .F               894:   BOTTOM LOG INTERVAL
 TLI .F                73:   TOP LOG INTERVAL
 CBD .F                17:   CASING BOTTOM DRILLER
 BS  .IN             6.75:   BIT SIZE
 BSD .F               897:   BIT SIZE AT DEPTH
 DFT .       OIL EMULSION:   DRILLING FLUID TYPE
 DFD .                9.0:   DRILLING FLUID DENSITY
 DFV .                 55:   DRILLING FLUID VISCOSITY
 DFPH.                  9:   DRILLING FLUID PH
 DFL .                3.8:   DRILLING FLUID LOSS
 RMS .OHMM            4.0:   RESISTIVITY MUD SAMPLE
 MST .F                79:   MUD SAMPLE TEMPERATURE
 RMF .OHMM            3.6:   RESISTIVITY MUD FILTRATE SAMPLE
 MFST.F                79:   MUD FILTRATE SAMPLE TEMPERATURE
 RMB .OHMM            4.0:   RESISTIVITY MUD AT BHT
 BHT .F                79:   BOTTOM HOLE TEMPERATURE
 TCS .HRS            0100:   TIME CURCULATED STOPPED
 LUN .               2545:   LOGGING UNIT NUMBER
 LUL .                RIV:   LOGGING UNIT LOCATION
 ENGI.           STAFFORD:   RECORDING ENGINEER
 WITN.             MARTIN:   WITNESSED BY
 CLNT.            A2DTECH:   CLIENT CODE
 ORIG.       2", 5" PRINT:   ORIGIN OF DATA
 UWI .       490250650600:   UNIQUE WELL ID
 DICO. A2D Technologies, Inc.:   DIGITIZING COMPANY
~OTHER INFORMATION
~A   DEPT      SPS         DT   
# ...
  667.5000   -38.5593    89.9448
  668.0000   -39.1243    91.2411
  668.5000   -39.5480    92.2340
  669.0000   -38.9234    93.3688
  669.5000   -37.8233    95.3546
  670.0000   -37.4294    96.9149
  670.5000   -37.4294    98.4752
  671.0000   -37.5706   100.5217
  671.5000   -37.4294   103.5307
  672.0000   -37.4294   109.1135
  672.5000   -37.4294   112.7305
  673.0000   -37.4294   116.2057
  673.5000   -37.2881   118.2624
  674.0000   -37.2881   117.0567
  674.5000   -37.2881   114.1489
  675.0000   -37.5706   110.8865
  675.5000   -38.2768   105.8301
  676.0000   -38.1356    91.7756
  676.5000   -37.4294    90.5669
  677.0000   -37.5706    96.7730
  677.5000   -38.5593    96.2057
  678.0000   -39.5480    92.0922
  678.5000   -39.5480    91.9504
  679.0000   -39.5480    98.4752
  679.5000   -39.2655    95.7801
  680.0000   -39.4068    96.0638
  680.5000   -39.5480    95.7306
  681.0000   -39.5480    94.3593
  681.5000   -38.2768    94.3349
  682.0000   -37.8531    94.7163
  682.5000   -37.8531    94.4326
  683.0000   -37.9944    94.5745
  683.5000   -37.9944    96.0638
  684.0000   -38.0007    98.4752
  684.5000   -38.7006    99.7518
  685.0000   -39.6893   100.3428
  685.5000   -39.9718   101.1876
  686.0000   -39.9718   103.5106
  686.5000   -40.1130   104.6454
  687.0000   -40.6780   104.5745
  687.5000   -40.9605   101.3121
  688.0000   -40.3391   100.6028
  688.5000   -38.8019   101.4539
  689.0000   -37.4294   101.7376
  689.5000   -37.2881   101.4078
  690.0000   -37.8531    99.4762
  690.5000   -38.5593    97.4081
  691.0000   -38.9831    94.6454
  691.5000   -38.5593    92.2340
  692.0000   -38.9831    92.7305
  692.5000   -39.9718    92.0213
  693.0000   -40.4159    91.5248
  693.5000   -40.8247    92.2340
  694.0000   -41.9492    93.6525
  694.5000   -42.3729    94.0071
  695.0000   -42.2316    93.7943
  695.5000   -42.0904    93.7908
  696.0000   -40.1130    95.7801
  696.5000   -37.7119    95.2837
  697.0000   -35.5932    95.9929
  697.5000   -34.6908    96.6312
  698.0000   -34.1808    96.7730
  698.5000   -34.4633    96.9149
  699.0000   -34.7458    97.0158
  699.5000   -34.6045    98.3372
  700.0000   -33.9072   102.3050
  700.5000   -33.1347   103.9392
  701.0000   -32.1440   103.8711
  701.5000   -31.4972   103.5192
  702.0000   -31.3559   102.6710
  702.5000   -31.9209   100.6062
  703.0000   -32.3446    97.6480
  703.5000   -32.6271    92.8588
  704.0000   -32.4859    92.6112
  704.5000   -32.3446    93.3948
  705.0000   -32.9096    94.4614
  705.5000   -33.3333    95.2444
  706.0000   -33.7571    95.3883
  706.5000   -33.8983    94.3280
  707.0000   -33.7571    93.6215
  707.5000   -33.1851    93.1988
  708.0000   -32.9096    92.7760
  708.5000   -33.6158    92.5661
  709.0000   -33.8983    92.4269
  709.5000   -33.6158    92.4298
  710.0000   -33.8983    92.5083
  710.5000   -34.4633    92.7998
  711.0000   -34.4633    93.2899
  711.5000   -34.4633    93.7182
  712.0000   -34.4633    94.0756
  712.5000   -34.1808    94.4330
  713.0000   -33.8983    94.5067
  713.5000   -33.4746    94.6514
  714.0000   -33.1921    94.6542
  714.5000   -32.7684    94.2314
  715.0000   -33.5028    93.6668
  715.5000   -34.1808    93.6696
  716.0000   -33.8983    94.5235
  716.5000   -33.6158    96.6539
  717.0000   -33.0508   101.0128
  717.5000   -32.7684   103.0130
  718.0000   -32.6271   104.0389
  718.5000   -32.7684   104.1835
  719.0000   -33.0508   104.1147
  719.5000   -33.1921   101.0685
  720.0000   -33.1921    86.3195
  720.5000   -33.1921    84.9032
  721.0000   -33.1921    85.9705
  721.5000   -33.1921    90.2995
  722.0000   -33.1921    96.8271
  722.5000   -33.1709   100.8015
  723.0000   -32.7684   103.4994
  723.5000   -32.6271   102.9348
  724.0000   -33.3333   101.6572
  724.5000   -34.4633    99.6874
  725.0000   -34.8870    96.4536
  725.5000   -35.0282    87.1310
  726.0000   -34.4633    92.8785
  726.5000   -34.4633    94.2281
  727.0000   -35.1695    93.3805
  727.5000   -35.7345    93.8798
  728.0000   -36.1582    94.8755
  728.5000   -35.5932    94.7364
  729.0000   -34.0226    94.1718
  729.5000   -33.1921    94.2455
  730.0000   -33.6158    95.3831
  730.5000   -33.8983    98.2937
  731.0000   -33.7571    99.4327
  731.5000   -33.3333    99.7887
  732.0000   -32.9096    99.4766
  732.5000   -32.7684    98.3055
  733.0000   -32.7684    96.1097
  733.5000   -32.9096    92.9210
  734.0000   -32.4859    90.9380
  734.5000   -32.3206    90.3734
  735.0000   -33.0508    89.9507
  735.5000   -33.8983    89.6691
  736.0000   -34.1808    90.6655
  736.5000   -33.7415    90.5264
  737.0000   -33.4492    90.1746
  737.5000   -33.8983    89.7518
  738.0000   -35.3107    89.2582
  738.5000   -36.0169    88.9733
  739.0000   -35.5932    88.6964
  739.5000   -35.1695    88.6998
  740.0000   -35.7345    88.8445
  740.5000   -36.2994    88.9891
  741.0000   -36.5819    89.2756
  741.5000   -36.1582    89.6330
  742.0000   -36.0169    90.1322
  742.5000   -36.5819    90.5605
  743.0000   -37.0056    90.6343
  743.5000   -36.4153    90.2115
  744.0000   -35.7119    89.4342
  744.5000   -35.1695    88.5150
  745.0000   -36.2994    87.3830
  745.5000   -37.7119    85.1638
  746.0000   -38.4181    84.4808
  746.5000   -38.8418    84.6381
  747.0000   -39.2655    89.2388
  747.5000   -39.8305    93.2842
  748.0000   -40.2542    96.9040
  748.5000   -37.7119    97.1905
  749.0000   -36.2994    96.9805
  749.5000   -35.5932    96.4868
  750.0000   -35.3107    94.4309
  750.5000   -35.3628    89.2279
  751.0000   -35.4148    83.5152
  751.5000   -35.3063    81.6734
  752.0000   -35.3048    81.4623
  752.5000   -35.1624    82.0320
  753.0000   -35.3023    84.5058
  753.5000   -35.4421    86.1506
  754.0000   -35.5819    86.2227
  754.5000   -35.7217    84.6646
  755.0000   -36.1443    84.7377
  755.5000   -36.7079    85.3073
  756.0000   -37.2710    86.0187
  756.5000   -37.1283    85.7372
  757.0000   -36.8444    84.8883
  757.5000   -38.1142    84.7481
  758.0000   -40.0901    84.8336
  758.5000   -40.4102    86.9881
  759.0000   -41.2373    94.2582
  759.5000   -43.0522    97.2391
  760.0000   -45.0282    98.5178
  760.5000   -45.5921    96.7470
  761.0000   -42.7654    99.9406
  761.5000   -42.3406    97.1059
  762.0000   -43.8925    89.7322
  762.5000   -43.0436    88.5282
  763.0000   -42.4772    94.5593
  763.5000   -43.1819    98.6365
  764.0000   -46.9981   100.9461
  764.5000   -49.8659   107.1894
  765.0000   -51.6525    98.3972
  765.5000   -51.2274    96.2003
  766.0000   -46.8474   115.4229
  766.5000   -44.7273   124.8681
  767.0000   -45.7145   126.9873
  767.5000   -50.6566   127.7697
  768.0000   -51.3614   128.3392
  768.5000   -51.6424   133.4478
  769.0000   -51.7826   133.1663
  769.5000   -51.4765   131.7500
  770.0000   -50.7815   126.2203
  770.5000   -49.3771   122.5343
  771.0000   -47.3983   103.0329
  771.5000   -46.6332   100.4105
  772.0000   -48.5253   120.6260
  772.5000   -45.6990   147.2991
  773.0000   -44.9917   123.3724
  773.5000   -45.9786   113.9312
  774.0000   -52.8981   114.1819
  774.5000   -53.1795    93.8982
  775.0000   -53.1544   102.9789
  775.5000   -52.4269   113.9740
  776.0000   -51.9002    98.9407
  776.5000   -53.7387    94.8289
  777.0000   -55.8559    86.0373
  777.5000   -55.2894    80.9607
  778.0000   -44.1298    79.8709
  778.5000   -42.5747    79.8210
  779.0000   -41.7258    71.6482
  779.5000   -41.8656    72.9270
  780.0000   -42.9941    77.2555
  780.5000   -43.1342    74.1371
  781.0000   -42.9915    74.3520
  781.5000   -43.6963    76.7655
  782.0000   -45.1734    84.7819
  782.5000   -43.1285    84.9963
  783.0000   -42.2796    84.4776
  783.5000   -42.4194    83.7127
  784.0000   -43.4066    82.0950
  784.5000   -44.5351    80.3950
  785.0000   -45.2402    80.3262
  785.5000   -44.6735    84.3002
  786.0000   -44.6987    84.3733
  786.5000   -45.0947    79.5527
  787.0000   -45.2345    79.1998
  787.5000   -44.3856    81.1883
  788.0000   -43.3954    85.3749
  788.5000   -44.1002    84.6656
