~VERSION INFORMATION
 VERS.                2.0:   CWLS LOG ASCII STANDARD - VERSION 2.0
 WRAP.                 NO:   ONE LINE PER DEPTH STEP
~WELL INFORMATION
#MNEM.UNIT      DATA TYPE    INFORMATION
#----------   ------------   ------------------------------
 STRT.F          250.0000:   START DEPTH
 STOP.F         1798.0000:   STOP DEPTH
 STEP.F            0.5000:   STEP LENGTH
 NULL.          -999.2500:   NO VALUE
 COMP. BROWN JOHN E&C INC:   COMPANY
 WELL. NPR 3 STX-10 #57-10:   WELL
 FLD .  TEAPOT DOME NPR 3:   FIELD
 LOC .      S10 T38N R78W:   LOCATION
 CNTY.            NATRONA:   COUNTY
 STAT.            WYOMING:   STATE
 CTRY. UNITED STATES OF AMERICA:   COUNTRY
 SRVC.           BIRDWELL:   SERVICE COMPANY
 DATE.        24-FEB-1979:   LOGDATE
 API .       490251096900:   API NUMBER
~CURVE INFORMATION
#MNEM.UNIT       API CODE    CURVE DESCRIPTION
#----------   ------------   ------------------------------
 DEPT.F                  :   
 GRD .GAPI   45 310 01 00:   GAMMA RAY FROM DENSITY LOG
 CALD.IN     45 280 60 00:   CALIPER
 RHOB.G/C3   45 350 01 00:   BULK DENSITY
 DPHI.DEC    45 890 12 00:   DENSITY POROSITY SANDSTONE
 CORR.G/C3   45 356 01 00:   DENSITY CORRECTION
~PARAMETER INFORMATION
#MNEM.UNIT          VALUE    DESCRIPTION
#----------   ------------   ------------------------------
 PD  .                 GL:   PERMANENT DATUM
 EPD .F              5201:   ELEVATION PERMANENT DATUM
 LMF .                 KB:   LOG MEASURED FROM
 DAPD.F                10:   FEET ABOVE PERMANENT DATUM
 DMF .                 KB:   DRILLING MEASURED FROM
 EKB .F              5211:   KELLING BUSHING
 EGL .F              5201:   GROUND LEVEL
 RUN .                  1:   RUN NUMBER
 DD  .F              1802:   DEPTH DRILLER
 DL  .F              1793:   DEPTH LOGGER
 BLI .F              1793:   BOTTOM LOG INTERVAL
 TLI .F               250:   TOP LOG INTERVAL
 CS  .IN            9.625:   CASING SIZE
 CBD .F               500:   CASING BOTTOM DRILLER
 CBL .F               490:   CASING BOTTOM LOGGER
 BS  .IN             8.75:   BIT SIZE
 BSD .F              1802:   BIT SIZE AT DEPTH
 DFT .                OIL:   DRILLING FLUID TYPE
 BHT .F                90:   BOTTOM HOLE TEMPERATURE
 TCS .HRS               4:   TIME CURCULATED STOPPED
 MRT .F                90:   MAXIMUM RECORDED TEMPERATURE
 LUN .               3029:   LOGGING UNIT NUMBER
 LUL .             CASPER:   LOGGING UNIT LOCATION
 ENGI.            ROLLINS:   RECORDING ENGINEER
 WITN.              AMEND:   WITNESSED BY
 CLNT.            A2DTECH:   CLIENT CODE
 ORIG.       2", 5" PRINT:   ORIGIN OF DATA
 UWI .       490251096900:   UNIQUE WELL ID
 DICO. A2D Technologies, Inc.:   DIGITIZING COMPANY
~OTHER INFORMATION
~A   DEPT       GRD        CALD       RHOB       DPHI      CORR  
# ...
  738.0000   119.7848     9.6093     2.4746     0.0475     0.0723
  738.5000   125.1476     9.5920     2.4572     0.0577     0.0525
  739.0000   123.4802     9.5772     2.4566     0.0533     0.0567
  739.5000   121.4103     9.5793     2.4764     0.0443     0.0642
  740.0000   120.1395     9.5809     2.4981     0.0352     0.0717
  740.5000   122.9389     9.5824     2.5064     0.0288     0.0793
  741.0000   124.4231     9.5840     2.5008     0.0313     0.0868
  741.5000   121.1793     9.5856     2.4935     0.0337     0.0943
  742.0000   119.6092     9.5872     2.4867     0.0361     0.1018
  742.5000   129.0562     9.5888     2.4857     0.0349     0.1093
  743.0000   135.9080     9.5904     2.4932     0.0338     0.1168
  743.5000   135.9167     9.5919     2.5009     0.0316     0.1265
  744.0000   134.4980     9.5935     2.5087     0.0253     0.1399
  744.5000   129.8213     9.5951     2.5164     0.0190     0.1532
  745.0000   125.2549     9.5966     2.5236     0.0170     0.1653
  745.5000   120.6919     9.5933     2.5194     0.0246     0.1612
  746.0000   116.0974     9.5828     2.4939     0.0367     0.1529
  746.5000   115.4952     9.5723     2.4681     0.0487     0.1444
  747.0000   116.7929     9.5619     2.4622     0.0521     0.1551
  747.5000   118.0966     9.5514     2.4803     0.0332     0.1932
  748.0000   119.7834     9.5410     2.5029     0.0234     0.2207
  748.5000   123.2671     9.5305     2.5257     0.0160     0.2263
  749.0000   126.7268     9.5197     2.5387     0.0080     0.2322
  749.5000   128.4741     9.5171     2.5529    -0.0044     0.2382
  750.0000   120.7851     9.5171     2.5766    -0.0180     0.2436
  750.5000   114.8754     9.5171     2.5786    -0.0245     0.2193
  751.0000   114.6664     9.5151     2.5343     0.0217     0.1915
  751.5000   115.6705     9.6165     2.5011     0.0272     0.1762
  752.0000   116.6292     9.7617     2.5122     0.0226     0.1951
  752.5000   117.2421     9.9108     2.5261     0.0168     0.2051
  753.0000   111.1826     9.8843     2.5152     0.0268     0.1630
  753.5000   107.2107     9.7700     2.4727     0.0491     0.1102
  754.0000   107.7144     9.6611     2.4561     0.0533     0.1274
  754.5000   110.2740     9.6701     2.4859     0.0355     0.1730
  755.0000   115.9973     9.6834     2.5127     0.0269     0.1916
  755.5000   121.7295     9.6963     2.4887     0.0402     0.1942
  756.0000   126.9119     9.7090     2.4604     0.0557     0.1965
  756.5000   124.3457     9.7217     2.4704     0.0501     0.1917
  757.0000   121.0505     9.7344     2.4838     0.0465     0.1507
  757.5000   117.7896     9.7471     2.4793     0.0465     0.1097
  758.0000   114.5451     9.7598     2.4761     0.0297     0.0680
  758.5000   111.2925     9.7725     2.4874     0.0350     0.0521
  759.0000   109.5748     9.7851     2.4990     0.0434     0.0526
  759.5000   112.0450     9.7978     2.4944     0.0410     0.0619
  760.0000   115.4365     9.8105     2.4887     0.0393     0.0683
  760.5000   114.6945     9.8232     2.4830     0.0436     0.0632
  761.0000   113.5063     9.8359     2.4771     0.0478     0.0578
  761.5000   113.0483     9.8486     2.4721     0.0509     0.0562
  762.0000   115.1086     9.8613     2.4671     0.0503     0.0634
  762.5000   117.1213     9.8740     2.4622     0.0524     0.0718
  763.0000   117.2138     9.8867     2.4604     0.0546     0.0802
  763.5000   115.9011     9.8994     2.4699     0.0520     0.0886
  764.0000   114.6382     9.9119     2.4792     0.0404     0.0970
  764.5000   113.7261     9.9174     2.4885     0.0471     0.1043
  765.0000   119.9472     9.9124     2.4978     0.0423     0.1109
  765.5000   119.1954     9.9075     2.5027     0.0328     0.1153
  766.0000   118.2861     9.9024     2.4978     0.0281     0.1089
  766.5000   117.3327     9.8908     2.4919     0.0355     0.1026
  767.0000   119.7801     9.8672     2.4860     0.0437     0.0961
  767.5000   122.1863     9.8438     2.4799     0.0387     0.1066
  768.0000   118.8427     9.8203     2.4897     0.0298     0.1204
  768.5000   115.4792     9.7969     2.5096     0.0209     0.1342
  769.0000   112.0253     9.7736     2.5298     0.0119     0.1465
  769.5000   111.0751     9.7502     2.5422     0.0068     0.1482
  770.0000   115.9501     9.7334     2.5434     0.0064     0.1501
  770.5000   122.6009     9.6860     2.5375     0.0103     0.1386
  771.0000   127.3905     9.6380     2.5288     0.0149     0.1220
  771.5000   124.9178     9.5901     2.5204     0.0196     0.1053
  772.0000   121.2150     9.5421     2.5121     0.0242     0.0887
  772.5000   117.5172     9.4980     2.5039     0.0277     0.0757
  773.0000   115.5683     9.5033     2.5034     0.0243     0.0790
  773.5000   117.5598     9.5098     2.5120     0.0192     0.0822
  774.0000   119.3169     9.5162     2.5197     0.0213     0.0821
  774.5000   118.0786     9.5225     2.5140     0.0261     0.0720
  775.0000   115.6445     9.5288     2.5052     0.0310     0.0621
  775.5000   113.1681     9.5350     2.4966     0.0350     0.0560
  776.0000   110.5070     9.5413     2.4900     0.0355     0.0647
  776.5000   117.3393     9.5476     2.4948     0.0360     0.0789
  777.0000   126.5750     9.5539     2.4992     0.0365     0.0932
  777.5000   128.6699     9.5602     2.4949     0.0386     0.1076
  778.0000   125.6895     9.5665     2.4850     0.0435     0.1119
  778.5000   122.5118     9.5728     2.4750     0.0484     0.1079
  779.0000   119.3662     9.5791     2.4648     0.0530     0.1032
  779.5000   117.8359     9.5854     2.4633     0.0524     0.0980
  780.0000   120.9375     9.5917     2.4677     0.0476     0.0979
  780.5000   123.4050     9.5979     2.4879     0.0428     0.1128
  781.0000   123.8831     9.6042     2.5048     0.0384     0.1279
  781.5000   120.8777     9.6106     2.4884     0.0320     0.1431
  782.0000   117.5935     9.6168     2.4962     0.0260     0.1582
  782.5000   114.3406     9.6026     2.5103     0.0216     0.1623
  783.0000   111.0753     9.5849     2.5197     0.0193     0.1623
  783.5000   107.9314     9.5668     2.5224     0.0169     0.1625
  784.0000   107.9099     9.5614     2.5244     0.0181     0.1544
  784.5000   113.8022     9.6950     2.5169     0.0215     0.1419
  785.0000   119.8822     9.8349     2.5092     0.0237     0.1294
  785.5000   120.8217     9.7780     2.5016     0.0265     0.1168
  786.0000   120.3477     9.6797     2.4940     0.0353     0.1058
  786.5000   121.1091     9.5807     2.4864     0.0429     0.1020
  787.0000   123.5389     9.5771     2.4787     0.0437     0.1022
  787.5000   125.9334     9.5956     2.4760     0.0421     0.1078
  788.0000   129.3307     9.6150     2.5043     0.0310     0.1177
  788.5000   127.8090     9.6341     2.5271     0.0184     0.1266
  789.0000   124.7755     9.6533     2.5113     0.0317     0.1098
  789.5000   121.7429     9.6729     2.4943     0.0249     0.0940
  790.0000   119.5582     9.6843     2.5060     0.0205     0.1069
  790.5000   124.2077     9.6932     2.5194     0.0294     0.1095
  791.0000   127.7656     9.7021     2.4925     0.0476     0.0814
  791.5000   127.4218     9.7109     2.4607     0.0657     0.0535
  792.0000   123.1737     9.7197     2.4326     0.0713     0.0829
  792.5000   118.6982     9.7286     2.4543     0.0542     0.1282
  793.0000   117.4156     9.7375     2.4766     0.0516     0.1738
  793.5000   116.8301     9.7463     2.4986     0.0345     0.2193
  794.0000   113.1231     9.7555     2.5205     0.0181     0.2646
  794.5000   108.9741     9.7392     2.5421    -0.0037     0.2861
  795.0000   107.0276     9.7083     2.5543     0.0015     0.2652
  795.5000   106.6257     9.6772     2.5372     0.0118     0.2115
  796.0000   115.6406     9.6460     2.5273     0.0141     0.1757
  796.5000   124.9839     9.6147     2.5337     0.0080     0.1700
  797.0000   123.8406     9.5839     2.5376     0.0089     0.1640
  797.5000   121.7651     9.5562     2.5318     0.0159     0.1507
  798.0000   119.6450     9.5640     2.5147     0.0276     0.1356
  798.5000   117.4610     9.5729     2.4978     0.0394     0.1201
