~VERSION INFORMATION
 VERS.                2.0:   CWLS LOG ASCII STANDARD - VERSION 2.0
 WRAP.                 NO:   ONE LINE PER DEPTH STEP
~WELL INFORMATION
#MNEM.UNIT      DATA TYPE    INFORMATION
#----------   ------------   ------------------------------
 STRT.F           15.0000:   START DEPTH
 STOP.F          550.0000:   STOP DEPTH
 STEP.F            0.5000:   STEP LENGTH
 NULL.          -999.2500:   NO VALUE
 COMP. LAWRENCE/ALLISON INC:   COMPANY
 WELL. NPR 3 #43-21 SX 10:   WELL
 FLD .             TEAPOT:   FIELD
 LOC .      S10 T38N R78W:   LOCATION
 CNTY.            NATRONA:   COUNTY
 STAT.            WYOMING:   STATE
 CTRY. UNITED STATES OF AMERICA:   COUNTRY
 SRVC.           Gearhart:   SERVICE COMPANY
 DATE.        05-JUL-1986:   LOGDATE
 API .       490251110100:   API NUMBER
~CURVE INFORMATION
#MNEM.UNIT       API CODE    CURVE DESCRIPTION
#----------   ------------   ------------------------------
 DEPT.F                  :   
 GRR .GAPI   07 310 01 00:   GAMMA RAY
 RILD.OHMM   07 120 46 00:   INDUCTION LOG DEEP
 RILM.OHMM   07 120 44 00:   INDUCTION LOG MEDIUM
~PARAMETER INFORMATION
#MNEM.UNIT          VALUE    DESCRIPTION
#----------   ------------   ------------------------------
 PD  .                 GL:   PERMANENT DATUM
 EPD .F              5205:   ELEVATION PERMANENT DATUM
 LMF .                 KB:   LOG MEASURED FROM
 DAPD.F                 5:   FEET ABOVE PERMANENT DATUM
 DMF .                 KB:   DRILLING MEASURED FROM
 EKB .F              5210:   KELLING BUSHING
 EGL .F              5205:   GROUND LEVEL
 DATE.        05-JUL-1986:   RUN DATE
 RUN .                  1:   RUN NUMBER
 DD  .F               560:   DEPTH DRILLER
 DL  .F               560:   DEPTH LOGGER
 BLI .F               550:   BOTTOM LOG INTERVAL
 TLI .F                15:   TOP LOG INTERVAL
 CS  .IN            8.625:   CASING SIZE
 CBD .F                47:   CASING BOTTOM DRILLER
 CBL .F                47:   CASING BOTTOM LOGGER
 BS  .IN            7.875:   BIT SIZE
 BSD .F               560:   BIT SIZE AT DEPTH
 DFT .                AIR:   DRILLING FLUID TYPE
 TCS .HRS            2100:   TIME CURCULATED STOPPED
 TLAB.HRS            2230:   TIME LOGGER AT BOTTOM
 MRT .F                83:   MAXIMUM RECORDED TEMPERATURE
 LUN .               7609:   LOGGING UNIT NUMBER
 LUL .           GILLETTE:   LOGGING UNIT LOCATION
 ENGI.              BAUER:   RECORDING ENGINEER
 WITN.              FIVAS:   WITNESSED BY
 CLNT.            A2DTECH:   CLIENT CODE
 ORIG.           5" PRINT:   ORIGIN OF DATA
 UWI .       490251110100:   UNIQUE WELL ID
 DICO. A2D Technologies, Inc.:   DIGITIZING COMPANY
~OTHER INFORMATION
~A   DEPT      GRR       RILD       RILM   
# ...
  197.0000   113.2603     8.5813    13.7454
  197.5000   112.0396     8.6412    10.4497
  198.0000   111.4277     8.6406     9.2720
  198.5000   114.1644     8.7623     9.2058
  199.0000   115.9878     8.8234     9.1401
  199.5000   115.0715     8.8850     9.1388
  200.0000   112.6332     8.9470     9.1377
  200.5000   111.4057     9.0721     9.1370
  201.0000   112.0054     9.1337     9.1363
  201.5000   112.6074     9.1318     9.0082
  202.0000   112.5960     9.1299     8.9445
  202.5000   111.6737     9.1280     8.9438
  203.0000   110.4469     8.9987     8.9432
  203.5000   109.8290     8.9338     8.8800
  204.0000   109.2111     8.9319     8.8794
  204.5000   111.6373     8.8675     8.8166
  205.0000   112.5437     8.8657     8.6929
  205.5000   110.0970     8.6789     8.6315
  206.0000   106.4349     8.3776     8.5705
  206.5000   103.9905     8.1437     8.4503
  207.0000   106.1123     8.0284     8.3318
  207.5000   109.1473     7.8593     8.2150
  208.0000   111.2691     7.5864     7.9868
  208.5000   112.5104     7.3230     7.6566
  209.0000   111.5553     7.0193     7.3400
  209.5000   110.0242     6.4504     6.9384
  210.0000   107.8842     5.8040     6.6050
  210.5000   109.7016     5.1859     6.1564
  211.0000   112.4322     4.8330     5.5403
  211.5000   115.1628     4.3794     4.9509
  212.0000   114.8493     3.9963     4.3319
  212.5000   111.1872     3.5456     3.9814
  213.0000   108.1217     3.3512     3.6593
  213.5000   103.8307     3.2122     3.3396
  214.0000    97.7168     3.1006     3.1569
  214.5000    94.6799     3.0353     3.0908
  215.0000    94.0945     3.0561     3.0690
  215.5000    98.1887     3.1205     3.0904
  216.0000   105.5099     3.3002     3.1339
  216.5000   109.0481     3.5898     3.1780
  217.0000   109.5832     3.9322     3.4339
  217.5000   109.6144     4.2175     3.8697
  218.0000   113.9157     4.5554     4.1821
  218.5000   117.0077     5.0963     4.7828
  219.0000   119.8969     5.6218     5.3466
  219.5000   118.2517     5.9456     5.6982
  220.0000   116.2234     6.1569     5.9807
  220.5000   115.6055     6.2867     6.1511
  221.0000   114.9876     6.2854     6.1907
  221.5000   115.2852     6.2400     6.2339
  222.0000   115.8849     6.1086     6.1898
  222.5000   117.0935     5.9381     6.0980
  223.0000   118.9086     5.4953     5.9648
  223.5000   119.8127     4.9446     5.5148
  224.0000   121.3257     4.8066     5.0372
  224.5000   122.5365     4.7385     4.8049
  225.0000   121.9163     4.6387     4.7044
  225.5000   119.4719     4.6378     4.7040
  226.0000   115.5054     4.7355     4.7703
  226.5000   115.8007     4.8354     4.8375
  227.0000   117.6181     5.0425     4.9401
  227.5000   118.2201     5.4465     5.2253
  228.0000   118.5154     5.9243     5.5270
  228.5000   118.1996     6.3542     5.9288
  229.0000   116.3640     6.6731     6.1838
  229.5000   114.8329     6.9589     6.4043
  230.0000   115.4326     7.1056     6.7266
  230.5000   117.5544     7.3066     6.9666
  231.0000   118.4585     7.4607     7.3173
  231.5000   118.1450     7.6180     7.5784
  232.0000   114.4829     7.8334     7.7938
  232.5000   114.4738     7.9986     8.0154
  233.0000   113.5515     8.0533     8.1282
  233.5000   110.4982     8.1655     8.1276
  234.0000   107.1406     8.1638     8.0702
  234.5000   107.1315     8.1049     7.9570
  235.0000   108.3400     8.0465     7.7905
  235.5000   111.0707     7.6587     7.6813
  236.0000   115.6278     7.3928     7.5206
  236.5000   118.0540     7.1864     7.4151
  237.0000   116.5228     6.9369     7.1587
  237.5000   115.2960     6.4649     6.9598
  238.0000   113.4605     6.1968     6.6721
  238.5000   115.2778     5.9816     6.3962
  239.0000   117.7040     5.7335     6.1750
  239.5000   119.2193     5.5344     5.9197
  240.0000   121.6432     5.3423     5.6750
  240.5000   122.5496     5.2298     5.4022
  241.0000   120.7118     5.2655     5.1426
  241.5000   119.4850     5.3015     5.0350
  242.0000   117.9538     5.4133     4.9995
  242.5000   116.7271     5.5664     5.2511
  243.0000   115.1959     5.8458     5.5154
  243.5000   114.2736     6.3141     5.8338
  244.0000   114.8733     6.7722     6.2142
  244.5000   118.5172     7.1623     6.7130
  245.0000   123.0743     7.4690     6.9525
  245.5000   125.1961     7.5731     7.2005
  246.0000   126.7090     7.6787     7.5100
  246.5000   125.4823     7.7857     7.7235
  247.0000   125.1688     7.8389     7.8323
  247.5000   125.1597     7.8373     7.9427
  248.0000   123.9329     7.8909     8.0544
  248.5000   120.8797     7.9448     8.1107
  249.0000   119.6529     7.9991     8.1100
  249.5000   119.9482     8.0538     8.1094
  250.0000   120.8524     8.1089     8.0929
  250.5000   122.9866     8.0521     7.9952
  251.0000   122.9896     7.9958     7.9387
  251.5000   123.6016     7.9398     7.9381
  252.0000   120.8649     7.9398     7.8820
  252.5000   119.3459     7.8842     7.8262
  253.0000   118.7394     7.8842     7.8257
  253.5000   122.7006     7.8842     7.8804
  254.0000   127.2699     7.8842     7.8798
  254.5000   129.4038     7.8842     7.8792
  255.0000   129.1017     7.8842     7.8786
  255.5000   127.2791     7.8228     7.8781
  256.0000   122.4115     7.7147     7.8224
  256.5000   120.2837     7.5020     7.5518
  257.0000   118.0335     7.3466     7.2906
  257.5000   117.5493     7.1440     7.0881
  258.0000   119.1558     6.9470     6.7475
  258.5000   118.1035     6.7551     6.5141
  259.0000   116.6251     6.5220     6.3332
  259.5000   116.3440     6.3412     6.1572
  260.0000   120.9132     6.2090     5.9862
  260.5000   123.6560     5.9527     5.9022
  261.0000   121.8326     5.8286     5.8195
  261.5000   119.0960     5.7878     5.6578
  262.0000   118.7133     5.8286     5.5394
  262.5000   120.3198     5.8286     5.3104
  263.0000   122.4537     5.7472     5.1993
  263.5000   125.1965     5.5880     5.1196
  264.0000   124.8944     5.5100     5.0546
  264.5000   123.3762     5.4331     5.0188
  265.0000   121.2476     5.3951     5.0185
  265.5000   122.4691     5.3951     5.1301
  266.0000   121.8633     5.5100     5.3483
  266.5000   120.0399     5.6670     5.6547
  267.0000   118.2165     5.9110     5.9804
  267.5000   117.3056     6.2090     6.3257
  268.0000   117.9182     6.5679     6.6440
  268.5000   117.9213     6.8507     6.8329
  269.0000   117.6199     6.8028     6.8806
  269.5000   117.0142     6.6143     6.8801
  270.0000   118.5393     6.4310     6.7836
  270.5000   120.6733     6.2528     6.5952
  271.0000   122.5028     6.0795     6.3671
  271.5000   124.9412     5.8696     5.9766
  272.0000   121.0472     5.7070     5.6495
  272.5000   115.7129     5.5489     5.3404
  273.0000   113.0775     5.5489     5.3026
  273.5000   114.4204     5.5489     5.2283
  274.0000   119.5984     5.6670     5.2647
  274.5000   124.0660     5.8696     5.5297
  275.0000   124.9619     6.0369     5.8081
  275.5000   120.7032     6.3412     6.1434
  276.0000   116.4445     6.5679     6.4075
  276.5000   114.0123     6.8028     6.7300
  277.0000   114.0153     7.1457     7.2702
  277.5000   114.6272     7.5059     8.3078
  278.0000   113.7170     7.7742    10.4013
  278.5000   112.1981     7.8950    11.3154
  279.0000   110.6790     8.0719    12.0532
  279.5000   110.3769     8.2326    12.3960
  280.0000   115.2514     8.4580    12.3951
  280.5000   120.1251     8.5177    11.5800
  281.0000   121.3458     8.5177     9.5592
  281.5000   121.3489     8.5777     8.9075
  282.0000   121.0475     8.6382     8.8396
  282.5000   120.4410     8.6382     8.5988
  283.0000   118.9228     8.6991     8.5380
  283.5000   117.0994     8.6382     8.5976
  284.0000   115.2760     8.6382     8.5970
  284.5000   112.8437     8.6382     8.6570
  285.0000   110.4115     8.6382     8.7174
  285.5000   108.2836     8.6382     8.7783
  286.0000   106.7646     8.6382     8.8396
  286.5000   107.9854     8.6991     8.8389
  287.0000   109.3272     8.7604     8.9007
  287.5000   111.7453     8.8844     8.9000
