~VERSION INFORMATION
 VERS.                2.0:   CWLS LOG ASCII STANDARD - VERSION 2.0
 WRAP.                 NO:   ONE LINE PER DEPTH STEP
~WELL INFORMATION
#MNEM.UNIT      DATA TYPE    INFORMATION
#----------   ------------   ------------------------------
 STRT.F           84.0000:   START DEPTH
 STOP.F          849.5000:   STOP DEPTH
 STEP.F            0.5000:   STEP LENGTH
 NULL.          -999.2500:   NO VALUE
 COMP. U S NAVY/INTEX OIL CO:   COMPANY
 WELL.     NPR 3 #81-S-34:   WELL
 FLD .        TEAPOT DOME:   FIELD
 LOC .      S34 T39N R78W:   LOCATION
 CNTY.            NATRONA:   COUNTY
 STAT.            WYOMING:   STATE
 CTRY. UNITED STATES OF AMERICA:   COUNTRY
 SRVC.       Schlumberger:   SERVICE COMPANY
 DATE.        29-JUL-1963:   LOGDATE
 API .       490250656700:   API NUMBER
~CURVE INFORMATION
#MNEM.UNIT       API CODE    CURVE DESCRIPTION
#----------   ------------   ------------------------------
 DEPT.F                  :   
 CALS.IN     60 280 50 00:   CALIPER FROM SONIC LOG
 DT  .US/F   60 520 33 00:   INTERVAL TRANSIT TIME
 SPR .MV     05 010 01 00:   SPONTANEOUS POTENTIAL FROM RES.
 ILD .OHMM   05 120 46 00:   INDUCTION LOG DEEP
 ASN .OHMM   05 041 16 00:   AMPLIFIED SHORT NORMAL 16"
 CILD.MMHO   05 110 46 00:   CONDUCTIVITY INDUCTION LOG DEEP
 GR  .GAPI   30 310 01 00:   GAMMA RAY FROM RES.
~PARAMETER INFORMATION
#MNEM.UNIT          VALUE    DESCRIPTION
#----------   ------------   ------------------------------
 PD  .                 GL:   PERMANENT DATUM
 EPD .F              5067:   ELEVATION PERMANENT DATUM
 LMF .                 KB:   LOG MEASURED FROM
 DAPD.F                 5:   FEET ABOVE PERMANENT DATUM
 DMF .                 KB:   DRILLING MEASURED FROM
 EKB .F              5072:   KELLING BUSHING
 EGL .F              5067:   GROUND LEVEL
 DATE.          7-29-1963:   RUN DATE
 RUN .                  1:   RUN NUMBER
 DD  .F               850:   DEPTH DRILLER
 DL  .F               850:   DEPTH LOGGER
 BLI .F               849:   BOTTOM LOG INTERVAL
 TLI .F                90:   TOP LOG INTERVAL
 CS  .IN            8.625:   CASING SIZE
 CBD .F                10:   CASING BOTTOM DRILLER
 BS  .IN            7.875:   BIT SIZE
 BSD .F               850:   BIT SIZE AT DEPTH
 DFT .            GEL-OIL:   DRILLING FLUID TYPE
 DFD .                9.4:   DRILLING FLUID DENSITY
 DFV .                 40:   DRILLING FLUID VISCOSITY
 DFPH.                  9:   DRILLING FLUID PH
 DFL .                8.4:   DRILLING FLUID LOSS
 MSS .           FLOWLINE:   MUD SAMPLE SOURCE
 RMS .OHMM           3.08:   RESISTIVITY MUD SAMPLE
 MST .F                79:   MUD SAMPLE TEMPERATURE
 RMF .OHMM           2.39:   RESISTIVITY MUD FILTRATE SAMPLE
 MFST.F                79:   MUD FILTRATE SAMPLE TEMPERATURE
 RMC .OHMM           3.29:   RESISTIVITY MUD CAKE
 MCST.F                79:   MUD CAKE SAMPLE TEMPERATURE
 MFSS.                 MP:   MUD FILTRATE SAMPLE SOURCE
 MCSS.                 MP:   MUD CAKE SAMPLE SOURCE
 TCS .HRS               1:   TIME CURCULATED STOPPED
 LUN .               4507:   LOGGING UNIT NUMBER
 LUL .              CSPR.:   LOGGING UNIT LOCATION
 ENGI.             KNOBEL:   RECORDING ENGINEER
 WITN.          JORGENSON:   WITNESSED BY
 CLNT.            A2DTECH:   CLIENT CODE
 ORIG.           5" PRINT:   ORIGIN OF DATA
 UWI .       490250656700:   UNIQUE WELL ID
 DICO. A2D Technologies, Inc.:   DIGITIZING COMPANY
~OTHER INFORMATION
~A   DEPT     CALS         DT        SPR        ILD        ASN       CILD         GR   
# ...
  539.0000     7.5717   103.1516   -31.6282     7.0647     8.7924   146.0371  -999.2500
  539.5000     7.6000   103.8529   -31.6286     6.9576     8.6415   148.0417  -999.2500
  540.0000     7.5813   104.2331   -31.6283     6.9901     8.5384   149.0787  -999.2500
  540.5000     7.5834   102.8221   -31.6279     7.0203     8.4778   149.0586  -999.2500
  541.0000     7.6886   103.3835   -31.6296     7.0508     8.4174   149.0586  -999.2500
  541.5000     7.7378   103.2196   -31.6720     7.0813     8.4102   147.7585  -999.2500
  542.0000     7.7289   102.8537   -31.8190     7.1115     8.4487   146.2791  -999.2500
  542.5000     7.7195   102.4877   -31.4752     7.1423     8.5772   144.7998  -999.2500
  543.0000     7.7281   101.6338   -31.1267     7.1867     8.7008   143.3204  -999.2500
  543.5000     7.7803   100.7070   -30.7972     7.2877     8.8298   141.8410  -999.2500
  544.0000     7.8320    99.8506   -30.6907     7.3866     8.9583   140.3616  -999.2500
  544.5000     7.8838   100.5217   -30.5932     7.4857     9.0190   138.8822  -999.2500
  545.0000     7.9375   100.9462   -30.4944     7.5808     9.0412   138.5983  -999.2500
  545.5000     7.8895   100.0481   -30.3911     7.5843     9.0628   138.5983  -999.2500
  546.0000     7.7759    99.2165   -30.5061     7.5839     9.0842   137.5277  -999.2500
  546.5000     7.6592    98.1733   -30.6708     7.5834     9.1052   135.6989  -999.2500
  547.0000     7.6661    97.4602   -30.8365     7.5771     9.1661   133.8781  -999.2500
  547.5000     7.7398    98.3860   -31.0018     7.7107     9.2376   132.3045  -999.2500
  548.0000     7.6244    99.5201   -31.1681     7.7656     9.3072   132.5678  -999.2500
  548.5000     7.4614   100.6542   -31.4658     7.7247     9.3515   133.0180  -999.2500
  549.0000     7.5442   101.7883   -31.8053     7.5774     9.3889   133.4683  -999.2500
  549.5000     7.7002   102.9426   -32.0547     7.5720     9.3994   133.9185  -999.2500
  550.0000     7.6554   102.2442   -31.8238     7.5620     9.3576   134.3687  -999.2500
  550.5000     7.5825   101.2515   -31.5137     7.5527     9.3156   135.3548  -999.2500
  551.0000     7.5902   100.5503   -31.2014     7.5434     9.2741   136.4010  -999.2500
  551.5000     7.6996   101.1574   -30.8865     7.5341     9.2332   137.4473  -999.2500
  552.0000     7.8070   101.0199   -30.7827     7.5248     9.1941   138.4935  -999.2500
  552.5000     7.9144    99.9502   -30.5651     7.5154     9.1554   139.6443  -999.2500
  553.0000     8.0120   100.5396   -30.3864     7.5062     9.1174   139.6443  -999.2500
  553.5000     7.9943   101.0458   -30.5623     7.4973     9.0894   139.6443  -999.2500
  554.0000     7.9076   100.6135   -30.7410     7.4874     9.0899   139.6443  -999.2500
  554.5000     7.8982   100.2490   -30.7975     7.4250     9.0910   139.6443  -999.2500
  555.0000     7.9672   101.3634   -30.6269     7.5120     9.1104   138.8225  -999.2500
  555.5000     7.8619   102.1414   -30.4353     7.6084     9.1284   137.1339  -999.2500
  556.0000     7.7635   101.0383   -30.3771     7.7080     9.2001   135.0418  -999.2500
  556.5000     7.8040   100.1607   -30.4084     7.8067     9.3216   132.9498  -999.2500
  557.0000     7.7930    99.6101   -30.4783     7.9101     9.5318   130.8577  -999.2500
  557.5000     7.7537    99.2530   -30.5476     8.0958     9.7928   128.7657  -999.2500
  558.0000     7.7728    97.9632   -30.6168     8.2784    10.0503   125.7845  -999.2500
  558.5000     7.8090    97.0458   -30.6865     8.4600    10.2927   122.4223  -999.2500
  559.0000     7.7549    97.0446   -30.7590     8.6414    10.3494   118.7238  -999.2500
  559.5000     7.7039    96.8053   -30.9734     8.8229    10.3883   116.8779  -999.2500
  560.0000     7.6551    96.5638   -31.3663     9.0043    10.4084   114.8269  -999.2500
  560.5000     7.5067    97.9130   -31.7547     9.1859    10.4541   112.7766  -999.2500
  561.0000     7.3508    98.1574   -32.0594     9.3671    10.5466   110.7248  -999.2500
  561.5000     7.3450    96.7959   -32.0862     9.5468    10.6372   108.6738  -999.2500
  562.0000     7.3585    95.6733   -32.1173     9.7146    10.7361   106.6228  -999.2500
  562.5000     7.3153    94.5507   -32.1487     9.8607    10.9582   104.5717  -999.2500
  563.0000     7.2875    93.6554   -32.1806    10.0039    11.1761   102.5202  -999.2500
  563.5000     7.3512    93.1042   -32.2120    10.1464    11.3930   100.4697  -999.2500
  564.0000     7.4958    92.7504   -32.2411    10.2890    11.6090    98.4187  -999.2500
  564.5000     7.5829    92.5334   -32.1022    10.4318    11.8186    97.4547  -999.2500
  565.0000     7.5817    92.2519   -31.7530    10.5808    11.8910    96.9566  -999.2500
  565.5000     7.5820    92.1964   -31.4064    10.6167    11.9928    96.4585  -999.2500
  566.0000     7.6415    88.0026   -31.0595    10.6177    12.1101    95.9604  -999.2500
  566.5000     7.7571    92.9943   -30.7073    10.6178    12.2774    96.1596  -999.2500
  567.0000     7.8731    92.4029   -30.6818    10.6166    12.1861    97.0562  -999.2500
  567.5000     7.9726    91.5579   -30.8272    10.5708    12.0864    97.9528  -999.2500
  568.0000     7.9650    90.6798   -30.9761    10.3808    11.9885    98.8494  -999.2500
  568.5000     7.9241    90.1382   -31.1253    10.1987    11.8910    99.7460  -999.2500
  569.0000     7.8830    90.4980   -31.2741    10.0167    11.7935   100.6426  -999.2500
  569.5000     7.8770    90.5876   -31.4228     9.8264    11.6960   101.5391  -999.2500
  570.0000     7.8948    90.3796   -31.5733     9.7937    11.5985   102.3610  -999.2500
  570.5000     7.9125    90.1892   -31.6301     9.8104    11.5010   103.1082  -999.2500
  571.0000     7.8547    90.4608   -31.5220     9.8289    11.4034   103.8553  -999.2500
  571.5000     7.7065    91.7580   -31.4165     9.8471    11.3058   104.6025  -999.2500
  572.0000     7.5408    93.0553   -31.4579     9.8653    11.2096   104.9231  -999.2500
  572.5000     7.5353    93.6753   -31.5054     9.8840    11.1306   104.2482  -999.2500
  573.0000     7.6147    91.7092   -31.5529     9.8855    11.3966   103.5734  -999.2500
  573.5000     7.6946    90.0896   -31.5997     9.8712    11.5426   102.8985  -999.2500
  574.0000     7.7618    90.0254   -31.6114     9.8558    11.6914   102.2236  -999.2500
  574.5000     7.7186    90.2899   -31.5673     9.8403    11.6781   101.5488  -999.2500
  575.0000     7.6694    90.5545   -31.5240     9.8249    11.5048   100.9414  -999.2500
  575.5000     7.6222    90.7868   -31.4806     9.8098    11.3454   102.0373  -999.2500
  576.0000     7.5988    91.8445   -31.4373     9.7955    11.4653   103.0335  -999.2500
  576.5000     7.6151    93.0294   -31.3869     9.7704    11.7513   104.0297  -999.2500
  577.0000     7.6418    94.2378   -31.3325     9.5901    11.4816   105.1255  -999.2500
  577.5000     7.7302    95.4651   -31.2755     9.4143    11.0886   107.4791  -999.2500
  578.0000     7.8227    93.9675   -31.2146     9.2399    10.6938   110.3557  -999.2500
  578.5000     7.9143    95.9661   -30.9891     9.0654    10.4000   112.3730  -999.2500
  579.0000     7.9546    94.3606   -30.9210     8.8837    10.3591   113.8206  -999.2500
  579.5000     7.8905    93.2769   -30.7957     8.8615    10.3123   114.4744  -999.2500
  580.0000     7.8934    93.2791   -30.6682     8.9034    10.2671   115.1281  -999.2500
  580.5000     7.9235    93.4996   -30.6673     8.9424    10.2217   115.7819  -999.2500
  581.0000     7.9538    93.5757   -30.9002     8.8253    10.2013   116.4357  -999.2500
  581.5000     7.9637    93.2626   -30.7715     8.7001    10.1889   117.0894  -999.2500
  582.0000     7.8742    92.9781   -30.5397     8.5755    10.0761   117.6778  -999.2500
  582.5000     7.7820    93.6147   -30.3763     8.4494     9.9890   119.8544  -999.2500
  583.0000     7.7677    94.3695   -30.2894     8.3239    10.0611   121.8622  -999.2500
  583.5000     7.8006    95.1243   -30.1766     8.2079    10.2479   123.8688  -999.2500
  584.0000     7.8334    95.8791   -30.0639     8.2107    10.0299   126.0283  -999.2500
