~VERSION INFORMATION
 VERS.                2.0:   CWLS LOG ASCII STANDARD - VERSION 2.0
 WRAP.                 NO:   ONE LINE PER DEPTH STEP
~WELL INFORMATION
#MNEM.UNIT      DATA TYPE    INFORMATION
#----------   ------------   ------------------------------
 STRT.F           95.0000:   START DEPTH
 STOP.F          922.0000:   STOP DEPTH
 STEP.F            0.5000:   STEP LENGTH
 NULL.          -999.2500:   NO VALUE
 COMP.          U.S. NAVY:   COMPANY
 WELL. RES 3 TEAPOT DOM #57S-11:   WELL
 FLD .             TEAPOT:   FIELD
 LOC .      S11 T38N R78W:   LOCATION
 CNTY.            NATRONA:   COUNTY
 STAT.            WYOMING:   STATE
 CTRY. UNITED STATES OF AMERICA:   COUNTRY
 SRVC.       Schlumberger:   SERVICE COMPANY
 DATE.        02-AUG-1961:   LOGDATE
 API .       490250632800:   API NUMBER
~CURVE INFORMATION
#MNEM.UNIT       API CODE    CURVE DESCRIPTION
#----------   ------------   ------------------------------
 DEPT.F                  :   
 GR  .GAPI   30 310 01 00:   GAMMA RAY
 SPR .MV     05 010 01 00:   SPONTANEOUS POTENTIAL FROM RES.
 CILD.MMHO   05 110 46 00:   CONDUCTIVITY INDUCTION LOG DEEP
 ASN .OHMM   05 041 16 00:   AMPLIFIED SHORT NORMAL 16"
 ILD .OHMM   05 120 46 00:   INDUCTION LOG DEEP
~PARAMETER INFORMATION
#MNEM.UNIT          VALUE    DESCRIPTION
#----------   ------------   ------------------------------
 PD  .                 GL:   PERMANENT DATUM
 EPD .F              5213:   ELEVATION PERMANENT DATUM
 LMF .                 KB:   LOG MEASURED FROM
 DAPD.F                 6:   FEET ABOVE PERMANENT DATUM
 DMF .                 KB:   DRILLING MEASURED FROM
 EKB .F              5219:   KELLING BUSHING
 EGL .F              5213:   GROUND LEVEL
 DATE.             8-2-61:   RUN DATE
 RUN .                  1:   RUN NUMBER
 DD  .F               920:   DEPTH DRILLER
 DL  .F               921:   DEPTH LOGGER
 BLI .F               920:   BOTTOM LOG INTERVAL
 TLI .F               100:   TOP LOG INTERVAL
 BS  .IN             6.75:   BIT SIZE
 BSD .F               920:   BIT SIZE AT DEPTH
 DFT .       OIL EMULSION:   DRILLING FLUID TYPE
 DFD .                9.2:   DRILLING FLUID DENSITY
 DFV .                 55:   DRILLING FLUID VISCOSITY
 MFSS.                  M:   MUD FILTRATE SAMPLE SOURCE
 MCSS.                  M:   MUD CAKE SAMPLE SOURCE
 RMB .OHMM            .75:   RESISTIVITY MUD AT BHT
 BHT .F                80:   BOTTOM HOLE TEMPERATURE
 TCS .HRS               1:   TIME CURCULATED STOPPED
 MRT .F                80:   MAXIMUM RECORDED TEMPERATURE
 LUN .               2552:   LOGGING UNIT NUMBER
 LUL .                RIV:   LOGGING UNIT LOCATION
 ENGI.             RANDLE:   RECORDING ENGINEER
 WITN.          VORGENSEN:   WITNESSED BY
 CLNT.            A2DTECH:   CLIENT CODE
 ORIG.       2", 5" PRINT:   ORIGIN OF DATA
 UWI .       490250632800:   UNIQUE WELL ID
 DICO. A2D Technologies, Inc.:   DIGITIZING COMPANY
~OTHER INFORMATION
~A   DEPT       GR        SPR       CILD        ASN        ILD   
# ...
  339.0000  -999.2500   -51.3236   154.8707     7.3137     6.1262
  339.5000  -999.2500   -51.1831   155.4186     7.3177     6.1011
  340.0000  -999.2500   -51.0372   155.9665     7.3229     6.0757
  340.5000  -999.2500   -50.8949   156.5115     7.3224     6.0469
  341.0000  -999.2500   -50.7486   157.3222     7.2794     6.0129
  341.5000  -999.2500   -50.6134   158.4473     7.2227     5.9804
  342.0000  -999.2500   -50.5975   159.5734     7.1659     5.9449
  342.5000  -999.2500   -50.6017   160.6980     7.1108     5.9146
  343.0000  -999.2500   -50.5981   161.8552     7.0508     5.8739
  343.5000  -999.2500   -50.6030   162.8556     7.0195     5.8904
  344.0000  -999.2500   -50.5945   162.8512     7.0321     5.9701
  344.5000  -999.2500   -50.6584   161.0552     7.1241     6.0393
  345.0000  -999.2500   -50.8010   159.3795     7.2336     6.1151
  345.5000  -999.2500   -50.9297   157.7027     7.3384     6.1845
  346.0000  -999.2500   -51.0692   154.8197     7.4458     6.2725
  346.5000  -999.2500   -51.1964   151.8090     7.5517     6.4889
  347.0000  -999.2500   -51.3433   146.9955     7.6589     6.7272
  347.5000  -999.2500   -51.3918   141.1972     7.7648     6.9614
  348.0000  -999.2500   -51.3410   135.4083     7.8668     7.1968
  348.5000  -999.2500   -51.3052   129.5803     7.9592     7.4310
  349.0000  -999.2500   -51.2638   123.7475     7.9810     7.6911
  349.5000  -999.2500   -51.2215   121.7435     7.9948     8.2807
  350.0000  -999.2500   -51.2030   121.2425     7.9293     8.6263
  350.5000  -999.2500   -51.1925   120.2380     7.7997     8.3261
  351.0000  -999.2500   -51.0603   121.5105     7.6720     7.8246
  351.5000  -999.2500   -50.9149   125.0263     7.5575     7.2319
  352.0000  -999.2500   -50.7721   129.1383     7.3508     6.5258
  352.5000  -999.2500   -50.6277   133.7675     7.0650     5.8433
  353.0000  -999.2500   -50.4850   159.7019     6.7264     5.1499
  353.5000  -999.2500   -50.3396   184.8697     6.2892     4.4596
  354.0000  -999.2500   -50.2052   221.6633     5.9020     3.7723
  354.5000  -999.2500   -50.1357   257.0140     5.4619     3.0764
  355.0000  -999.2500   -50.0742   379.2585     4.3120     2.4964
  355.5000  -999.2500   -50.0130   420.4860     3.6591     2.0679
  356.0000  -999.2500   -49.9489   496.4930     3.0312     1.8832
  356.5000  -999.2500   -49.8912   496.4930     2.9411     1.8034
  357.0000  -999.2500   -49.8206   496.4930     2.8936     1.6774
  357.5000  -999.2500   -49.8212   496.4930     2.8893     1.7108
  358.0000  -999.2500   -50.0895   496.4930     2.9848     1.8369
  358.5000  -999.2500   -50.3731   496.4930     3.2381     2.0212
  359.0000  -999.2500   -50.6550   425.6396     3.6100     2.9563
  359.5000  -999.2500   -50.9376   357.6678     3.9756     3.9235
  360.0000  -999.2500   -51.1934   293.0862     5.1577     4.9509
  360.5000  -999.2500   -51.1121   161.8237     6.9296     6.6771
  361.0000  -999.2500   -50.8806   169.8397     7.8594     8.4162
  361.5000  -999.2500   -50.6648   114.0331     8.7285    10.1621
  362.0000  -999.2500   -50.4406    85.9118     9.2845    11.7870
  362.5000  -999.2500   -50.2256    77.3735     9.5942    12.9991
  363.0000  -999.2500   -49.9975    72.6453    10.4098    12.7505
  363.5000  -999.2500   -49.8223    77.6278    10.3487    11.3557
  364.0000  -999.2500   -49.9082    84.6693    10.1487     9.9635
  364.5000  -999.2500   -50.0175   105.5175     9.4528     8.6130
  365.0000  -999.2500   -50.1224   125.0050     8.8532     7.3144
  365.5000  -999.2500   -50.2291   144.4925     7.9409     5.9467
  366.0000  -999.2500   -50.3350   163.9800     7.0914     5.1088
  366.5000  -999.2500   -50.4410   181.8637     6.5023     5.1214
  367.0000  -999.2500   -50.5478   187.6620     6.0944     5.0349
  367.5000  -999.2500   -50.6521   190.8818     6.1831     5.0674
  368.0000  -999.2500   -50.7603   190.8818     6.4234     5.1502
  368.5000  -999.2500   -50.8079   186.8737     7.1460     5.7667
  369.0000  -999.2500   -50.7748   179.8597     7.8091     6.7789
  369.5000  -999.2500   -50.7185   152.0007     8.4403     7.7115
  370.0000  -999.2500   -50.6755   126.5531     9.0715     8.5747
  370.5000  -999.2500   -50.6110   103.7074     9.4043     9.1183
  371.0000  -999.2500   -50.6843   101.4256    10.3417     9.6298
  371.5000  -999.2500   -50.8639    99.3050    10.5453    10.0712
  372.0000  -999.2500   -51.0166    97.1844    10.7763    10.3380
  372.5000  -999.2500   -51.1830    95.0637    10.9866    10.5725
  373.0000  -999.2500   -51.3390    92.9431    11.1943    10.8119
  373.5000  -999.2500   -51.5059    90.8225    11.3983    11.0451
  374.0000  -999.2500   -51.6580    88.7019    11.5967    11.2864
  374.5000  -999.2500   -51.8140    86.5812    11.7109    11.3998
  375.0000  -999.2500   -51.6340    84.4606    11.7514    11.4205
  375.5000  -999.2500   -51.4132    83.6673    11.8094    11.4563
  376.0000  -999.2500   -51.2599    83.6673    11.8470    11.4833
  376.5000  -999.2500   -51.2132    85.9369    11.9602    11.5171
  377.0000  -999.2500   -51.3955    86.6733    12.1260    11.5432
  377.5000  -999.2500   -51.5736    86.6733    12.2733    11.5893
  378.0000  -999.2500   -51.7223    85.6713    12.4288    11.7516
  378.5000  -999.2500   -52.0326    83.3818    12.5800    11.9100
  379.0000  -999.2500   -52.4748    81.3727    12.7336    12.0680
  379.5000  -999.2500   -52.8575    79.3637    12.8860    12.2259
  380.0000  -999.2500   -53.2725    77.3547    13.0391    12.3840
  380.5000  -999.2500   -53.4244    75.6513    13.1916    12.5418
  381.0000  -999.2500   -53.3986    75.1947    13.3446    12.6878
  381.5000  -999.2500   -53.4224    74.4959    13.4967    12.8474
  382.0000  -999.2500   -53.3630    73.7972    13.6507    12.9630
  382.5000  -999.2500   -53.1326    73.0984    13.7857    13.0759
  383.0000  -999.2500   -53.0279    72.3973    13.9109    13.1880
  383.5000  -999.2500   -52.9132    71.6973    14.0264    13.3027
  384.0000  -999.2500   -52.8061    70.9985    14.1392    13.4122
  384.5000  -999.2500   -52.6931    70.3033    14.2574    13.5313
  385.0000  -999.2500   -52.5993    69.6151    14.3655    13.6289
  385.5000  -999.2500   -52.5070    68.9392    14.4880    13.7979
  386.0000  -999.2500   -52.4341    68.2738    14.5685    14.0183
  386.5000  -999.2500   -52.3893    67.7360    14.6809    14.2107
  387.0000  -999.2500   -52.5238    66.6333    14.9648    14.4178
  387.5000  -999.2500   -52.7483    65.6313    15.1879    14.6121
  388.0000  -999.2500   -52.9403    64.6293    15.4260    14.8173
  388.5000  -999.2500   -53.1471    62.8369    15.6592    15.1934
  389.0000  -999.2500   -53.3447    61.3302    15.8932    15.5393
  389.5000  -999.2500   -53.5453    59.8234    16.1303    15.8902
  390.0000  -999.2500   -53.6180    58.3166    16.3635    16.2327
  390.5000  -999.2500   -53.5704    56.8099    16.6031    16.5826
  391.0000  -999.2500   -53.5107    55.6112    16.8061    16.6829
  391.5000  -999.2500   -53.4514    55.6112    16.7575    16.4618
  392.0000  -999.2500   -53.4087    55.6112    16.5270    16.2710
  392.5000  -999.2500   -53.4073    56.2458    16.3125    16.0860
  393.0000  -999.2500   -53.4067    57.1387    16.0969    15.9029
  393.5000  -999.2500   -53.4073    58.0316    15.8835    15.7151
  394.0000  -999.2500   -53.4062    58.9245    15.6662    15.5417
  394.5000  -999.2500   -53.4082    59.8174    15.4558    15.3990
  395.0000  -999.2500   -53.4048    60.7103    15.2384    15.2675
  395.5000  -999.2500   -53.4118    61.6032    15.1791    15.1478
  396.0000  -999.2500   -53.3565    62.4961    15.1599    15.0235
  396.5000  -999.2500   -53.2647    63.3890    15.0557    14.9024
  397.0000  -999.2500   -53.1888    63.6273    14.8984    14.7780
  397.5000  -999.2500   -53.1052    63.6273    14.8842    14.6581
  398.0000  -999.2500   -53.0299    62.7989    14.7416    14.5332
  398.5000  -999.2500   -52.9992    62.1293    14.5769    14.4217
  399.0000  -999.2500   -53.0271    61.4596    14.4443    14.3416
  399.5000  -999.2500   -53.1712    60.7899    14.3935    13.9837
