~VERSION INFORMATION
 VERS.                2.0:   CWLS LOG ASCII STANDARD - VERSION 2.0
 WRAP.                 NO:   ONE LINE PER DEPTH STEP
~WELL INFORMATION
#MNEM.UNIT      DATA TYPE    INFORMATION
#----------   ------------   ------------------------------
 STRT.F           34.0000:   START DEPTH
 STOP.F          614.0000:   STOP DEPTH
 STEP.F            0.5000:   STEP LENGTH
 NULL.          -999.2500:   NO VALUE
 COMP. FENIX & SCISSON INC:   COMPANY
 WELL.      71-SX-3 #71-3:   WELL
 FLD .             TEAPOT:   FIELD
 LOC .       S3 T38N R78W:   LOCATION
 CNTY.            NATRONA:   COUNTY
 STAT.            WYOMING:   STATE
 CTRY. UNITED STATES OF AMERICA:   COUNTRY
 SRVC.              Welex:   SERVICE COMPANY
 DATE.        10-MAR-1977:   LOGDATE
 API .       490251028900:   API NUMBER
~CURVE INFORMATION
#MNEM.UNIT       API CODE    CURVE DESCRIPTION
#----------   ------------   ------------------------------
 DEPT.F                  :   
 CALD.IN     45 280 60 00:   CALIPER
 GRD .GAPI   45 310 01 00:   GAMMA RAY FROM DENSITY LOG
 RHOB.G/C3   45 350 01 00:   BULK DENSITY
 DPHI.DEC    45 890 12 00:   DENSITY POROSITY SANDSTONE
 CORR.G/C3   45 356 01 00:   DENSITY CORRECTION
 SGRD.OHMM   07 220 05 00:   SHALLOW RESISTIVITY
 ILD .OHMM   07 120 46 00:   INDUCTION LOG DEEP
 ILM .OHMM   07 120 44 00:   INDUCTION LOG MEDIUM
 SPR .MV     07 010 01 00:   SPONTANEOUS POTENTIAL
~PARAMETER INFORMATION
#MNEM.UNIT          VALUE    DESCRIPTION
#----------   ------------   ------------------------------
 PD  .                 GL:   PERMANENT DATUM
 EPD .F              5117:   ELEVATION PERMANENT DATUM
 LMF .                 GL:   LOG MEASURED FROM
 DMF .                 GL:   DRILLING MEASURED FROM
 EGL .F              5117:   GROUND LEVEL
 DATE.          3-10-1977:   RUN DATE
 RUN .                  1:   RUN NUMBER
 DD  .F               630:   DEPTH DRILLER
 DL  .F               619:   DEPTH LOGGER
 BLI .F               617:   BOTTOM LOG INTERVAL
 TLI .F                34:   TOP LOG INTERVAL
 CS  .IN            8.625:   CASING SIZE
 CBD .F                40:   CASING BOTTOM DRILLER
 CBL .F                41:   CASING BOTTOM LOGGER
 BS  .IN            7.875:   BIT SIZE
 BSD .F               630:   BIT SIZE AT DEPTH
 DFT .            KCL MUD:   DRILLING FLUID TYPE
 DFD .                  9:   DRILLING FLUID DENSITY
 DFV .                 33:   DRILLING FLUID VISCOSITY
 MSS .            MUD PIT:   MUD SAMPLE SOURCE
 RMS .OHMM           2.33:   RESISTIVITY MUD SAMPLE
 MST .F                57:   MUD SAMPLE TEMPERATURE
 RMF .OHMM           1.83:   RESISTIVITY MUD FILTRATE SAMPLE
 MFST.F                57:   MUD FILTRATE SAMPLE TEMPERATURE
 RMC .OHMM           2.53:   RESISTIVITY MUD CAKE
 MCST.F                57:   MUD CAKE SAMPLE TEMPERATURE
 MFSS.           FANN KIT:   MUD FILTRATE SAMPLE SOURCE
 MCSS.           FANN KIT:   MUD CAKE SAMPLE SOURCE
 RMB .OHMM            2.1:   RESISTIVITY MUD AT BHT
 BHT .F                63:   BOTTOM HOLE TEMPERATURE
 TCS .HRS             1.5:   TIME CURCULATED STOPPED
 MRT .F                63:   MAXIMUM RECORDED TEMPERATURE
 LUN .               8611:   LOGGING UNIT NUMBER
 LUL .           GILLETTE:   LOGGING UNIT LOCATION
 ENGI.               DOAK:   RECORDING ENGINEER
 WITN.              BURKE:   WITNESSED BY
 CLNT.            A2DTECH:   CLIENT CODE
 ORIG.       2", 5" PRINT:   ORIGIN OF DATA
 UWI .       490251028900:   UNIQUE WELL ID
 DICO. A2D Technologies, Inc.:   DIGITIZING COMPANY
~OTHER INFORMATION
~A   DEPT     CALD        GRD       RHOB       DPHI       CORR       SGRD        ILD        ILM        SPR   
   34.0000  -999.2500  -999.2500  -999.2500  -999.2500  -999.2500  -999.2500  -999.2500  -999.2500   -26.5679
   34.5000  -999.2500  -999.2500  -999.2500  -999.2500  -999.2500  -999.2500  -999.2500  -999.2500   -26.5679
   35.0000  -999.2500  -999.2500  -999.2500  -999.2500  -999.2500  -999.2500  -999.2500  -999.2500   -26.5679
   35.5000  -999.2500  -999.2500  -999.2500  -999.2500  -999.2500  -999.2500  -999.2500  -999.2500   -26.5679
   36.0000     7.9339    60.2705     2.4097     0.1617    -0.0479  -999.2500  -999.2500  -999.2500   -26.5653
   36.5000     7.9339    61.4042     2.4097     0.1613    -0.0333  -999.2500  -999.2500  -999.2500   -26.4351
   37.0000     7.9339    65.3550     2.4097     0.1515     0.0155  -999.2500  -999.2500  -999.2500   -25.9254
   37.5000     7.9339    68.1774     2.4138     0.1336     0.0545  -999.2500  -999.2500  -999.2500   -25.4341
   38.0000     7.9339    70.0465     2.4097     0.1152     0.1034     1.1953     1.6041     7.5142   -24.9728
   38.5000     7.9339    71.9440     2.4097     0.1226     0.1273     1.2571     1.6041     7.5142   -24.5367
   39.0000     7.9309    73.8401     2.4097     0.1384     0.1226     1.4566     1.6041     7.5142   -24.1120
   39.5000     7.9149    75.4192     2.4097     0.1652     0.1179     1.7585     1.6105     5.9631   -24.0876
   40.0000     7.8993    78.2478     2.4106     0.1920     0.1132     1.6650     1.6041     5.9653   -24.4136
   40.5000     7.8839    81.2096     2.3619     0.2189     0.1057     4.1677     1.6041     3.2645   -24.8816
   41.0000     7.8773    85.8168     2.2940     0.2457     0.0972     4.6084     1.6041     2.1847   -25.1559
   41.5000     7.8882    91.6692     2.2261     0.2683     0.0886     4.8335     0.8030     2.0185   -24.2438
   42.0000     7.8987    97.5378     2.1583     0.2845     0.0799     4.6519     0.4149     2.1762   -23.6883
   42.5000     7.9093   102.7639     2.1489     0.2982     0.0713     4.5742     0.3211     2.7539   -23.2320
   43.0000     7.9200    99.5670     2.1509     0.2986     0.0628     4.4607     0.2351     2.7338   -23.8689
   43.5000     7.9305    96.2154     2.1692     0.2834     0.0646     4.0463     0.2559     2.5055   -24.5047
   44.0000     7.9245    92.7941     2.1888     0.2695     0.0677     3.3493     0.3433     2.2067   -24.8760
   44.5000     7.8835    89.4042     2.2242     0.2549     0.0691     3.3032     0.4849     1.9425   -25.2397
   45.0000     7.8439    85.9619     2.2705     0.2374     0.0663     3.2564     0.6939     1.7100   -25.6038
   45.5000     7.8136    80.3486     2.3299     0.2129     0.0638     3.1932     0.9917     1.6332   -26.4079
   46.0000     7.7772    74.7692     2.3890     0.1759     0.0703     3.1144     1.4365     1.6041   -27.6146
   46.5000     7.7737    69.1949     2.4267     0.1372     0.0792     3.0807     1.4561     1.6670   -28.7652
   47.0000     7.7577    63.6536     2.4261     0.1327     0.0854     3.2108     1.4856     1.7850   -29.9674
   47.5000     7.7381    59.2129     2.4166     0.1389     0.0833     3.4595     1.6422     2.0325   -31.2194
   48.0000     7.7183    60.7949     2.4103     0.1454     0.0830     4.0459     1.8427     2.4364   -32.0807
   48.5000     7.6985    61.8060     2.4108     0.1446     0.0874     5.6038     2.2761     2.9187   -31.6786
   49.0000     7.6788    59.6143     2.4130     0.1424     0.0917     6.9794     2.8114     3.4976   -31.2042
   49.5000     7.6581    57.4265     2.4111     0.1432     0.0926     7.2602     3.4727     4.1910   -30.7462
   50.0000     7.6780    57.7491     2.3990     0.1515     0.0901     7.5784     4.2894     5.0222   -31.9387
   50.5000     7.7265    60.4281     2.3792     0.1649     0.0876     7.9097     5.2982     5.7032   -33.3020
   51.0000     7.7752    63.1588     2.3596     0.1769     0.0851     8.2250     6.0222     6.1951   -34.2898
   51.5000     7.8240    67.4050     2.3427     0.1833     0.0826     8.7271     6.1951     6.5440   -33.6169
   52.0000     7.8724    72.2807     2.3301     0.1904     0.0801     9.4005     6.1951     6.6068   -32.8770
   52.5000     7.9146    77.1956     2.3227     0.1969     0.0776     9.6308     5.9803     6.4271   -32.6600
   53.0000     7.8944    82.0210     2.3217     0.1962     0.0751     8.6660     5.6791     6.2657   -34.3196
   53.5000     7.8162    81.8408     2.3294     0.1930     0.0755     8.1418     5.3930     6.1084   -36.1670
   54.0000     7.7151    74.1867     2.3488     0.1857     0.0811     8.0875     5.1214     5.8317   -38.0181
   54.5000     7.6333    67.5331     2.3717     0.1683     0.0867     6.6684     4.8634     5.3403   -39.7658
   55.0000     7.7092    60.9197     2.3943     0.1532     0.0923     5.4698     4.6185     4.7455   -40.0867
   55.5000     7.7872    55.6840     2.4027     0.1477     0.0979     5.6292     4.4908     4.9168   -39.3538
   56.0000     7.8653    54.9339     2.4055     0.1449     0.1019     5.9467     4.7828     5.3128   -37.8104
   56.5000     7.8832    56.7885     2.4068     0.1449     0.1025     7.0121     5.0487     5.7408   -36.1704
   57.0000     7.8317    58.6324     2.3994     0.1481     0.1034     9.0425     5.3293     6.0883   -34.5279
   57.5000     7.7806    60.4723     2.3892     0.1538     0.0995    10.1787     5.6256     6.5468   -32.8893
   58.0000     7.7361    62.3099     2.3787     0.1594     0.0918    10.2348     5.9667     7.0398   -31.2614
   58.5000     7.7775    64.1476     2.3757     0.1647     0.0840    10.3241     6.4261     7.5700   -29.5533
   59.0000     7.8215    65.9905     2.3788     0.1631     0.0840    10.4138     6.9210     8.1401   -28.4445
   59.5000     7.8353    67.8664     2.3832     0.1605     0.0870    10.5050     7.4538     8.7531   -27.7134
   60.0000     7.8159    68.6883     2.3875     0.1579     0.0901    10.7639     8.0257     9.1573   -26.7425
   60.5000     7.7520    66.6985     2.3872     0.1563     0.0932    11.2680     8.6399     9.5237   -24.9347
   61.0000     7.6269    64.5073     2.3784     0.1618     0.0961    11.7958     9.1901     9.9048   -24.0080
   61.5000     7.4117    63.4488     2.3696     0.1676     0.0995    12.6836     9.3786    10.3016   -23.5071
   62.0000     7.1974    64.9920     2.3609     0.1735     0.0984    12.6244     9.6157    10.5659   -23.2941
   62.5000     6.9825    63.5453     2.3542     0.1775     0.0974    12.4609     9.8334    10.8268   -24.1624
   63.0000     6.7688    61.8831     2.3548     0.1783     0.0965    12.8042     9.9533    11.2305   -26.0765
   63.5000     6.5872    60.2256     2.3584     0.1761     0.0941    13.1658    10.0747    11.1679   -27.9805
   64.0000     6.7513    58.5754     2.3702     0.1703     0.0883    13.1647    10.1975    10.9380   -29.1039
   64.5000     7.1304    57.0247     2.3967     0.1566     0.0825    13.7872    10.3218    10.7540   -27.1986
   65.0000     7.4548    56.6723     2.4042     0.1467     0.0767    12.8105    10.4476    11.0069   -25.2345
   65.5000     7.5306    57.2149     2.4050     0.1476     0.0709    12.2953    10.5750    11.2249   -23.3655
   66.0000     7.6109    58.6047     2.3998     0.1498     0.0651    12.9451    10.6720    11.4473   -22.3347
   66.5000     7.6921    59.9863     2.4056     0.1477     0.0602    13.5778    10.7674    11.6815   -21.1054
   67.0000     7.7711    61.3636     2.4123     0.1437     0.0629    14.5648    10.8637    11.8173   -19.3300
   67.5000     7.8020    62.6804     2.4190     0.1397     0.0657    14.0203    10.9608    12.0008   -16.7102
   68.0000     7.8290    60.8508     2.4174     0.1374     0.0685    13.0437    11.0588    12.1872   -13.8951
   68.5000     7.8524    59.8174     2.4128     0.1423     0.0694    13.5340    11.1576    12.3465   -11.0428
   69.0000     7.8309    60.7866     2.4086     0.1443     0.0685    14.4658    11.2567    12.6462    -9.2633
   69.5000     7.8089    61.4552     2.4074     0.1456     0.0676    15.1103    11.3628    12.9244    -7.9404
   70.0000     7.7871    58.5295     2.4046     0.1485     0.0667    14.8230    11.4171    12.9244    -7.2490
