~VERSION INFORMATION
 VERS.                2.0:   CWLS LOG ASCII STANDARD - VERSION 2.0
 WRAP.                 NO:   ONE LINE PER DEPTH STEP
~WELL INFORMATION
#MNEM.UNIT      DATA TYPE    INFORMATION
#----------   ------------   ------------------------------
 STRT.F           11.0000:   START DEPTH
 STOP.F          915.0000:   STOP DEPTH
 STEP.F            0.5000:   STEP LENGTH
 NULL.          -999.2500:   NO VALUE
 COMP. U S NAVY/INTEX OIL CO:   COMPANY
 WELL.       N.P.R. #3-35:   WELL
 FLD .           TEAPOT E:   FIELD
 LOC .      S35 T39N R78W:   LOCATION
 CNTY.            NATRONA:   COUNTY
 STAT.            WYOMING:   STATE
 CTRY. UNITED STATES OF AMERICA:   COUNTRY
 SRVC.       Schlumberger:   SERVICE COMPANY
 DATE.        25-JUL-1953:   LOGDATE
 API .       490250653700:   API NUMBER
~CURVE INFORMATION
#MNEM.UNIT       API CODE    CURVE DESCRIPTION
#----------   ------------   ------------------------------
 DEPT.F                  :   
 SPR .MV     05 010 01 00:   SPONTANEOUS POTENTIAL FROM RES.
 CILD.MMHO   05 110 46 00:   CONDUCTIVITY INDUCTION LOG DEEP
 ILD .OHMM   05 120 46 00:   INDUCTION LOG DEEP
 ASN .OHMM   05 041 16 00:   AMPLIFIED SHORT NORMAL 16"
 GR  .GAPI   30 310 01 00:   GAMMA RAY
~PARAMETER INFORMATION
#MNEM.UNIT          VALUE    DESCRIPTION
#----------   ------------   ------------------------------
 EPD .F              5097:   ELEVATION PERMANENT DATUM
 LMF .                 KB:   LOG MEASURED FROM
 DMF .                 KB:   DRILLING MEASURED FROM
 EKB .F              5102:   KELLING BUSHING
 EGL .F              5097:   GROUND LEVEL
 DATE.           7-2-1963:   RUN DATE
 RUN .                  1:   RUN NUMBER
 DD  .F               916:   DEPTH DRILLER
 DL  .F               916:   DEPTH LOGGER
 BLI .F               915:   BOTTOM LOG INTERVAL
 TLI .F                90:   TOP LOG INTERVAL
 CS  .IN            8.625:   CASING SIZE
 CBD .F                10:   CASING BOTTOM DRILLER
 BS  .IN             6.75:   BIT SIZE
 BSD .F               916:   BIT SIZE AT DEPTH
 DFT .            GEL/OIL:   DRILLING FLUID TYPE
 DFD .                9.6:   DRILLING FLUID DENSITY
 DFV .                 67:   DRILLING FLUID VISCOSITY
 DFPH.                  9:   DRILLING FLUID PH
 DFL .                4.2:   DRILLING FLUID LOSS
 MSS .          FLOW LINE:   MUD SAMPLE SOURCE
 RMS .OHMM           2.92:   RESISTIVITY MUD SAMPLE
 MST .F                86:   MUD SAMPLE TEMPERATURE
 RMF .OHMM            2.6:   RESISTIVITY MUD FILTRATE SAMPLE
 MFST.F                86:   MUD FILTRATE SAMPLE TEMPERATURE
 RMC .OHMM           2.49:   RESISTIVITY MUD CAKE
 MCST.F                86:   MUD CAKE SAMPLE TEMPERATURE
 MFSS.                  M:   MUD FILTRATE SAMPLE SOURCE
 MCSS.                  M:   MUD CAKE SAMPLE SOURCE
 TCS .HRS              .5:   TIME CURCULATED STOPPED
 LUN .               4507:   LOGGING UNIT NUMBER
 ENGI.             KNOBEL:   RECORDING ENGINEER
 WITN.          JORGENSON:   WITNESSED BY
 CLNT.            A2DTECH:   CLIENT CODE
 ORIG.       2", 5" PRINT:   ORIGIN OF DATA
 UWI .       490250653700:   UNIQUE WELL ID
 DICO. A2D Technologies, Inc.:   DIGITIZING COMPANY
~OTHER INFORMATION
~A   DEPT      SPR       CILD        ILD        ASN          GR  
# ...
  255.0000   -38.9082   167.3662     5.7471     6.4124    41.9454
  255.5000   -38.8238   169.0976     5.8072     6.6210    40.2198
  256.0000   -38.7791   170.8290     5.8685     6.6415    37.6455
  256.5000   -38.6119   173.5074     5.9231     6.5764    39.0701
  257.0000   -38.4459   176.8835     5.7499     6.4518    41.5280
  257.5000   -38.2799   180.2597     5.5634     6.3284    38.7660
  258.0000   -38.1143   183.6359     5.4038     6.2108    35.0934
  258.5000   -37.9770   184.8775     5.4034     6.1289    39.8076
  259.0000   -38.0231   184.2664     5.4039     6.0476    37.5925
  259.5000   -38.0709   183.6553     5.4039     6.0022    35.8557
  260.0000   -38.1180   183.1060     5.4037     6.1124    36.6610
  260.5000   -38.1612   181.1399     5.4027     6.0153    37.4343
  261.0000   -38.4325   178.9529     5.4098     5.8424    40.7663
  261.5000   -38.7975   176.7659     5.5562     5.8644    44.0156
  262.0000   -39.1599   174.7114     5.6989     6.7797    43.4171
  262.5000   -39.4084   175.0914     5.6967     6.6516    42.0872
  263.0000   -39.2468   175.4496     5.6709     6.4226    37.7439
  263.5000   -39.0956   175.8078     5.6446     6.3054    36.4256
  264.0000   -38.9454   176.1660     5.6184     6.3363    38.4000
  264.5000   -38.7946   176.5242     5.6139     6.2725    39.8578
  265.0000   -38.6440   176.3258     5.6134     6.3304    40.2799
  265.5000   -38.4933   173.9285     5.6264     6.3912    33.8754
  266.0000   -38.3427   171.5312     5.6421     6.3616    35.1570
  266.5000   -38.1920   170.0420     5.6579     6.3862    37.5988
  267.0000   -38.0413   169.2218     5.6736     6.4894    37.7266
  267.5000   -37.8907   168.4017     5.6894     6.5118    37.2796
  268.0000   -37.7526   167.5816     5.7051     6.4225    37.9483
  268.5000   -37.6918   166.7615     5.7208     6.6756    39.4870
  269.0000   -37.6310   165.9413     5.7366     6.7872    40.8833
  269.5000   -37.5636   165.1212     5.7523     6.6871    36.1219
  270.0000   -37.7486   164.3011     5.7681     6.6970    37.1912
  270.5000   -38.0226   164.7098     5.7840     6.7619    39.0287
  271.0000   -38.3111   165.2565     5.7994     6.8273    37.4740
  271.5000   -38.3060   165.8033     5.8147     6.8955    34.4856
  272.0000   -38.1899   166.3169     5.7633     6.9189    37.8783
  272.5000   -38.0697   170.5296     5.6333     6.6716    39.3787
  273.0000   -37.9498   174.5016     5.5031     6.3026    38.0628
  273.5000   -37.8303   178.4736     5.3748     5.9654    38.2595
  274.0000   -37.7108   182.4492     5.2538     6.2222    33.8027
  274.5000   -37.5913   186.4310     5.0918     6.3165    32.2795
  275.0000   -37.4717   190.4113     5.1020     6.1867    30.8081
  275.5000   -37.3517   193.6165     5.1092     5.9928    29.3285
  276.0000   -37.2332   192.0251     5.1183     6.0866    28.0860
  276.5000   -37.1356   189.3265     5.1276     6.0873    28.4062
  277.0000   -37.1716   186.6351     5.1367     5.9910    28.8847
  277.5000   -37.2043   183.9417     5.1458     6.1684    29.3510
  278.0000   -37.2365   181.2483     5.1549     6.3285    30.0708
  278.5000   -37.2689   178.5877     5.1640     6.3499    32.6026
  279.0000   -37.3012   176.1434     5.1732     6.1982    33.5516
  279.5000   -37.3327   173.6991     5.1822     6.0177    32.8117
  280.0000   -37.4204   171.2549     5.1887     6.2447    33.9287
  280.5000   -37.5292   169.7097     5.3206     6.4466    37.1811
  281.0000   -37.6384   168.5554     5.5004     6.5228    42.9018
  281.5000   -37.7468   167.4012     5.6816     6.5822    43.4104
  282.0000   -37.7273   166.3163     5.8632     6.6163    43.6708
  282.5000   -37.6533   166.3146     6.0305     6.6606    45.2337
  283.0000   -37.5793   166.3128     6.0159     6.7400    45.3401
  283.5000   -37.5053   167.6023     5.9288     6.8241    45.3144
  284.0000   -37.4313   169.6223     5.8440     6.6483    45.0770
  284.5000   -37.3573   171.6422     5.7594     6.4697    45.8126
  285.0000   -37.2834   173.6621     5.6749     6.4741    46.9121
  285.5000   -37.2099   173.6576     5.5903     6.4476    40.7190
  286.0000   -37.1323   173.6614     5.5056     6.3771    35.8683
  286.5000   -36.9651   173.6627     5.4210     6.3325    36.7550
  287.0000   -36.7920   173.6636     5.3364     6.3091    35.0413
  287.5000   -36.6206   173.6621     5.3159     6.4110    35.2636
  288.0000   -36.5192   173.6621     5.4269     6.5220    36.0987
  288.5000   -36.5726   173.0325     5.5384     6.6328    38.4972
  289.0000   -36.6216   171.1438     5.6498     6.7788    44.2727
  289.5000   -36.6707   168.7915     5.7611     6.9373    46.0232
  290.0000   -36.7338   162.7317     5.8724     6.8629    44.4788
  290.5000   -36.9053   156.6719     5.9836     6.7531    45.5978
  291.0000   -37.0776   152.7923     6.0949     6.8143    46.8878
  291.5000   -37.2490   149.9067     6.2082     6.9465    47.9724
  292.0000   -37.2965   147.0211     6.3586     7.2782    43.9588
  292.5000   -37.1981   144.2812     6.5324     7.5863    41.8945
  293.0000   -37.1003   142.3325     6.7066     7.7379    41.6777
  293.5000   -37.0015   140.4774     6.8765     7.9868    40.1151
  294.0000   -36.9028   136.9360     7.0997     8.3805    42.2522
  294.5000   -36.8041   138.1977     7.1057     8.6054    43.5575
  295.0000   -36.7054   139.4344     7.1206     8.3410    44.1438
  295.5000   -36.6061   140.6998     7.1368     8.0707    48.3062
  296.0000   -36.5091   141.9596     7.1526     7.9169    45.2468
  296.5000   -36.5055   137.7538     7.1682     7.9659    42.7826
  297.0000   -36.5061   131.7425     7.1807     8.0309    42.7529
  297.5000   -36.5062   127.4921     7.3081     8.1100    48.0208
  298.0000   -36.5060   126.3962     7.4654     8.1956    56.0340
  298.5000   -36.5067   125.5890     7.6239     8.4055    52.5619
  299.0000   -36.5073   127.0777     7.7823     8.6287    48.9863
  299.5000   -36.6300   128.5664     7.9270     8.7586    45.7425
  300.0000   -36.8667   130.0551     7.7074     8.5029    44.7627
  300.5000   -37.1040   131.6894     7.4048     8.1383    43.7964
  301.0000   -37.3421   135.9402     7.1001     7.7725    43.7535
  301.5000   -37.5536   140.6671     6.7769     7.4064    44.7654
  302.0000   -37.5488   158.1095     6.1762     7.0392    45.9288
  302.5000   -37.1333   182.9228     5.6043     6.6532    42.9898
  303.0000   -36.6728   213.1305     4.7027     6.1574    45.9290
  303.5000   -36.2032   246.2818     3.7610     5.6277    46.9266
  304.0000   -35.9937   279.3253     3.1940     5.0978    46.8615
  304.5000   -35.8595   315.1112     3.0678     4.5584    46.4767
  305.0000   -35.7308   313.5100     3.0136     4.2161    46.8362
  305.5000   -35.6028   312.1721     2.9626     4.1141    46.0428
  306.0000   -35.4191   312.1721     2.9113     4.3047    43.8002
  306.5000   -35.5539   307.5296     2.8858     4.3285    44.9113
  307.0000   -35.8565   292.2350     3.0811     4.0678    46.5346
  307.5000   -35.6349   260.5194     3.3470     3.9848    42.1102
  308.0000   -35.4263   226.3484     3.8664     4.4723    42.8213
  308.5000   -35.2593   194.7786     4.3685     5.0085    43.8729
  309.0000   -35.3556   180.0588     4.8679     5.3966    41.4397
  309.5000   -35.4463   168.1305     5.2948     5.5840    43.4143
  310.0000   -35.5361   173.6796     5.2623     5.6105    45.5134
  310.5000   -35.6264   179.2287     5.2267     5.6287    45.7756
  311.0000   -35.7169   184.7779     5.1928     5.5856    47.4058
  311.5000   -35.8058   188.6054     5.1591     5.4672    47.8557
  312.0000   -35.8552   190.9949     5.1268     5.3276    45.5127
  312.5000   -35.7101   194.9982     5.0839     5.1859    46.1399
  313.0000   -35.5682   203.3368     4.7066     5.1001    44.0575
  313.5000   -35.4270   219.1081     4.3016     5.0256    45.0470
  314.0000   -35.2856   244.1343     3.9321     4.8627    45.9295
  314.5000   -35.1442   272.1721     3.6325     4.5830    42.8343
  315.0000   -35.0028   300.2099     3.3309     4.2744    41.6197
  315.5000   -34.8614   328.2477     3.0326     3.9623    40.3672
