~VERSION INFORMATION
 VERS.                2.0:   CWLS LOG ASCII STANDARD - VERSION 2.0
 WRAP.                 NO:   ONE LINE PER DEPTH STEP
~WELL INFORMATION
#MNEM.UNIT      DATA TYPE    INFORMATION
#----------   ------------   ------------------------------
 STRT.F            0.5000:   START DEPTH
 STOP.F         3087.0000:   STOP DEPTH
 STEP.F            0.5000:   STEP LENGTH
 NULL.          -999.2500:   NO VALUE
 COMP. DEPARTMENT OF ENERGY:   COMPANY
 WELL.    NPR-3 #201-A-29:   WELL
 FLD . TEAPOT NAVAL RESERVE:   FIELD
 LOC .      S29 T39N R78W:   LOCATION
 CNTY.            NATRONA:   COUNTY
 STAT.            WYOMING:   STATE
 CTRY. UNITED STATES OF AMERICA:   COUNTRY
 SRVC.      NL McCullough:   SERVICE COMPANY
 DATE.        24-JUN-1965:   LOGDATE
 API .       490251144400:   API NUMBER
~CURVE INFORMATION
#MNEM.UNIT       API CODE    CURVE DESCRIPTION
#----------   ------------   ------------------------------
 DEPT.F                  :   
 GRR .GAPI   30 310 01 00:   GAMMA RAY
 CALI.IN     30 280 01 00:   CALIPER
~PARAMETER INFORMATION
#MNEM.UNIT          VALUE    DESCRIPTION
#----------   ------------   ------------------------------
 PD  .                 GL:   PERMANENT DATUM
 LMF .                 GL:   LOG MEASURED FROM
 EDF .F              5012:   DRILLING FLOOR
 DATE.        24-JUN-1965:   RUN DATE
 RUN .                  1:   RUN NUMBER
 DD  .F              2782:   DEPTH DRILLER
 DL  .F              2772:   DEPTH LOGGER
 BLI .F              2770:   BOTTOM LOG INTERVAL
 TLI .F              2300:   TOP LOG INTERVAL
 CS  .IN            6.625:   CASING SIZE
 CBD .F              2756:   CASING BOTTOM DRILLER
 ENGI.         COWLTHORPE:   RECORDING ENGINEER
 WITN.             HUDSON:   WITNESSED BY
 CLNT.            A2DTECH:   CLIENT CODE
 ORIG.           5" PRINT:   ORIGIN OF DATA
 UWI .       490251144400:   UNIQUE WELL ID
 DICO. A2D Technologies, Inc.:   DIGITIZING COMPANY
~OTHER INFORMATION
~A    DEPT     GRR         CALI 
# ...
 2187.5000    56.4137     6.6644
 2188.0000    59.2999     6.6644
 2188.5000    60.2760     6.6644
 2189.0000    61.2583     6.6644
 2189.5000    55.7950     6.6644
 2190.0000    59.1721     6.6644
 2190.5000    55.7396     6.6644
 2191.0000    56.3325     6.6644
 2191.5000    51.7766     6.6644
 2192.0000    54.5643     6.6644
 2192.5000    57.8362     6.6644
 2193.0000    54.0707     6.6644
 2193.5000    52.1912     6.6644
 2194.0000    55.5372     6.6644
 2194.5000    56.8935     6.6644
 2195.0000    56.3789     6.6644
 2195.5000    53.8880     6.6644
 2196.0000    51.0697     6.6644
 2196.5000    56.3465     6.6644
 2197.0000    56.5814     6.6644
 2197.5000    50.9863     6.6644
 2198.0000    53.1781     6.6644
 2198.5000    58.4878     6.6650
 2199.0000    59.0436     6.6659
 2199.5000    59.7065     6.6667
 2200.0000    58.7947     6.6676
 2200.5000    59.4267     6.6685
 2201.0000    60.2759     6.6694
 2201.5000    58.4114     6.6703
 2202.0000    54.4941     6.6712
 2202.5000    56.4141     6.6721
 2203.0000    53.3657     6.6730
 2203.5000    57.5629     6.6739
 2204.0000    52.5557     6.6748
 2204.5000    55.4944     6.6757
 2205.0000    57.3675     6.6766
 2205.5000    53.1544     6.6775
 2206.0000    57.0662     6.6784
 2206.5000    57.4579     6.6793
 2207.0000    59.9602     6.6802
 2207.5000    56.3956     6.6811
 2208.0000    52.6419     6.6820
 2208.5000    58.5522     6.6828
 2209.0000    57.3631     6.6837
 2209.5000    59.5859     6.6843
 2210.0000    54.3405     6.6843
 2210.5000    57.0536     6.6843
 2211.0000    58.8162     6.6843
 2211.5000    57.6319     6.6843
 2212.0000    57.3805     6.6843
 2212.5000    52.4276     6.6843
 2213.0000    59.2208     6.6843
 2213.5000    53.4898     6.6843
 2214.0000    51.6639     6.6843
 2214.5000    55.8512     6.6843
 2215.0000    56.0642     6.6843
 2215.5000    55.2280     6.6843
 2216.0000    56.0479     6.6843
 2216.5000    54.4495     6.6843
 2217.0000    55.0297     6.6843
 2217.5000    55.1564     6.6843
 2218.0000    56.1311     6.6843
 2218.5000    55.8609     6.6843
 2219.0000    57.0519     6.6843
 2219.5000    59.0953     6.6843
 2220.0000    61.1721     6.6843
 2220.5000    61.5446     6.6843
 2221.0000    60.7345     6.6843
 2221.5000    62.2168     6.6843
 2222.0000    61.6170     6.6843
 2222.5000    60.7404     6.6843
 2223.0000    61.6162     6.6843
 2223.5000    59.2798     6.6843
 2224.0000    57.0328     6.6843
 2224.5000    61.2903     6.6843
 2225.0000    61.4635     6.6843
 2225.5000    62.8843     6.6843
 2226.0000    59.8723     6.6843
 2226.5000    58.4508     6.6843
 2227.0000    61.7026     6.6843
 2227.5000    61.8573     6.6843
 2228.0000    62.4121     6.6843
 2228.5000    63.1317     6.6843
 2229.0000    63.1497     6.6843
 2229.5000    63.0834     6.6843
 2230.0000    61.4790     6.6843
 2230.5000    61.2080     6.6843
 2231.0000    61.0061     6.6843
 2231.5000    61.7336     6.6843
 2232.0000    63.4996     6.6843
 2232.5000    65.7912     6.6843
 2233.0000    60.5093     6.6843
 2233.5000    63.4374     6.6843
 2234.0000    60.6305     6.6843
 2234.5000    58.7052     6.6843
 2235.0000    57.5497     6.6843
 2235.5000    56.3280     6.6843
 2236.0000    56.5214     6.6843
 2236.5000    56.4180     6.6843
 2237.0000    54.0707     6.6843
 2237.5000    57.5788     6.6843
 2238.0000    56.3936     6.6843
 2238.5000    56.9567     6.6843
 2239.0000    54.2271     6.6843
 2239.5000    52.6347     6.6843
 2240.0000    54.1226     6.6843
 2240.5000    53.6439     6.6843
 2241.0000    52.3533     6.6843
 2241.5000    51.3310     6.6843
 2242.0000    53.9904     6.6843
 2242.5000    53.9209     6.6843
 2243.0000    53.1302     6.6843
 2243.5000    53.5918     6.6843
 2244.0000    54.0277     6.6843
 2244.5000    52.4643     6.6843
 2245.0000    54.6042     6.6843
 2245.5000    54.3779     6.6843
 2246.0000    54.6983     6.6843
 2246.5000    53.8963     6.6843
 2247.0000    56.6248     6.6843
 2247.5000    50.0999     6.6849
 2248.0000    55.8624     6.6858
 2248.5000    56.8236     6.6867
 2249.0000    57.2767     6.6875
 2249.5000    57.9768     6.6884
 2250.0000    56.4076     6.6893
 2250.5000    56.1711     6.6901
 2251.0000    57.3696     6.6910
 2251.5000    58.7046     6.6919
 2252.0000    52.1045     6.6927
 2252.5000    59.7050     6.6936
 2253.0000    49.0107     6.6945
 2253.5000    56.0553     6.6954
 2254.0000    57.4146     6.6962
 2254.5000    58.4369     6.6971
 2255.0000    59.8446     6.6980
 2255.5000    55.8272     6.6988
 2256.0000    54.8810     6.6997
 2256.5000    54.6950     6.7006
 2257.0000    47.6581     6.7014
 2257.5000    53.3679     6.7023
 2258.0000    49.6112     6.7032
 2258.5000    53.5755     6.7041
 2259.0000    48.6634     6.7043
 2259.5000    51.8563     6.7043
 2260.0000    53.2065     6.7043
 2260.5000    49.0845     6.7043
 2261.0000    49.8402     6.7043
 2261.5000    49.2521     6.7043
 2262.0000    52.1138     6.7043
 2262.5000    53.3311     6.7043
 2263.0000    58.2607     6.7043
 2263.5000    53.2663     6.7043
 2264.0000    57.6527     6.7043
 2264.5000    60.0220     6.7043
 2265.0000    60.4283     6.7043
 2265.5000    60.8260     6.7043
 2266.0000    57.0283     6.7043
 2266.5000    61.3540     6.7043
 2267.0000    61.5155     6.7043
 2267.5000    62.0366     6.7043
 2268.0000    65.2019     6.7043
 2268.5000    62.2216     6.7043
 2269.0000    66.5653     6.7043
 2269.5000    64.4427     6.7041
 2270.0000    63.6848     6.7035
 2270.5000    62.2935     6.7028
 2271.0000    59.6320     6.7021
 2271.5000    57.8243     6.7015
 2272.0000    63.4826     6.7008
 2272.5000    63.9946     6.7002
 2273.0000    66.0768     6.6995
 2273.5000    67.6374     6.6989
 2274.0000    62.4316     6.6982
 2274.5000    62.1372     6.6976
 2275.0000    60.9530     6.6969
 2275.5000    62.8068     6.6963
 2276.0000    64.9446     6.6956
 2276.5000    62.9939     6.6950
 2277.0000    66.1852     6.6943
 2277.5000    60.2202     6.6937
 2278.0000    60.1028     6.6930
 2278.5000    63.2610     6.6924
 2279.0000    62.7174     6.6917
 2279.5000    63.9330     6.6911
 2280.0000    66.3699     6.6904
 2280.5000    67.8582     6.6898
 2281.0000    68.7839     6.6891
 2281.5000    71.4457     6.6884
 2282.0000    69.3140     6.6878
 2282.5000    71.0981     6.6871
 2283.0000    69.9002     6.6865
 2283.5000    70.4061     6.6858
 2284.0000    71.3766     6.6852
 2284.5000    70.6448     6.6845
 2285.0000    69.0645     6.6851
 2285.5000    74.3649     6.6861
 2286.0000    73.3495     6.6871
 2286.5000    73.8037     6.6882
 2287.0000    67.8715     6.6892
 2287.5000    72.3786     6.6903
 2288.0000    71.4748     6.6913
 2288.5000    70.8614     6.6923
 2289.0000    70.3973     6.6934
 2289.5000    69.6152     6.6944
 2290.0000    70.5568     6.6955
 2290.5000    70.9728     6.6965
 2291.0000    67.9785     6.6975
 2291.5000    69.9486     6.6986
 2292.0000    73.0495     6.6996
 2292.5000    75.7209     6.7007
 2293.0000    74.1278     6.7017
 2293.5000    71.9990     6.7027
 2294.0000    75.5359     6.7038
 2294.5000    75.4389     6.7043
 2295.0000    74.4409     6.7043
 2295.5000    77.9685     6.7043
 2296.0000    77.1701     6.7043
 2296.5000    72.7416     6.7043
 2297.0000    71.7961     6.7043
 2297.5000    75.8613     6.7043
 2298.0000    75.3866     6.7043
 2298.5000    73.0255     6.7043
 2299.0000    73.3846     6.7043
 2299.5000    73.5500     6.7043
 2300.0000    72.6443     6.7043
 2300.5000    71.0729     6.7043
 2301.0000    70.4413     6.7043
 2301.5000    71.3303     6.7043
 2302.0000    69.3096     6.7043
 2302.5000    67.1276     6.7043
 2303.0000    70.2915     6.7043
 2303.5000    70.5219     6.7043
 2304.0000    70.8471     6.7043
 2304.5000    71.1499     6.7043
 2305.0000    71.8019     6.7043
 2305.5000    72.6027     6.7043
 2306.0000    73.4169     6.7043
 2306.5000    74.4079     6.7043
 2307.0000    66.9340     6.7043
 2307.5000    72.4660     6.7043
 2308.0000    70.9787     6.7043
 2308.5000    71.7277     6.7043
