~VERSION INFORMATION
 VERS.                2.0:   CWLS LOG ASCII STANDARD - VERSION 2.0
 WRAP.                 NO:   ONE LINE PER DEPTH STEP
~WELL INFORMATION
#MNEM.UNIT      DATA TYPE    INFORMATION
#----------   ------------   ------------------------------
 STRT.F           30.0000:   START DEPTH
 STOP.F          620.0000:   STOP DEPTH
 STEP.F            0.5000:   STEP LENGTH
 NULL.          -999.2500:   NO VALUE
 COMP. FENIX & SCISSON INC:   COMPANY
 WELL.       NPR-3 #62-15:   WELL
 FLD .             TEAPOT:   FIELD
 LOC .      S15 T38N R78W:   LOCATION
 CNTY.            NATRONA:   COUNTY
 STAT.            WYOMING:   STATE
 CTRY. UNITED STATES OF AMERICA:   COUNTRY
 SRVC.           BIRDWELL:   SERVICE COMPANY
 DATE.        08-JUN-1978:   LOGDATE
 API .       490251063700:   API NUMBER
~CURVE INFORMATION
#MNEM.UNIT       API CODE    CURVE DESCRIPTION
#----------   ------------   ------------------------------
 DEPT.F                  :   
 SPR .MV     05 010 01 00:   SPONTANEOUS POTENTIAL FROM RES.
 SN  .OHMM   05 040 16 00:   SHORT NORMAL 16"
 ILD .OHMM   05 120 46 00:   INDUCTION LOG DEEP
 CALD.IN     45 280 60 00:   CALIPER FROM DENSITY LOG
 GRD .GAPI   45 310 01 00:   GAMMA RAY FROM DENSITY LOG
 CORR.G/C3   45 356 01 00:   DENSITY CORRECTION
 DPHI.DEC    45 890 12 00:   DENSITY POROSITY SANDSTONE
 DEN .G/C3   45 350 01 00:   DENSITY
~PARAMETER INFORMATION
#MNEM.UNIT          VALUE    DESCRIPTION
#----------   ------------   ------------------------------
 PD  .                 GL:   PERMANENT DATUM
 EPD .F              5246:   ELEVATION PERMANENT DATUM
 LMF .                 KB:   LOG MEASURED FROM
 DAPD.F                 4:   FEET ABOVE PERMANENT DATUM
 DMF .                 KB:   DRILLING MEASURED FROM
 EKB .F              5250:   KELLING BUSHING
 EGL .F              5246:   GROUND LEVEL
 DATE.        08-JUN-1978:   RUN DATE
 RUN .                  1:   RUN NUMBER
 DD  .F               620:   DEPTH DRILLER
 DL  .F               627:   DEPTH LOGGER
 BLI .F               620:   BOTTOM LOG INTERVAL
 TLI .F                42:   TOP LOG INTERVAL
 CS  .IN            8.625:   CASING SIZE
 CBD .F                40:   CASING BOTTOM DRILLER
 CBL .F                42:   CASING BOTTOM LOGGER
 BS  .IN            7.875:   BIT SIZE
 BSD .F               620:   BIT SIZE AT DEPTH
 DFT .                KCL:   DRILLING FLUID TYPE
 DFD .                8.7:   DRILLING FLUID DENSITY
 DFV .                 31:   DRILLING FLUID VISCOSITY
 DFPH.               10.5:   DRILLING FLUID PH
 DFL .                 10:   DRILLING FLUID LOSS
 MSS .           FLOWLINE:   MUD SAMPLE SOURCE
 RMS .OHMM            .26:   RESISTIVITY MUD SAMPLE
 MST .F                76:   MUD SAMPLE TEMPERATURE
 RMF .OHMM            .28:   RESISTIVITY MUD FILTRATE SAMPLE
 MFST.F                76:   MUD FILTRATE SAMPLE TEMPERATURE
 RMC .OHMM            .40:   RESISTIVITY MUD CAKE
 MCST.F                77:   MUD CAKE SAMPLE TEMPERATURE
 MFSS.               MEAS:   MUD FILTRATE SAMPLE SOURCE
 MCSS.               MEAS:   MUD CAKE SAMPLE SOURCE
 RMB .OHMM            .28:   RESISTIVITY MUD AT BHT
 BHT .F                70:   BOTTOM HOLE TEMPERATURE
 TCS .HRS            0400:   TIME CURCULATED STOPPED
 MRT .F                70:   MAXIMUM RECORDED TEMPERATURE
 LUN .               2958:   LOGGING UNIT NUMBER
 LUL .               CASP:   LOGGING UNIT LOCATION
 ENGI.             MILLER:   RECORDING ENGINEER
 WITN.           MCGINLEY:   WITNESSED BY
 CLNT.            A2DTECH:   CLIENT CODE
 ORIG.           5" PRINT:   ORIGIN OF DATA
 UWI .       490251063700:   UNIQUE WELL ID
 DICO. A2D Technologies, Inc.:   DIGITIZING COMPANY
~OTHER INFORMATION
~A   DEPT      SPR         SN        ILD       CALD        GRD       CORR       DPHI        DEN   
# ...
  111.0000   -32.7545     7.6982     5.9526     8.1058    89.9824     0.0424     0.1201     2.4738
  111.5000   -32.7395     7.7013     5.9959     8.1649    89.7952     0.0469     0.1189     2.4730
  112.0000   -32.7218     7.7045     5.9566     8.1637    89.6630     0.0543     0.1228     2.4715
  112.5000   -32.7071     7.7077     5.8364     8.1474    89.9799     0.0632     0.1192     2.4719
  113.0000   -32.6925     7.7115     5.6376     8.1010    90.5486     0.0752     0.1078     2.4932
  113.5000   -32.8312     7.7147     5.5213     8.0394    89.1375     0.0916     0.0990     2.5075
  114.0000   -34.3098     7.6639     5.4148     7.9470    88.0984     0.0751     0.0982     2.5112
  114.5000   -35.1933     7.6678     5.3798     7.8408    87.9612     0.0541     0.1088     2.4797
  115.0000   -35.0290     7.6709     5.3816     7.7339    88.7249     0.0391     0.1222     2.4647
  115.5000   -34.8646     7.6743     5.3834     7.6259    88.8467     0.0270     0.1324     2.4609
  116.0000   -34.7002     7.6772     5.3853     7.4873    87.7470     0.0255     0.1385     2.4466
  116.5000   -34.6855     7.6803     5.3871     7.3699    85.9157     0.0329     0.1391     2.4444
  117.0000   -34.6707     7.6834     5.3889     7.3687    85.3557     0.0344     0.1382     2.4443
  117.5000   -34.5060     7.6865     5.3908     7.2882    92.0783     0.0359     0.1382     2.4458
  118.0000   -34.4881     7.6367     5.3926     7.2458    93.7713     0.0358     0.1355     2.4451
  118.5000   -34.4735     7.6399     5.4695     7.4175    92.7065     0.0388     0.1319     2.4503
  119.0000   -34.4588     7.6430     5.5475     7.5748    91.9445     0.0432     0.1235     2.4705
  119.5000   -34.4441     7.6998     5.6656     7.4596    90.8812     0.0476     0.1151     2.4833
  120.0000   -34.4294     7.7030     5.8263     7.3766    89.1265     0.0506     0.1106     2.4915
  120.5000   -34.4147     7.7595     5.9122     7.5407    84.0860     0.0461     0.1130     2.4923
  121.0000   -34.4001     7.9802     6.0353     7.5245    81.5167     0.0400     0.1163     2.4877
  121.5000   -34.5351     8.2072     6.0797     7.4781    80.3028     0.0400     0.1157     2.4832
  122.0000   -34.5204     8.3248     6.0817     7.5672    79.9948     0.0399     0.1112     2.4840
  122.5000   -34.5057     8.3282     6.0838     7.7317    81.9413     0.0399     0.1055     2.4989
  123.0000   -34.6408     8.2742     6.0859     7.8058    83.8901     0.0398     0.1037     2.5042
  123.5000   -34.6257     8.2198     6.0455     7.8200    83.2787     0.0398     0.1034     2.5124
  124.0000   -34.7611     8.1673     5.9651     7.7130    82.5166     0.0248     0.1061     2.5214
  124.5000   -34.8961     8.1144     5.8852     7.8022    83.2606     0.0083     0.1202     2.4936
  125.0000   -34.8778     8.0063     5.7664     8.1173    86.4149     0.0262     0.1272     2.4711
  125.5000   -35.0165     7.8957     5.6887     8.1161    90.0203     0.0486     0.1242     2.4658
  126.0000   -34.9981     7.7330     5.5744     8.0998    90.6137     0.0545     0.1239     2.4666
  126.5000   -34.9835     7.4817     5.5378     8.0835    91.0587     0.0545     0.1239     2.4666
  127.0000   -34.9688     7.3312     5.5016     8.0673    91.2002     0.0530     0.1260     2.4658
  127.5000   -34.9541     7.1342     5.5035     8.0661    90.5865     0.0529     0.1206     2.4665
  128.0000   -34.7897     7.6477     5.5436     8.0498    86.3614     0.0574     0.1119     2.4740
  128.5000   -34.7751     7.9197     5.5839     8.0486    82.5872     0.0678     0.1047     2.4853
  129.0000   -34.7604     7.9230     5.6250     7.9872    82.1185     0.0693     0.1023     2.4965
  129.5000   -34.7455     7.9262     5.7052     7.9107    82.1173     0.0662     0.1029     2.5017
  130.0000   -34.7305     7.9294     5.7866     7.8041    82.2590     0.0572     0.1062     2.5017
  130.5000   -34.7127     7.9326     5.7885     7.7878    82.2498     0.0415     0.1113     2.4995
  131.0000   -34.6980     7.9909     5.8306     7.7715    82.2408     0.0265     0.1155     2.4949
  131.5000   -34.6833     8.0496     5.7925     7.7101    81.7799     0.0271     0.1149     2.4912
  132.0000   -34.6687     8.1087     5.7944     7.6788    80.7167     0.0308     0.1056     2.4874
  132.5000   -34.6540     8.2250     5.7560     7.6776    83.8703     0.0307     0.1065     2.4836
  133.0000   -34.6393     8.2383     5.7188     7.6764    87.3251     0.0172     0.1177     2.4911
  133.5000   -34.6246     8.2895     5.6813     7.6300    89.4244     0.0075     0.1273     2.4829
  134.0000   -34.6099     8.2929     5.6833     7.5685    91.6744     0.0104     0.1228     2.4708
  134.5000   -34.5953     8.2962     5.6460     7.5523    94.6774     0.0224     0.1147     2.4768
  135.0000   -34.4309     8.2996     5.6871     7.5812    94.7289     0.0305     0.1135     2.4836
  135.5000   -34.4162     8.3030     5.6891     7.6104    93.3031     0.0350     0.1144     2.4843
  136.0000   -34.5512     8.2492     5.6911     7.6541    85.0110     0.0334     0.1069     2.4865
  136.5000   -34.8872     8.2525     5.6934     7.6683    83.4959     0.0259     0.1111     2.4910
  137.0000   -35.8655     8.2559     5.6954     7.6668    83.6397     0.0206     0.1141     2.4880
  137.5000   -36.0042     8.2593     5.7365     7.6656    83.1766     0.0244     0.1105     2.4827
  138.0000   -35.9859     8.2626     5.7387     7.7547    81.9627     0.0302     0.1084     2.4865
  138.5000   -35.9712     8.2660     5.7404     7.8138    81.6547     0.0258     0.1093     2.4962
  139.0000   -35.9565     8.2694     5.7426     7.8577    82.6976     0.0182     0.1150     2.4887
  139.5000   -35.9418     8.2158     5.7844     7.9020    84.0440     0.0197     0.1207     2.4804
  140.0000   -35.9272     8.1071     5.7864     7.9159    84.4890     0.0234     0.1216     2.4767
  140.5000   -35.9125     7.9991     5.7884     7.9144    83.1223     0.0263     0.1180     2.4744
  141.0000   -35.8978     7.8918     5.7903     7.9132    82.2096     0.0300     0.1129     2.4789
  141.5000   -35.8945     7.8958     5.7923     7.9120    83.8572     0.0314     0.1097     2.4849
  142.0000   -35.8951     7.8990     5.7943     7.8957    87.1614     0.0322     0.1100     2.4886
  142.5000   -35.8957     7.9022     5.8364     7.8795    88.3571     0.0328     0.1142     2.4895
  143.0000   -35.8962     7.9054     5.8384     7.7879    87.8963     0.0351     0.1157     2.4863
  143.5000   -35.8968     7.9086     5.8809     7.6963    86.3812     0.0350     0.1160     2.4856
  144.0000   -35.8973     7.9119     5.9242     7.6500    86.8240     0.0365     0.1142     2.4871
  144.5000   -35.8979     7.9700     5.9673     7.7241    91.3330     0.0394     0.1106     2.4900
  145.0000   -35.8984     7.9732     5.9693     7.8584    92.8322     0.0424     0.1094     2.4915
  145.5000   -35.8990     7.9765     5.9713     8.0680    86.9474     0.0423     0.1118     2.4915
  146.0000   -35.8995     8.0351     5.9734     8.0970    85.4324     0.0438     0.1088     2.4915
  146.5000   -35.9001     8.0384     5.9754     8.1259    85.1221     0.0437     0.1079     2.4922
  147.0000   -35.9006     8.0424     5.9774     8.1398    85.8661     0.0452     0.1082     2.4922
  147.5000   -35.9012     8.0457     6.0209     8.1536    88.1160     0.0451     0.1103     2.4922
  148.0000   -35.9017     8.0489     6.0230     8.1524    91.2696     0.0466     0.1136     2.4907
  148.5000   -35.9023     8.0522     6.0250     8.1512    89.9052     0.0480     0.1106     2.4854
  149.0000   -35.9028     8.0555     6.0270     8.1199    88.3901     0.0495     0.1064     2.4869
  149.5000   -35.9034     8.1147     5.9875     8.0886    88.2327     0.0450     0.1073     2.4914
  150.0000   -35.9039     8.1402     5.9896     8.0572    90.8990     0.0353     0.1155     2.4936
  150.5000   -35.9045     8.2957     5.9923     8.1020    92.2788     0.0329     0.1182     2.4756
  151.0000   -35.8974     8.4112     5.9528     8.0864    93.7854     0.0298     0.1233     2.4687
