~VERSION INFORMATION
 VERS.                2.0:   CWLS LOG ASCII STANDARD - VERSION 2.0
 WRAP.                 NO:   ONE LINE PER DEPTH STEP
~WELL INFORMATION
#MNEM.UNIT      DATA TYPE    INFORMATION
#----------   ------------   ------------------------------
 STRT.F            0.0000:   START DEPTH
 STOP.F          752.0000:   STOP DEPTH
 STEP.F            0.1000:   STEP LENGTH
 NULL.          -999.2500:   NO VALUE
 COMP. BROWN JOHN E&C INC:   COMPANY
 WELL. N P R 3 STX-34 #53-1-34:   WELL
 FLD .             TEAPOT:   FIELD
 LOC .      S34 T39N R78W:   LOCATION
 CNTY.            NATRONA:   COUNTY
 STAT.            WYOMING:   STATE
 CTRY. UNITED STATES OF AMERICA:   COUNTRY
 SRVC.     Atlas Wireline:   SERVICE COMPANY
 DATE.        29-OCT-1991:   LOGDATE
 API .       490252248700:   API NUMBER
~CURVE INFORMATION
#MNEM.UNIT       API CODE    CURVE DESCRIPTION
#----------   ------------   ------------------------------
 DEPT.F                  :   
 GRR .GAPI   07 310 01 00:   GAMMA RAY
 RILD.OHMM   07 120 46 00:   INDUCTION LOG DEEP RESISTIVITY
 RILM.OHMM   07 120 44 00:   RESITIVITY LONG MEDIUM
~PARAMETER INFORMATION
#MNEM.UNIT          VALUE    DESCRIPTION
#----------   ------------   ------------------------------
 PD  .                 GL:   PERMANENT DATUM
 EPD .F              5067:   ELEVATION PERMANENT DATUM
 LMF .                 KB:   LOG MEASURED FROM
 DAPD.F                10:   FEET ABOVE PERMANENT DATUM
 DMF .                 KB:   DRILLING MEASURED FROM
 EKB .F              5077:   KELLING BUSHING
 EGL .F              5067:   GROUND LEVEL
 DATE.        29-OCT-1991:   RUN DATE
 RUN .                  1:   RUN NUMBER
 DD  .F               760:   DEPTH DRILLER
 DL  .F               760:   DEPTH LOGGER
 BLI .F               758:   BOTTOM LOG INTERVAL
 TLI .F                 0:   TOP LOG INTERVAL
 CS  .IN            9.625:   CASING SIZE
 CBD .F                52:   CASING BOTTOM DRILLER
 CBL .F                52:   CASING BOTTOM LOGGER
 BS  .IN             8.75:   BIT SIZE
 BSD .F               760:   BIT SIZE AT DEPTH
 DFT .        AIR DRILLED:   DRILLING FLUID TYPE
 MRT .F               154:   MAXIMUM RECORDED TEMPERATURE
 LUN .            HL 6307:   LOGGING UNIT NUMBER
 LUL .             CASPER:   LOGGING UNIT LOCATION
 ENGI.          RASMUSSEN:   RECORDING ENGINEER
 WITN.        GARY STRONG:   WITNESSED BY
 CLNT.            A2DTECH:   CLIENT CODE
 ORIG.           5" PRINT:   ORIGIN OF DATA
 UWI .       490252248700:   UNIQUE WELL ID
 DICO. A2D Technologies, Inc.:   DIGITIZING COMPANY
~OTHER INFORMATION
~A    DEPT      GRR      RILD       RILM   
# ...
  455.0000   159.9997     6.0587     6.1279
  455.1000   158.8946     6.0277     6.1061
  455.2000   156.4668     6.0277     6.0923
  455.3000   153.9072     5.9965     6.0208
  455.4000   151.8961     5.9857     5.9520
  455.5000   149.8852     5.9530     5.9098
  455.6000   147.5040     5.8846     5.8753
  455.7000   145.8638     5.8170     5.8285
  455.8000   144.1559     5.7397     5.7609
  455.9000   142.8434     5.6843     5.6918
  456.0000   141.9260     5.6191     5.6283
  456.1000   141.4039     5.5546     5.5632
  456.2000   141.6438     5.4843     5.5163
  456.3000   142.2703     5.3896     5.4622
  456.4000   142.8854     5.3281     5.3721
  456.5000   143.4673     5.2670     5.3061
  456.6000   144.2758     5.2065     5.2484
  456.7000   145.6509     5.1362     5.1658
  456.8000   146.7810     5.0522     5.0764
  456.9000   148.3801     4.9905     4.9886
  457.0000   150.2546     4.9369     4.9023
  457.1000   152.1941     4.8803     4.8103
  457.2000   153.8971     4.8101     4.7846
  457.3000   154.7686     4.7356     4.7567
  457.4000   155.1879     4.6812     4.7152
  457.5000   155.6874     4.6210     4.6487
  457.6000   155.8754     4.5744     4.5554
  457.7000   155.6725     4.5393     4.4621
  457.8000   155.6700     4.5014     4.3851
  457.9000   155.6676     4.4497     4.3588
  458.0000   155.4704     4.3994     4.2996
  458.1000   155.3583     4.3696     4.2790
  458.2000   155.3559     4.3489     4.2542
  458.3000   155.3534     4.3239     4.2294
  458.4000   155.3508     4.2990     4.2048
  458.5000   155.3486     4.2743     4.1800
  458.6000   155.3461     4.2490     4.1560
  458.7000   155.3437     4.2252     4.1319
  458.8000   155.3412     4.2009     4.1214
  458.9000   155.3388     4.1767     4.1126
  459.0000   155.3360     4.1527     4.0923
  459.1000   154.9009     4.1288     4.0920
  459.2000   154.0702     4.1030     4.1142
  459.3000   153.0636     4.0814     4.1202
  459.4000   152.1133     4.0744     4.1200
  459.5000   151.3576     4.0744     4.1274
  459.6000   150.6022     4.0744     4.1510
  459.7000   149.6458     4.0761     4.1772
  459.8000   148.9339     4.1030     4.2208
  459.9000   148.2416     4.1030     4.2696
  460.0000   147.2756     4.1338     4.2949
  460.1000   146.4815     4.1713     4.3083
  460.2000   145.2878     4.1954     4.3564
  460.3000   144.0303     4.2200     4.3850
  460.4000   142.9042     4.2690     4.4066
  460.5000   142.2882     4.2987     4.4486
  460.6000   142.6112     4.3235     4.4885
  460.7000   143.7270     4.3581     4.5143
  460.8000   144.1696     4.4002     4.5408
  460.9000   145.0074     4.4002     4.6031
  461.0000   146.0091     4.4490     4.6246
  461.1000   147.0108     4.4814     4.6512
  461.2000   148.0215     4.5073     4.6886
  461.3000   149.4961     4.5418     4.7428
  461.4000   150.0752     4.5945     4.7988
  461.5000   150.7788     4.6534     4.8532
  461.6000   151.4825     4.7263     4.9093
  461.7000   152.1861     4.7898     4.9661
  461.8000   152.8897     4.8588     5.0132
  461.9000   153.5933     4.9286     5.0420
  462.0000   154.0457     4.9585     5.0728
  462.1000   154.0432     5.0255     5.1277
  462.2000   154.0406     5.0499     5.1652
  462.3000   154.0384     5.0976     5.1948
  462.4000   153.6754     5.1567     5.2341
  462.5000   153.1709     5.2166     5.2945
  462.6000   152.6665     5.2777     5.3624
  462.7000   152.1620     5.3384     5.4178
  462.8000   151.5905     5.4496     5.4588
  462.9000   150.9351     5.5584     5.4901
  463.0000   150.1796     5.6555     5.5301
  463.1000   149.4241     5.7493     5.5940
  463.2000   148.7261     5.8205     5.6686
  463.3000   148.2174     5.8205     5.7242
  463.4000   147.3140     5.8693     5.7690
  463.5000   146.7061     5.9374     5.8021
  463.6000   145.9506     6.0063     5.8429
  463.7000   145.1951     6.0760     5.9104
  463.8000   144.4397     6.1555     5.9922
  463.9000   143.6492     6.1866     6.0481
  464.0000   143.1679     6.2224     6.0759
  464.1000   142.6634     6.2749     6.1168
  464.2000   142.1589     6.3388     6.2232
  464.3000   141.6544     6.3755     6.3348
  464.4000   141.1758     6.4192     6.4059
  464.5000   140.8947     6.4192     6.4515
  464.6000   140.8925     6.4643     6.4885
  464.7000   141.0604     6.5245     6.5388
  464.8000   141.4259     6.5622     6.6040
  464.9000   141.8620     6.6014     6.6036
  465.0000   142.1308     6.6014     6.6387
  465.1000   143.0108     6.6595     6.6491
  465.2000   143.8401     6.6943     6.6684
  465.3000   144.8419     6.7204     6.6950
  465.4000   146.0456     6.7886     6.6982
  465.5000   147.5493     6.7886     6.7411
  465.6000   149.0873     6.8605     6.7753
  465.7000   149.5757     6.8842     6.7876
  465.8000   150.0753     6.9037     6.8056
  465.9000   150.4363     6.9326     6.8446
  466.0000   150.5997     6.9352     6.8819
  466.1000   150.6291     6.9812     6.8815
  466.2000   150.8990     6.9812     6.8811
  466.3000   150.8968     6.9812     6.8808
  466.4000   150.8944     6.9640     6.8804
  466.5000   151.1375     6.9326     6.8800
  466.6000   151.5677     6.9326     6.8796
  466.7000   151.8483     6.9326     6.8792
  466.8000   152.7107     6.9326     6.8473
  466.9000   153.1361     6.9326     6.8306
  467.0000   153.6357     6.9326     6.8302
  467.1000   154.1354     6.9326     6.8231
  467.2000   154.6350     6.9326     6.7819
  467.3000   155.1344     6.9326     6.7815
  467.4000   155.3831     6.9326     6.7812
  467.5000   155.6317     6.9326     6.7808
  467.6000   155.7358     6.9201     6.7804
  467.7000   155.7333     6.8842     6.7800
  467.8000   155.7309     6.8842     6.7796
  467.9000   155.7283     6.8842     6.7793
  468.0000   155.4906     6.8842     6.7789
  468.1000   155.2371     6.8474     6.7590
  468.2000   154.9837     6.7886     6.7197
  468.3000   154.7302     6.7869     6.6838
  468.4000   154.4767     6.7413     6.6833
  468.5000   154.1915     6.7091     6.6830
  468.6000   153.9698     6.6943     6.6570
  468.7000   153.5500     6.6630     6.6183
  468.8000   153.1584     6.6014     6.5892
  468.9000   152.9049     6.6014     6.5859
  469.0000   152.6454     6.5639     6.4971
  469.1000   152.0458     6.5262     6.4968
  469.2000   152.0438     6.4886     6.4731
  469.3000   151.8910     6.4513     6.4355
  469.4000   151.7346     6.4090     6.3980
  469.5000   151.7321     6.3301     6.3606
  469.6000   151.7296     6.3301     6.3238
  469.7000   151.7272     6.2782     6.3157
  469.8000   151.9128     6.2061     6.2734
  469.9000   152.0268     6.1555     6.2274
  470.0000   152.1056     6.1498     6.2155
  470.1000   152.3541     6.0700     6.1403
  470.2000   152.6281     6.0396     6.1063
  470.3000   152.8514     5.9822     6.0449
  470.4000   153.2721     5.9136     5.9935
  470.5000   153.8904     5.8535     5.9475
  470.6000   154.5757     5.8175     5.8788
  470.7000   155.0872     5.6600     5.8048
  470.8000   155.9619     5.6074     5.7140
  470.9000   156.7984     5.5240     5.6155
  471.0000   157.6438     5.4292     5.5343
  471.1000   158.4974     5.3412     5.4704
  471.2000   159.4992     5.2777     5.4049
  471.3000   160.5163     5.2193     5.2992
  471.4000   161.2554     5.1595     5.2726
  471.5000   161.2308     5.1161     5.2222
  471.6000   160.5559     5.0771     5.1619
  471.7000   159.2012     5.0221     5.1023
  471.8000   157.1907     4.9905     5.0451
  471.9000   155.0220     4.9387     5.0447
  472.0000   154.0943     4.8820     4.9969
  472.1000   153.0877     4.8528     4.9567
  472.2000   152.2058     4.8528     4.9279
  472.3000   151.6639     4.8528     4.8992
  472.4000   151.6794     4.8528     4.8703
  472.5000   151.9631     4.8528     4.8424
  472.6000   151.9610     4.8528     4.8142
  472.7000   152.2829     4.8528     4.7862
  472.8000   152.5650     4.8410     4.7683
  472.9000   152.6734     4.7853     4.7680
  473.0000   153.1709     4.7305     4.7678
  473.1000   153.4196     4.7190     4.7416
