~VERSION INFORMATION
 VERS.                2.0:   CWLS LOG ASCII STANDARD - VERSION 2.0
 WRAP.                 NO:   ONE LINE PER DEPTH STEP
~WELL INFORMATION
#MNEM.UNIT      DATA TYPE    INFORMATION
#----------   ------------   ------------------------------
 STRT.F           40.0000:   START DEPTH
 STOP.F          684.0000:   STOP DEPTH
 STEP.F            0.5000:   STEP LENGTH
 NULL.          -999.2500:   NO VALUE
 COMP.    FENIX & SCISSON:   COMPANY
 WELL.   N P R-3 #26SX2-2:   WELL
 FLD .             TEAPOT:   FIELD
 LOC .       S2 T38N R78W:   LOCATION
 CNTY.            NATRONA:   COUNTY
 STAT.            WYOMING:   STATE
 CTRY. UNITED STATES OF AMERICA:   COUNTRY
 SRVC.            Unknown:   SERVICE COMPANY
 DATE.        26-JAN-1978:   LOGDATE
 API .       490251056400:   API NUMBER
~CURVE INFORMATION
#MNEM.UNIT       API CODE    CURVE DESCRIPTION
#----------   ------------   ------------------------------
 DEPT.F                  :   
 ILD .OHMM   05 120 46 00:   INDUCTION LOG DEEP
 SN  .OHMM   05 040 16 00:   SHORT NORMAL 16"
 SPR .MV     05 010 01 00:   SPONTANEOUS POTENTIAL FROM RES.
 CALD.IN     45 280 60 00:   CALIPER FROM DENSITY LOG
 CORR.G/C3   45 356 01 00:   DENSITY CORRECTION
 DPHI.DEC    45 890 12 00:   DENSITY POROSITY SANDSTONE
 GRD .GAPI   45 310 01 00:   GAMMA RAY FROM DENSITY LOG
 RHOB.G/C3   45 350 01 00:   BULK DENSITY
~PARAMETER INFORMATION
#MNEM.UNIT          VALUE    DESCRIPTION
#----------   ------------   ------------------------------
 PD  .                 GL:   PERMANENT DATUM
 EPD .F              5142:   ELEVATION PERMANENT DATUM
 LMF .                 KB:   LOG MEASURED FROM
 DMF .                 KB:   DRILLING MEASURED FROM
 EKB .F              5146:   KELLING BUSHING
 EGL .F              5142:   GROUND LEVEL
 DATE.        26-JAN-1978:   RUN DATE
 RUN .                  1:   RUN NUMBER
 DD  .F               690:   DEPTH DRILLER
 DL  .F               684:   DEPTH LOGGER
 BLI .F               684:   BOTTOM LOG INTERVAL
 TLI .F                50:   TOP LOG INTERVAL
 CS  .IN            8.625:   CASING SIZE
 CBD .F                39:   CASING BOTTOM DRILLER
 CBL .F                40:   CASING BOTTOM LOGGER
 BS  .IN            7.875:   BIT SIZE
 BSD .F               690:   BIT SIZE AT DEPTH
 DFT .                KCL:   DRILLING FLUID TYPE
 DFD .                8.5:   DRILLING FLUID DENSITY
 DFV .                 33:   DRILLING FLUID VISCOSITY
 DFPH.                  9:   DRILLING FLUID PH
 MSS .           FLOWLINE:   MUD SAMPLE SOURCE
 RMS .OHMM           0.48:   RESISTIVITY MUD SAMPLE
 MST .F                75:   MUD SAMPLE TEMPERATURE
 RMF .OHMM           0.46:   RESISTIVITY MUD FILTRATE SAMPLE
 MFST.F                75:   MUD FILTRATE SAMPLE TEMPERATURE
 RMC .OHMM              1:   RESISTIVITY MUD CAKE
 MCST.F                75:   MUD CAKE SAMPLE TEMPERATURE
 MFSS.               MEAS:   MUD FILTRATE SAMPLE SOURCE
 MCSS.               MEAS:   MUD CAKE SAMPLE SOURCE
 RMB .OHMM           0.47:   RESISTIVITY MUD AT BHT
 BHT .F                76:   BOTTOM HOLE TEMPERATURE
 TCS .HRS               1:   TIME CURCULATED STOPPED
 MRT .F                76:   MAXIMUM RECORDED TEMPERATURE
 LUN .               2958:   LOGGING UNIT NUMBER
 LUL .             CASPER:   LOGGING UNIT LOCATION
 ENGI.           REYNOLDS:   RECORDING ENGINEER
 WITN.       MR. MCGINLEY:   WITNESSED BY
 CLNT.            A2DTECH:   CLIENT CODE
 ORIG.      2.5" 5" PRINT:   ORIGIN OF DATA
 UWI .       490251056400:   UNIQUE WELL ID
 DICO. A2D Technologies, Inc.:   DIGITIZING COMPANY
~OTHER INFORMATION
~A   DEPT      ILD         SN        SPR       CALD       CORR       DPHI         GRD        RHOB 
# ...
  242.5000     8.9961    10.0017   -56.7948     9.3290     0.2121     0.1901    96.4832     2.3451
  243.0000     8.9410     9.9422   -56.7847     9.3292     0.2121     0.1891    97.4006     2.3409
  243.5000     8.9492     9.8812   -57.3652     9.3294     0.2122     0.1954    98.9297     2.3364
  244.0000     8.9558     9.8206   -57.5059     9.3295     0.2123     0.1975    98.9297     2.3360
  244.5000     8.9624     9.8296   -57.7923     9.3297     0.2123     0.1975    98.8940     2.3364
  245.0000     8.9683     9.7676   -57.9305     9.3298     0.2094     0.1962    98.3180     2.3379
  245.5000     8.9756     9.7757   -57.7696     9.3300     0.2087     0.1909    98.3180     2.3424
  246.0000     8.9819     9.7837   -57.6113     9.3301     0.2056     0.1921    99.1947     2.3424
  246.5000     8.9889     9.7909   -57.6012     9.3302     0.2035     0.1939   103.6952     2.3409
  247.0000     8.9955     9.8658   -57.5911     9.3304     0.2024     0.1939   105.6575     2.3393
  247.5000     9.0023     9.8731   -57.5807     9.3305     0.2006     0.1926   104.4852     2.3396
  248.0000     9.0104     9.8125   -57.7192     9.3307     0.2007     0.1902   103.2314     2.3459
  248.5000     8.9536     9.8215   -57.8548     9.3309     0.2007     0.1872   102.2834     2.3521
  249.0000     8.9618     9.7613   -57.6964     9.3310     0.2008     0.1829   101.5087     2.3564
  249.5000     8.9684     9.6331   -57.6864     9.3312     0.1978     0.1805   101.0703     2.3576
  250.0000     8.9750     9.5741   -57.5280     9.3313     0.1979     0.1859   101.0703     2.3535
  250.5000     8.9120     9.5683   -57.4792     9.3315     0.1980     0.1896   101.3761     2.3485
  251.0000     8.5601     9.5545   -57.4261     9.3316     0.1980     0.1902   102.2936     2.3463
  251.5000     8.3312     9.5407   -57.3730     9.3318     0.1950     0.1908   102.5994     2.3470
  252.0000     8.2766     9.5270   -57.3311     9.3319     0.1921     0.1921   103.2110     2.3470
  252.5000     8.2232     9.5132   -57.3195     9.3321     0.1921     0.1933   103.8226     2.3446
  253.0000     8.1701     9.4995   -57.1595     9.3322     0.1922     0.1946   104.4342     2.3424
  253.5000     8.1742     9.4899   -56.9996     9.3324     0.1892     0.1960   106.2742     2.3379
  254.0000     8.1775     9.4966   -56.9880     9.3325     0.1893     0.1979   106.2283     2.3318
  254.5000     8.1809     9.4378   -56.9764     9.3327     0.1891     0.1998   105.0102     2.3303
  255.0000     8.1843     9.3794   -56.9647     9.3328     0.1864     0.2004   104.4342     2.3288
  255.5000     8.2441     9.2574   -56.9531     9.3330     0.1865     0.1997   105.2446     2.3333
  256.0000     8.3051     9.1370   -56.9414     9.3331     0.1865     0.1997   107.4312     2.3439
  256.5000     8.2507     9.0820   -56.9298     9.3333     0.1896     0.1991   108.7156     2.3439
  257.0000     8.1421     9.0258   -56.9180     9.3334     0.1906     0.1979   108.1856     2.3424
  257.5000     8.0333     8.9084   -57.3731     9.3336     0.1927     0.1973   107.4924     2.3409
  258.0000     7.9267     8.8533   -58.0781     9.3337     0.1971     0.1967   107.3496     2.3409
  258.5000     7.7680     8.6782   -58.2177     9.3339     0.2033     0.1961   107.1865     2.3409
  259.0000     7.6132     8.5066   -58.3543     9.3340     0.2065     0.1948   106.8807     2.3409
  259.5000     7.4607     8.2811   -58.4909     9.3342     0.2128     0.1942   106.2691     2.3413
  260.0000     7.3616     8.1160   -58.4764     9.3343     0.2172     0.1929   105.0459     2.3475
  260.5000     7.2641     8.0116   -58.4648     9.3345     0.2233     0.1917   103.8226     2.3485
  261.0000     7.2671     7.9621   -58.3049     9.3347     0.2264     0.1898   102.5994     2.3485
  261.5000     7.3202     7.9676   -58.1450     9.3348     0.2295     0.1878   101.9878     2.3477
  262.0000     7.3738     8.0282   -57.9850     9.3350     0.2296     0.1842   101.0703     2.3501
  262.5000     7.4796     8.1451   -57.6769     9.3351     0.2205     0.1780    99.8471     2.3587
  263.0000     7.5863     8.3793   -57.3687     9.3353     0.2146     0.1739    97.7064     2.3652
  263.5000     7.6945     8.6191   -57.3568     9.3354     0.2086     0.1736    95.2394     2.3682
  264.0000     7.8042     8.7445   -57.3450     9.3356     0.2056     0.1771    93.3843     2.3712
  264.5000     7.8613     8.8108   -57.3338     9.3357     0.1996     0.1832    92.5076     2.3667
  265.0000     7.8106     8.7548   -57.4704     9.3359     0.1967     0.1869    93.5270     2.3591
  265.5000     7.8137     8.7622   -57.4558     9.3360     0.1937     0.1905    94.8470     2.3545
  266.0000     7.8169     8.7681   -57.4442     9.3362     0.1938     0.1893    96.5648     2.3515
  266.5000     7.8200     8.7124   -57.5808     9.3363     0.1938     0.1850    97.0948     2.3500
  267.0000     7.8232     8.6005   -57.5692     9.3365     0.1909     0.1850    96.2589     2.3501
  267.5000     7.7727     8.5472   -57.7087     9.3366     0.1909     0.1850    95.0051     2.3516
  268.0000     7.7760     8.5531   -57.8454     9.3368     0.1880     0.1850    94.4648     2.3545
  268.5000     7.7792     8.5589   -57.8308     9.3369     0.1868     0.1843    99.4140     2.3545
  269.0000     7.7288     8.5648   -57.8192     9.3371     0.1851     0.1831   101.7227     2.3564
  269.5000     7.7327     8.5707   -57.8075     9.3372     0.1821     0.1824   101.0703     2.3580
  270.0000     7.6821     8.6369   -57.7957     9.3374     0.1822     0.1812    99.8471     2.3596
  270.5000     7.6860     8.6428   -57.7839     9.3375     0.1822     0.1801    98.9297     2.3606
  271.0000     7.6891     8.7084   -57.7697     9.3377     0.1823     0.1803    99.8471     2.3606
  271.5000     7.6922     8.7143   -57.7581     9.3378     0.1824     0.1830   101.0703     2.3538
  272.0000     7.6953     8.7804   -57.7464     9.3380     0.1854     0.1852   102.5994     2.3507
  272.5000     7.6984     8.7863   -57.8860     9.3381     0.1915     0.1846   102.5994     2.3500
  273.0000     7.7015     8.8530   -57.7232     9.3383     0.1946     0.1825   101.3761     2.3515
  273.5000     7.7047     8.8590   -57.7115     9.3385     0.1977     0.1825   100.1478     2.3530
  274.0000     7.7078     8.8650   -57.6999     9.3386     0.1978     0.1831    99.5413     2.3561
  274.5000     7.7110     8.8101   -57.3917     9.3388     0.1948     0.1837   100.2243     2.3561
  275.0000     7.7142     8.6955   -57.2318     9.3389     0.1949     0.1843   101.4781     2.3545
  275.5000     7.6642     8.6417   -57.0719     9.3391     0.1889     0.1843   102.6656     2.3545
  276.0000     7.6148     8.6478   -56.7637     9.3392     0.1856     0.1842   103.2110     2.3545
  276.5000     7.5657     8.6549   -56.7519     9.3394     0.1830     0.1836   100.9888     2.3545
  277.0000     7.5168     8.6607   -56.8952     9.3395     0.1825     0.1823    99.3170     2.3562
  277.5000     7.4683     8.6666   -57.0253     9.3397     0.1831     0.1774    98.0632     2.3609
  278.0000     7.4721     8.6724   -57.1620     9.3398     0.1831     0.1786    97.7064     2.3638
  278.5000     7.4751     8.6783   -57.2986     9.3400     0.1872     0.1825    99.4138     2.3631
  279.0000     7.4782     8.6842   -57.5806     9.3401     0.1935     0.1838   101.8960     2.3572
  279.5000     7.4812     8.6900   -57.5690     9.3403     0.1954     0.1844   102.9052     2.3545
  280.0000     7.4842     8.6959   -57.8539     9.3404     0.1955     0.1848   102.5994     2.3530
  280.5000     7.4873     8.7619   -57.8933     9.3406     0.1955     0.1836   102.5127     2.3536
  281.0000     7.4904     8.7677   -57.9818     9.3407     0.1909     0.1805   102.5994     2.3574
  281.5000     7.4935     8.7738   -57.9672     9.3409     0.1866     0.1787   102.9052     2.3613
  282.0000     7.4971     8.8404   -57.9556     9.3410     0.1836     0.1799   101.6820     2.3652
  282.5000     7.5002     8.8465   -57.9439     9.3412     0.1867     0.1811   102.2936     2.3619
