~VERSION INFORMATION
 VERS.                2.0:   CWLS LOG ASCII STANDARD - VERSION 2.0
 WRAP.                 NO:   ONE LINE PER DEPTH STEP
~WELL INFORMATION
#MNEM.UNIT      DATA TYPE    INFORMATION
#----------   ------------   ------------------------------
 STRT.F           99.0000:   START DEPTH
 STOP.F          750.0000:   STOP DEPTH
 STEP.F            0.5000:   STEP LENGTH
 NULL.          -999.2500:   NO VALUE
 COMP. U S NAVY/INTEX OIL CO:   COMPANY
 WELL.    NRP #3 #43-S-11:   WELL
 FLD .             TEAPOT:   FIELD
 LOC .      S11 T38N R78W:   LOCATION
 CNTY.            NATRONA:   COUNTY
 STAT.            WYOMING:   STATE
 CTRY. UNITED STATES OF AMERICA:   COUNTRY
 SRVC.       Schlumberger:   SERVICE COMPANY
 DATE.        12-JUL-1962:   LOGDATE
 API .       490250636100:   API NUMBER
~CURVE INFORMATION
#MNEM.UNIT       API CODE    CURVE DESCRIPTION
#----------   ------------   ------------------------------
 DEPT.F                  :   
 SPR .MV     05 010 01 00:   SPONTANEOUS POTENTIAL FROM RES.
 CILD.MMHO   05 110 46 00:   CONDUCTIVITY INDUCTION LOG DEEP
 ILD .OHMM   05 120 46 00:   INDUCTION LOG DEEP
 ASN .OHMM   05 041 16 00:   AMPLIFIED SHORT NORMAL 16"
 GR  .GAPI   30 310 01 00:   GAMMA RAY
~PARAMETER INFORMATION
#MNEM.UNIT          VALUE    DESCRIPTION
#----------   ------------   ------------------------------
 EPD .F              5177:   ELEVATION PERMANENT DATUM
 LMF .                 KB:   LOG MEASURED FROM
 DAPD.F                 5:   FEET ABOVE PERMANENT DATUM
 DMF .                 KB:   DRILLING MEASURED FROM
 EKB .F              5182:   KELLING BUSHING
 EGL .F              5177:   GROUND LEVEL
 DATE.          7-12-1962:   RUN DATE
 RUN .                  1:   RUN NUMBER
 DD  .F               750:   DEPTH DRILLER
 DL  .F               751:   DEPTH LOGGER
 BLI .F               750:   BOTTOM LOG INTERVAL
 TLI .F               100:   TOP LOG INTERVAL
 CBD .F                10:   CASING BOTTOM DRILLER
 BS  .IN             6.75:   BIT SIZE
 BSD .F               750:   BIT SIZE AT DEPTH
 DFT .           OIL EMUL:   DRILLING FLUID TYPE
 DFD .               10.2:   DRILLING FLUID DENSITY
 DFV .                 40:   DRILLING FLUID VISCOSITY
 DFL .                4.6:   DRILLING FLUID LOSS
 RMS .OHMM            5.2:   RESISTIVITY MUD SAMPLE
 MST .F                82:   MUD SAMPLE TEMPERATURE
 RMF .OHMM            3.7:   RESISTIVITY MUD FILTRATE SAMPLE
 MFST.F                82:   MUD FILTRATE SAMPLE TEMPERATURE
 RMC .OHMM            5.8:   RESISTIVITY MUD CAKE
 MCST.F                80:   MUD CAKE SAMPLE TEMPERATURE
 TCS .HRS              .5:   TIME CURCULATED STOPPED
 LUN .               2523:   LOGGING UNIT NUMBER
 LUL .               CSPR:   LOGGING UNIT LOCATION
 ENGI.           ELLERMAN:   RECORDING ENGINEER
 WITN.          JORGENSON:   WITNESSED BY
 CLNT.            A2DTECH:   CLIENT CODE
 ORIG.       2", 5" PRINT:   ORIGIN OF DATA
 UWI .       490250636100:   UNIQUE WELL ID
 DICO. A2D Technologies, Inc.:   DIGITIZING COMPANY
~OTHER INFORMATION
~A   DEPT      SPR       CILD        ILD          ASN       GR   
# ...
  465.0000   -54.9299   113.8400     7.6579     7.8511  -999.2500
  465.5000   -55.6024   113.8439     7.6276     7.8199  -999.2500
  466.0000   -56.0204   113.8053     7.5972     7.7859  -999.2500
  466.5000   -55.6267   114.8851     7.5669     7.7520  -999.2500
  467.0000   -54.0434   115.5603     7.5366     7.7188  -999.2500
  467.5000   -53.5112   116.4200     7.5062     7.6479  -999.2500
  468.0000   -55.3524   117.2796     7.4759     7.5478  -999.2500
  468.5000   -56.0410   118.1393     7.4456     7.4596  -999.2500
  469.0000   -55.5465   118.9989     7.4153     7.4702  -999.2500
  469.5000   -55.0485   119.8586     7.3849     7.5559  -999.2500
  470.0000   -55.3373   120.7182     7.3546     7.6394  -999.2500
  470.5000   -55.7870   121.5779     7.3242     7.7218  -999.2500
  471.0000   -56.2359   121.8656     7.2938     7.7021  -999.2500
  471.5000   -56.6262   121.7019     7.2724     7.6349  -999.2500
  472.0000   -56.2814   121.0977     7.2956     7.5752  -999.2500
  472.5000   -55.6953   120.4935     7.3182     7.5543  -999.2500
  473.0000   -55.1972   119.8893     7.3406     7.5335  -999.2500
  473.5000   -55.2753   119.2851     7.3629     7.5331  -999.2500
  474.0000   -55.3957   118.8566     7.3853     7.5270  -999.2500
  474.5000   -55.3873   119.4985     7.4077     7.4824  -999.2500
  475.0000   -54.5316   120.2178     7.4303     7.4191  -999.2500
  475.5000   -53.3909   120.9371     7.4529     7.3570  -999.2500
  476.0000   -52.4506   121.6564     7.4612     7.2954  -999.2500
  476.5000   -54.6126   121.8656     7.3535     7.2451  -999.2500
  477.0000   -53.8849   122.9257     7.2451     7.2253  -999.2500
  477.5000   -52.7159   124.0876     7.1371     7.1782  -999.2500
  478.0000   -51.5861   124.8746     7.0292     7.0687  -999.2500
  478.5000   -53.1756   127.3671     6.9213     6.9577  -999.2500
  479.0000   -54.8335   130.1939     6.8136     6.8574  -999.2500
  479.5000   -54.8682   133.0266     6.7059     6.7567  -999.2500
  480.0000   -54.5501   136.8929     6.5994     6.6466  -999.2500
  480.5000   -54.2304   143.5943     6.3205     6.4923  -999.2500
  481.0000   -53.9058   150.7027     5.9847     6.3358  -999.2500
  481.5000   -53.9157   157.8111     5.6490     6.1805  -999.2500
  482.0000   -54.0649   161.9860     5.3617     6.0440  -999.2500
  482.5000   -54.2191   162.9890     5.3926     5.9690  -999.2500
  483.0000   -53.4846   162.2588     5.4174     5.8363  -999.2500
  483.5000   -53.2129   160.2447     5.4400     5.5492  -999.2500
  484.0000   -53.4806   158.2307     5.4728     5.7457  -999.2500
  484.5000   -53.7945   154.9649     5.7816     6.0954  -999.2500
  485.0000   -53.8159   150.5930     6.1079     6.4377  -999.2500
  485.5000   -53.3173   144.9655     6.4366     6.4802  -999.2500
  486.0000   -51.1257   139.3380     6.5806     6.5061  -999.2500
  486.5000   -51.6172   135.9077     6.6603     6.5594  -999.2500
  487.0000   -53.2432   134.9047     6.7368     6.6098  -999.2500
  487.5000   -53.3890   134.9047     6.8129     6.6609  -999.2500
  488.0000   -52.3493   134.9047     6.8893     6.6700  -999.2500
  488.5000   -51.2164   132.8871     6.9655     6.6756  -999.2500
  489.0000   -52.5785   130.8521     7.0415     6.7057  -999.2500
  489.5000   -54.3461   128.8979     7.0172     6.7355  -999.2500
  490.0000   -54.6234   131.3097     6.8854     6.7659  -999.2500
  490.5000   -54.5360   133.6948     6.7542     6.7708  -999.2500
  491.0000   -54.4620   136.0798     6.6222     6.6920  -999.2500
  491.5000   -54.4041   138.5484     6.4908     6.5504  -999.2500
  492.0000   -54.5572   141.2948     6.3933     6.4103  -999.2500
  492.5000   -54.7393   144.0412     6.2765     6.2703  -999.2500
  493.0000   -54.6455   146.7876     6.1573     6.1307  -999.2500
  493.5000   -53.7545   149.5341     5.9909     6.0710  -999.2500
  494.0000   -53.2752   157.3562     5.6318     5.9593  -999.2500
  494.5000   -53.5774   167.2166     5.2810     5.7322  -999.2500
  495.0000   -53.9546   177.0771     4.9308     5.5110  -999.2500
  495.5000   -54.0323   186.9375     4.5766     5.2899  -999.2500
  496.0000   -53.3648   196.7979     4.4647     5.0698  -999.2500
  496.5000   -52.3932   199.0973     4.4629     4.8625   113.0215
  497.0000   -50.6951   198.5356     4.4632     4.9315   106.2200
  497.5000   -52.1275   197.3509     4.4621     4.9931   105.3835
  498.0000   -53.4246   196.1662     4.4531     4.7833    99.2135
  498.5000   -53.6174   195.0853     4.7540     4.7565   109.0518
  499.0000   -52.9764   184.4876     5.0306     5.4438   107.1619
  499.5000   -52.0547   170.5670     5.3096     5.8418   111.3789
  500.0000   -53.6623   156.6464     5.5876     5.9471   106.5480
  500.5000   -55.1647   146.5396     5.8674     6.0546   107.8031
  501.0000   -55.3992   142.6665     6.1546     6.1901   116.2873
  501.5000   -55.3586   138.7933     6.2383     6.4002   115.3846
  502.0000   -55.3106   136.8117     6.3112     6.6098   124.8799
  502.5000   -55.2628   136.4970     6.3854     6.7059   113.8068
  503.0000   -55.2172   136.1823     6.4601     6.6997   117.5487
  503.5000   -55.2030   135.9077     6.5346     6.6926   115.3624
  504.0000   -54.3782   135.0992     6.6092     6.7384   106.9199
  504.5000   -53.4272   133.5735     6.6838     6.8923   108.6125
  505.0000   -53.2323   132.0477     6.7584     7.0444   106.3426
  505.5000   -53.4290   130.5219     6.8330     7.0521   114.2473
  506.0000   -53.6338   128.9961     6.9076     7.0495   109.9627
  506.5000   -53.8083   127.4703     6.9858     7.1322   101.3137
  507.0000   -53.4531   125.8861     7.0763     7.2404   100.6864
  507.5000   -52.3319   126.8854     7.1678     7.3477   107.6215
  508.0000   -51.4413   128.7405     7.2596     7.3452   109.2120
  508.5000   -54.6803   129.8897     7.3535     7.3461   101.5290
  509.0000   -55.2022   128.2304     7.3721     7.3913    94.0480
  509.5000   -54.0764   126.0725     7.3724     7.4330    92.6561
  510.0000   -52.8423   123.8716     7.3721     7.4220    92.8549
  510.5000   -51.5901   123.0692     7.3722     7.4152   108.2141
  511.0000   -53.1751   124.1638     7.3722     7.5115   113.8239
  511.5000   -54.6291   125.2584     7.3717     7.6105   109.9023
  512.0000   -54.8665   126.3530     7.3405     7.6092   105.3158
  512.5000   -55.3800   127.4476     7.2582     7.4632   103.1144
  513.0000   -56.0510   127.8837     7.1767     7.3132   113.8457
  513.5000   -56.6307   127.8844     7.0950     7.2070   113.8084
  514.0000   -56.4670   127.8840     7.0133     7.1029   114.0579
  514.5000   -55.4255   127.8825     6.9318     6.9987   107.3869
  515.0000   -55.2116   127.8837     6.8511     6.8944   106.5973
  515.5000   -55.2080   127.8837     6.7645     6.7894   105.7010
  516.0000   -55.2096   129.6008     6.5458     6.6635    99.0641
  516.5000   -55.2135   133.6110     6.3249     6.5063   104.7929
  517.0000   -54.8597   137.6018     6.1091     6.3483   107.1341
  517.5000   -54.2493   141.9766     5.7988     6.1488   108.5781
  518.0000   -53.5728   154.4915     5.4767     5.7716   105.1817
  518.5000   -51.4352   166.5757     5.1541     5.4019    99.1481
  519.0000   -50.2922   178.0341     4.8342     5.0327    90.0565
  519.5000   -52.2253   202.6479     4.5320     4.6635    94.9100
  520.0000   -52.6153   230.3410     3.6019     4.2942    91.4859
  520.5000   -51.3630   276.6204     2.5927     3.9248    85.5432
  521.0000   -50.4325   325.8955     1.5867     3.5552    81.2088
  521.5000   -50.2043   375.1357     1.3350     3.1917    83.4201
  522.0000   -51.7444   421.0139     1.2023     2.9293    88.8435
  522.5000   -53.9630   450.8526     1.0846     2.8400   101.4681
  523.0000   -53.9342   474.2361     0.9305     2.7465   100.7658
  523.5000   -53.4594   479.9398     1.0326     2.6645   100.2875
  524.0000   -52.9895   460.7723     1.1170     2.6645   108.3391
  524.5000   -52.9284   435.1540     1.3115     2.8668   114.1315
  525.0000   -53.6004   398.5846     1.9624     3.0597   123.3809
  525.5000   -54.0178   337.0445     2.5880     3.2726   130.9815
