~VERSION INFORMATION
 VERS.                2.0:   CWLS LOG ASCII STANDARD - VERSION 2.0
 WRAP.                 NO:   ONE LINE PER DEPTH STEP
~WELL INFORMATION
#MNEM.UNIT      DATA TYPE    INFORMATION
#----------   ------------   ------------------------------
 STRT.F           36.0000:   START DEPTH
 STOP.F         3160.0000:   STOP DEPTH
 STEP.F            0.5000:   STEP LENGTH
 NULL.          -999.2500:   NO VALUE
 COMP.    FENIX & SCISSON:   COMPANY
 WELL.        NPR-3 #28-3:   WELL
 FLD .             TEAPOT:   FIELD
 LOC .       S3 T38N R78W:   LOCATION
 CNTY.            NATRONA:   COUNTY
 STAT.            WYOMING:   STATE
 CTRY. UNITED STATES OF AMERICA:   COUNTRY
 SRVC.            Unknown:   SERVICE COMPANY
 DATE.        01-JUL-1978:   LOGDATE
 API .       490251066500:   API NUMBER
~CURVE INFORMATION
#MNEM.UNIT       API CODE    CURVE DESCRIPTION
#----------   ------------   ------------------------------
 DEPT.F                  :   
 ILD .OHMM   05 120 46 00:   INDUCTION LOG DEEP
 SN  .OHMM   05 040 16 00:   SHORT NORMAL 16"
 SPR .MV     05 010 01 00:   SPONTANEOUS POTENTIAL FROM RES.
 CALD.IN     45 280 60 00:   CALIPER FROM DENSITY LOG
 CORR.G/C3   45 356 01 00:   DENSITY CORRECTION
 DPHI.DEC    45 890 12 00:   DENSITY POROSITY SANDSTONE
 GRD .GAPI   45 310 01 00:   GAMMA RAY FROM DENSITY LOG
 RHOB.G/C3   45 350 01 00:   BULK DENSITY
 GR  .GAPI   30 310 01 00:   GAMMA RAY
~PARAMETER INFORMATION
#MNEM.UNIT          VALUE    DESCRIPTION
#----------   ------------   ------------------------------
 PD  .                 GL:   PERMANENT DATUM
 EPD .F              5264:   ELEVATION PERMANENT DATUM
 LMF .                 KB:   LOG MEASURED FROM
 DAPD.F                 4:   FEET ABOVE PERMANENT DATUM
 DMF .                 KB:   DRILLING MEASURED FROM
 EKB .F              5268:   KELLING BUSHING
 EGL .F              5264:   GROUND LEVEL
 DATE.        01-JUL-1978:   RUN DATE
 RUN .                  1:   RUN NUMBER
 DD  .F               630:   DEPTH DRILLER
 DL  .F               636:   DEPTH LOGGER
 BLI .F               630:   BOTTOM LOG INTERVAL
 TLI .F                50:   TOP LOG INTERVAL
 CS  .IN            8.625:   CASING SIZE
 CBD .F                40:   CASING BOTTOM DRILLER
 BS  .IN            7.875:   BIT SIZE
 BSD .F               630:   BIT SIZE AT DEPTH
 DFT .                KCL:   DRILLING FLUID TYPE
 DFD .                8.6:   DRILLING FLUID DENSITY
 DFV .                 32:   DRILLING FLUID VISCOSITY
 DFPH.                9.5:   DRILLING FLUID PH
 MSS .           FLOWLINE:   MUD SAMPLE SOURCE
 BHT .F                74:   BOTTOM HOLE TEMPERATURE
 TCS .HRS               1:   TIME CURCULATED STOPPED
 MRT .F                74:   MAXIMUM RECORDED TEMPERATURE
 LUN .               2958:   LOGGING UNIT NUMBER
 LUL .               CASP:   LOGGING UNIT LOCATION
 ENGI.             MILLER:   RECORDING ENGINEER
 WITN.           MCGINLEY:   WITNESSED BY
 CLNT.            A2DTECH:   CLIENT CODE
 ORIG.        2" 5" PRINT:   ORIGIN OF DATA
 UWI .       490251066500:   UNIQUE WELL ID
 DICO. A2D Technologies, Inc.:   DIGITIZING COMPANY
~OTHER INFORMATION
~A   DEPT      ILD         SN        SPR       CALD       CORR       DPHI         GRD      RHOB         GR   
# ...
  291.5000     8.3944     8.1556   -41.0651     7.2246    -0.0043     0.1612    83.7078     2.4234  -999.2500
  292.0000     8.3910     8.1535   -41.2192     7.2106    -0.0057     0.1660    85.2170     2.4197  -999.2500
  292.5000     8.4471     8.1514   -41.0736     7.2116    -0.0056     0.1641    85.3810     2.4167  -999.2500
  293.0000     8.4437     8.1487   -41.0789     7.2127    -0.0055     0.1638    81.6622     2.4145  -999.2500
  293.5000     8.4409     8.2036   -40.9319     7.2137    -0.0040     0.1674    76.1460     2.4130  -999.2500
  294.0000     8.6142     8.2009   -40.9372     7.2296     0.0006     0.1641    72.5730     2.4123  -999.2500
  294.5000     8.7918     8.1988   -40.7913     7.2157     0.0053     0.1686    71.5412     2.4109  -999.2500
  295.0000     8.9730     8.1961   -40.6465     7.1704     0.0082     0.1608    71.8546     2.4078  -999.2500
  295.5000     9.1579     8.1940   -40.6507     7.1430     0.0083     0.1548    76.5029     2.4236  -999.2500
  296.0000     9.2184     8.1919   -40.6550     7.1891     0.0069     0.1530    84.7386     2.4319  -999.2500
  296.5000     9.2793     8.1898   -40.6592     7.2499     0.0099     0.1491    85.7994     2.4341  -999.2500
  297.0000     9.2756     8.1875   -40.6645     7.3705     0.0175     0.1473    82.9774     2.4401  -999.2500
  297.5000     9.2726     8.1850   -40.6688     7.5210     0.0220     0.1532    82.2409     2.4364  -999.2500
  298.0000     9.3338     8.1828   -40.6730     7.6416     0.0251     0.1448    82.4085     2.4357  -999.2500
  298.5000     9.3300     8.1807   -40.6772     7.6725     0.0266     0.1412    82.4229     2.4462  -999.2500
  299.0000     9.3924     8.1780   -40.6826     7.6735     0.0284     0.1419    83.0353     2.4514  -999.2500
  299.5000     9.4537     8.2331   -40.6868     7.6748     0.0313     0.1487    83.1993     2.4500  -999.2500
  300.0000     9.3852     8.3455   -40.5409     7.6307     0.0328     0.1496    83.0643     2.4425  -999.2500
  300.5000     9.3839     8.2294   -40.6954     7.6026     0.0497     0.1492    82.7768     2.4366  -999.2500
  301.0000     9.3827     8.2283   -40.6997     7.5741     0.0613     0.1489    83.6881     2.4374  -999.2500
  301.5000     9.3166     8.2272   -40.7051     7.5158     0.0584     0.1470    84.8954     2.4420  -999.2500
  302.0000     9.2512     8.2261   -40.7094     7.4574     0.0450     0.1276    85.3554     2.4639  -999.2500
  302.5000     8.9978     8.2250   -40.7137     7.3837     0.0316     0.1160    85.3669     2.4875  -999.2500
  303.0000     8.7514     8.2236   -41.0184     7.2813     0.0183     0.1196    84.3321     2.4853  -999.2500
  303.5000     8.6301     8.2225   -41.1728     7.2080     0.0124     0.1228    81.6094     2.4832  -999.2500
  304.0000     8.5105     8.2214   -41.3273     7.0899     0.0094     0.1333    80.0203     2.4668  -999.2500
  304.5000     8.4506     8.2204   -41.3327     6.9867     0.0095     0.1437    81.9779     2.4534  -999.2500
  305.0000     8.4494     8.2193   -41.3370     6.9429     0.0096     0.1452    82.2855     2.4460  -999.2500
  305.5000     8.4483     8.2181   -41.3413     6.9148     0.0111     0.1484    81.5496     2.4415  -999.2500
  306.0000     8.4472     8.2168   -41.3457     6.9013     0.0112     0.1521    82.6103     2.4345  -999.2500
  306.5000     8.4461     8.2157   -41.3500     6.9028     0.0112     0.1552    83.2197     2.4289  -999.2500
  307.0000     8.4449     8.1581   -41.3544     6.9046     0.0113     0.1585    83.2317     2.4230  -999.2500
  307.5000     8.4436     8.1570   -41.3597     6.9060     0.0113     0.1615    81.9004     2.4096  -999.2500
  308.0000     8.4424     8.1559   -41.5142     6.9075     0.0099     0.1644    80.1182     2.4164  -999.2500
  308.5000     8.4413     8.1548   -41.6686     6.9089     0.0085     0.1662    79.3823     2.4120  -999.2500
  309.0000     8.4987     8.1535   -41.8231     6.9104     0.0070     0.1695    78.9425     2.4045  -999.2500
  309.5000     8.4976     8.0962   -41.9776     6.9268     0.0056     0.1724    79.5548     2.4001  -999.2500
  310.0000     8.6147     7.9841   -41.9820     6.9601     0.0057     0.1700    80.4933     2.3987  -999.2500
  310.5000     8.6226     7.8735   -41.9873     7.0645     0.0057     0.1652    82.4208     2.4062  -999.2500
  311.0000     8.6721     7.8724   -41.9916     7.2005     0.0043     0.1646    84.2260     2.4144  -999.2500
  311.5000     8.7311     7.7585   -41.8447     7.2916     0.0044     0.1652    83.6396     2.4137  -999.2500
  312.0000     8.7297     7.6555   -41.8501     7.3828     0.0044     0.1592    82.7543     2.4168  -999.2500
  312.5000     8.7285     7.6018   -41.7042     7.4590     0.0045     0.1583    81.5700     2.4243  -999.2500
  313.0000     8.7271     7.5485   -41.5585     7.5351     0.0045     0.1577    80.0867     2.4258  -999.2500
  313.5000     8.6658     7.4955   -41.5639     7.5665     0.0046     0.1514    81.0583     2.4281  -999.2500
  314.0000     8.6050     7.4429   -41.5676     7.5832     0.0047     0.1538    85.4938     2.4372  -999.2500
  314.5000     8.5446     7.3906   -41.5725     7.5996     0.0047     0.1528    88.6443     2.4289  -999.2500
  315.0000     8.4847     7.3385   -41.4256     7.6011     0.0048     0.1501    89.8517     2.4334  -999.2500
  315.5000     8.4251     7.3376   -41.4310     7.6025     0.0048     0.1465    87.6210     2.4380  -999.2500
  316.0000     8.2509     7.2861   -41.4354     7.6189     0.0049     0.1438    84.4935     2.4417  -999.2500
  316.5000     7.9148     7.2350   -41.5909     7.6054     0.0065     0.1417    85.1836     2.4448  -999.2500
  317.0000     7.6980     7.2340   -41.5952     7.6218     0.0095     0.1414    90.9470     2.4463  -999.2500
  317.5000     7.4872     7.2330   -41.7497     7.6083     0.0125     0.1482    91.1051     2.4463  -999.2500
  318.0000     7.3326     7.2318   -41.9041     7.6101     0.0156     0.1476    88.2794     2.4432  -999.2500
  318.5000     7.2310     7.2309   -41.9085     7.5966     0.0156     0.1484    84.5540     2.4360  -999.2500
  319.0000     7.2802     7.2436   -42.0631     7.5980     0.0172     0.1514    82.7718     2.4316  -999.2500
  319.5000     7.3297     7.3298   -42.0683     7.5995     0.0187     0.1517    83.6802     2.4323  -999.2500
  320.0000     7.3285     7.4306   -42.0726     7.6009     0.0173     0.1487    87.3393     2.4436  -999.2500
  320.5000     7.4495     7.4811   -42.0770     7.5725     0.0159     0.1391    88.0409     2.4533  -999.2500
  321.0000     7.5319     7.5319   -42.0813     7.5444     0.0130     0.1332    87.9001     2.4623  -999.2500
  321.5000     7.6420     7.5307   -42.0856     7.5458     0.0100     0.1403    88.3629     2.4624  -999.2500
  322.0000     7.7409     7.5297   -42.0901     7.5170     0.0071     0.1445    89.2713     2.4475  -999.2500
  322.5000     7.6863     7.4768   -41.9452     7.4889     0.0057     0.1435    89.7312     2.4475  -999.2500
  323.0000     7.6324     7.4244   -41.9495     7.4754     0.0057     0.1477    88.9316     2.4461  -999.2500
  323.5000     7.5788     7.4234   -41.8037     7.4470     0.0073     0.1486    79.8917     2.4432  -999.2500
  324.0000     7.5256     7.3711   -41.8080     7.4028     0.0089     0.1509    77.5116     2.4357  -999.2500
  324.5000     7.4728     7.3193   -41.8123     7.3452     0.0119     0.1554    77.0718     2.4291  -999.2500
  325.0000     7.4716     7.3184   -41.8177     7.3168     0.0119     0.1584    78.2820     2.4239  -999.2500
  325.5000     7.4706     7.2670   -41.8220     7.3036     0.0135     0.1604    80.2367     2.4217  -999.2500
  326.0000     7.3671     7.2160   -41.8264     7.3051     0.0151     0.1547    83.0883     2.4279  -999.2500
  326.5000     7.3154     7.1160   -41.8307     7.2916     0.0136     0.1493    86.2771     2.4360  -999.2500
  327.0000     7.2141     7.0100   -41.8350     7.2781     0.0122     0.1484    86.7016     2.4390  -999.2500
  327.5000     7.1139     6.8250   -41.8393     7.2646     0.0093     0.1481    85.2184     2.4398  -999.2500
