~VERSION INFORMATION
 VERS.                2.0:   CWLS LOG ASCII STANDARD - VERSION 2.0
 WRAP.                 NO:   ONE LINE PER DEPTH STEP
~WELL INFORMATION
#MNEM.UNIT      DATA TYPE    INFORMATION
#----------   ------------   ------------------------------
 STRT.F           60.0000:   START DEPTH
 STOP.F         1143.0000:   STOP DEPTH
 STEP.F            0.5000:   STEP LENGTH
 NULL.          -999.2500:   NO VALUE
 COMP. U S NAVY-INTEX OIL:   COMPANY
 WELL.    N.P.R . 3 #63-2:   WELL
 FLD .             TEAPOT:   FIELD
 LOC .       S2 T38N R78W:   LOCATION
 CNTY.            NATRONA:   COUNTY
 STAT.            WYOMING:   STATE
 CTRY. UNITED STATES OF AMERICA:   COUNTRY
 SRVC. Schlumberger Well Surveying Corp:   SERVICE COMPANY
 DATE.        24-MAY-1964:   LOGDATE
 API .       490250645500:   API NUMBER
~CURVE INFORMATION
#MNEM.UNIT       API CODE    CURVE DESCRIPTION
#----------   ------------   ------------------------------
 DEPT.F                  :   
 SPR .MV     05 010 01 00:   SPONTANEOUS POTENTIAL FROM RES.
 ASN .OHMM   05 041 16 00:   AMPLIFIED SHORT NORMAL 16"
 ILD .OHMM   05 120 46 00:   INDUCTION LOG DEEP
 CILD.MMHO   05 110 46 00:   CONDUCTIVITY INDUCTION LOG DEEP
 CALS.IN     60 280 50 00:   CALIPER FROM SONIC LOG
 DT  .US/F   60 520 33 00:   INTERVAL TRANSIT TIME
~PARAMETER INFORMATION
#MNEM.UNIT          VALUE    DESCRIPTION
#----------   ------------   ------------------------------
 PD  .                 GL:   PERMANENT DATUM
 EPD .F              5181:   ELEVATION PERMANENT DATUM
 LMF .                 KB:   LOG MEASURED FROM
 DAPD.F                 5:   FEET ABOVE PERMANENT DATUM
 DMF .                 KB:   DRILLING MEASURED FROM
 EKB .F              5186:   KELLING BUSHING
 EGL .F              5181:   GROUND LEVEL
 DATE.        24-MAY-1964:   RUN DATE
 RUN .                  1:   RUN NUMBER
 DD  .F              1140:   DEPTH DRILLER
 DL  .F              1144:   DEPTH LOGGER
 BLI .F              1143:   BOTTOM LOG INTERVAL
 TLI .F                82:   TOP LOG INTERVAL
 CS  .IN            8.625:   CASING SIZE
 CBD .F                10:   CASING BOTTOM DRILLER
 BS  .IN            7.875:   BIT SIZE
 BSD .F              1140:   BIT SIZE AT DEPTH
 DFT .            GEL/OIL:   DRILLING FLUID TYPE
 DFD .                9.0:   DRILLING FLUID DENSITY
 DFV .                 63:   DRILLING FLUID VISCOSITY
 DFPH.                8.0:   DRILLING FLUID PH
 DFL .                7.6:   DRILLING FLUID LOSS
 MSS .           FLOWLINE:   MUD SAMPLE SOURCE
 RMS .OHMM           0.87:   RESISTIVITY MUD SAMPLE
 MST .F                84:   MUD SAMPLE TEMPERATURE
 RMF .OHMM           0.43:   RESISTIVITY MUD FILTRATE SAMPLE
 MFST.F                84:   MUD FILTRATE SAMPLE TEMPERATURE
 RMC .OHMM           1.52:   RESISTIVITY MUD CAKE
 MCST.F                84:   MUD CAKE SAMPLE TEMPERATURE
 MFSS.                 FP:   MUD FILTRATE SAMPLE SOURCE
 MCSS.                 FP:   MUD CAKE SAMPLE SOURCE
 TCS .HRS               2:   TIME CURCULATED STOPPED
 LUN .               4507:   LOGGING UNIT NUMBER
 LUL .               CSPR:   LOGGING UNIT LOCATION
 ENGI.             DANNER:   RECORDING ENGINEER
 WITN.          JORGENSEN:   WITNESSED BY
 CLNT.            A2DTECH:   CLIENT CODE
 ORIG.       2", 5" PRINT:   ORIGIN OF DATA
 UWI .       490250645500:   UNIQUE WELL ID
 DICO. A2D Technologies, Inc.:   DIGITIZING COMPANY
~OTHER INFORMATION
~A   DEPT      SPR          ASN        ILD      CILD      CALS         DT   
# ...
  476.0000   -43.7893     7.4698     5.8268   175.8434     7.7372  -999.2500
  476.5000   -43.7899     7.4848     5.7060   175.9637     7.7674  -999.2500
  477.0000   -43.7907     7.4697     5.4977   178.8720     7.7825  -999.2500
  477.5000   -43.7086     7.4630     5.3140   181.0431     7.7825  -999.2500
  478.0000   -43.6415     7.4068     5.1181   186.4161     7.7372  -999.2500
  478.5000   -43.6424     7.2714     4.9483   193.2373     7.6767  -999.2500
  479.0000   -43.4925     7.0296     4.7262   203.0965     7.6465  -999.2500
  479.5000   -43.4932     6.7047     4.5949   214.8517     7.6767  -999.2500
  480.0000   -43.3434     6.3689     4.3744   226.6069     7.7372  -999.2500
  480.5000   -43.1934     5.9602     4.2135   238.3621     7.7523  -999.2500
  481.0000   -43.1944     5.7639     4.0418   250.1173     7.7674  -999.2500
  481.5000   -43.1303     5.5228     3.8967   261.8725     7.7674  -999.2500
  482.0000   -42.8946     5.2651     3.6922   275.3324     7.7674  -999.2500
  482.5000   -42.8953     5.1087     3.5417   284.5168     7.7674  -999.2500
  483.0000   -42.7454     4.9221     3.3839   295.2591     7.7523  -999.2500
  483.5000   -42.5957     4.6501     3.2405   306.0013     7.7523  -999.2500
  484.0000   -42.5964     4.5175     3.1421   316.7436     7.7523  -999.2500
  484.5000   -42.5971     4.3651     3.0146   324.3147     7.7523  -999.2500
  485.0000   -42.5980     4.2669     3.0143   320.8082     7.7674  -999.2500
  485.5000   -42.5987     4.3115     3.0230   307.7650     7.7674  -999.2500
  486.0000   -42.5994     4.7097     3.1636   295.8724     7.7674  -999.2500
  486.5000   -42.6002     4.7796     3.2881   276.9055     7.7825  -999.2500
  487.0000   -42.6009     4.8895     3.5383   260.5338     7.7674  -999.2500
  487.5000   -42.6016     5.4198     3.8852   239.5514     7.7674  -999.2500
  488.0000   -42.6026     5.8687     4.2462   222.6811     7.7372  -999.2500
  488.5000   -42.6488     6.0852     4.6632   201.8410     7.6616  -999.2500
  489.0000   -42.7546     6.3017     4.8934   192.4044     7.5559  -999.2500
  489.5000   -42.7553     6.5182     5.1881   184.3303     7.5257  -999.2500
  490.0000   -42.7561     6.7207     5.4229   178.6904     7.5710  -999.2500
  490.5000   -42.7569     6.8830     5.6635   174.3872     7.6767  -999.2500
  491.0000   -42.7575     7.0278     5.9376   170.8714     7.7523  -999.2500
  491.5000   -42.7583     7.1728     6.0697   167.3557     7.7976  -999.2500
  492.0000   -42.7590     7.3215     6.2372   163.8400     7.8278  -999.2500
  492.5000   -42.7598     7.4495     6.4008   160.3242     7.8429  -999.2500
  493.0000   -42.7606     7.6022     6.5368   156.8085     7.8429  -999.2500
  493.5000   -42.7613     7.7562     6.6114   152.7647     7.8429  -999.2500
  494.0000   -42.7620     7.8892     6.5806   154.0764     7.8278  -999.2500
  494.5000   -42.8567     7.9474     6.5348   156.5438     7.8278  -999.2500
  495.0000   -42.9141     7.9960     6.4139   160.8811     7.8429  -999.2500
  495.5000   -42.9150     7.9617     6.2930   164.5219     7.8429  -999.2500
  496.0000   -42.9840     7.7679     6.0840   170.1214     7.8429  -999.2500
  496.5000   -43.0766     7.5300     5.8688   175.2934     7.8429  -999.2500
  497.0000   -43.2184     7.2868     5.6274   182.2592     7.8429  -999.2500
  497.5000   -43.2191     7.1298     5.3378   189.5329     7.8429  -999.2500
  498.0000   -43.2199     6.9118     4.9945   198.5346     7.8429  -999.2500
  498.5000   -43.3713     6.7297     4.7308   212.5305     7.8278    99.8027
  499.0000   -43.3890     6.5503     4.4367   226.5263     7.7825   102.6735
  499.5000   -43.5235     6.3269     4.1953   240.5222     7.7069   104.1860
  500.0000   -43.4987     5.9983     4.0165   254.5181     7.6465   105.8493
  500.5000   -43.3768     5.7158     3.9256   258.2907     7.6163   106.2296
  501.0000   -43.2550     5.4332     3.9046   259.0511     7.6314   106.0809
  501.5000   -43.2229     5.1272     3.9051   259.8123     7.6616   108.4997
  502.0000   -43.0723     5.0526     3.8688   258.6896     7.7221   110.8423
  502.5000   -43.0723     5.0221     3.9058   257.3793     7.7825   110.6944
  503.0000   -42.9217     5.1869     3.9062   253.0584     7.8278   110.0900
  503.5000   -43.0231     5.4090     4.0080   241.7359     7.8278   109.7864
  504.0000   -43.0723     5.6366     4.2072   228.3553     7.8429   109.5452
  504.5000   -43.0723     5.8278     4.4471   214.9747     7.8580   107.1598
  505.0000   -43.2229     5.9825     4.6910   203.7650     7.8429   104.5213
  505.5000   -43.2229     6.0711     4.8840   195.1120     7.8278   103.9205
  506.0000   -43.2229     6.1080     5.0690   196.6273     7.8127   103.8472
  506.5000   -43.2821     6.1322     5.1100   197.7321     7.8127   103.6245
  507.0000   -43.3735     6.1459     5.1104   199.0260     7.8127   102.9483
  507.5000   -43.3735     6.1458     5.1108   201.1685     7.8127   102.9512
  508.0000   -43.3735     6.1457     5.0360   203.6847     7.8278   102.8033
  508.5000   -43.3735     6.1221     4.8760   206.4535     7.8429   102.2779
  509.0000   -43.2229     6.0799     4.6936   210.9163     7.8580   101.9035
  509.5000   -43.2229     5.9956     4.2865   220.8692     7.8731   101.9820
  510.0000   -43.2229     5.8276     3.8889   245.5066     7.8882   102.2868
  510.5000   -43.0723     5.4376     3.4448   276.1046     7.9033   102.8936
  511.0000   -42.9217     4.8109     2.9363   310.9867     7.8882   103.2830
  511.5000   -42.6817     4.4897     2.7416   348.0112     7.8882   103.9841
  512.0000   -42.4378     4.0885     2.5616   378.1931     7.8731   105.0108
  512.5000   -42.1687     3.6563     2.4118   380.4595     7.8580   107.2081
  513.0000   -42.0181     3.6113     2.3248   378.8353     7.8429   112.2677
  513.5000   -42.0181     3.6112     2.3375   374.4191     7.8429   116.7235
  514.0000   -42.0181     3.6561     2.3684   359.5970     7.8429   117.6321
  514.5000   -42.0653     3.8818     2.6428   336.4993     7.8429   117.1068
  515.0000   -42.3193     4.2706     3.0330   313.4015     7.8278   116.3550
  515.5000   -42.4026     4.8205     3.4513   290.0493     7.8278   114.0184
  516.0000   -42.6466     4.9785     3.9159   256.5133     7.8278   110.7006
  516.5000   -42.9217     4.9900     4.1438   236.0039     7.8278   107.6092
  517.0000   -43.1346     4.9900     4.2272   226.9130     7.8278   106.4047
  517.5000   -43.2229     5.0104     4.3675   228.8968     7.8278   107.2378
  518.0000   -43.2229     5.2147     4.4430   232.4497     7.8429   107.8446
  518.5000   -43.3735     5.2696     4.4433   235.2193     7.8429   107.6211
  519.0000   -43.3735     5.3195     4.4437   237.0457     7.8580   107.3112
  519.5000   -43.2962     5.2934     4.2755   238.3396     7.8580   106.8622
  520.0000   -43.2229     5.1784     4.1442   242.0178     7.8580   106.3478
  520.5000   -43.0723     4.9744     3.9211   247.3282     7.8580   105.2179
  521.0000   -43.0161     4.8078     3.6862   260.1058     7.8429   105.7499
  521.5000   -42.7711     4.6526     3.3946   274.3871     7.8278   106.6586
  522.0000   -42.6205     4.4495     3.2402   292.0810     7.7825   107.3408
  522.5000   -42.4347     4.2590     2.8698   317.3767     7.7221   108.6268
  523.0000   -42.1687     3.9846     2.6303   342.6723     7.6918   108.9316
  523.5000   -42.0181     3.8082     2.4787   367.9680     7.6767   109.6138
  524.0000   -41.8675     3.6892     2.3454   382.8916     7.7069   111.1263
  524.5000   -41.8675     3.5945     2.3804   370.6881     7.7372   113.0160
  525.0000   -41.8675     3.5645     2.5087   355.3321     7.7825   115.3586
  525.5000   -42.0181     3.6180     2.7970   339.9761     7.8278   118.1540
  526.0000   -42.1044     3.9924     2.9720   324.6201     7.8278   118.7787
  526.5000   -42.3484     4.3281     3.2481   309.2641     7.8278   116.1152
  527.0000   -42.6205     4.7636     3.5270   292.8401     7.8278   114.1237
  527.5000   -42.6857     5.1136     3.8032   273.3181     7.8278   111.5621
