~VERSION INFORMATION
 VERS.                2.0:   CWLS LOG ASCII STANDARD - VERSION 2.0
 WRAP.                 NO:   ONE LINE PER DEPTH STEP
~WELL INFORMATION
#MNEM.UNIT      DATA TYPE    INFORMATION
#----------   ------------   ------------------------------
 STRT.F           48.0000:   START DEPTH
 STOP.F          539.0000:   STOP DEPTH
 STEP.F            0.5000:   STEP LENGTH
 NULL.          -999.2500:   NO VALUE
 COMP. LAWRENCE/ALLISON INC:   COMPANY
 WELL.   57-21 SHX #10-10:   WELL
 FLD .             TEAPOT:   FIELD
 LOC .      S10 T38N R78W:   LOCATION
 CNTY.            NATRONA:   COUNTY
 STAT.            WYOMING:   STATE
 CTRY. UNITED STATES OF AMERICA:   COUNTRY
 SRVC.           Gearhart:   SERVICE COMPANY
 DATE.        12-JUN-1986:   LOGDATE
 API .       490251108700:   API NUMBER
~CURVE INFORMATION
#MNEM.UNIT       API CODE    CURVE DESCRIPTION
#----------   ------------   ------------------------------
 DEPT.F                  :   
 GRR .GAPI   11 310 01 00:   GAMMA RAY FROM RES.
 LLA .OHMM   11 220 00 00:   LATEROLOG AVERAGE RES.
 RILD.OHMM   07 120 46 00:   INDUCTION LOG DEEP RESISTIVITY
 RILM.OHMM   07 120 44 00:   INDUCTION LOG MEDIUM RESISTIVITY
~PARAMETER INFORMATION
#MNEM.UNIT          VALUE    DESCRIPTION
#----------   ------------   ------------------------------
 PD  .                 GL:   PERMANENT DATUM
 EPD .F              5196:   ELEVATION PERMANENT DATUM
 LMF .                 KB:   LOG MEASURED FROM
 DAPD.F                 5:   FEET ABOVE PERMANENT DATUM
 DMF .                 KB:   DRILLING MEASURED FROM
 EKB .F              5201:   KELLING BUSHING
 EGL .F              5196:   GROUND LEVEL
 DATE.           61-12-86:   RUN DATE
 RUN .                  1:   RUN NUMBER
 DD  .F               545:   DEPTH DRILLER
 DL  .F             543.5:   DEPTH LOGGER
 BLI .F             539.5:   BOTTOM LOG INTERVAL
 TLI .F                48:   TOP LOG INTERVAL
 CS  .IN            8.625:   CASING SIZE
 CBD .F                47:   CASING BOTTOM DRILLER
 BS  .IN            7.875:   BIT SIZE
 BSD .F               545:   BIT SIZE AT DEPTH
 DFT .          FRESH-MUD:   DRILLING FLUID TYPE
 DFD .                9.3:   DRILLING FLUID DENSITY
 DFV .                 38:   DRILLING FLUID VISCOSITY
 MSS .           FLOWLINE:   MUD SAMPLE SOURCE
 RMS .OHMM            .51:   RESISTIVITY MUD SAMPLE
 MST .F                82:   MUD SAMPLE TEMPERATURE
 RMF .OHMM            .38:   RESISTIVITY MUD FILTRATE SAMPLE
 MFST.F                78:   MUD FILTRATE SAMPLE TEMPERATURE
 RMC .OHMM            .65:   RESISTIVITY MUD CAKE
 MCST.F                79:   MUD CAKE SAMPLE TEMPERATURE
 MFSS.                  M:   MUD FILTRATE SAMPLE SOURCE
 MCSS.                  M:   MUD CAKE SAMPLE SOURCE
 RMB .OHMM            .49:   RESISTIVITY MUD AT BHT
 BHT .F                85:   BOTTOM HOLE TEMPERATURE
 TCS .HRS            1800:   TIME CURCULATED STOPPED
 TLAB.HRS            2000:   TIME LOGGER AT BOTTOM
 MRT .F                85:   MAXIMUM RECORDED TEMPERATURE
 LUN .               7609:   LOGGING UNIT NUMBER
 LUL .           GILLETTE:   LOGGING UNIT LOCATION
 ENGI.              BAUER:   RECORDING ENGINEER
 WITN.              FIVAS:   WITNESSED BY
 CLNT.            A2DTECH:   CLIENT CODE
 ORIG.       2", 5" PRINT:   ORIGIN OF DATA
 UWI .       490251108700:   UNIQUE WELL ID
 DICO. A2D Technologies, Inc.:   DIGITIZING COMPANY
~OTHER INFORMATION
~A   DEPT       GRR       LLA       RILD       RILM   
# ...
  121.0000   102.5353     7.3567     9.1970     8.6173
  121.5000   101.1431     7.3568     9.1970     8.6173
  122.0000    99.9407     7.3568     9.2768     8.6173
  122.5000   101.3282     7.3907     9.3389     8.6853
  123.0000    99.8615     7.4598     9.4429     8.7613
  123.5000    96.9085     7.5951     9.5904     8.8381
  124.0000    96.2429     7.7999     9.7403     9.0250
  124.5000    96.0368     8.0740     9.8925     9.2643
  125.0000    95.2665     8.0623    10.0471     9.5099
  125.5000    94.3039     8.0389    10.2041     9.7018
  126.0000    94.7677     8.0156    10.3635     9.8366
  126.5000    96.3272     7.9993    10.5254     9.9730
  127.0000    93.8393     8.3185    10.6941    10.1112
  127.5000    91.8863     8.6197    10.9043    10.2517
  128.0000    91.1760     8.9324    11.1184    10.4026
  128.5000    93.7331     9.0533    11.3368    10.6356
  129.0000    95.6751     9.1375    11.5595    10.8738
  129.5000    97.1846     9.2709    11.7866    11.1174
  130.0000    98.6410     9.5206    12.0181    11.3664
  130.5000    98.2582     9.7769    12.2542    11.6210
  131.0000    96.0129    10.0406    12.4949    11.8813
  131.5000    93.7419    10.3113    12.7406    12.1474
  132.0000    91.9181    10.5886    12.9906    12.4195
  132.5000    92.9661    10.6734    13.2200    12.5023
  133.0000    91.8749    10.5828    13.2200    12.5857
  133.5000    88.5432    10.5012    13.3392    12.7371
  134.0000    86.2642    10.4199    13.2861    12.6923
  134.5000    87.2299    10.3395    13.2420    12.6032
  135.0000    89.4452    10.2596    13.1533    12.5146
  135.5000    91.0084    10.1805    13.0210    12.4267
  136.0000    87.3112    10.1019    12.8900    12.3395
  136.5000    82.3775    10.0237    12.7603    12.2528
  137.0000    79.9647     9.8466    12.6319    12.1667
  137.5000    82.8122     9.6309    12.5314    12.0165
  138.0000    85.5549     9.4199    12.4346    11.8610
  138.5000    88.3151     9.2135    12.3386    11.7075
  139.0000    88.1490     9.1120    12.2433    11.5560
  139.5000    87.3215     9.1120    12.1562    11.3916
  140.0000    87.2307     9.1120    12.1360    11.4022
  140.5000    90.5838     9.0958    12.1158    11.4174
  141.0000    92.8878     9.0633    12.0957    11.4326
  141.5000    92.9823     9.0308    12.0757    11.4478
  142.0000    92.1918     9.0751    12.0556    11.4630
  142.5000    91.3779     9.1099    12.0270    11.4783
  143.0000    90.5684     9.0832    11.9898    11.4981
  143.5000    89.6864     9.0610    11.9527    11.4409
  144.0000    88.7923     9.0388    11.8848    11.3275
  144.5000    89.0646     8.9962    11.7867    11.2151
  145.0000    88.2013     8.9337    11.6894    11.1039
  145.5000    87.1956     8.8715    11.5930    10.9937
  146.0000    86.3716     8.8097    11.4974    10.8847
  146.5000    88.6833     8.7791    11.4025    10.7767
  147.0000    92.1176     8.7793    11.3084    10.6699
  147.5000    95.5404     8.7792    11.2152    10.5640
  148.0000    94.9952     8.7792    11.1226    10.4592
  148.5000    91.9274     8.5375    11.0309    10.3554
  149.0000    89.4113     8.4956    10.9399    10.2692
  149.5000    87.6705     8.4492    10.8496    10.2215
  150.0000    88.2427     8.3848    10.7601    10.1741
  150.5000    91.4283     8.4236    10.6714    10.1269
  151.0000    94.4198     8.5287    10.5833    10.0787
  151.5000    93.4732     8.3872    10.5392    10.0282
  152.0000    90.5025     8.1771    10.5001     9.9778
  152.5000    89.4259     8.0815    10.4611     9.9278
  153.0000    92.6041     8.1495    10.4222     9.8780
  153.5000    94.2422     8.0030    10.3835     9.8285
  154.0000    93.9271     7.9252    10.3449     9.7792
  154.5000    89.9592     8.0067    10.3065     9.7301
  155.0000    86.5501     8.0670    10.2682     9.7112
  155.5000    84.8038     7.9969    10.2300     9.6956
  156.0000    85.4815     7.9275    10.1921     9.6801
  156.5000    89.4516     7.8587    10.1883     9.6646
  157.0000    88.9857     7.8518    10.1882     9.6491
  157.5000    89.4205     7.8518    10.1879     9.6281
  158.0000    91.0941     7.8518    10.1869     9.5576
  158.5000    94.3525     7.8518    10.1889     9.4877
  159.0000    92.3632     7.8518     9.8192     9.4182
  159.5000    89.5128     7.6798     9.5801     9.2871
  160.0000    89.5284     7.3474     9.3469     9.0162
  160.5000    92.4378     7.0284     9.1194     8.7532
  161.0000    94.6107     6.7232     8.8975     8.4979
  161.5000    93.3420     6.5187     8.6812     8.2497
  162.0000    87.8021     6.5187     8.5707     8.1071
  162.5000    83.6240     6.7004     8.5375     7.9315
  163.0000    84.7731     6.8436     8.5372     7.9876
  163.5000    87.9621     6.9898     8.5373     8.0576
  164.0000    90.5557     7.1498     8.6072     8.1282
  164.5000    92.7508     7.1144     8.6855     8.2130
  165.0000    93.9619     7.0705     8.7645     8.3413
  165.5000    92.5249     7.0224     8.8441     8.4588
  166.0000    90.5099     7.1375     8.9244     8.4585
  166.5000    88.6715     7.2889     9.0055     8.4585
  167.0000    87.3266     7.2741     9.0873     8.4585
  167.5000    87.0753     7.2527     9.1519     8.5171
  168.0000    90.8943     7.2232     9.2320     8.6016
  168.5000    94.3133     7.2717     9.3129     8.6869
  169.0000    92.4264     7.3739     9.3945     8.7730
  169.5000    90.2424     7.4775     9.4768     8.8600
  170.0000    88.0969     7.5826     9.5598     8.9478
  170.5000    88.0985     7.6891     9.6435     9.0381
  171.0000    90.2490     7.7972     9.7280     9.1439
  171.5000    92.4169     7.8433     9.8132     9.2508
  172.0000    94.0829     7.7250     9.9079     9.3700
  172.5000    94.4678     7.6416     9.8602     9.2871
  173.0000    95.0435     7.5591     9.7924     9.1700
  173.5000    96.7964     7.4775     9.7252     9.1120
  174.0000    99.2847     7.3968     9.6584     9.0955
  174.5000   100.1520     7.3568     9.5921     9.0771
  175.0000    97.6836     7.4527     9.5459     9.0588
  175.5000    95.1860     7.5274     9.5459     9.0403
  176.0000    93.7967     7.6292     9.5459     9.0295
  176.5000    93.4220     7.7594     9.5459     9.0885
  177.0000    92.3356     7.8385     9.5459     9.1356
  177.5000    91.2424     7.7071     9.5462     9.1972
  178.0000    91.0101     7.6802     9.5317     9.1689
  178.5000    93.9081     7.5914     9.5117     9.1128
  179.0000    94.7361     7.5342     9.4916     9.0568
  179.5000    94.7421     7.4949     9.4717     9.0012
  180.0000    95.6501     7.3569     9.4330     8.9459
  180.5000    96.5066     7.1635     9.3510     8.8910
  181.0000    94.0010     6.9601     9.2697     8.8364
  181.5000    90.9066     6.9865     9.1892     8.7822
  182.0000    89.6966     7.0191     9.1094     8.7283
  182.5000    90.1923     7.0518     9.0303     8.6747
  183.0000    89.4561     7.0847     8.9519     8.6215
  183.5000    87.9099     7.1178     8.8810     8.5686
  184.0000    87.2184     7.1509     8.7916     8.5160
  184.5000    88.8074     7.1543     8.7032     8.4637
  185.0000    92.2909     7.0683     8.6156     8.3307
  185.5000    95.7853     7.0028     8.5190     8.1910
  186.0000    99.2742     6.8871     8.3352     8.0536
  186.5000    99.1590     6.6580     8.1555     7.9187
  187.0000    94.2157     6.4583     7.9795     7.7252
  187.5000    88.6308     6.1736     7.8074     7.4776
  188.0000    85.8719     5.8720     7.6390     7.2379
  188.5000    88.6148     5.6696     7.4742     7.0061
  189.0000    92.5211     5.7347     7.3653     6.8929
  189.5000    96.3695     5.8080     7.2971     6.9715
  190.0000    96.5172     6.0394     7.4113     7.0326
  190.5000    94.0067     6.3516     7.5245     7.0880
  191.0000    92.7255     6.5772     7.6396     7.2210
  191.5000    92.7148     6.5401     7.7563     7.3719
  192.0000    93.3489     6.5218     7.8749     7.5260
  192.5000    95.3504     6.6357     7.9952     7.6832
  193.0000    96.2018     6.7274     8.1174     7.8437
  193.5000    94.7075     6.8231     8.2415     7.9329
