~VERSION INFORMATION
 VERS.                2.0:   CWLS LOG ASCII STANDARD - VERSION 2.0
 WRAP.                 NO:   ONE LINE PER DEPTH STEP
~WELL INFORMATION
#MNEM.UNIT      DATA TYPE    INFORMATION
#----------   ------------   ------------------------------
 STRT.F         2000.0000:   START DEPTH
 STOP.F         2706.0000:   STOP DEPTH
 STEP.F            0.5000:   STEP LENGTH
 NULL.          -999.2500:   NO VALUE
 COMP. INTEX OIL CO INCORP:   COMPANY
 WELL.    N/A "A" #409-20:   WELL
 FLD .        TEAPOT DOME:   FIELD
 LOC .      S20 T39N R78W:   LOCATION
 CNTY.            NATRONA:   COUNTY
 STAT.            WYOMING:   STATE
 CTRY. UNITED STATES OF AMERICA:   COUNTRY
 SRVC.      NL McCullough:   SERVICE COMPANY
 DATE.        12-SEP-1965:   LOGDATE
 API .       490251021400:   API NUMBER
~CURVE INFORMATION
#MNEM.UNIT       API CODE    CURVE DESCRIPTION
#----------   ------------   ------------------------------
 DEPT.F                  :   
 CALI.IN     70 280 01 00:   CALIPER
 GR  .GAPI   30 310 01 00:   GAMMA RAY
~PARAMETER INFORMATION
#MNEM.UNIT          VALUE    DESCRIPTION
#----------   ------------   ------------------------------
 PD  .                 GL:   PERMANENT DATUM
 LMF .                 GL:   LOG MEASURED FROM
 DATE.            9-12-65:   RUN DATE
 RUN .                  1:   RUN NUMBER
 DL  .F              2708:   DEPTH LOGGER
 BLI .F              2706:   BOTTOM LOG INTERVAL
 TLI .F              2000:   TOP LOG INTERVAL
 CS  .IN            8.625:   CASING SIZE
 CBD .F              2525:   CASING BOTTOM DRILLER
 DFT .                DRY:   DRILLING FLUID TYPE
 TCS .HRS               1:   TIME CURCULATED STOPPED
 ENGI.            JACKSON:   RECORDING ENGINEER
 WITN.          JORGENSEN:   WITNESSED BY
 CLNT.            A2DTECH:   CLIENT CODE
 ORIG.           5" PRINT:   ORIGIN OF DATA
 UWI .       490251021400:   UNIQUE WELL ID
 DICO. A2D Technologies, Inc.:   DIGITIZING COMPANY
~OTHER INFORMATION
~A  DEPT      CALI          GR  
# ...
 2364.5000  -999.2500    73.6316
 2365.0000  -999.2500    71.3737
 2365.5000  -999.2500    74.1717
 2366.0000  -999.2500    70.7065
 2366.5000  -999.2500    64.2931
 2367.0000  -999.2500    65.7232
 2367.5000  -999.2500    67.6526
 2368.0000  -999.2500    67.6235
 2368.5000  -999.2500    62.1602
 2369.0000  -999.2500    62.4577
 2369.5000  -999.2500    70.8883
 2370.0000  -999.2500    78.6609
 2370.5000  -999.2500    75.4972
 2371.0000  -999.2500    72.5371
 2371.5000  -999.2500    68.1691
 2372.0000  -999.2500    74.3889
 2372.5000  -999.2500    76.3988
 2373.0000  -999.2500    73.4178
 2373.5000  -999.2500    78.1569
 2374.0000  -999.2500    82.6669
 2374.5000  -999.2500    80.2334
 2375.0000  -999.2500    76.3042
 2375.5000  -999.2500    70.0439
 2376.0000  -999.2500    64.3052
 2376.5000  -999.2500    60.3048
 2377.0000  -999.2500    57.0849
 2377.5000  -999.2500    53.3912
 2378.0000  -999.2500    53.8544
 2378.5000  -999.2500    57.9989
 2379.0000  -999.2500    63.9321
 2379.5000  -999.2500    66.2172
 2380.0000  -999.2500    74.5177
 2380.5000  -999.2500    74.3441
 2381.0000  -999.2500    72.9779
 2381.5000  -999.2500    74.7997
 2382.0000  -999.2500    73.6844
 2382.5000  -999.2500    76.6400
 2383.0000  -999.2500    79.8926
 2383.5000  -999.2500    80.8082
 2384.0000  -999.2500    84.1219
 2384.5000  -999.2500    87.9790
 2385.0000  -999.2500    88.0097
 2385.5000  -999.2500    85.2770
 2386.0000  -999.2500    82.8564
 2386.5000  -999.2500    81.9101
 2387.0000  -999.2500    84.2230
 2387.5000  -999.2500    85.3113
 2388.0000  -999.2500    85.1896
 2388.5000  -999.2500    86.9795
 2389.0000  -999.2500    86.6133
 2389.5000  -999.2500    84.3785
 2390.0000  -999.2500    82.7671
 2390.5000  -999.2500    87.4877
 2391.0000  -999.2500    85.4222
 2391.5000  -999.2500    82.6148
 2392.0000  -999.2500    80.6240
 2392.5000  -999.2500    82.8638
 2393.0000  -999.2500    80.8933
 2393.5000  -999.2500    80.2333
 2394.0000  -999.2500    79.6969
 2394.5000  -999.2500    77.7061
 2395.0000  -999.2500    79.8022
 2395.5000  -999.2500    82.4619
 2396.0000  -999.2500    81.6293
 2396.5000  -999.2500    87.6418
 2397.0000  -999.2500    82.2952
 2397.5000  -999.2500    82.8757
 2398.0000  -999.2500    76.4686
 2398.5000  -999.2500    79.4717
 2399.0000  -999.2500    79.0467
 2399.5000  -999.2500    80.2368
 2400.0000  -999.2500    77.8425
 2400.5000  -999.2500    81.3576
 2401.0000  -999.2500    84.1762
 2401.5000  -999.2500    84.7190
 2402.0000  -999.2500    91.9207
 2402.5000  -999.2500    91.6746
 2403.0000  -999.2500    87.5021
 2403.5000  -999.2500    83.8423
 2404.0000  -999.2500    86.0263
 2404.5000  -999.2500    89.7663
 2405.0000  -999.2500    87.1541
 2405.5000  -999.2500    85.7906
 2406.0000  -999.2500    91.1921
 2406.5000  -999.2500    87.7402
 2407.0000  -999.2500    86.1293
 2407.5000  -999.2500    90.8688
 2408.0000  -999.2500    88.9070
 2408.5000  -999.2500    90.7774
 2409.0000  -999.2500    93.7102
 2409.5000  -999.2500    94.5399
 2410.0000  -999.2500    90.4588
 2410.5000  -999.2500    93.6191
 2411.0000  -999.2500    94.8828
 2411.5000  -999.2500    97.3030
 2412.0000  -999.2500    90.3014
 2412.5000  -999.2500    87.7677
 2413.0000  -999.2500    87.9882
 2413.5000  -999.2500    88.8959
 2414.0000  -999.2500    90.5962
 2414.5000  -999.2500    87.4799
 2415.0000  -999.2500    86.2581
 2415.5000  -999.2500    83.7079
 2416.0000  -999.2500    82.5168
 2416.5000  -999.2500    86.3568
 2417.0000  -999.2500    95.3706
 2417.5000  -999.2500    92.4505
 2418.0000  -999.2500    88.1728
 2418.5000  -999.2500    94.8750
 2419.0000  -999.2500    97.9349
 2419.5000  -999.2500    94.6608
 2420.0000  -999.2500    94.0913
 2420.5000  -999.2500    95.4469
 2421.0000  -999.2500    91.7296
 2421.5000  -999.2500    96.1064
 2422.0000  -999.2500    93.1825
 2422.5000  -999.2500    94.9208
 2423.0000  -999.2500    91.0360
 2423.5000  -999.2500    93.8691
 2424.0000  -999.2500    96.5557
 2424.5000  -999.2500    94.1786
 2425.0000  -999.2500    96.1605
 2425.5000  -999.2500    93.0263
 2426.0000  -999.2500    96.2147
 2426.5000  -999.2500   103.1214
 2427.0000  -999.2500   100.9419
 2427.5000  -999.2500    97.0158
 2428.0000  -999.2500   103.7306
 2428.5000  -999.2500   107.9488
 2429.0000  -999.2500   101.6631
 2429.5000  -999.2500   100.9832
 2430.0000  -999.2500   102.5348
 2430.5000  -999.2500    97.7607
 2431.0000  -999.2500    93.6782
 2431.5000  -999.2500    96.5597
 2432.0000  -999.2500    92.5543
 2432.5000  -999.2500   100.4040
 2433.0000  -999.2500    93.4600
 2433.5000  -999.2500    95.5277
 2434.0000  -999.2500    89.8299
 2434.5000  -999.2500    87.8298
 2435.0000  -999.2500    86.5188
 2435.5000  -999.2500    83.7495
 2436.0000  -999.2500    83.1742
 2436.5000  -999.2500    84.1624
 2437.0000  -999.2500    81.5916
 2437.5000  -999.2500    85.5715
 2438.0000  -999.2500    86.1086
 2438.5000  -999.2500    85.2606
 2439.0000  -999.2500    86.4515
 2439.5000  -999.2500    93.6755
 2440.0000  -999.2500   109.2363
 2440.5000  -999.2500   107.4622
 2441.0000  -999.2500   104.6284
 2441.5000  -999.2500   106.0750
 2442.0000  -999.2500   106.7176
 2442.5000  -999.2500   102.5950
 2443.0000  -999.2500    97.5966
 2443.5000  -999.2500    94.8855
 2444.0000  -999.2500    96.7831
 2444.5000  -999.2500    96.6345
 2445.0000  -999.2500    96.5798
 2445.5000  -999.2500    95.5168
 2446.0000  -999.2500    99.8757
 2446.5000  -999.2500    99.4826
 2447.0000  -999.2500    95.0425
 2447.5000  -999.2500    90.6125
 2448.0000  -999.2500    87.0635
 2448.5000  -999.2500    89.0738
 2449.0000  -999.2500    84.3306
 2449.5000  -999.2500    81.4824
 2450.0000  -999.2500    75.1646
 2450.5000  -999.2500    79.5311
 2451.0000  -999.2500    85.1583
 2451.5000  -999.2500    93.6822
 2452.0000  -999.2500    98.1075
 2452.5000  -999.2500   101.8041
 2453.0000  -999.2500   104.2584
 2453.5000  -999.2500    94.1566
 2454.0000  -999.2500    88.3173
 2454.5000  -999.2500    88.4038
 2455.0000  -999.2500    91.9472
 2455.5000  -999.2500    96.3822
 2456.0000  -999.2500    97.2447
 2456.5000  -999.2500    96.4549
 2457.0000  -999.2500    91.3013
 2457.5000  -999.2500    94.6345
 2458.0000  -999.2500    91.5986
 2458.5000  -999.2500    97.1250
 2459.0000  -999.2500    98.7356
 2459.5000  -999.2500    94.1699
 2460.0000  -999.2500    85.4637
 2460.5000  -999.2500    96.2152
 2461.0000  -999.2500    99.5645
 2461.5000  -999.2500   104.5480
 2462.0000  -999.2500   107.7562
 2462.5000  -999.2500   104.5509
 2463.0000  -999.2500    99.5721
 2463.5000  -999.2500    94.5692
 2464.0000  -999.2500    92.1351
 2464.5000  -999.2500    99.0203
 2465.0000  -999.2500   100.1654
 2465.5000  -999.2500    97.0408
 2466.0000  -999.2500   101.7035
 2466.5000  -999.2500    98.6240
 2467.0000  -999.2500    97.0458
 2467.5000  -999.2500    98.8195
 2468.0000  -999.2500    95.3334
 2468.5000  -999.2500    92.5089
 2469.0000  -999.2500    91.3869
 2469.5000  -999.2500    93.3389
 2470.0000  -999.2500    94.6718
 2470.5000  -999.2500    96.3970
 2471.0000  -999.2500    98.7918
 2471.5000  -999.2500    96.7045
 2472.0000  -999.2500    92.0252
 2472.5000  -999.2500    94.0126
 2473.0000  -999.2500    97.5772
 2473.5000  -999.2500    97.2774
 2474.0000  -999.2500    99.3580
 2474.5000  -999.2500    93.6242
 2475.0000  -999.2500    95.4463
 2475.5000  -999.2500    97.8177
 2476.0000  -999.2500    97.3957
 2476.5000  -999.2500    91.2116
 2477.0000  -999.2500    88.4479
 2477.5000  -999.2500    86.9033
 2478.0000  -999.2500    84.9652
 2478.5000  -999.2500    85.4130
 2479.0000  -999.2500    82.0232
 2479.5000  -999.2500    79.2393
 2480.0000  -999.2500    74.4846
 2480.5000  -999.2500    73.9917
 2481.0000  -999.2500    77.9621
 2481.5000  -999.2500    81.2508
 2482.0000  -999.2500    83.9154
 2482.5000  -999.2500    83.7271
 2483.0000  -999.2500    81.5036
 2483.5000  -999.2500    84.3003
 2484.0000  -999.2500    82.0851
 2484.5000  -999.2500    86.0304
 2485.0000  -999.2500    93.0325
 2485.5000  -999.2500    89.6193
