~VERSION INFORMATION
 VERS.                2.0:   CWLS LOG ASCII STANDARD - VERSION 2.0
 WRAP.                 NO:   ONE LINE PER DEPTH STEP
~WELL INFORMATION
#MNEM.UNIT      DATA TYPE    INFORMATION
#----------   ------------   ------------------------------
 STRT.F           38.0000:   START DEPTH
 STOP.F          663.5000:   STOP DEPTH
 STEP.F            0.5000:   STEP LENGTH
 NULL.          -999.2500:   NO VALUE
 COMP. FENIX & SCISSON INC:   COMPANY
 WELL.   NPR SX #3 #35-34:   WELL
 FLD .             TEAPOT:   FIELD
 LOC .      S34 T39N R78W:   LOCATION
 CNTY.            NATRONA:   COUNTY
 STAT.            WYOMING:   STATE
 CTRY. UNITED STATES OF AMERICA:   COUNTRY
 SRVC.       Schlumberger:   SERVICE COMPANY
 DATE.        21-MAR-1977:   LOGDATE
 API .       490251031500:   API NUMBER
~CURVE INFORMATION
#MNEM.UNIT       API CODE    CURVE DESCRIPTION
#----------   ------------   ------------------------------
 DEPT.F                  :   
 SPR .MV     07 010 01 00:   SPONTANEOUS POTENTIAL
 LL8 .OHMM   07 220 08 00:   LATEROLOG-8 RES.
 ILD .OHMM   07 120 46 00:   INDUCTION LOG DEEP
 ILM .OHMM   07 120 44 00:   INDUCTION LOG MEDIUM
 CALD.IN     45 280 60 00:   CALIPER
 RHOB.G/C3   45 350 01 00:   BULK DENSITY
 DPHI.DEC    45 890 12 00:   DENSITY POROSITY SANDSTONE
 CORR.G/C3   45 356 01 00:   DENSITY CORRECTION
 GRD .GAPI   45 310 01 00:   GAMMA RAY FROM DENSITY LOG
~PARAMETER INFORMATION
#MNEM.UNIT          VALUE    DESCRIPTION
#----------   ------------   ------------------------------
 PD  .                 GL:   PERMANENT DATUM
 EPD .F              5081:   ELEVATION PERMANENT DATUM
 LMF .                 GL:   LOG MEASURED FROM
 DMF .                 KB:   DRILLING MEASURED FROM
 EKB .F              5086:   KELLING BUSHING
 EGL .F              5081:   GROUND LEVEL
 DATE.          3-21-1977:   RUN DATE
 RUN .                  1:   RUN NUMBER
 DD  .F               670:   DEPTH DRILLER
 DL  .F               665:   DEPTH LOGGER
 BLI .F               659:   BOTTOM LOG INTERVAL
 TLI .F                40:   TOP LOG INTERVAL
 CS  .IN            8.625:   CASING SIZE
 CBD .F                40:   CASING BOTTOM DRILLER
 CBL .F                40:   CASING BOTTOM LOGGER
 BS  .IN            7.875:   BIT SIZE
 BSD .F               670:   BIT SIZE AT DEPTH
 DFT .           CHEM GEL:   DRILLING FLUID TYPE
 DFV .                 33:   DRILLING FLUID VISCOSITY
 MSS .           MUD TANK:   MUD SAMPLE SOURCE
 RMS .OHMM           4.98:   RESISTIVITY MUD SAMPLE
 MST .F                53:   MUD SAMPLE TEMPERATURE
 RMF .OHMM           4.94:   RESISTIVITY MUD FILTRATE SAMPLE
 MFST.F                53:   MUD FILTRATE SAMPLE TEMPERATURE
 RMC .OHMM            2.5:   RESISTIVITY MUD CAKE
 MCST.F                53:   MUD CAKE SAMPLE TEMPERATURE
 MFSS.                  M:   MUD FILTRATE SAMPLE SOURCE
 MCSS.                  C:   MUD CAKE SAMPLE SOURCE
 RMB .OHMM              4:   RESISTIVITY MUD AT BHT
 BHT .F                65:   BOTTOM HOLE TEMPERATURE
 TCS .HRS            1000:   TIME CURCULATED STOPPED
 TLAB.HRS            1400:   TIME LOGGER AT BOTTOM
 MRT .F                65:   MAXIMUM RECORDED TEMPERATURE
 LUN .               7742:   LOGGING UNIT NUMBER
 LUL .                GLT:   LOGGING UNIT LOCATION
 ENGI.               LANE:   RECORDING ENGINEER
 WITN.              BURKE:   WITNESSED BY
 CLNT.            A2DTECH:   CLIENT CODE
 ORIG.       2", 5" PRINT:   ORIGIN OF DATA
 UWI .       490251031500:   UNIQUE WELL ID
 DICO. A2D Technologies, Inc.:   DIGITIZING COMPANY
~OTHER INFORMATION
~A   DEPT      SPR        LL8        ILD        ILM       CALD       RHOB       DPHI       CORR         GRD  
# ...
  512.5000   -42.5562    14.5581    15.8787    11.6508     8.2008     2.4231     0.1398     0.0314    76.6770
  513.0000   -42.7313    14.5843    15.6530    11.6508     8.1954     2.4232     0.1395     0.0251    77.5744
  513.5000   -42.9064    14.6106    15.6530    11.6508     8.1900     2.4139     0.1453     0.0168    77.6850
  514.0000   -43.0815    14.6369    15.6530    11.6508     8.1846     2.4002     0.1527     0.0109    76.1238
  514.5000   -43.2566    14.6633    15.6530    11.6507     8.1791     2.4013     0.1524     0.0110    74.5473
  515.0000   -43.4317    14.6897    15.6530    11.6497     8.1738     2.3985     0.1536     0.0110    73.5516
  515.5000   -43.6068    14.7162    15.6531    11.6516     8.1745     2.3951     0.1557     0.0110    73.0511
  516.0000   -43.7819    14.7428    15.6536    11.4803     8.1934     2.3921     0.1578     0.0107    70.3597
  516.5000   -43.9570    14.7696    15.6517    11.3337     8.2114     2.4020     0.1507     0.0236    69.4036
  517.0000   -44.1321    14.8094    15.6530    11.1887     8.2295     2.4215     0.1376     0.0399    74.2072
  517.5000   -44.3072    14.7247    15.4318    11.0467     8.2475     2.4530     0.1245     0.0515    77.7497
  518.0000   -44.4823    14.5464    15.2568    10.9228     8.2655     2.4486     0.1210     0.0440    81.2579
  518.5000   -44.6573    14.3703    15.0837    11.0020     8.2838     2.4394     0.1308     0.0357    80.4718
  519.0000   -44.8323    14.1963    14.9126    11.0737     8.2831     2.4266     0.1380     0.0194    75.7729
  519.5000   -45.0109    14.0245    14.7434    11.1460     8.2728     2.4140     0.1471     0.0115    70.5811
  520.0000   -45.2183    13.8547    14.5762    11.2286     8.2622     2.4139     0.1363     0.0140    69.9291
  520.5000   -45.4260    13.6869    14.4108    11.0882     8.2517     2.4488     0.1230     0.0166    76.0107
  521.0000   -45.6337    13.5210    14.2474    10.9280     8.2412     2.4469     0.1258     0.0192    83.0849
  521.5000   -45.8413    13.3555    14.1421    10.7701     8.2306     2.4395     0.1294     0.0269    87.4204
  522.0000   -46.0488    13.2583    14.1421    10.6145     8.2201     2.4395     0.1302     0.0318    85.8356
  522.5000   -46.2561    13.4928    14.1421    10.4611     8.2101     2.4347     0.1338     0.0237    84.0159
  523.0000   -46.4647    13.6656    14.1433    10.3099     8.2086     2.4305     0.1379     0.0158    82.1202
  523.5000   -46.7488    13.7560    14.0673    10.1610     8.2074     2.4426     0.1280     0.0100    80.2411
  524.0000   -47.1655    13.2783    13.9546    10.0141     8.2062     2.4489     0.1239     0.0188    79.0530
  524.5000   -47.5821    12.9653    13.8445     9.8694     8.2049     2.4480     0.1247     0.0199    83.3469
  525.0000   -47.8967    12.7771    13.7560     9.7268     8.2036     2.4485     0.1274     0.0272    87.8617
  525.5000   -48.1036    12.8190    14.0075     9.5863     8.2023     2.4644     0.1171     0.0350    88.6144
  526.0000   -48.3130    12.8558    14.2217     9.5102     8.2011     2.4503     0.1270     0.0250    86.4458
  526.5000   -48.2932    12.8946    14.4392     9.9776     8.1998     2.4368     0.1324     0.0151    84.2195
  527.0000   -48.1229    13.0577    14.6739    10.3338     8.1985     2.4283     0.1378     0.0144    81.7003
  527.5000   -47.9495    13.2894    14.6751    11.1976     8.1973     2.4238     0.1399     0.0145    77.8844
  528.0000   -47.7762    13.5258    14.6741    12.3141     8.1960     2.4203     0.1418     0.0109    74.1884
  528.5000   -47.6031    13.7560    14.6739    11.6111     8.1947     2.4176     0.1443     0.0125    70.4554
  529.0000   -47.4280    13.7560    14.6739    10.7940     8.1935     2.4160     0.1438     0.0149    71.9013
  529.5000   -47.3334    13.7560    14.6739    10.0380     8.1922     2.4173     0.1444     0.0139    74.0989
  530.0000   -47.2565    13.7560    14.6739     9.4092     8.1909     2.4243     0.1411     0.0176    75.2232
  530.5000   -47.1796    13.7561    14.6739     9.3658     8.1901     2.4370     0.1326     0.0291    76.0596
  531.0000   -47.1031    13.7570    14.6739     9.3359     8.1932     2.4516     0.1206     0.0385    78.1469
  531.5000   -47.0251    13.7179    14.6739     9.5881     8.1962     2.4394     0.1300     0.0307    84.1643
  532.0000   -47.0707    13.6717    14.5027     9.7728     8.1991     2.4106     0.1450     0.0231    89.5629
  532.5000   -47.1990    13.6140    14.3032     9.8678     8.2021     2.4059     0.1499     0.0172    88.3591
  533.0000   -47.3290    13.4691    14.1065     9.8331     8.2051     2.4172     0.1432     0.0131    86.8350
  533.5000   -47.4591    13.3256    13.9124     9.8100     8.2081     2.4297     0.1346     0.0093    87.2065
  534.0000   -47.5891    13.1837    13.7211     9.7869     8.2111     2.4379     0.1279     0.0145    92.5538
  534.5000   -47.7172    13.0432    13.5323     9.7639     8.2140     2.4319     0.1355     0.0202    96.5855
  535.0000   -47.7607    12.9043    13.3462     9.7409     8.2170     2.4405     0.1262     0.0256    97.6521
  535.5000   -47.6704    12.7668    13.1626     9.7180     8.2200     2.4329     0.1316     0.0143    94.2420
  536.0000   -47.5817    12.6308    12.9816     9.6951     8.2229     2.4323     0.1346     0.0149    92.0238
  536.5000   -47.4926    12.4963    12.8030     9.6723     8.2259     2.4372     0.1270     0.0176    92.4526
  537.0000   -47.4040    12.3141    12.6269     9.6496     8.2289     2.4368     0.1315     0.0102    90.0052
  537.5000   -47.3139    12.3458    12.4282     9.6269     8.2319     2.4396     0.1210     0.0153    86.8494
  538.0000   -47.2299    12.3964    12.5096     9.6042     8.2349     2.4497     0.1181     0.0222    83.8416
  538.5000   -46.8092    12.4472    12.6054     9.5816     8.2378     2.4559     0.1152     0.0292    82.3509
  539.0000   -46.2285    12.4981    12.7020     9.5590     8.2408     2.4694     0.1123     0.0362    81.0104
  539.5000   -45.6426    12.5494    12.7994     9.5366     8.2438     2.4528     0.1219     0.0336    80.4371
  540.0000   -45.0550    12.6008    12.8955     9.5102     8.2468     2.4201     0.1406     0.0242    75.5037
  540.5000   -44.3425    12.6524    13.8961     9.9060     8.2498     2.3826     0.1621     0.0145    66.7275
  541.0000   -43.0612    13.7795    14.9530    10.5657     8.2486     2.3452     0.1846     0.0171    61.4630
  541.5000   -41.7953    15.1976    16.0904    11.2693     8.2443     2.3077     0.2066     0.0206    57.0873
  542.0000   -40.5299    16.7572    17.3142    12.0197     8.2400     2.2731     0.2272     0.0225    53.4325
  542.5000   -39.2638    17.4859    18.6313    12.8202     8.2357     2.2426     0.2436     0.0082    52.9527
  543.0000   -37.9961    17.4859    20.0482    13.6739     8.2315     2.2286     0.2565     0.0065    54.5093
  543.5000   -36.7799    17.9066    21.5730    14.5845     8.2272     2.2477     0.2446     0.0085    56.8338
  544.0000   -36.2152    19.0001    23.0630    15.0858     8.2229     2.2530     0.2407     0.0098    58.8766
  544.5000   -35.6797    18.8531    23.9244    15.2332     8.2187     2.2579     0.2381     0.0051    56.8151
  545.0000   -35.1420    18.6527    24.7438    15.2258     8.2144     2.2649     0.2338     0.0027    52.5665
  545.5000   -34.6032    19.0140    25.7636    15.0786     8.2101     2.2829     0.2264     0.0047    49.8759
  546.0000   -34.0624    19.8973    25.1157    14.8259     8.2059     2.2753     0.2224     0.0041    48.1079
  546.5000   -33.7606    19.6840    24.3314    14.5775     8.2016     2.2806     0.2298     0.0031    49.5959
  547.0000   -33.5081    19.3556    23.5613    14.3333     8.1973     2.2853     0.2234     0.0019    52.4613
  547.5000   -33.2562    19.0292    23.0547    14.0932     8.1931     2.2876     0.2223     0.0016    53.5011
  548.0000   -33.0037    18.8277    23.2942    13.8570     8.1905     2.2989     0.2170     0.0154    51.6294
  548.5000   -32.7517    19.3540    23.5053    13.6249     8.1932     2.3073     0.2113     0.0173    49.6018
