~VERSION INFORMATION
 VERS.                2.0:   CWLS LOG ASCII STANDARD - VERSION 2.0
 WRAP.                 NO:   ONE LINE PER DEPTH STEP
~WELL INFORMATION
#MNEM.UNIT      DATA TYPE    INFORMATION
#----------   ------------   ------------------------------
 STRT.F           11.0000:   START DEPTH
 STOP.F          915.0000:   STOP DEPTH
 STEP.F            0.5000:   STEP LENGTH
 NULL.          -999.2500:   NO VALUE
 COMP. U S NAVY/INTEX OIL CO:   COMPANY
 WELL.       N.P.R. #3-35:   WELL
 FLD .           TEAPOT E:   FIELD
 LOC .      S35 T39N R78W:   LOCATION
 CNTY.            NATRONA:   COUNTY
 STAT.            WYOMING:   STATE
 CTRY. UNITED STATES OF AMERICA:   COUNTRY
 SRVC.       Schlumberger:   SERVICE COMPANY
 DATE.        25-JUL-1953:   LOGDATE
 API .       490250653700:   API NUMBER
~CURVE INFORMATION
#MNEM.UNIT       API CODE    CURVE DESCRIPTION
#----------   ------------   ------------------------------
 DEPT.F                  :   
 SPR .MV     05 010 01 00:   SPONTANEOUS POTENTIAL FROM RES.
 CILD.MMHO   05 110 46 00:   CONDUCTIVITY INDUCTION LOG DEEP
 ILD .OHMM   05 120 46 00:   INDUCTION LOG DEEP
 ASN .OHMM   05 041 16 00:   AMPLIFIED SHORT NORMAL 16"
 GR  .GAPI   30 310 01 00:   GAMMA RAY
~PARAMETER INFORMATION
#MNEM.UNIT          VALUE    DESCRIPTION
#----------   ------------   ------------------------------
 EPD .F              5097:   ELEVATION PERMANENT DATUM
 LMF .                 KB:   LOG MEASURED FROM
 DMF .                 KB:   DRILLING MEASURED FROM
 EKB .F              5102:   KELLING BUSHING
 EGL .F              5097:   GROUND LEVEL
 DATE.           7-2-1963:   RUN DATE
 RUN .                  1:   RUN NUMBER
 DD  .F               916:   DEPTH DRILLER
 DL  .F               916:   DEPTH LOGGER
 BLI .F               915:   BOTTOM LOG INTERVAL
 TLI .F                90:   TOP LOG INTERVAL
 CS  .IN            8.625:   CASING SIZE
 CBD .F                10:   CASING BOTTOM DRILLER
 BS  .IN             6.75:   BIT SIZE
 BSD .F               916:   BIT SIZE AT DEPTH
 DFT .            GEL/OIL:   DRILLING FLUID TYPE
 DFD .                9.6:   DRILLING FLUID DENSITY
 DFV .                 67:   DRILLING FLUID VISCOSITY
 DFPH.                  9:   DRILLING FLUID PH
 DFL .                4.2:   DRILLING FLUID LOSS
 MSS .          FLOW LINE:   MUD SAMPLE SOURCE
 RMS .OHMM           2.92:   RESISTIVITY MUD SAMPLE
 MST .F                86:   MUD SAMPLE TEMPERATURE
 RMF .OHMM            2.6:   RESISTIVITY MUD FILTRATE SAMPLE
 MFST.F                86:   MUD FILTRATE SAMPLE TEMPERATURE
 RMC .OHMM           2.49:   RESISTIVITY MUD CAKE
 MCST.F                86:   MUD CAKE SAMPLE TEMPERATURE
 MFSS.                  M:   MUD FILTRATE SAMPLE SOURCE
 MCSS.                  M:   MUD CAKE SAMPLE SOURCE
 TCS .HRS              .5:   TIME CURCULATED STOPPED
 LUN .               4507:   LOGGING UNIT NUMBER
 ENGI.             KNOBEL:   RECORDING ENGINEER
 WITN.          JORGENSON:   WITNESSED BY
 CLNT.            A2DTECH:   CLIENT CODE
 ORIG.       2", 5" PRINT:   ORIGIN OF DATA
 UWI .       490250653700:   UNIQUE WELL ID
 DICO. A2D Technologies, Inc.:   DIGITIZING COMPANY
~OTHER INFORMATION
~A   DEPT      SPR       CILD        ILD        ASN          GR  
# ...
  560.0000   -28.7630   114.9929     8.7305     9.8493    64.4027
  560.5000   -28.9134   116.5391     8.6227     9.7437    60.3079
  561.0000   -29.0621   118.0853     8.5121     9.6457    58.9612
  561.5000   -29.1786   120.2260     8.2771     9.7420    59.7536
  562.0000   -29.1202   123.4939     8.0017     9.7925    64.9849
  562.5000   -29.0660   126.7619     7.8245     9.5196    64.1719
  563.0000   -29.0123   130.0298     7.6508     9.2450    62.5637
  563.5000   -28.9584   133.2977     7.4755     8.9710    59.1347
  564.0000   -28.9046   136.5656     7.2997     8.6994    63.8900
  564.5000   -28.8508   139.8335     7.1258     8.4245    62.4714
  565.0000   -28.7970   143.2319     6.9723     8.2026    63.3251
  565.5000   -28.7170   142.8954     6.9776     8.1240    63.0094
  566.0000   -28.5999   142.5450     6.9787     8.0887    62.8941
  566.5000   -28.4825   142.1826     7.0298     8.1124    64.0694
  567.0000   -28.3609   136.9360     7.1774     8.2539    62.5804
  567.5000   -28.4779   134.6459     7.3233     8.4485    63.0898
  568.0000   -28.6320   132.2802     7.4693     8.7435    61.0185
  568.5000   -28.7881   129.9176     7.6156     8.9273    58.8308
  569.0000   -28.9443   127.4939     7.7622     9.0334    57.7641
  569.5000   -29.1003   126.3460     7.9070     9.1202    56.7948
  570.0000   -29.3971   125.4896     8.0234     9.1719    54.2678
  570.5000   -29.8651   126.0982     7.9712     9.0995    52.4072
  571.0000   -30.3308   126.6956     7.9230     9.0636    59.1481
  571.5000   -30.8004   127.2930     7.8754     9.0879    54.7317
  572.0000   -31.4893   127.8904     7.8275     9.0723    51.4143
  572.5000   -31.4265   128.4878     7.7797     9.0307    54.4614
  573.0000   -30.3213   129.0852     7.7318     9.0136    56.9200
  573.5000   -29.8631   129.6826     7.6841     8.9957    55.3826
  574.0000   -29.6157   130.2800     7.6370     8.9000    52.5395
  574.5000   -29.3783   129.7803     7.6529     8.8036    51.9736
  575.0000   -29.1425   127.6156     7.7709     8.9749    51.1034
  575.5000   -28.9877   125.4509     7.8875     9.2128    51.5424
  576.0000   -29.0554   123.2949     8.0044     9.1212    52.2896
  576.5000   -29.1172   122.1837     8.1214     9.3144    54.5493
  577.0000   -29.1788   121.0769     8.2386     9.3394    60.4343
  577.5000   -29.2407   119.9702     8.3545     9.3552    58.1229
  578.0000   -29.3025   119.1410     8.4453     9.7094    53.9768
  578.5000   -29.3643   119.3945     8.4182     9.9403    49.5547
  579.0000   -29.4260   119.6500     8.3928     9.2873    51.0256
  579.5000   -29.4878   119.9051     8.3721     9.4595    55.2075
  580.0000   -29.5496   120.1469     8.3683     9.8847    58.7738
  580.5000   -29.6112   121.7555     8.1054    10.0081    58.7565
  581.0000   -29.6735   123.3326     8.0650     9.5155    57.4468
  581.5000   -29.7345   124.9098     8.0174     9.1962    58.2898
  582.0000   -29.7889   126.4428     7.9733     9.1987    56.4983
  582.5000   -30.1406   126.7836     7.9297     9.1319    53.1914
  583.0000   -30.1855   127.1151     7.8861     9.0390    54.5934
  583.5000   -30.1338   127.4467     7.8426     9.2123    52.7047
  584.0000   -30.0780   127.7782     7.8084     9.2135    59.7195
  584.5000   -30.0222   128.1097     7.7870     9.2214    58.7198
  585.0000   -29.9670   128.4412     7.7657     9.1775    54.1844
  585.5000   -29.9117   128.7728     7.7444     9.1226    51.1655
  586.0000   -29.8564   129.1043     7.7232     9.0636    50.4777
  586.5000   -29.8011   129.4358     7.7020     9.0048    51.7562
  587.0000   -29.7456   129.7673     7.6807     8.9532    56.6246
  587.5000   -29.6907   130.0989     7.6595     8.9111    58.4007
  588.0000   -29.6369   130.4304     7.6382     8.8676    59.5310
  588.5000   -29.6869   130.7619     7.6170     8.8224    61.9926
  589.0000   -29.8983   131.0935     7.5958     8.7774    61.8600
  589.5000   -30.1078   131.4250     7.5745     8.7318    66.0951
  590.0000   -30.3181   131.7565     7.5533     8.6731    69.1628
  590.5000   -30.5287   132.0880     7.5321     8.5664    69.2858
  591.0000   -30.7375   132.4196     7.5108     8.5147    67.8257
  591.5000   -30.9441   132.7511     7.4896     8.6224    64.3363
  592.0000   -30.9143   133.0826     7.4683     8.7129    63.1456
  592.5000   -30.5645   133.4142     7.4471     8.5975    64.5107
  593.0000   -30.2319   133.7457     7.4259     8.6027    61.3757
  593.5000   -30.6997   134.1598     7.4041     8.6134    59.8428
  594.0000   -30.9651   134.5861     7.3860     8.5568    60.5116
  594.5000   -30.0977   135.0123     7.3683     8.4721    59.8041
  595.0000   -31.5048   135.4386     7.3508     8.3870    61.4885
  595.5000   -31.9709   135.8648     7.3333     8.3418    64.2732
  596.0000   -32.2867   136.2911     7.3158     8.3721    63.7262
  596.5000   -32.4867   136.7173     7.2963     8.4136    62.5058
  597.0000   -31.9819   136.2229     7.3547     8.4551    61.2635
  597.5000   -31.3461   134.7587     7.4437     8.6463    56.7531
  598.0000   -31.6991   133.2944     7.5334     8.7340    58.5872
  598.5000   -32.3141   131.8302     7.6232     8.7878    56.0279
  599.0000   -32.9288   130.3660     7.7128     8.8414    53.9873
  599.5000   -33.3481   128.9018     7.8026     9.0096    54.7060
  600.0000   -33.2180   127.4376     7.8918     9.1926    57.4228
  600.5000   -33.1016   125.9734     7.9810     9.2598    57.9567
  601.0000   -32.9856   124.5092     8.0048     9.2088    57.9017
  601.5000   -32.7682   125.1375     7.9604     9.2273    56.0011
  602.0000   -32.5350   126.0315     7.9161     9.3170    50.7344
  602.5000   -32.6827   126.9255     7.8713     9.2177    47.9019
  603.0000   -32.8554   127.8195     7.8266     9.0909    49.9883
  603.5000   -32.8095   128.7135     7.7818     8.9730    53.0663
  604.0000   -32.5338   129.6076     7.7370     8.9559    50.1094
  604.5000   -31.7556   130.5016     7.6543     8.8734    51.5755
  605.0000   -30.8622   132.7059     7.5236     8.7646    52.7397
  605.5000   -30.0312   135.1505     7.3933     8.7466    52.5117
  606.0000   -29.9208   137.5951     7.2629     8.7293    59.3263
  606.5000   -29.8326   140.0397     7.1324     8.6477    56.4133
  607.0000   -29.7450   142.4843     7.0018     8.4768    58.2041
  607.5000   -29.6608   144.9156     6.8720     8.3175    55.3486
  608.0000   -30.0620   147.4277     6.7434     8.2171    53.8414
  608.5000   -31.0445   150.0432     6.6828     8.1332    58.5306
  609.0000   -30.7950   149.8783     6.7316     8.0806    62.3248
  609.5000   -30.1527   148.7049     6.7794     8.0260    64.1050
  610.0000   -29.8207   147.5315     6.8281     7.9442    60.3074
  610.5000   -29.8595   146.3581     6.8766     7.9951    58.3561
  611.0000   -29.8937   145.1847     6.9251     8.0623    60.7907
  611.5000   -29.9311   144.0113     6.9737     8.1322    60.7922
  612.0000   -29.9693   142.8379     7.0222     8.2321    60.7255
  612.5000   -30.0075   141.6645     7.0700     8.3305    58.5202
  613.0000   -30.1292   140.3777     7.1421     8.3690    60.4056
  613.5000   -30.2977   138.9973     7.2210     8.4105    59.6333
  614.0000   -30.3493   137.6168     7.3000     8.4648    60.8994
  614.5000   -29.8199   136.2363     7.3791     8.6025    63.1168
  615.0000   -29.4677   134.8559     7.4583     8.6158    65.3352
  615.5000   -29.1223   133.4754     7.5374     8.5953    60.6858
  616.0000   -28.7773   132.0949     7.6056     8.6790    55.8188
  616.5000   -28.6016   131.5925     7.5927     8.7723    51.3903
  617.0000   -28.7408   131.4513     7.5787     8.8656    49.8242
  617.5000   -28.8749   131.3171     7.5649     8.9543    52.2305
  618.0000   -29.0094   131.1808     7.5512     8.9696    54.7827
  618.5000   -29.1445   131.0433     7.5374     8.9288    57.0835
  619.0000   -29.2792   130.9063     7.5237     8.8882    59.5296
  619.5000   -29.3918   130.7690     7.5100     8.8390    56.4573
  620.0000   -29.3258   130.6401     7.4963     8.7793    54.2364
  620.5000   -29.0943   131.2222     7.4826     8.7175    56.8840
