~VERSION INFORMATION
 VERS.                2.0:   CWLS LOG ASCII STANDARD - VERSION 2.0
 WRAP.                 NO:   ONE LINE PER DEPTH STEP
~WELL INFORMATION
#MNEM.UNIT      DATA TYPE    INFORMATION
#----------   ------------   ------------------------------
 STRT.F         1000.5000:   START DEPTH
 STOP.F         2590.0000:   STOP DEPTH
 STEP.F            0.5000:   STEP LENGTH
 NULL.          -999.2500:   NO VALUE
 COMP. LAWRENCE/ALLISON INC:   COMPANY
 WELL.    LAWENCE #14x-10:   WELL
 FLD .               NONE:   FIELD
 LOC .      S10 T38N R78W:   LOCATION
 CNTY.            NATRONA:   COUNTY
 STAT.            WYOMING:   STATE
 CTRY. UNITED STATES OF AMERICA:   COUNTRY
 SRVC.            Unknown:   SERVICE COMPANY
 DATE.        13-SEP-1988:   LOGDATE
 API .       490251137000:   API NUMBER
~CURVE INFORMATION
#MNEM.UNIT       API CODE    CURVE DESCRIPTION
#----------   ------------   ------------------------------
 DEPT.F                  :   
 ROP .MIN/FT 91 810 01 00:   RATE OF DRILLING PENETRATION
 TGAS.UNITS  91 830 01 00:   TOTAL GAS FROM HOTWIRE
~PARAMETER INFORMATION
#MNEM.UNIT          VALUE    DESCRIPTION
#----------   ------------   ------------------------------
 EKB .F              5278:   KELLING BUSHING
 EGL .F              5268:   GROUND LEVEL
 DATE.         09-13-1988:   RUN DATE
 RUN .                  1:   RUN NUMBER
 DD  .F              2590:   DEPTH DRILLER
 BLI .F              2590:   BOTTOM LOG INTERVAL
 TLI .F              1000:   TOP LOG INTERVAL
 CS  .IN                7:   CASING SIZE
 CBD .F               991:   CASING BOTTOM DRILLER
 BSD .F              2590:   BIT SIZE AT DEPTH
 ENGI. R. HUSK D. PETERSON:   RECORDING ENGINEER
 CLNT.            A2DTECH:   CLIENT CODE
 ORIG.           5" PRINT:   ORIGIN OF DATA
 UWI .       490251137000:   UNIQUE WELL ID
 DICO. A2D Technologies, Inc.:   DIGITIZING COMPANY
~OTHER INFORMATION
~A  DEPT       ROP         TGAS 
# ...
 1972.5000     0.3813     5.7703
 1973.0000     0.3952     5.7809
 1973.5000     0.4384     5.7915
 1974.0000     0.4757     5.8021
 1974.5000     0.4740     5.8127
 1975.0000     0.4492     5.8233
 1975.5000     0.3694     5.8339
 1976.0000     0.3228     5.8445
 1976.5000     0.3066     5.8551
 1977.0000     0.3184     5.8658
 1977.5000     0.3711     5.8764
 1978.0000     0.4366     5.8870
 1978.5000     0.4651     5.8976
 1979.0000     0.4494     5.9082
 1979.5000     0.4103     5.9188
 1980.0000     0.3846     5.9303
 1980.5000     0.3685     5.9400
 1981.0000     0.3525     5.9506
 1981.5000     0.3364     5.9612
 1982.0000     0.3204     5.9718
 1982.5000     0.3043     5.9824
 1983.0000     0.2883     5.9929
 1983.5000     0.2856     6.0035
 1984.0000     0.2972     6.0141
 1984.5000     0.3260     6.0247
 1985.0000     0.3759     6.0353
 1985.5000     0.4308     6.0459
 1986.0000     0.4278     6.0565
 1986.5000     0.3786     6.0671
 1987.0000     0.3461     6.0776
 1987.5000     0.3253     6.0882
 1988.0000     0.3118     6.0988
 1988.5000     0.3095     6.1094
 1989.0000     0.3181     6.1200
 1989.5000     0.3460     6.1306
 1990.0000     0.3625     6.1412
 1990.5000     0.4079     6.1518
 1991.0000     0.4721     6.1624
 1991.5000     0.5046     6.1729
 1992.0000     0.5054     6.1835
 1992.5000     0.4956     6.1941
 1993.0000     0.4646     6.2047
 1993.5000     0.4443     6.2153
 1994.0000     0.4028     6.2259
 1994.5000     0.3930     6.2365
 1995.0000     0.3726     6.2471
 1995.5000     0.3734     6.2576
 1996.0000     0.3615     6.2682
 1996.5000     0.3326     6.2788
 1997.0000     0.3371     6.2894
 1997.5000     0.3689     6.3000
 1998.0000     0.3946     6.3106
 1998.5000     0.4368     6.3212
 1999.0000     0.4700     6.3318
 1999.5000     0.4985     6.3424
 2000.0000     0.4957     6.3529
 2000.5000     0.4485     6.3318
 2001.0000     0.4013     6.3106
 2001.5000     0.3540     6.2894
 2002.0000     0.3290     6.2682
 2002.5000     0.3837     6.2471
 2003.0000     0.4353     6.2259
 2003.5000     0.4651     6.2047
 2004.0000     0.4651     6.1835
 2004.5000     0.4651     6.1624
 2005.0000     0.4651     6.1412
 2005.5000     0.4601     6.1200
 2006.0000     0.4545     6.0988
 2006.5000     0.4545     6.0776
 2007.0000     0.4484     6.0565
 2007.5000     0.4375     6.0353
 2008.0000     0.4334     6.0141
 2008.5000     0.4479     5.9929
 2009.0000     0.4621     5.9718
 2009.5000     0.4891     5.9506
 2010.0000     0.4382     5.9294
 2010.5000     0.3594     5.9082
 2011.0000     0.3277     5.8871
 2011.5000     0.3277     5.8659
 2012.0000     0.3594     5.8447
 2012.5000     0.3805     5.8235
 2013.0000     0.4229     5.8024
 2013.5000     0.4545     5.7812
 2014.0000     0.4188     5.7600
 2014.5000     0.3677     5.7388
 2015.0000     0.3473     5.7176
 2015.5000     0.3383     5.6965
 2016.0000     0.3511     5.6753
 2016.5000     0.3621     5.6541
 2017.0000     0.3730     5.6329
 2017.5000     0.3873     5.6118
 2018.0000     0.4017     5.5906
 2018.5000     0.4059     5.5694
 2019.0000     0.4078     5.5482
 2019.5000     0.3968     5.5271
 2020.0000     0.3990     5.5060
 2020.5000     0.4154     5.4858
 2021.0000     0.4317     5.4657
 2021.5000     0.4481     5.4455
 2022.0000     0.4645     5.4253
 2022.5000     0.4825     5.4052
 2023.0000     0.5006     5.3850
 2023.5000     0.5074     5.3649
 2024.0000     0.5074     5.3447
 2024.5000     0.4790     5.3246
 2025.0000     0.4288     5.3044
 2025.5000     0.4123     5.2843
 2026.0000     0.4123     5.2641
 2026.5000     0.4123     5.2440
 2027.0000     0.3931     5.2238
 2027.5000     0.3402     5.2036
 2028.0000     0.3101     5.1835
 2028.5000     0.3066     5.1633
 2029.0000     0.3066     5.1432
 2029.5000     0.3066     5.1230
 2030.0000     0.3317     5.1029
 2030.5000     0.3594     5.0824
 2031.0000     0.3805     5.0824
 2031.5000     0.3911     5.0824
 2032.0000     0.3911     5.0824
 2032.5000     0.4123     5.0824
 2033.0000     0.4123     5.0824
 2033.5000     0.4121     5.0824
 2034.0000     0.3902     5.0824
 2034.5000     0.3654     5.0824
 2035.0000     0.3011     5.0824
 2035.5000     0.2537     5.0824
 2036.0000     0.2696     5.0824
 2036.5000     0.2960     5.0824
 2037.0000     0.3057     5.0824
 2037.5000     0.3520     5.0824
 2038.0000     0.4127     5.0824
 2038.5000     0.4788     5.0824
 2039.0000     0.5036     5.0824
 2039.5000     0.4846     5.0824
 2040.0000     0.4651     5.0824
 2040.5000     0.4651     5.0824
 2041.0000     0.4651     5.0824
 2041.5000     0.4651     5.0824
 2042.0000     0.4651     5.0824
 2042.5000     0.4651     5.0824
 2043.0000     0.4651     5.0824
 2043.5000     0.4651     5.0824
 2044.0000     0.4651     5.0824
 2044.5000     0.4651     5.0824
 2045.0000     0.4651     5.0824
 2045.5000     0.5074     5.0824
 2046.0000     0.4757     5.0824
 2046.5000     0.3805     5.0824
 2047.0000     0.3383     5.0824
 2047.5000     0.3383     5.0824
 2048.0000     0.3488     5.0824
 2048.5000     0.3911     5.0824
 2049.0000     0.4651     5.0824
 2049.5000     0.4968     5.0824
 2050.0000     0.4757     5.0824
 2050.5000     0.4221     5.0824
 2051.0000     0.3911     5.0824
 2051.5000     0.3911     5.0824
 2052.0000     0.3911     5.0824
 2052.5000     0.3922     5.0824
 2053.0000     0.4030     5.0824
 2053.5000     0.4123     5.0824
 2054.0000     0.4123     5.0824
 2054.5000     0.4123     5.0824
 2055.0000     0.4123     5.0824
 2055.5000     0.4123     5.0824
 2056.0000     0.4070     5.0824
 2056.5000     0.3768     5.0824
 2057.0000     0.3260     5.0824
 2057.5000     0.3026     5.0824
 2058.0000     0.3277     5.0824
 2058.5000     0.3638     5.0824
 2059.0000     0.4030     5.0824
 2059.5000     0.4395     5.0824
 2060.0000     0.4695     5.0824
 2060.5000     0.4625     5.0929
 2061.0000     0.4316     5.1034
 2061.5000     0.4008     5.1140
 2062.0000     0.3700     5.1245
 2062.5000     0.3391     5.1351
 2063.0000     0.3083     5.1456
 2063.5000     0.2774     5.1562
 2064.0000     0.2466     5.1667
 2064.5000     0.2158     5.1773
 2065.0000     0.1799     5.1878
 2065.5000     0.2126     5.1984
 2066.0000     0.2665     5.2089
 2066.5000     0.3204     5.2194
 2067.0000     0.3637     5.2300
 2067.5000     0.3964     5.2405
 2068.0000     0.3975     5.2511
 2068.5000     0.3985     5.2616
 2069.0000     0.3995     5.2722
 2069.5000     0.4007     5.2827
 2070.0000     0.4017     5.2933
 2070.5000     0.3993     5.3038
 2071.0000     0.3707     5.3144
 2071.5000     0.3624     5.3249
 2072.0000     0.3800     5.3354
 2072.5000     0.4114     5.3460
 2073.0000     0.4366     5.3565
 2073.5000     0.4729     5.3671
 2074.0000     0.5053     5.3776
 2074.5000     0.4998     5.3882
 2075.0000     0.4510     5.3987
 2075.5000     0.3740     5.4093
 2076.0000     0.3575     5.4198
 2076.5000     0.3477     5.4304
 2077.0000     0.3425     5.4409
 2077.5000     0.3436     5.4514
 2078.0000     0.3395     5.4620
 2078.5000     0.3351     5.4725
 2079.0000     0.3361     5.4831
 2079.5000     0.3372     5.4936
 2080.0000     0.3379     5.5042
 2080.5000     0.3382     5.5148
 2081.0000     0.3385     5.5254
 2081.5000     0.3389     5.5361
 2082.0000     0.3392     5.5467
 2082.5000     0.3395     5.5573
 2083.0000     0.3398     5.5680
 2083.5000     0.3417     5.5786
 2084.0000     0.3510     5.5892
 2084.5000     0.3433     5.5999
 2085.0000     0.2981     5.6105
 2085.5000     0.2493     5.6211
 2086.0000     0.2199     5.6317
 2086.5000     0.1985     5.6424
 2087.0000     0.1834     5.6530
 2087.5000     0.1936     5.6636
 2088.0000     0.2298     5.6743
 2088.5000     0.2694     5.6849
 2089.0000     0.3060     5.6955
 2089.5000     0.3453     5.7062
 2090.0000     0.3867     5.7168
 2090.5000     0.4271     5.7274
 2091.0000     0.4344     5.7381
 2091.5000     0.4188     5.7487
 2092.0000     0.3763     5.7593
 2092.5000     0.3228     5.7699
 2093.0000     0.2685     5.7806
 2093.5000     0.2278     5.7912
