~VERSION INFORMATION
 VERS.                2.0:   CWLS LOG ASCII STANDARD - VERSION 2.0
 WRAP.                 NO:   ONE LINE PER DEPTH STEP
~WELL INFORMATION
#MNEM.UNIT      DATA TYPE    INFORMATION
#----------   ------------   ------------------------------
 STRT.F           40.0000:   START DEPTH
 STOP.F          462.0000:   STOP DEPTH
 STEP.F            0.5000:   STEP LENGTH
 NULL.          -999.2500:   NO VALUE
 COMP.    FENIX & SCISSON:   COMPANY
 WELL.        NPR #68-S-3:   WELL
 FLD .             TEAPOT:   FIELD
 LOC .       S3 T38N R78W:   LOCATION
 CNTY.            NATRONA:   COUNTY
 STAT.            WYOMING:   STATE
 CTRY. UNITED STATES OF AMERICA:   COUNTRY
 SRVC.      Dresser Atlas:   SERVICE COMPANY
 DATE.        28-MAR-1977:   LOGDATE
 API .       490251031900:   API NUMBER
~CURVE INFORMATION
#MNEM.UNIT       API CODE    CURVE DESCRIPTION
#----------   ------------   ------------------------------
 DEPT.F                  :   
 SPR .MV     07 010 01 00:   SPONTANEOUS POTENTIAL
 ILD .OHMM   07 120 46 00:   INDUCTION LOG DEEP
 ILM .OHMM   07 120 44 00:   INDUCTION LOG MEDIUM
 SFL .OHMM   07 220 01 00:   SHALLOW FOCUSED LOG RESISTIVITY
 CALD.IN     45 280 60 00:   CALIPER FROM DENSITY LOG
 GRD .GAPI   45 310 01 00:   GAMMA RAY FROM DENSITY LOG
 CORR.G/C3   45 356 01 00:   DENSITY CORRECTION
 RHOB.G/C3   45 350 01 00:   BULK DENSITY
 DPHI.DEC    45 890 12 00:   DENSITY POROSITY SANDSTONE
~PARAMETER INFORMATION
#MNEM.UNIT          VALUE    DESCRIPTION
#----------   ------------   ------------------------------
 PD  .                 GL:   PERMANENT DATUM
 EPD .F              5162:   ELEVATION PERMANENT DATUM
 LMF .                 KB:   LOG MEASURED FROM
 DAPD.F                 5:   FEET ABOVE PERMANENT DATUM
 DMF .                 KB:   DRILLING MEASURED FROM
 EKB .F              5167:   KELLING BUSHING
 EGL .F              5162:   GROUND LEVEL
 DATE.        28-MAR-1977:   RUN DATE
 RUN .                  1:   RUN NUMBER
 DD  .F               452:   DEPTH DRILLER
 DL  .F               464:   DEPTH LOGGER
 BLI .F               462:   BOTTOM LOG INTERVAL
 TLI .F                40:   TOP LOG INTERVAL
 CS  .IN               10:   CASING SIZE
 CBD .F                40:   CASING BOTTOM DRILLER
 CBL .F                40:   CASING BOTTOM LOGGER
 BS  .IN            7.875:   BIT SIZE
 BSD .F               452:   BIT SIZE AT DEPTH
 DFT .           CHEM GEL:   DRILLING FLUID TYPE
 DFD .                8.9:   DRILLING FLUID DENSITY
 DFV .                 34:   DRILLING FLUID VISCOSITY
 DFPH.                8.0:   DRILLING FLUID PH
 DFL .                8.2:   DRILLING FLUID LOSS
 MSS .         CIRCULATED:   MUD SAMPLE SOURCE
 RMS .OHMM           .223:   RESISTIVITY MUD SAMPLE
 MST .F                51:   MUD SAMPLE TEMPERATURE
 RMF .OHMM           .161:   RESISTIVITY MUD FILTRATE SAMPLE
 MFST.F                51:   MUD FILTRATE SAMPLE TEMPERATURE
 RMC .OHMM           .285:   RESISTIVITY MUD CAKE
 MCST.F                51:   MUD CAKE SAMPLE TEMPERATURE
 MFSS.               MEAS:   MUD FILTRATE SAMPLE SOURCE
 MCSS.               MEAS:   MUD CAKE SAMPLE SOURCE
 RMB .OHMM           .186:   RESISTIVITY MUD AT BHT
 BHT .F                61:   BOTTOM HOLE TEMPERATURE
 TCS .HRS            0500:   TIME CURCULATED STOPPED
 MRT .F                61:   MAXIMUM RECORDED TEMPERATURE
 LUN .               6145:   LOGGING UNIT NUMBER
 LUL .              GLTTE:   LOGGING UNIT LOCATION
 ENGI.              GOULD:   RECORDING ENGINEER
 WITN.               LYON:   WITNESSED BY
 CLNT.            A2DTECH:   CLIENT CODE
 ORIG.           5" PRINT:   ORIGIN OF DATA
 UWI .       490251031900:   UNIQUE WELL ID
 DICO. A2D Technologies, Inc.:   DIGITIZING COMPANY
~OTHER INFORMATION
~A   DEPT      SPR        ILD        ILM        SFL       CALD        GRD       CORR       RHOB       DPHI   
# ...
  332.0000   -18.7433    10.6728    12.9485    13.0869     7.7724    84.2623     0.0429     2.4701     0.1097
  332.5000   -18.7271    10.5340    12.7759    13.2766     7.7752    89.5037     0.0416     2.4754     0.1091
  333.0000   -18.8601    10.3959    12.4359    13.1939     7.7774    92.2115     0.0402     2.4673     0.1130
  333.5000   -19.2898    10.1886    12.2719    12.8413     7.7796    92.5348     0.0389     2.4643     0.1150
  334.0000   -19.4223    10.0548    12.1097    12.4963     7.7819    92.7091     0.0391     2.4644     0.1141
  334.5000   -19.7036     9.7863    12.0331    12.1624     7.7841    93.0261     0.0392     2.4668     0.1119
  335.0000   -19.8363     9.5250    12.0398    11.9210     7.7864    91.2693     0.0394     2.4706     0.1101
  335.5000   -20.1175     9.2047    12.0464    11.8438     7.7735    88.9100     0.0366     2.4753     0.1089
  336.0000   -20.2520     9.0859    12.0530    11.7703     7.7759    88.3392     0.0337     2.4768     0.1085
  336.5000   -20.3826     8.9665    11.8120    11.7768     7.7632    88.2091     0.0354     2.4754     0.1094
  337.0000   -20.3661     9.0345    11.8185    11.7832     7.7654    88.5387     0.0386     2.4771     0.1100
  337.5000   -20.3497     9.1135    11.8250    11.7897     7.7677    91.8426     0.0477     2.4896     0.1021
  338.0000   -20.1845     9.4304    11.8337    11.8779     7.7699    92.0169     0.0539     2.5044     0.0933
  338.5000   -20.0193     9.7011    12.0907    12.2175     7.7721    91.2970     0.0601     2.5127     0.0843
  339.0000   -19.8314    10.1186    12.4321    12.8300     7.7744    90.2790     0.0633     2.5164     0.0818
  339.5000   -19.5139    10.7755    12.7973    13.4731     7.7766    89.4101     0.0650     2.5165     0.0821
  340.0000   -18.7765    11.4750    13.6673    14.4449     7.7788    85.8586     0.0681     2.5143     0.0836
  340.5000   -17.8674    12.3048    15.1105    15.5941     7.7811    81.1149     0.0698     2.5120     0.0857
  341.0000   -17.2559    13.1945    17.4319    17.0690     7.7534    77.8614     0.0715     2.5030     0.0893
  341.5000   -16.6444    14.5457    20.0909    19.6093     7.7557    75.0551     0.0716     2.4955     0.0990
  342.0000   -16.0328    16.1467    22.4536    25.1609     7.7429    71.3546     0.0718     2.4800     0.1102
  342.5000   -15.5701    17.6775    25.0941    32.0620     7.7452    68.5482     0.0660     2.4237     0.1329
  343.0000   -15.1074    19.4877    29.4361    34.3745     7.7474    66.1890     0.0571     2.3606     0.1653
  343.5000   -14.7935    21.0420    32.4460    36.6000     7.7497    62.0413     0.0527     2.3474     0.1832
  344.0000   -14.7773    22.1000    29.2654    38.4348     7.7519    56.8505     0.0635     2.3573     0.1779
  344.5000   -14.7610    22.7343    23.3074    39.5336     7.7542    62.9860     0.0696     2.3642     0.1742
  345.0000   -14.7447    23.3868    21.3154    39.2829     7.7564    65.9919     0.0758     2.3695     0.1710
  345.5000   -14.7284    24.0581    21.3271    37.6998     7.7586    67.9546     0.0775     2.3726     0.1691
  346.0000   -14.7122    24.7486    21.1889    38.2720     7.7459    69.1721     0.0761     2.3667     0.1716
  346.5000   -14.8447    25.1089    20.7681    40.2001     7.7482    69.6444     0.0703     2.3608     0.1763
  347.0000   -14.9772    24.6083    19.9351    41.6457     7.7354    67.8813     0.0644     2.3563     0.1790
  347.5000   -15.1098    23.7861    18.2313    43.1435     7.7377    65.9691     0.0616     2.3519     0.1823
  348.0000   -15.2464    22.9914    16.7888    43.7163     7.7250    69.5711     0.0587     2.3438     0.1862
  348.5000   -15.2260    21.9178    15.8941    40.2654     7.7272    70.9377     0.0544     2.3348     0.1924
  349.0000   -15.2098    20.8943    15.4690    36.3211     7.7295    71.4100     0.0486     2.3259     0.1960
  349.5000   -15.1935    19.9186    15.3687    32.3135     7.7317    71.2862     0.0427     2.3350     0.1875
  350.0000   -15.1783    18.8575    15.4505    30.7885     7.7339    70.2683     0.0429     2.3531     0.1780
  350.5000   -15.1606    18.1475    15.9291    30.6439     7.7333    69.2380     0.0430     2.3607     0.1758
  351.0000   -15.1398    17.2533    16.4985    30.6193     7.7326    67.6116     0.0431     2.3570     0.1787
  351.5000   -15.1220    16.6746    17.2069    30.6342     7.7320    67.2008     0.0401     2.3518     0.1826
  352.0000   -15.1041    16.2272    17.8220    30.2200     7.7314    66.9081     0.0359     2.3399     0.1889
  352.5000   -14.9374    15.9015    17.5870    29.6124     7.7307    65.8223     0.0267     2.3264     0.1958
  353.0000   -14.6219    15.7976    17.2330    28.6187     7.7315    63.0193     0.0241     2.3333     0.1903
  353.5000   -14.4553    15.6962    17.9754    27.4417     7.7186    60.6160     0.0273     2.3551     0.1816
  354.0000   -14.2886    15.7057    18.2358    25.4681     7.7212    63.4348     0.0304     2.3725     0.1698
  354.5000   -14.1219    15.7133    18.1201    24.7993     7.7233    62.4071     0.0245     2.3838     0.1605
  355.0000   -13.9552    15.7209    17.5140    24.6404     7.7253    64.6685     0.0127     2.3862     0.1614
  355.5000   -13.7885    15.8377    17.6453    24.8235     7.7120    66.4776     0.0053     2.3809     0.1640
  356.0000   -13.7707    15.8453    18.0251    24.8562     7.6991    67.9886    -0.0036     2.3719     0.1706
  356.5000   -14.1992    16.0739    18.6695    25.3680     7.7017    69.6487    -0.0080     2.3676     0.1709
  357.0000   -15.0742    16.3058    19.2037    25.5810     7.7038    71.0107    -0.0064     2.3733     0.1660
  357.5000   -15.6516    16.3137    19.6170    26.8635     7.7058    72.5217    -0.0032     2.3847     0.1606
  358.0000   -14.1456    16.3216    20.0392    29.4702     7.6930    73.1334     0.0014     2.4024     0.1512
  358.5000   -13.5325    16.3295    20.4706    30.8787     7.6951    69.5826     0.0046     2.4205     0.1374
  359.0000   -13.5146    16.2247    20.4819    29.2918     7.6817    68.4110     0.0062     2.4394     0.1280
  359.5000   -13.4967    16.0094    20.0724    27.1555     7.6688    68.8789     0.0063     2.4477     0.1226
  360.0000   -13.3301    15.9048    19.8077    25.2812     7.6410    68.3035     0.0035     2.4162     0.1304
  360.5000   -13.3122    15.9144    19.8186    24.6039     7.5987    67.7229    -0.0054     2.3923     0.1409
  361.0000   -13.1455    15.9221    19.8296    24.2779     7.5853    69.6862    -0.0083     2.3788     0.1635
  361.5000   -13.1276    15.8180    19.9782    24.2897     7.6477    74.6250    -0.0052     2.3631     0.1723
  362.0000   -13.1098    15.8276    20.4082    24.1311     7.7096    78.5205    -0.0035     2.3519     0.1775
  362.5000   -13.0919    15.8352    20.7038    23.9794     7.7565    72.8780    -0.0019     2.3543     0.1786
  363.0000   -12.9252    15.6251    21.0037    23.4988     7.7736    71.4033     0.0043     2.3633     0.1738
  363.5000   -12.9073    15.5230    21.0153    22.2459     7.7756    73.0685     0.0149     2.3709     0.1687
  364.0000   -12.8895    15.5324    20.5952    21.2058     7.7777    71.4499     0.0317     2.3808     0.1632
  364.5000   -12.8716    15.2206    20.3235    20.0751     7.7643    71.0183     0.0440     2.3959     0.1563
  365.0000   -12.8537    15.1211    20.0554    19.2692     7.7515    72.0823     0.0532     2.4065     0.1490
  365.5000   -12.6870    14.9205    19.6546    19.4121     7.7541    71.2131     0.0578     2.4110     0.1442
  366.0000   -12.3715    14.7225    19.3953    20.1042     7.7561    72.8741     0.0622     2.4111     0.1453
  366.5000   -12.2049    14.6281    19.0076    21.1106     7.7582    74.6832     0.0579     2.4074     0.1492
  367.0000   -12.0382    14.4340    18.8862    22.3211     7.7603    75.1644     0.0505     2.4008     0.1531
  367.5000   -11.5739    14.2425    18.5095    22.4840     7.7624    75.1717     0.0356     2.3978     0.1549
  368.0000   -11.4072    13.9566    18.3888    20.9956     7.7644    75.0434     0.0267     2.3987     0.1534
