~VERSION INFORMATION
 VERS.                2.0:   CWLS LOG ASCII STANDARD - VERSION 2.0
 WRAP.                 NO:   ONE LINE PER DEPTH STEP
~WELL INFORMATION
#MNEM.UNIT      DATA TYPE    INFORMATION
#----------   ------------   ------------------------------
 STRT.F           20.0000:   START DEPTH
 STOP.F          677.0000:   STOP DEPTH
 STEP.F            0.5000:   STEP LENGTH
 NULL.          -999.2500:   NO VALUE
 COMP. FENIX & SCISSON INC:   COMPANY
 WELL. 11 WI NPR 3 #36-26 SX:   WELL
 FLD .             TEAPOT:   FIELD
 LOC .      S11 T38N R78W:   LOCATION
 CNTY.            NATRONA:   COUNTY
 STAT.            WYOMING:   STATE
 CTRY. UNITED STATES OF AMERICA:   COUNTRY
 SRVC.      Dresser Atlas:   SERVICE COMPANY
 DATE.        06-AUG-1980:   LOGDATE
 API .       490251084100:   API NUMBER
~CURVE INFORMATION
#MNEM.UNIT       API CODE    CURVE DESCRIPTION
#----------   ------------   ------------------------------
 DEPT.F                  :   
 SPR .MV     07 010 01 00:   SPONTANEOUS POTENTIAL
 SFL .OHMM   07 220 01 00:   SHALLOW FOCUSED LOG RESISTIVITY
 ILD .OHMM   07 120 46 00:   INDUCTION LOG DEEP
 ILM .OHMM   07 120 44 00:   INDUCTION LOG MEDIUM
 GRD .GAPI   45 310 01 00:   GAMMA RAY FROM DENSITY LOG
 RHOB.G/C3   45 350 01 00:   BULK DENSITY
 CALD.IN     45 280 60 00:   CALIPER
 CORR.G/C3   45 356 01 00:   DENSITY CORRECTION
 DPOR.DEC    45 890 12 00:   DENSITY POROSITY SANDSTONE
 NPOR.DEC    42 890 03 00:   NEUTRON POROSITY SANDSTONE
~PARAMETER INFORMATION
#MNEM.UNIT          VALUE    DESCRIPTION
#----------   ------------   ------------------------------
 PD  .                 GL:   PERMANENT DATUM
 EPD .F              5191:   ELEVATION PERMANENT DATUM
 LMF .                 KB:   LOG MEASURED FROM
 DAPD.F                 5:   FEET ABOVE PERMANENT DATUM
 DMF .                 KB:   DRILLING MEASURED FROM
 EKB .F              5196:   KELLING BUSHING
 EGL .F              5191:   GROUND LEVEL
 DATE.             8-6-80:   RUN DATE
 RUN .                  1:   RUN NUMBER
 DD  .F               680:   DEPTH DRILLER
 DL  .F               679:   DEPTH LOGGER
 BLI .F               676:   BOTTOM LOG INTERVAL
 TLI .F                20:   TOP LOG INTERVAL
 BS  .IN            7.875:   BIT SIZE
 BSD .F               680:   BIT SIZE AT DEPTH
 DFT .                KCL:   DRILLING FLUID TYPE
 DFD .                9.4:   DRILLING FLUID DENSITY
 DFV .                 45:   DRILLING FLUID VISCOSITY
 DFPH.                 12:   DRILLING FLUID PH
 MSS .           FLOWLINE:   MUD SAMPLE SOURCE
 RMS .OHMM            .11:   RESISTIVITY MUD SAMPLE
 MST .F                65:   MUD SAMPLE TEMPERATURE
 RMF .OHMM             .1:   RESISTIVITY MUD FILTRATE SAMPLE
 MFST.F                60:   MUD FILTRATE SAMPLE TEMPERATURE
 RMC .OHMM            .17:   RESISTIVITY MUD CAKE
 MCST.F                65:   MUD CAKE SAMPLE TEMPERATURE
 MFSS.               MEAS:   MUD FILTRATE SAMPLE SOURCE
 MCSS.              CHART:   MUD CAKE SAMPLE SOURCE
 TCS .HRS              .5:   TIME CURCULATED STOPPED
 MRT .F               100:   MAXIMUM RECORDED TEMPERATURE
 LUN .               6240:   LOGGING UNIT NUMBER
 LUL .               RVTN:   LOGGING UNIT LOCATION
 ENGI.            K. RALL:   RECORDING ENGINEER
 WITN.     AMAND/MCINTYRE:   WITNESSED BY
 CLNT.            A2DTECH:   CLIENT CODE
 ORIG.        2" 5" PRINT:   ORIGIN OF DATA
 UWI .       490251084100:   UNIQUE WELL ID
 DICO. A2D Technologies, Inc.:   DIGITIZING COMPANY
~OTHER INFORMATION
~A   DEPT       SPR       SFL         ILD         ILM      GRD       RHOB       CALD       CORR       DPOR       NPOR   
# ...
  221.0000   -65.9192     8.1614     7.5868     7.2643   119.1733     2.4767     8.1192     0.0256     0.1186     0.2679
  221.5000   -65.7532     8.3447     7.6300     7.3121   120.2987     2.4834     8.1179     0.0267     0.1235     0.2675
  222.0000   -65.5848     8.3009     7.7014     7.3603   120.3336     2.4776     8.1165     0.0229     0.1266     0.2792
  222.5000   -65.6203     8.2381     7.7735     7.4087   120.3334     2.4693     8.1152     0.0192     0.1198     0.2943
  223.0000   -65.6898     8.1757     7.8462     7.4575   120.3115     2.4671     8.1138     0.0170     0.0993     0.2946
  223.5000   -65.7620     8.1175     7.9196     7.5066   119.2334     2.4839     8.1124     0.0328     0.0898     0.2746
  224.0000   -65.8946     8.2216     7.9937     7.5623   118.2594     2.5217     8.1111     0.0521     0.1059     0.2682
  224.5000   -66.2893     8.3210     8.0685     7.6336   118.2964     2.5260     8.1097     0.0408     0.1229     0.2930
  225.0000   -67.0409     8.4218     8.1440     7.7057   119.1970     2.4939     8.1083     0.0279     0.1252     0.2990
  225.5000   -67.7891     8.5237     8.2202     7.7784   121.2368     2.4685     8.1079     0.0159     0.1268     0.2864
  226.0000   -68.5345     8.6269     8.2971     7.8517   123.1044     2.4684     8.1079     0.0143     0.1394     0.2794
  226.5000   -68.9939     8.7313     8.3748     7.9258   123.6964     2.4576     8.1079     0.0073     0.1489     0.2905
  227.0000   -68.4648     8.8370     8.4525     8.0006   121.4348     2.4317     8.1079    -0.0118     0.1438     0.2939
  227.5000   -67.8535     8.9439     8.5735     8.0753   120.2952     2.4300     8.1079    -0.0082     0.1379     0.2767
  228.0000   -67.2391     9.0475     8.7560     8.1761   120.9406     2.4440     8.1079     0.0061     0.1322     0.2580
  228.5000   -66.6284     9.1497     8.9423     8.3041   121.6965     2.4539     8.1079     0.0126     0.1321     0.2507
  229.0000   -66.1149     9.2530     9.0936     8.4352   120.6912     2.4569     8.1079     0.0055     0.1378     0.2579
  229.5000   -65.9345     9.3575     9.1750     8.5682   118.4430     2.4476     8.1079    -0.0122     0.1425     0.2741
  230.0000   -65.7498     9.4631     9.2571     8.7032   117.4004     2.4394     8.1079    -0.0228     0.1421     0.2914
  230.5000   -65.5651     9.5796     9.3400     8.8405   117.8649     2.4405     8.1079    -0.0140     0.1344     0.2914
  231.0000   -65.3801     9.7383     9.4236     8.9798   118.7174     2.4458     8.1079    -0.0053     0.1276     0.2835
  231.5000   -65.1953     9.9156     9.5298     9.1498   117.9662     2.4594     8.1079     0.0012     0.1230     0.2759
  232.0000   -65.0045    10.0962     9.7326     9.1347   116.3497     2.4678     8.1079     0.0049     0.1110     0.2683
  232.5000   -64.8923    10.2800     9.9396     9.1116   114.4060     2.4770     8.1079     0.0100     0.0868     0.2667
  233.0000   -64.7997    10.4067    10.2170     9.0885   113.8280     2.5039     8.1079     0.0284     0.0794     0.2731
  233.5000   -64.7075    10.4067    10.0264     9.0647   114.3930     2.5398     8.1079     0.0481     0.0920     0.2822
  234.0000   -64.6150    10.2123     9.8274     9.0662   114.0487     2.5394     8.1079     0.0509     0.1077     0.2865
  234.5000   -64.5222    10.0181     9.6323     8.8398   111.4716     2.5070     8.1079     0.0420     0.1163     0.2848
  235.0000   -64.4290     9.8457     9.4411     8.7950   108.9032     2.4897     8.1079     0.0332     0.1246     0.2808
  235.5000   -64.3590     9.8142     9.3097     8.7686   108.5837     2.4771     8.1079     0.0203     0.1395     0.2662
  236.0000   -64.4759     9.7779     9.2838     8.7423   110.5502     2.4646     8.1079     0.0072     0.1505     0.2522
  236.5000   -64.6428     9.7418     9.2579     8.7160   113.2554     2.4353     8.1079    -0.0049     0.1513     0.2494
  237.0000   -64.9365     9.7058     9.2322     8.6898   115.0596     2.4256     8.1079    -0.0046     0.1463     0.2495
  237.5000   -65.2282     9.6699     9.2064     8.6637   115.0818     2.4276     8.1079    -0.0021     0.1262     0.2567
  238.0000   -65.5206     9.6342     9.1808     8.6377   112.7275     2.4407     8.1079     0.0139     0.0970     0.2735
  238.5000   -65.5872     9.5986     9.1552     8.6118   110.2220     2.4772     8.1079     0.0384     0.0950     0.2894
  239.0000   -65.6152     9.5510     9.1297     8.5859   110.7912     2.5176     8.1079     0.0443     0.1139     0.3011
  239.5000   -65.6430     9.4899     9.1043     8.5740   112.2621     2.5069     8.1079     0.0442     0.1257     0.3102
  240.0000   -65.6713     9.4292     9.0789     8.5681   112.7322     2.4770     8.1081     0.0244     0.1192     0.3102
  240.5000   -65.6995     9.3689     9.0536     8.5621   113.9365     2.4673     8.1088     0.0205     0.1113     0.3039
  241.0000   -65.7276     9.3090     9.0284     8.5561   115.7814     2.4869     8.1095     0.0273     0.1033     0.3048
  241.5000   -65.7497     9.2329     9.0033     8.5501   118.7975     2.5013     8.1103     0.0343     0.0974     0.3035
  242.0000   -66.0824     9.2338     8.9821     8.5442   119.1324     2.5119     8.1110     0.0427     0.1062     0.2983
  242.5000   -66.5010     9.2334     9.0065     8.5382   119.0599     2.5145     8.1117     0.0398     0.1168     0.2893
  243.0000   -66.9230     9.2333     9.0277     8.5323   118.8144     2.4919     8.1124     0.0356     0.1261     0.2790
  243.5000   -67.3545     9.2335     9.0489     8.5263   118.3881     2.4725     8.1131     0.0290     0.1248     0.2722
  244.0000   -67.6581     9.2724     9.0702     8.5204   117.7648     2.4687     8.1138     0.0225     0.1256     0.2774
  244.5000   -67.9660     9.3470     9.0915     8.5145   116.9310     2.4686     8.1146     0.0152     0.1266     0.2854
  245.0000   -68.2715     9.4223     9.1129     8.5086   115.1211     2.4669     8.1153     0.0049     0.1203     0.2972
  245.5000   -68.7782     9.4919     9.1343     8.5024   113.7317     2.4829     8.1160     0.0033     0.1047     0.3138
  246.0000   -69.3291     9.3856     9.1485     8.4700   113.1889     2.5058     8.1167     0.0279     0.0954     0.3142
  246.5000   -69.7858     9.2885     9.1103     8.4120   114.7029     2.5175     8.1174     0.0481     0.0990     0.3083
  247.0000   -70.2466     9.1923     9.0815     8.3543   117.2940     2.5075     8.1182     0.0475     0.1084     0.3011
  247.5000   -70.7607     9.0972     9.0314     8.2971   118.9685     2.4854     8.1189     0.0357     0.1183     0.2929
  248.0000   -71.5079     9.0029     8.9568     8.2402   117.1258     2.4596     8.1196     0.0108     0.1378     0.2811
  248.5000   -72.0427     8.9094     8.8828     8.1838   114.7257     2.4154     8.1203    -0.0142     0.1593     0.2782
  249.0000   -72.1790     8.8185     8.8094     8.1277   115.0502     2.4107     8.1210    -0.0257     0.1593     0.2866
  249.5000   -72.3224     8.8355     8.7366     8.0720   116.2231     2.4344     8.1218    -0.0083     0.1455     0.2953
  250.0000   -72.4638     8.8525     8.6575     8.0167   117.4155     2.4588     8.1225     0.0091     0.1296     0.3005
  250.5000   -72.6057     8.8696     8.4477     7.9262   118.6236     2.4751     8.1232     0.0126     0.1226     0.3020
  251.0000   -72.7471     8.8967     8.2217     7.6263   120.3703     2.4587     8.1239    -0.0041     0.1306     0.3036
  251.5000   -72.8893     8.9073     8.0017     7.3377   121.8396     2.4464     8.1247    -0.0038     0.1385     0.3051
  252.0000   -73.0627     8.7082     7.7876     7.0981   121.5358     2.4580     8.1254     0.0135     0.1385     0.3094
  252.5000   -73.3592     8.2911     7.5792     6.9922   117.8189     2.4912     8.1261     0.0305     0.1166     0.3042
  253.0000   -73.6464     7.9008     7.3765     6.8876   117.0381     2.4978     8.1268     0.0256     0.1086     0.2998
  253.5000   -73.9349     7.7742     7.2671     6.7846   117.2960     2.4745     8.1275     0.0196     0.1164     0.2925
  254.0000   -74.1909     7.7525     7.2679     6.6912   117.6539     2.4740     8.1283     0.0191     0.1226     0.2950
