~VERSION INFORMATION
 VERS.                2.0:   CWLS LOG ASCII STANDARD - VERSION 2.0
 WRAP.                 NO:   ONE LINE PER DEPTH STEP
~WELL INFORMATION
#MNEM.UNIT      DATA TYPE    INFORMATION
#----------   ------------   ------------------------------
 STRT.F           25.0000:   START DEPTH
 STOP.F          528.0000:   STOP DEPTH
 STEP.F            0.5000:   STEP LENGTH
 NULL.          -999.2500:   NO VALUE
 COMP. FENIX & SCISSON INC:   COMPANY
 WELL.       NPR #3 #11-3:   WELL
 FLD .             NPR #3:   FIELD
 LOC .       S3 T38N R78W:   LOCATION
 CNTY.            NATRONA:   COUNTY
 STAT.            WYOMING:   STATE
 CTRY. UNITED STATES OF AMERICA:   COUNTRY
 SRVC.       Schlumberger:   SERVICE COMPANY
 DATE.        01-MAR-1977:   LOGDATE
 API .       490251028300:   API NUMBER
~CURVE INFORMATION
#MNEM.UNIT       API CODE    CURVE DESCRIPTION
#----------   ------------   ------------------------------
 DEPT.F                  :   
 SPR .MV     07 010 01 00:   SPONTANEOUS POTENTIAL
 LL8 .OHMM   07 220 08 00:   LATEROLOG-8 RES.
 ILM .OHMM   07 120 44 00:   INDUCTION LOG MEDIUM
 ILD .OHMM   07 120 46 00:   INDUCTION LOG DEEP
 GRD .GAPI   45 310 01 00:   GAMMA RAY FROM DENSITY LOG
 CALD.IN     45 280 60 00:   CALIPER
 RHOB.G/C3   45 350 01 00:   BULK DENSITY
 CORR.G/C3   45 356 01 00:   DENSITY CORRECTION
 DPHI.DEC    45 890 12 00:   DENSITY POROSITY SANDSTONE
~PARAMETER INFORMATION
#MNEM.UNIT          VALUE    DESCRIPTION
#----------   ------------   ------------------------------
 PD  .                 GL:   PERMANENT DATUM
 EPD .F              5178:   ELEVATION PERMANENT DATUM
 LMF .                 GL:   LOG MEASURED FROM
 DMF .                 GL:   DRILLING MEASURED FROM
 EKB .F              5183:   KELLING BUSHING
 EGL .F              5178:   GROUND LEVEL
 DATE.           3-1-1977:   RUN DATE
 RUN .                  1:   RUN NUMBER
 DD  .F               535:   DEPTH DRILLER
 DL  .F               526:   DEPTH LOGGER
 BLI .F               520:   BOTTOM LOG INTERVAL
 TLI .F                30:   TOP LOG INTERVAL
 CS  .IN            8.625:   CASING SIZE
 CBD .F                40:   CASING BOTTOM DRILLER
 CBL .F                30:   CASING BOTTOM LOGGER
 BS  .IN            7.875:   BIT SIZE
 BSD .F               535:   BIT SIZE AT DEPTH
 DFT .                KCL:   DRILLING FLUID TYPE
 DFD .                8.7:   DRILLING FLUID DENSITY
 DFV .                 37:   DRILLING FLUID VISCOSITY
 DFPH.                  8:   DRILLING FLUID PH
 DFL .                7.2:   DRILLING FLUID LOSS
 MSS .                PIT:   MUD SAMPLE SOURCE
 RMS .OHMM           .495:   RESISTIVITY MUD SAMPLE
 MST .F                62:   MUD SAMPLE TEMPERATURE
 RMF .OHMM           .406:   RESISTIVITY MUD FILTRATE SAMPLE
 MFST.F                65:   MUD FILTRATE SAMPLE TEMPERATURE
 MFSS.                  M:   MUD FILTRATE SAMPLE SOURCE
 RMB .OHMM           .438:   RESISTIVITY MUD AT BHT
 BHT .F                70:   BOTTOM HOLE TEMPERATURE
 TCS .HRS            0800:   TIME CURCULATED STOPPED
 TLAB.HRS            1130:   TIME LOGGER AT BOTTOM
 MRT .F                70:   MAXIMUM RECORDED TEMPERATURE
 LUN .               5642:   LOGGING UNIT NUMBER
 LUL .               CSPR:   LOGGING UNIT LOCATION
 ENGI.             MARTIN:   RECORDING ENGINEER
 CLNT.            A2DTECH:   CLIENT CODE
 ORIG.       2", 5" PRINT:   ORIGIN OF DATA
 UWI .       490251028300:   UNIQUE WELL ID
 DICO. A2D Technologies, Inc.:   DIGITIZING COMPANY
~OTHER INFORMATION
~A   DEPT      SPR        LL8        ILM        ILD         GRD      CALD       RHOB       CORR       DPHI   
# ...
  134.5000   -50.5937    10.3513     9.4294     9.0711   102.5871     8.1116     2.5366    -0.0002     0.0712
  135.0000   -49.2658    10.3248     9.4128     9.0428   105.2050     8.1117     2.5199     0.0045     0.0760
  135.5000   -47.8223    10.4102     9.3993     8.9805   108.0290     8.1119     2.5035     0.0128     0.0840
  136.0000   -46.3850    10.2927     9.3780     8.9193   108.7767     8.1120     2.4878     0.0139     0.0990
  136.5000   -44.9399    10.2151     9.3567     8.8228   108.1276     8.1122     2.4771     0.0092     0.1041
  137.0000   -44.2940    10.1356     9.3355     8.7336   105.8524     8.1123     2.4644     0.0047     0.1081
  137.5000   -44.5780     9.6192     9.3143     8.6439   101.1937     8.1125     2.4716     0.0077     0.1090
  138.0000   -47.2790     9.1131     9.2367     8.5552   102.9827     8.1126     2.4873     0.0073     0.0984
  138.5000   -51.2759     8.6336     9.1598     8.4673   106.9596     8.1128     2.5013     0.0027     0.0890
  139.0000   -53.0691     8.1793     9.0835     8.4119   108.6928     8.1130     2.4944     0.0121     0.0938
  139.5000   -54.6920     8.0049     9.0078     8.3714   109.1990     8.1131     2.5001     0.0206     0.0850
  140.0000   -53.9862     7.9491     8.9328     8.3311   111.6266     8.1133     2.5020     0.0148     0.0933
  140.5000   -52.6978     7.8962     8.8584     8.2909   112.7104     8.1134     2.4787     0.0084     0.1074
  141.0000   -52.2490     7.9211     8.7846     8.2510   112.9692     8.1136     2.4601     0.0030     0.1222
  141.5000   -51.9782     7.9457     8.7416     8.2112   113.0722     8.1137     2.4598     0.0090     0.1193
  142.0000   -50.3573     7.9701     9.0263     8.1716   111.4797     8.1139     2.4587     0.0124     0.1166
  142.5000   -47.8652     8.2617     9.3262     8.1323   110.4643     8.1140     2.4453     0.0053     0.1256
  143.0000   -46.9236     8.5474     9.1655     8.0931   110.9622     8.1142     2.4401    -0.0018     0.1331
  143.5000   -46.2880     8.8435     9.0710     8.0435   111.3896     8.1143     2.4423    -0.0072     0.1262
  144.0000   -43.7319     9.1498     9.1079     8.1573   110.9776     8.1145     2.4444    -0.0030     0.1287
  144.5000   -45.3970     9.4667     9.1350     8.3160   108.1123     8.1146     2.4467     0.0033     0.1257
  145.0000   -47.6879     9.6674     9.1779     8.4777   108.9341     8.1148     2.4488     0.0052     0.1202
  145.5000   -47.9804     9.7919     9.2595     8.6426   110.3014     8.1150     2.4504     0.0001     0.1270
  146.0000   -48.3152     9.8839     9.3418     8.8107   111.4764     8.1151     2.4722     0.0057     0.1190
  146.5000   -50.9461     9.9767     9.4247     8.9820   109.8509     8.1153     2.4811     0.0099     0.1124
  147.0000   -53.4207    10.0704     9.5083     9.1553   108.1707     8.1154     2.4872     0.0049     0.1108
  147.5000   -53.4538    10.1650     9.5925     9.1219   104.5493     8.1156     2.4911    -0.0003     0.1137
  148.0000   -52.1002    10.2605     9.6773     9.0805   100.5856     8.1157     2.4771    -0.0056     0.1165
  148.5000   -50.7022    10.3568     9.7670     9.0394   102.9554     8.1159     2.4708    -0.0101     0.1179
  149.0000   -49.7476    10.4207     9.7078     8.9984   105.2049     8.1160     2.4872    -0.0063     0.1159
  149.5000   -51.4963    10.2794     9.6462     8.9576   105.8733     8.1162     2.5052    -0.0008     0.1123
  150.0000   -53.1760    10.1754     9.5849     8.9170   105.9793     8.1164     2.5257     0.0031     0.1092
  150.5000   -54.0485    10.0724     9.5237     8.8228   107.9312     8.1165     2.5159     0.0029     0.1044
  151.0000   -51.7938     9.9705     9.4630     8.7926   109.9985     8.1167     2.4985     0.0076     0.1065
  151.5000   -48.3368     9.8696     9.4027     8.7589   109.8499     8.1168     2.5089     0.0150     0.1086
  152.0000   -44.5981     9.8583     9.3427     8.6612   109.4567     8.1170     2.5266     0.0168     0.1106
  152.5000   -43.8449     9.8583     9.2832     8.6507   109.8606     8.1171     2.5054     0.0075     0.1130
  153.0000   -46.4193     9.8584     9.2403     8.6354   110.2329     8.1173     2.4754     0.0031     0.1150
  153.5000   -48.9606     9.8583     9.2403     8.6201   110.0748     8.1167     2.4758     0.0057     0.1154
  154.0000   -50.9391     9.8583     9.2403     8.6048   108.0526     8.1160     2.4678    -0.0044     0.1187
  154.5000   -49.8769     9.8587     9.2403     8.5814   106.0964     8.1153     2.4569    -0.0061     0.1230
  155.0000   -48.6597     9.8583     9.3840     8.6933   105.1254     8.1146     2.4637    -0.0023     0.1185
  155.5000   -50.3446     9.8583     9.5211     8.9404   105.5163     8.1139     2.4724     0.0017     0.1154
  156.0000   -55.4095     9.9499     9.6601     9.1945   106.9085     8.1132     2.4726     0.0039     0.1186
  156.5000   -58.9935    10.1859     9.8012     9.4559   109.6252     8.1125     2.4679     0.0042     0.1168
  157.0000   -54.3818    10.4154     9.9443     9.7247   112.4603     8.1118     2.4939     0.0109     0.1135
  157.5000   -50.5227    10.6501    10.0895     9.8504   112.6491     8.1111     2.4883     0.0169     0.1102
  158.0000   -46.3895    10.8901    10.2369     9.9495   111.1889     8.1104     2.4771     0.0180     0.1082
  158.5000   -43.5272    11.1355    10.3864    10.0496   109.7139     8.1097     2.4656     0.0169     0.1132
  159.0000   -44.5633    11.4308    10.5386    10.1507   107.4535     8.1089     2.4662     0.0154     0.1174
  159.5000   -46.2413    11.4025    10.6937    10.2298   105.3807     8.1082     2.4769     0.0129     0.1156
  160.0000   -46.1036    11.3241    10.8134    10.4191   104.7888     8.1075     2.4672     0.0103     0.1163
  160.5000   -47.0460    11.3693    11.0940    10.6074   104.3482     8.1068     2.4586     0.0077     0.1185
  161.0000   -47.5403    11.5818    11.3763    10.7991   105.6145     8.1061     2.4636     0.0050     0.1190
  161.5000   -46.1217    11.7971    11.5832    10.9964   105.0307     8.1054     2.4723     0.0024     0.1168
  162.0000   -44.5926    12.0165    11.7744    11.2042   103.8800     8.1047     2.4678    -0.0002     0.1161
  162.5000   -44.7189    12.1947    11.9688    11.4159   104.2712     8.1040     2.4615    -0.0028     0.1176
  163.0000   -46.0456    12.1947    12.1664    11.6312   104.2988     8.1033     2.4550    -0.0040     0.1191
  163.5000   -47.5219    12.4326    12.3672    11.8504   102.3920     8.1026     2.4569    -0.0019     0.1206
  164.0000   -49.0706    12.8434    12.5714    12.0743   100.4911     8.1019     2.4687     0.0053     0.1154
  164.5000   -48.6947    13.2677    12.7789    12.3035    99.3774     8.1012     2.4824     0.0126     0.1063
  165.0000   -47.2114    13.6258    12.9899    12.5417   100.9402     8.1005     2.4914     0.0201     0.0946
  165.5000   -46.1732    13.6258    13.2530    12.6823   102.5123     8.0998     2.4847     0.0179     0.1030
  166.0000   -47.9051    13.7524    13.1570    12.7311   101.8723     8.0991     2.4802     0.0091     0.1007
  166.5000   -48.2509    13.7524    13.0309    12.7718   101.0331     8.0984     2.4895     0.0130     0.0963
  167.0000   -46.9013    13.5004    12.9063    12.5377   100.2678     8.0977     2.5010     0.0143     0.0922
  167.5000   -46.2049    13.3770    12.7833    12.3834    98.0527     8.0970     2.4772     0.0116     0.0970
  168.0000   -49.5918    13.2502    12.6618    12.2253    96.9701     8.0963     2.4844     0.0252     0.0926
  168.5000   -50.4166    13.1247    12.5413    12.0691    97.5372     8.0956     2.5008     0.0326     0.0902
  169.0000   -49.2508    13.0014    12.4220    11.9150    94.8265     8.0949     2.4939     0.0171     0.0948
  169.5000   -49.6532    12.8805    12.3039    11.7629    93.6249     8.0942     2.4817     0.0142     0.1073
  170.0000   -51.3219    12.6589    12.1880    11.6126    92.5539     8.0935     2.4692     0.0131     0.1110
  170.5000   -51.8657    12.5761    12.0740    11.4642    91.2055     8.0928     2.4568     0.0068     0.1138
