~VERSION INFORMATION
 VERS.                2.0:   CWLS LOG ASCII STANDARD - VERSION 2.0
 WRAP.                 NO:   ONE LINE PER DEPTH STEP
~WELL INFORMATION
#MNEM.UNIT      DATA TYPE    INFORMATION
#----------   ------------   ------------------------------
 STRT.F          350.0000:   START DEPTH
 STOP.F         2259.0000:   STOP DEPTH
 STEP.F            0.5000:   STEP LENGTH
 NULL.          -999.2500:   NO VALUE
 COMP. LAWRENCE/ALLISON INC:   COMPANY
 WELL.        45 X #33-33:   WELL
 FLD .             TEAPOT:   FIELD
 LOC .      S33 T39N R78W:   LOCATION
 CNTY.            NATRONA:   COUNTY
 STAT.            WYOMING:   STATE
 CTRY. UNITED STATES OF AMERICA:   COUNTRY
 SRVC.      NL McCullough:   SERVICE COMPANY
 DATE.        19-MAY-1988:   LOGDATE
 API .       490251119400:   API NUMBER
~CURVE INFORMATION
#MNEM.UNIT       API CODE    CURVE DESCRIPTION
#----------   ------------   ------------------------------
 DEPT.F                  :   
 ROP .MIN/FT 91 810 01 00:   RATE OF DRILLING PENETRATION
 GR  .GAPI   81 310 01 00:   GAMMA RAY
 TGAS.UNITS  91 830 01 00:   TOTAL GAS FROM HOTWIRE
~PARAMETER INFORMATION
#MNEM.UNIT          VALUE    DESCRIPTION
#----------   ------------   ------------------------------
 PD  .                 GL:   PERMANENT DATUM
 EPD .F              5198:   ELEVATION PERMANENT DATUM
 LMF .                 KB:   LOG MEASURED FROM
 DAPD.F                11:   FEET ABOVE PERMANENT DATUM
 DMF .                 KB:   DRILLING MEASURED FROM
 EKB .F              5209:   KELLING BUSHING
 EGL .F              5198:   GROUND LEVEL
 DATE.            5-19-88:   RUN DATE
 RUN .                  1:   RUN NUMBER
 DD  .F              2232:   DEPTH DRILLER
 DL  .F               750:   DEPTH LOGGER
 BLI .F               746:   BOTTOM LOG INTERVAL
 TLI .F               350:   TOP LOG INTERVAL
 CS  .IN                7:   CASING SIZE
 CBD .F               808:   CASING BOTTOM DRILLER
 DFT .              WATER:   DRILLING FLUID TYPE
 TCS .HRS            0830:   TIME CURCULATED STOPPED
 TLAB.HRS            0930:   TIME LOGGER AT BOTTOM
 ENGI.          SANGERTER:   RECORDING ENGINEER
 WITN.             NORMAN:   WITNESSED BY
 CLNT.            A2DTECH:   CLIENT CODE
 ORIG.           5" PRINT:   ORIGIN OF DATA
 UWI .       490251119400:   UNIQUE WELL ID
 DICO. A2D Technologies, Inc.:   DIGITIZING COMPANY
~OTHER INFORMATION
~A   DEPT      ROP          GR      TGAS   
# ...
  896.0000     0.5364  -999.2500     7.7006
  896.5000     0.5365  -999.2500     7.7014
  897.0000     0.5366  -999.2500     7.7023
  897.5000     0.5368  -999.2500     7.7031
  898.0000     0.5370  -999.2500     7.7039
  898.5000     0.5371  -999.2500     7.7048
  899.0000     0.5373  -999.2500     7.7056
  899.5000     0.5375  -999.2500     7.7065
  900.0000     0.5376  -999.2500     7.7073
  900.5000     0.5378  -999.2500     7.7081
  901.0000     0.5275  -999.2500     7.7090
  901.5000     0.5172  -999.2500     7.7098
  902.0000     0.5069  -999.2500     7.7107
  902.5000     0.4966  -999.2500     7.7115
  903.0000     0.4863  -999.2500     7.7124
  903.5000     0.4551  -999.2500     7.7132
  904.0000     0.4240  -999.2500     7.7140
  904.5000     0.4137  -999.2500     7.7149
  905.0000     0.4139  -999.2500     7.7157
  905.5000     0.4036  -999.2500     7.7166
  906.0000     0.4038  -999.2500     7.7174
  906.5000     0.3934  -999.2500     7.7183
  907.0000     0.3868  -999.2500     7.7191
  907.5000     0.3873  -999.2500     7.7199
  908.0000     0.3773  -999.2500     7.7208
  908.5000     0.3777  -999.2500     7.7216
  909.0000     0.3781  -999.2500     7.7225
  909.5000     0.3785  -999.2500     7.7233
  910.0000     0.3790  -999.2500     7.7242
  910.5000     0.3794  -999.2500     7.7250
  911.0000     0.3693  -999.2500     7.7258
  911.5000     0.3698  -999.2500     7.7267
  912.0000     0.3807  -999.2500     7.7275
  912.5000     0.3811  -999.2500     7.7284
  913.0000     0.3919  -999.2500     7.7292
  913.5000     0.4028  -999.2500     7.7300
  914.0000     0.4449  -999.2500     7.7309
  914.5000     0.5184  -999.2500     7.7317
  915.0000     0.5710  -999.2500     7.7326
  915.5000     0.6028  -999.2500     7.7334
  916.0000     0.6032  -999.2500     7.7343
  916.5000     0.5722  -999.2500     7.7351
  917.0000     0.5621  -999.2500     7.7359
  917.5000     0.5313  -999.2500     7.7368
  918.0000     0.5214  -999.2500     7.7376
  918.5000     0.5217  -999.2500     7.7385
  919.0000     0.5222  -999.2500     7.7393
  919.5000     0.5226  -999.2500     7.7402
  920.0000     0.5230  -999.2500     7.7410
  920.5000     0.5339  -999.2500     7.7418
  921.0000     0.5656  -999.2500     7.7427
  921.5000     0.5765  -999.2500     7.7435
  922.0000     0.5560  -999.2500     7.7444
  922.5000     0.5250  -999.2500     7.7452
  923.0000     0.4838  -999.2500     7.7460
  923.5000     0.4633  -999.2500     7.7469
  924.0000     0.4428  -999.2500     7.7477
  924.5000     0.4329  -999.2500     7.7486
  925.0000     0.4227  -999.2500     7.7494
  925.5000     0.4127  -999.2500     7.7503
  926.0000     0.4132  -999.2500     7.7511
  926.5000     0.4241  -999.2500     7.7519
  927.0000     0.4139  -999.2500     7.7528
  927.5000     0.4249  -999.2500     7.7536
  928.0000     0.4253  -999.2500     7.7545
  928.5000     0.4466  -999.2500     7.7553
  929.0000     0.4470  -999.2500     7.7562
  929.5000     0.4474  -999.2500     7.7570
  930.0000     0.4479  -999.2500     7.7578
  930.5000     0.4483  -999.2500     7.7587
  931.0000     0.4487  -999.2500     7.7595
  931.5000     0.4491  -999.2500     7.7604
  932.0000     0.4495  -999.2500     7.7612
  932.5000     0.4604  -999.2500     7.7621
  933.0000     0.4608  -999.2500     7.7629
  933.5000     0.4507  -999.2500     7.7637
  934.0000     0.4198  -999.2500     7.7646
  934.5000     0.3785  -999.2500     7.7654
  935.0000     0.3268  -999.2500     7.7663
  935.5000     0.3272  -999.2500     7.7671
  936.0000     0.3798  -999.2500     7.7679
  936.5000     0.4533  -999.2500     7.7688
  937.0000     0.5372  -999.2500     7.7696
  937.5000     0.6211  -999.2500     7.7705
  938.0000     0.7051  -999.2500     7.7713
  938.5000     0.6220  -999.2500     7.7722
  939.0000     0.5910  -999.2500     7.7730
  939.5000     0.5497  -999.2500     7.7738
  940.0000     0.5396  -999.2500     7.7747
  940.5000     0.5401  -999.2500     7.7755
  941.0000     0.5405  -999.2500     7.7764
  941.5000     0.5514  -999.2500     7.7772
  942.0000     0.5831  -999.2500     7.7781
  942.5000     0.6253  -999.2500     7.7789
  943.0000     0.6675  -999.2500     7.7797
  943.5000     0.7097  -999.2500     7.7806
  944.0000     0.7310  -999.2500     7.7814
  944.5000     0.7418  -999.2500     7.7823
  945.0000     0.7213  -999.2500     7.7831
  945.5000     0.7113  -999.2500     7.7839
  946.0000     0.7118  -999.2500     7.7848
  946.5000     0.7122  -999.2500     7.7856
  947.0000     0.7961  -999.2500     7.7865
  947.5000     0.8800  -999.2500     7.7873
  948.0000     0.9640  -999.2500     7.7882
  948.5000     0.9220  -999.2500     7.7890
  949.0000     0.8812  -999.2500     7.7898
  949.5000     0.8399  -999.2500     7.7907
  950.0000     0.8403  -999.2500     7.7915
  950.5000     0.8198  -999.2500     7.8569
  951.0000     0.8098  -999.2500     8.1869
  951.5000     0.8103  -999.2500     8.5168
  952.0000     0.8107  -999.2500     8.8467
  952.5000     0.8425  -999.2500     9.1766
  953.0000     0.8533  -999.2500     9.5066
  953.5000     0.8955  -999.2500     9.8365
  954.0000     0.9585  -999.2500    10.2313
  954.5000     0.9694  -999.2500    10.2306
  955.0000     0.9279  -999.2500    10.2296
  955.5000     0.8867  -999.2500    10.2287
  956.0000     0.8766  -999.2500    10.2278
  956.5000     0.8561  -999.2500    10.2268
  957.0000     0.8566  -999.2500    10.2259
  957.5000     0.8571  -999.2500    10.2249
  958.0000     0.8575  -999.2500    10.2240
  958.5000     0.8787  -999.2500    10.2230
  959.0000     0.8896  -999.2500    10.2221
  959.5000     0.8900  -999.2500    10.2211
  960.0000     0.8591  -999.2500    10.2202
  960.5000     0.8073  -999.2500    10.2193
  961.0000     0.7764  -999.2500    10.2183
  961.5000     0.7663  -999.2500    10.2174
  962.0000     0.7563  -999.2500    10.2164
  962.5000     0.7673  -999.2500    10.2155
  963.0000     0.8095  -999.2500    10.2145
  963.5000     0.8516  -999.2500    10.2136
  964.0000     0.8834  -999.2500    10.2126
  964.5000     0.8942  -999.2500    10.2117
  965.0000     0.8633  -999.2500    10.2107
  965.5000     0.8429  -999.2500    10.2098
  966.0000     0.8118  -999.2500    10.1561
  966.5000     0.7705  -999.2500     9.7577
  967.0000     0.7292  -999.2500     9.3594
  967.5000     0.6879  -999.2500     8.9610
  968.0000     0.6570  -999.2500     8.5626
  968.5000     0.6469  -999.2500     8.1643
  969.0000     0.6057  -999.2500     7.7879
  969.5000     0.5957  -999.2500     7.7990
  970.0000     0.5335  -999.2500     7.8096
  970.5000     0.4920  -999.2500     7.8202
  971.0000     0.4508  -999.2500     7.8307
  971.5000     0.4407  -999.2500     7.8413
  972.0000     0.4203  -999.2500     7.8519
  972.5000     0.4102  -999.2500     7.8625
  973.0000     0.4001  -999.2500     7.8731
  973.5000     0.4006  -999.2500     7.8836
  974.0000     0.3905  -999.2500     7.8942
  974.5000     0.3911  -999.2500     7.9048
  975.0000     0.4020  -999.2500     7.9154
  975.5000     0.4024  -999.2500     7.9259
  976.0000     0.4028  -999.2500     7.9365
  976.5000     0.3718  -999.2500     7.9471
  977.0000     0.3200  -999.2500     7.9577
  977.5000     0.2995  -999.2500     7.9682
  978.0000     0.3209  -999.2500     7.9788
  978.5000     0.3631  -999.2500     7.9894
  979.0000     0.3844  -999.2500     8.0000
  979.5000     0.4162  -999.2500     8.0105
  980.0000     0.4479  -999.2500     8.0211
  980.5000     0.4483  -999.2500     8.0317
  981.0000     0.4381  -999.2500     8.0423
  981.5000     0.4282  -999.2500     8.0529
  982.0000     0.4181  -999.2500     8.0634
  982.5000     0.4186  -999.2500     8.0740
  983.0000     0.4190  -999.2500     8.0846
  983.5000     0.4194  -999.2500     8.0952
  984.0000     0.4094  -999.2500     8.1057
  984.5000     0.4099  -999.2500     8.1163
  985.0000     0.3894  -999.2500     8.1269
  985.5000     0.3689  -999.2500     8.1375
  986.0000     0.3694  -999.2500     8.1480
  986.5000     0.3698  -999.2500     8.1586
