~VERSION INFORMATION
 VERS.                2.0:   CWLS LOG ASCII STANDARD - VERSION 2.0
 WRAP.                 NO:   ONE LINE PER DEPTH STEP
~WELL INFORMATION
#MNEM.UNIT      DATA TYPE    INFORMATION
#----------   ------------   ------------------------------
 STRT.F            0.0000:   START DEPTH
 STOP.F          437.0000:   STOP DEPTH
 STEP.F            0.5000:   STEP LENGTH
 NULL.          -999.2500:   NO VALUE
 COMP. BROWN JOHN E&C INC:   COMPANY
 WELL. NPR 3 SX-10 #64-1-10:   WELL
 FLD .             TEAPOT:   FIELD
 LOC .      S10 T38N R78W:   LOCATION
 CNTY.            NATRONA:   COUNTY
 STAT.            WYOMING:   STATE
 CTRY. UNITED STATES OF AMERICA:   COUNTRY
 SRVC.     Atlas Wireline:   SERVICE COMPANY
 DATE.        29-APR-1991:   LOGDATE
 API .       490251133600:   API NUMBER
~CURVE INFORMATION
#MNEM.UNIT       API CODE    CURVE DESCRIPTION
#----------   ------------   ------------------------------
 DEPT.F                  :   
 GRR .GAPI   07 310 01 00:   GAMMA RAY
 RILD.OHMM   07 120 46 00:   INDUCTION LOG DEEP RESISTIVITY
 RILM.OHMM   07 120 44 00:   INDUCTION LOG MEDIUM RESISTIVITY
~PARAMETER INFORMATION
#MNEM.UNIT          VALUE    DESCRIPTION
#----------   ------------   ------------------------------
 EPD .F              5185:   ELEVATION PERMANENT DATUM
 LMF .                 KB:   LOG MEASURED FROM
 DAPD.F                 5:   FEET ABOVE PERMANENT DATUM
 DMF .                 KB:   DRILLING MEASURED FROM
 EKB .F              5190:   KELLING BUSHING
 EGL .F              5185:   GROUND LEVEL
 DATE.        29-APR-1991:   RUN DATE
 RUN .                  1:   RUN NUMBER
 DD  .F               440:   DEPTH DRILLER
 DL  .F               439:   DEPTH LOGGER
 BLI .F               437:   BOTTOM LOG INTERVAL
 CS  .IN            8.625:   CASING SIZE
 CBD .F                44:   CASING BOTTOM DRILLER
 CBL .F                44:   CASING BOTTOM LOGGER
 BS  .IN            7.875:   BIT SIZE
 BSD .F               440:   BIT SIZE AT DEPTH
 DFT .                AIR:   DRILLING FLUID TYPE
 LUN .           HL- 6272:   LOGGING UNIT NUMBER
 LUL .             CASPER:   LOGGING UNIT LOCATION
 ENGI.            KINNETT:   RECORDING ENGINEER
 WITN.             STRONG:   WITNESSED BY
 CLNT.            A2DTECH:   CLIENT CODE
 ORIG.           5" PRINT:   ORIGIN OF DATA
 UWI .       490251133600:   UNIQUE WELL ID
 DICO. A2D Technologies, Inc.:   DIGITIZING COMPANY
~OTHER INFORMATION
~A    DEPT      GRR      RILD       RILM   
# ...
   91.0000   123.0002     8.0022     8.0076
   91.5000   128.5200     7.8867     7.9486
   92.0000   131.7428     7.7740     7.8901
   92.5000   128.9468     7.7731     7.9454
   93.0000   126.7027     7.7164     8.0001
   93.5000   128.8582     7.7155     8.0557
   94.0000   130.3916     7.7704     8.0538
   94.5000   128.1030     7.8254     8.0519
   95.0000   127.1893     7.9373     8.0500
   95.5000   125.8195     7.9938     8.1060
   96.0000   123.0698     8.0504     8.1623
   96.5000   121.2389     8.0492     8.2190
   97.0000   120.0954     8.0482     8.2166
   97.5000   121.2524     8.1052     8.2147
   98.0000   124.9346     8.1626     8.2128
   98.5000   130.2247     8.2204     8.2703
   99.0000   134.8256     8.2194     8.3274
   99.5000   135.7513     8.2774     8.3851
  100.0000   133.6907     8.3316     8.4892
  100.5000   128.8531     8.4554     8.6866
  101.0000   125.8395     8.5151     8.7476
  101.5000   122.8528     8.5826     8.8714
  102.0000   121.4885     8.6357     8.8694
  102.5000   121.0567     8.6966     8.8676
  103.0000   121.7871     8.6951     8.8657
  103.5000   125.6508     8.6317     8.7379
  104.0000   131.8530     8.5076     8.6028
  104.5000   130.0153     8.4455     8.4267
  105.0000   126.1103     8.3241     8.3649
  105.5000   125.1914     8.3229     8.6059
  106.0000   129.7856     8.3819     8.7286
  106.5000   127.4885     8.4410     8.8526
  107.0000   121.9755     8.5006     8.9143
  107.5000   118.7596     8.4991     8.9119
  108.0000   120.5972     8.5594     8.9100
  108.5000   122.8943     8.6198     8.9081
  109.0000   124.2726     8.6182     8.8428
  109.5000   125.4211     8.6170     8.7152
  110.0000   127.4885     8.5542     8.6513
  110.5000   127.7182     8.4919     8.5265
  111.0000   125.6508     8.4300     8.4036
  111.5000   125.1914     8.3087     8.3419
  112.0000   127.0291     8.3075     8.3337
  112.5000   129.3262     8.3063     8.2690
  113.0000   128.6371     8.3052     8.2177
  113.5000   127.0291     8.3040     8.2159
  114.0000   123.3538     8.2435     8.2736
  114.5000   120.1378     8.1834     8.2715
  115.0000   119.1731     8.0654     8.2107
  115.5000   120.5972     7.8926     8.0923
  116.0000   121.2864     7.7234     7.8623
  116.5000   121.7458     7.5039     7.6388
  117.0000   122.9128     7.1868     7.3162
  117.5000   127.0750     6.9326     7.0576
  118.0000   132.6705     6.7356     6.8569
  118.5000   135.2986     6.5912     6.7099
  119.0000   130.7086     6.5432     6.6606
  119.5000   123.5007     6.5423     6.6592
  120.0000   113.7060     6.5413     6.8544
  120.5000   117.1516     6.5404     7.0550
  121.0000   122.4349     6.6340     7.2001
  121.5000   122.8943     6.7773     7.3023
  122.0000   122.4349     6.9736     7.4588
  122.5000   123.8132     7.2272     7.6191
  123.0000   124.7320     7.3834     7.7273
  123.5000   125.6508     7.5972     7.8374
  124.0000   126.5697     7.7614     7.8920
  124.5000   129.7856     7.8161     7.9470
  125.0000   130.9341     7.8713     7.9449
  125.5000   129.5559     7.8702     7.8866
  126.0000   124.2726     7.8128     7.8287
  126.5000   120.3675     7.7559     7.7158
  127.0000   122.8943     7.6905     7.6046
  127.5000   126.1103     7.4802     7.4415
  128.0000   128.4073     7.2676     7.2299
  128.5000   128.6371     7.0611     7.0200
  129.0000   127.9479     6.7143     6.7619
  129.5000   127.4885     6.3846     6.3973
  130.0000   129.7856     6.0277     6.0401
  130.5000   131.1639     5.6096     5.6218
  131.0000   128.8668     5.0729     5.2324
  131.5000   125.6508     4.8238     4.9402
  132.0000   125.1914     4.7546     4.8690
  132.5000   125.6508     4.8921     5.0093
  133.0000   122.6646     4.9978     5.2655
  133.5000   120.3608     5.1058     5.6146
  134.0000   123.4094     5.2915     5.9018
  134.5000   130.8010     5.5234     6.2037
  135.0000   136.3093     5.9761     6.4745
  135.5000   137.5957     6.4196     6.8545
  136.0000   132.7805     6.8467     7.1538
  136.5000   128.7794     7.1468     7.4152
  137.0000   128.4073     7.3538     7.5721
  137.5000   130.4747     7.4590     7.6796
  138.0000   130.7044     7.5678     7.7887
  138.5000   130.0153     7.7292     7.8988
  139.0000   134.3798     7.7837     7.9539
  139.5000   136.4472     7.8476     8.0098
  140.0000   134.8392     7.9505     8.0656
  140.5000   132.0827     8.0066     8.1218
  141.0000   133.0015     8.0634     8.1784
  141.5000   133.2312     8.1203     8.2354
  142.0000   132.5421     8.1188     8.2928
  142.5000   128.6371     8.1764     8.3506
  143.0000   126.5697     8.1750     8.4083
  143.5000   127.9479     8.2329     8.4670
  144.0000   131.3936     8.3507     8.5259
  144.5000   134.3798     8.4093     8.7095
  145.0000   135.7580     8.4081     8.9601
  145.5000   136.4472     8.4069     9.0874
  146.0000   135.2986     8.4663     9.0206
  146.5000   130.7044     8.4651     8.8901
  147.0000   130.1624     8.4034     8.7619
  147.5000   133.0015     8.3421     8.6356
  148.0000   135.2986     8.3409     8.5111
  148.5000   135.0689     8.2210     8.4486
  149.0000   130.4747     8.2198     8.3268
  149.5000   126.7823     8.1599     8.2656
  150.0000   129.3296     8.1007     8.2318
  150.5000   132.5660     8.1011     8.2623
  151.0000   133.2705     8.0437     8.1961
  151.5000   129.6207     7.9296     8.0752
  152.0000   129.4064     7.7613     7.9099
  152.5000   132.4182     7.5423     7.6847
  153.0000   135.1951     7.3824     7.5199
  153.5000   137.9721     7.2257     7.3061
  154.0000   139.6005     6.9218     6.8981
  154.5000   139.8456     6.5833     6.3746
  155.0000   138.4878     6.0843     5.9331
  155.5000   137.3649     5.5829     5.3280
  156.0000   137.1546     4.9779     4.7506
  156.5000   135.1087     4.2515     4.2357
  157.0000   131.6835     3.6538     3.7230
  157.5000   129.8663     3.3498     3.3195
  158.0000   126.6709     3.0955     3.0024
  158.5000   123.0160     2.9039     2.8347
  159.0000   122.7948     2.7656     2.8139
  159.5000   121.1122     2.6875     2.8133
  160.0000   112.9863     2.6494     2.8329
  160.5000   109.7748     2.6306     2.8527
  161.0000   115.7728     2.7269     2.8937
  161.5000   124.0628     3.0588     3.0027
  162.0000   136.0281     3.4065     3.5300
  162.5000   138.3457     3.8211     4.2759
  163.0000   136.0691     4.2555     4.8738
  163.5000   133.3330     4.5722     5.3097
  164.0000   134.2723     5.3542     5.6617
  164.5000   139.5761     5.8779     5.9089
  165.0000   140.0509     6.1369     6.1228
  165.5000   139.8416     6.3160     6.3445
  166.0000   144.0020     6.3619     6.3891
  166.5000   147.6978     6.2717     6.4336
  167.0000   144.0429     6.0065     6.2953
  167.5000   140.8423     5.7450     6.0294
  168.0000   142.4759     5.4244     5.7336
  168.5000   145.9420     5.1621     5.2984
  169.0000   145.0428     4.9516     5.0025
  169.5000   144.1447     4.8465     4.8603
  170.0000   146.0034     4.8121     4.8247
  170.5000   145.7942     4.7781     4.7892
  171.0000   140.0482     4.8129     4.7882
  171.5000   133.0788     4.9179     4.9621
  172.0000   126.7897     5.1346     5.2568
  172.5000   129.7204     5.3994     5.6092
  173.0000   135.1507     5.7187     5.9851
  173.5000   141.0982     6.0136     6.4138
  174.0000   146.1723     6.3237     6.7903
  174.5000   147.1116     6.6498     7.1376
  175.0000   142.3082     6.9427     7.3961
  175.5000   139.8018     7.2486     7.6639
  176.0000   137.5252     7.5138     7.8848
  176.5000   134.3298     7.7331     7.9402
  177.0000   132.5074     7.8472     7.9955
  177.5000   136.2084     7.9024     7.9364
  178.0000   141.7418     7.8465     7.8781
  178.5000   143.6000     7.7807     7.8203
  179.0000   143.1610     7.6257     7.7075
  179.5000   140.4250     7.5175     7.5963
  180.0000   139.5215     7.3581     7.4334
  180.5000   141.3848     7.1505     7.2221
  181.0000   142.3241     6.8991     6.9668
  181.5000   144.1822     6.7044     6.6726
