~VERSION INFORMATION
 VERS.                2.0:   CWLS LOG ASCII STANDARD - VERSION 2.0
 WRAP.                 NO:   ONE LINE PER DEPTH STEP
~WELL INFORMATION
#MNEM.UNIT      DATA TYPE    INFORMATION
#----------   ------------   ------------------------------
 STRT.F           57.5000:   START DEPTH
 STOP.F         4049.0000:   STOP DEPTH
 STEP.F            0.5000:   STEP LENGTH
 NULL.          -999.2500:   NO VALUE
 COMP. LAWRENCE/ALLISON INC:   COMPANY
 WELL.     NPR #3` #13-11:   WELL
 FLD .             NPR #3:   FIELD
 LOC .      S11 T38N R78W:   LOCATION
 CNTY.            NATRONA:   COUNTY
 STAT.            WYOMING:   STATE
 CTRY. UNITED STATES OF AMERICA:   COUNTRY
 SRVC.      Dresser Atlas:   SERVICE COMPANY
 DATE.        13-MAR-1986:   LOGDATE
 API .       490251106500:   API NUMBER
~CURVE INFORMATION
#MNEM.UNIT       API CODE    CURVE DESCRIPTION
#----------   ------------   ------------------------------
 DEPT.F                  :   
 CALR.IN     07 280 01 00:   CALIPER FROM RESISTIVITY
 GRR .GAPI   07 310 01 00:   GAMMA RAY FROM RESISTIVITY
 RILD.OHMM   07 120 46 00:   RESISTIVITY INDUCTION LOG DEEP
 RILM.OHMM   07 120 44 00:   RESISTIVITY INDUCTION LOG MEDIUM
 RFOC.OHMM   07 220 04 00:   RESISTIVITY FOCUSED LOG
 SPR .MV     07 010 01 00:   SPONTANEOUS POTENTIAL FROM RES.
 PORD.DEC    45 890 12 00:   POROSITY DENSITY SANDSTONE
 CNC .DEC    42 890 03 00:   COMPENSATED NEUTRON POROSITY SANDSTONE
 CORR.G/C3   45 356 01 00:   DENSITY CORRECTION
 DEN .G/C3   45 350 01 00:   COMPENSATED BULK DENSTIY
 DT  .US/F   60 520 00 00:   INTERVAL TRANSIT TIME
~PARAMETER INFORMATION
#MNEM.UNIT          VALUE    DESCRIPTION
#----------   ------------   ------------------------------
 PD  .                 GL:   PERMANENT DATUM
 EPD .F              5176:   ELEVATION PERMANENT DATUM
 LMF .                 KB:   LOG MEASURED FROM
 DAPD.F              11.8:   FEET ABOVE PERMANENT DATUM
 DMF .                 KB:   DRILLING MEASURED FROM
 EKB .F            5187.8:   KELLING BUSHING
 EGL .F              5176:   GROUND LEVEL
 DATE.        13-MAR-1986:   RUN DATE
 RUN .                  1:   RUN NUMBER
 DD  .F              4051:   DEPTH DRILLER
 DL  .F              4051:   DEPTH LOGGER
 BLI .F              4049:   BOTTOM LOG INTERVAL
 TLI .F               564:   TOP LOG INTERVAL
 CS  .IN            8.625:   CASING SIZE
 CBD .F               564:   CASING BOTTOM DRILLER
 CBL .F               564:   CASING BOTTOM LOGGER
 BS  .IN            7.875:   BIT SIZE
 BSD .F              4051:   BIT SIZE AT DEPTH
 DFT .          POLY- KCL:   DRILLING FLUID TYPE
 DFD .                8.9:   DRILLING FLUID DENSITY
 DFV .                 36:   DRILLING FLUID VISCOSITY
 DFPH.                8.5:   DRILLING FLUID PH
 DFL .               13.5:   DRILLING FLUID LOSS
 MSS .           FLOWLINE:   MUD SAMPLE SOURCE
 RMS .OHMM           .275:   RESISTIVITY MUD SAMPLE
 MST .F                55:   MUD SAMPLE TEMPERATURE
 RMF .OHMM           .206:   RESISTIVITY MUD FILTRATE SAMPLE
 MFST.F                55:   MUD FILTRATE SAMPLE TEMPERATURE
 RMC .OHMM           .344:   RESISTIVITY MUD CAKE
 MCST.F                55:   MUD CAKE SAMPLE TEMPERATURE
 MFSS.               CALC:   MUD FILTRATE SAMPLE SOURCE
 MCSS.               CALC:   MUD CAKE SAMPLE SOURCE
 RMB .OHMM           .092:   RESISTIVITY MUD AT BHT
 BHT .F               164:   BOTTOM HOLE TEMPERATURE
 TCS .HRS            0400:   TIME CURCULATED STOPPED
 MRT .F               164:   MAXIMUM RECORDED TEMPERATURE
 LUN .               6274:   LOGGING UNIT NUMBER
 LUL .           GILLETTE:   LOGGING UNIT LOCATION
 ENGI.             MILLER:   RECORDING ENGINEER
 WITN.             STRONG:   WITNESSED BY
 CLNT.            A2DTECH:   CLIENT CODE
 ORIG.         2.5" PRINT:   ORIGIN OF DATA
 UWI .       490251106500:   UNIQUE WELL ID
 DICO. A2D Technologies, Inc.:   DIGITIZING COMPANY
~OTHER INFORMATION
~A   DEPT     CALR         GRR      RILD       RILM       RFOC        SPR       PORD        CNC       CORR        DEN         DT   
# ...
  576.0000    10.3466    83.0019     5.1666     5.0087     4.8649   -15.2439  -999.2500  -999.2500  -999.2500  -999.2500  -999.2500
  576.5000    10.3971    82.4601     5.3116     5.1903     4.7489   -16.1585  -999.2500  -999.2500  -999.2500  -999.2500  -999.2500
  577.0000    10.3965    83.2882     5.5740     5.5892     5.0273   -16.4634  -999.2500  -999.2500  -999.2500  -999.2500  -999.2500
  577.5000    10.3960    86.8609     5.8922     6.0416     5.3260   -16.7683  -999.2500  -999.2500  -999.2500  -999.2500  -999.2500
  578.0000    10.3819    89.2843     6.2285     6.2950     5.7050   -17.0732  -999.2500  -999.2500  -999.2500  -999.2500  -999.2500
  578.5000    10.3500    93.0532     6.5840     6.5884     6.1110   -17.0732  -999.2500  -999.2500  -999.2500  -999.2500  -999.2500
  579.0000    10.3028    96.4793     6.9598     7.1261     6.6344   -17.0732  -999.2500  -999.2500  -999.2500  -999.2500  -999.2500
  579.5000    10.3022    94.5726     7.3061     7.5750     7.0119   -17.0732  -999.2500  -999.2500  -999.2500  -999.2500  -999.2500
  580.0000    10.3017    93.9883     7.4589     7.7076     7.5109   -17.0732  -999.2500  -999.2500  -999.2500  -999.2500  -999.2500
  580.5000    10.3012    94.5833     7.5619     7.9215     7.8305   -17.3780  -999.2500  -999.2500  -999.2500  -999.2500  -999.2500
  581.0000    10.3006    94.5644     7.6664     8.0288     8.1638   -18.2927  -999.2500  -999.2500  -999.2500  -999.2500  -999.2500
  581.5000    10.3001    94.5235     7.7723     8.2516     8.1638   -18.5976  -999.2500  -999.2500  -999.2500  -999.2500  -999.2500
  582.0000    10.3302    92.6216     7.8796     8.3394     8.1638   -18.9024  -999.2500  -999.2500  -999.2500  -999.2500  -999.2500
  582.5000    10.3603    88.9466     7.8782     8.3368     8.1638   -19.5122  -999.2500  -999.2500  -999.2500  -999.2500  -999.2500
  583.0000    10.3903    83.4285     7.9871     8.3141     8.0511   -20.1220  -999.2500  -999.2500  -999.2500  -999.2500  -999.2500
  583.5000    10.3898    78.5214     7.9857     8.1985     7.9401   -21.0366  -999.2500  -999.2500  -999.2500  -999.2500  -999.2500
  584.0000    10.4200    80.9569     7.8741     8.0845     7.8305   -21.9512  -999.2500  -999.2500  -999.2500  -999.2500  -999.2500
  584.5000    10.4194    87.6869     7.8144     7.9720     7.8305   -22.2561  -999.2500  -999.2500  -999.2500  -999.2500  -999.2500
  585.0000    10.4801    88.8957     7.7048     7.8739     7.7225   -22.8659  -999.2500  -999.2500  -999.2500  -999.2500  -999.2500
  585.5000    10.5102    87.0364     7.5488     7.8829     7.6159   -23.1741  -999.2500  -999.2500  -999.2500  -999.2500  -999.2500
  586.0000    10.5097    85.1774     7.4434     7.9800     7.5109   -23.4756  -999.2500  -999.2500  -999.2500  -999.2500  -999.2500
  586.5000    10.5398    82.7049     7.3852     7.9777     7.4073   -23.4756  -999.2500  -999.2500  -999.2500  -999.2500  -999.2500
  587.0000    10.5392    80.2325     7.3381     8.0874     7.3051   -23.7805  -999.2500  -999.2500  -999.2500  -999.2500  -999.2500
  587.5000    10.5387    80.8275     7.3368     8.2034     7.3051   -24.1023  -999.2500  -999.2500  -999.2500  -999.2500  -999.2500
  588.0000    10.5382    86.3304     7.3356     8.4279     7.4073   -24.4106  -999.2500  -999.2500  -999.2500  -999.2500  -999.2500
  588.5000    10.5377    85.0849     7.2331     8.4256     7.4073   -24.7189  -999.2500  -999.2500  -999.2500  -999.2500  -999.2500
  589.0000    10.5406    85.0664     7.1321     8.4232     7.4073   -25.6368  -999.2500  -999.2500  -999.2500  -999.2500  -999.2500
  589.5000    10.6285    85.0479     7.0325     8.4208     7.4073   -26.5853  -999.2500  -999.2500  -999.2500  -999.2500  -999.2500
  590.0000    10.6313    85.0294     6.9747     8.4185     7.2043   -28.0827  -999.2500  -999.2500  -999.2500  -999.2500  -999.2500
  590.5000    10.6928    84.3975     6.8769     8.4161     7.0069   -28.4282  -999.2500  -999.2500  -999.2500  -999.2500  -999.2500
  591.0000    10.7237    82.5385     6.8362     8.0693     6.9102   -29.2683  -999.2500  -999.2500  -999.2500  -999.2500  -999.2500
  591.5000    10.7488    83.1335     6.8350     7.9554     6.6281   -29.3123  -999.2500  -999.2500  -999.2500  -999.2500  -999.2500
  592.0000    10.7482    84.9555     6.8336     7.6276     6.4826   -29.5732  -999.2500  -999.2500  -999.2500  -999.2500  -999.2500
  592.5000    10.7554    87.3909     6.6452     7.3132     6.2560   -29.6240  -999.2500  -999.2500  -999.2500  -999.2500  -999.2500
  593.0000    10.8253    87.3724     6.2849     7.1102     5.9206   -29.9864  -999.2500  -999.2500  -999.2500  -999.2500  -999.2500
  593.5000    10.8784    84.9000     5.9442     6.6299     5.5678   -30.8502  -999.2500  -999.2500  -999.2500  -999.2500  -999.2500
  594.0000    10.9399    83.0410     5.7006     6.0121     5.3418   -31.7683  -999.2500  -999.2500  -999.2500  -999.2500  -999.2500
  594.5000    10.9904    81.7955     5.3171     5.5283     5.1966   -32.0766  -999.2500  -999.2500  -999.2500  -999.2500  -999.2500
  595.0000    11.0323    81.7770     4.7570     4.5473     5.0554   -32.6897  -999.2500  -999.2500  -999.2500  -999.2500  -999.2500
  595.5000    11.0938    82.9855     3.7557     3.9000     4.9868   -32.9268  -999.2500  -999.2500  -999.2500  -999.2500  -999.2500
  596.0000    11.1689    89.1020     2.8442     2.9098     4.7538   -32.9268  -999.2500  -999.2500  -999.2500  -999.2500  -999.2500
  596.5000    11.2329    99.5129     2.3411     2.2954     4.2965   -32.9268  -999.2500  -999.2500  -999.2500  -999.2500  -999.2500
  597.0000    11.2936   100.7239     2.1836     1.9414     3.7008   -32.5407  -999.2500  -999.2500  -999.2500  -999.2500  -999.2500
  597.5000    11.3704    96.4084     2.0367     1.7605     2.8801   -32.2324  -999.2500  -999.2500  -999.2500  -999.2500  -999.2500
  598.0000    11.4625    89.0280     2.0083     1.7534     2.3724   -32.0122  -999.2500  -999.2500  -999.2500  -999.2500  -999.2500
  598.5000    11.4883    84.1015     2.0360     1.9398     2.0596   -31.6158  -999.2500  -999.2500  -999.2500  -999.2500  -999.2500
  599.0000    11.3832    79.7885     2.0930     2.3244     1.9520   -30.6978  -999.2500  -999.2500  -999.2500  -999.2500  -999.2500
  599.5000    11.2298    77.9295     2.2746     2.7852     2.4009   -29.7798  -999.2500  -999.2500  -999.2500  -999.2500  -999.2500
  600.0000    11.0896    78.5245     2.7919     3.2912     3.1139   -29.5732  -999.2500  -999.2500  -999.2500  -999.2500  -999.2500
  600.5000    10.9428    80.9564     3.5441     4.1120     4.7479   -30.7980  -999.2500  -999.2500  -999.2500  -999.2500  -999.2500
  601.0000    10.8917    85.2293     4.2963     4.7917     5.3791   -31.1075  -999.2500  -999.2500  -999.2500  -999.2500  -999.2500
  601.5000    10.8606    87.0482     5.3769     5.2812     5.6069   -30.8072  -999.2500  -999.2500  -999.2500  -999.2500  -999.2500
  602.0000    10.8599    83.9591     6.3505     5.8206     5.6057   -30.5070  -999.2500  -999.2500  -999.2500  -999.2500  -999.2500
  602.5000    10.8900    80.8700     6.8054     6.0334     5.6045   -29.9018  -999.2500  -999.2500  -999.2500  -999.2500  -999.2500
  603.0000    10.8893    79.2597     6.8035     6.1151     5.7612   -29.6006  -999.2500  -999.2500  -999.2500  -999.2500  -999.2500
  603.5000    10.8950    80.4266     6.8016     6.2357     6.1743   -29.4233  -999.2500  -999.2500  -999.2500  -999.2500  -999.2500
  604.0000    10.9187    87.9186     6.7997     6.3215     6.2594   -29.3049  -999.2500  -999.2500  -999.2500  -999.2500  -999.2500
  604.5000    10.9232    89.6463     6.7978     6.3197     6.1717   -29.1336  -999.2500  -999.2500  -999.2500  -999.2500  -999.2500
  605.0000    10.9481    87.7915     6.7959     6.3179     6.0853   -29.1819  -999.2500  -999.2500  -999.2500  -999.2500  -999.2500
  605.5000    10.9168    87.5409     6.8890     6.3162     6.1692   -29.3186  -999.2500  -999.2500  -999.2500  -999.2500  -999.2500
  606.0000    10.9468    93.7378     6.8871     6.3144     6.3416   -29.4899  -999.2500  -999.2500  -999.2500  -999.2500  -999.2500
