~VERSION INFORMATION
 VERS.                2.0:   CWLS LOG ASCII STANDARD - VERSION 2.0
 WRAP.                 NO:   ONE LINE PER DEPTH STEP
~WELL INFORMATION
#MNEM.UNIT      DATA TYPE    INFORMATION
#----------   ------------   ------------------------------
 STRT.F           34.0000:   START DEPTH
 STOP.F          514.0000:   STOP DEPTH
 STEP.F            0.5000:   STEP LENGTH
 NULL.          -999.2500:   NO VALUE
 COMP. FENIX & SCISSON INC:   COMPANY
 WELL. NPR 3 #41 SX 10-10:   WELL
 FLD .             TEAPOT:   FIELD
 LOC .      S10 T38N R78W:   LOCATION
 CNTY.            NATRONA:   COUNTY
 STAT.            WYOMING:   STATE
 CTRY. UNITED STATES OF AMERICA:   COUNTRY
 SRVC.           BIRDWELL:   SERVICE COMPANY
 DATE.        25-JUN-1978:   LOGDATE
 API .       490251065200:   API NUMBER
~CURVE INFORMATION
#MNEM.UNIT       API CODE    CURVE DESCRIPTION
#----------   ------------   ------------------------------
 DEPT.F                  :   
 SPR .MV     07 010 01 00:   SPONTANEOUS POTENTIAL
 ILD .OHMM   07 120 46 00:   INDUCTION LOG DEEP
 SN  .OHMM   07 040 16 00:   SHORT NORMAL 16"
 CALD.IN     45 280 60 00:   CALIPER FROM DENSITY LOG
 GRD .GAPI   45 310 01 00:   GAMMA RAY FROM DENSITY LOG
 CORR.G/C3   45 356 01 00:   DENSITY CORRECTION
 DPHI.DEC    45 890 12 00:   DENSITY POROSITY SANDSTONE
 DEN .G/C3   45 350 01 00:   COMPENSATED BULK DENSTIY
 GRN .GAPI   35 310 01 00:   GAMMA RAY
 NEUT.NAPI   35 330 01 00:   NEUTRON
~PARAMETER INFORMATION
#MNEM.UNIT          VALUE    DESCRIPTION
#----------   ------------   ------------------------------
 PD  .                 GL:   PERMANENT DATUM
 EPD .F              5235:   ELEVATION PERMANENT DATUM
 LMF .                 KB:   LOG MEASURED FROM
 DAPD.F                 4:   FEET ABOVE PERMANENT DATUM
 DMF .                 KB:   DRILLING MEASURED FROM
 EKB .F              5239:   KELLING BUSHING
 EGL .F              5235:   GROUND LEVEL
 DATE.        25-JUN-1978:   RUN DATE
 RUN .                  1:   RUN NUMBER
 DD  .F               510:   DEPTH DRILLER
 DL  .F               514:   DEPTH LOGGER
 BLI .F               514:   BOTTOM LOG INTERVAL
 TLI .F                30:   TOP LOG INTERVAL
 CS  .IN            8.625:   CASING SIZE
 CBD .F                40:   CASING BOTTOM DRILLER
 CBL .F                40:   CASING BOTTOM LOGGER
 BS  .IN            7.875:   BIT SIZE
 BSD .F               510:   BIT SIZE AT DEPTH
 DFT .                KCL:   DRILLING FLUID TYPE
 DFD .                8.6:   DRILLING FLUID DENSITY
 DFV .                 31:   DRILLING FLUID VISCOSITY
 DFPH.                9.5:   DRILLING FLUID PH
 DFL .                 17:   DRILLING FLUID LOSS
 MSS .           FLOWLINE:   MUD SAMPLE SOURCE
 RMS .OHMM             .5:   RESISTIVITY MUD SAMPLE
 MST .F                74:   MUD SAMPLE TEMPERATURE
 RMF .OHMM            .54:   RESISTIVITY MUD FILTRATE SAMPLE
 MFST.F                72:   MUD FILTRATE SAMPLE TEMPERATURE
 RMC .OHMM            1.0:   RESISTIVITY MUD CAKE
 MCST.F                66:   MUD CAKE SAMPLE TEMPERATURE
 MFSS.               MEAS:   MUD FILTRATE SAMPLE SOURCE
 MCSS.               MEAS:   MUD CAKE SAMPLE SOURCE
 BHT .F                74:   BOTTOM HOLE TEMPERATURE
 TCS .HRS            0100:   TIME CURCULATED STOPPED
 MRT .F                74:   MAXIMUM RECORDED TEMPERATURE
 LUN .               2958:   LOGGING UNIT NUMBER
 LUL .               CASP:   LOGGING UNIT LOCATION
 ENGI.           REYNOLDS:   RECORDING ENGINEER
 CLNT.            A2DTECH:   CLIENT CODE
 ORIG.           5" PRINT:   ORIGIN OF DATA
 UWI .       490251065200:   UNIQUE WELL ID
 DICO. A2D Technologies, Inc.:   DIGITIZING COMPANY
~OTHER INFORMATION
~A   DEPT      SPR        ILD         SN       CALD        GRD       CORR       DPHI        DEN        GRN       NEUT   
# ...
  268.5000   -63.7246     6.7320     7.6055     8.6746   108.4766     0.0265     0.1358     2.4606    49.8015  1410.0449
  269.0000   -63.7075     7.0638     7.8701     8.6743   107.8733     0.0295     0.1264     2.4681    51.5966  1405.9969
  269.5000   -63.6925     7.1598     8.0877     8.6589   106.5158     0.0294     0.1231     2.4801    53.8402  1416.7916
  270.0000   -63.6997     7.2072     8.2533     8.6586   106.0633     0.0264     0.1200     2.4884    54.9627  1426.3270
  270.5000   -63.7055     7.2529     8.3081     8.6583   107.4208     0.0234     0.1171     2.4936    55.4874  1427.5862
  271.0000   -63.7113     7.2455     8.3624     8.6580   109.9849     0.0204     0.1216     2.4951    55.4888  1449.1754
  271.5000   -63.7176     7.2382     8.4171     8.6577   111.3775     0.0159     0.1222     2.4943    54.8663  1435.6821
  272.0000   -63.7233     7.2309     8.4129     8.6876   112.0965     0.0174     0.1270     2.4884    53.6980  1420.8396
  272.5000   -63.7293     7.2235     8.4095     8.6118   111.6440     0.0173     0.1338     2.4786    55.1194  1422.1890
  273.0000   -63.7353     7.2162     8.4060     8.5359   109.6833     0.0173     0.1300     2.4726    54.2240  1426.2369
  273.5000   -63.7414     7.2088     8.4019     8.5054   109.0799     0.0158     0.1279     2.4823    56.3185  1426.2369
  274.0000   -63.7480     7.2015     8.3985     8.5051   109.3816     0.0128     0.1276     2.4838    56.6936  1423.5382
  274.5000   -63.7538     7.1941     8.3952     8.5048   110.2891     0.0130     0.1264     2.4854    56.9206  1415.4423
  275.0000   -63.7596     7.1868     8.3339     8.5045   110.9150     0.0158     0.1243     2.4869    57.6808  1400.5997
  275.5000   -63.7654     7.1796     8.3303     8.5194   111.0407     0.0188     0.1237     2.4869    60.1359  1392.5038
  276.0000   -63.7722     7.1767     8.3273     8.5190   110.4374     0.0187     0.1312     2.4869    59.0914  1408.6957
  276.5000   -63.7774     7.1743     8.2662     8.5183   109.8341     0.0172     0.1260     2.4831    57.8223  1419.4902
  277.0000   -63.7835     7.1717     8.2624     8.5033   111.0407     0.0018     0.1083     2.4763    59.9164  1416.7916
  277.5000   -63.7895     7.1625     8.2591     8.4879   112.2474    -0.0128     0.1032     2.5004    61.5621  1401.9490
  278.0000   -63.7955     7.1311     8.1988     8.4876   112.3982    -0.0008     0.1349     2.5095    61.9372  1388.3116
  278.5000   -63.8015     7.0998     8.1955     8.4873   110.1357     0.0051     0.1457     2.4838    56.6326  1399.4396
  279.0000   -63.8084     7.0684     8.1922     8.4870   107.5716     0.0051     0.1421     2.4515    54.6161  1414.0929
  279.5000   -63.8142     7.0371     8.1889     8.5018   107.1192     0.0051     0.1425     2.4560    54.5424  1432.9835
  280.0000   -63.8195     7.0057     8.1856     8.5317   106.9683     0.0128     0.1509     2.4583    56.0390  1424.8876
  280.5000   -63.8256     6.9744     8.1816     8.5466   109.2308     0.0186     0.1521     2.4433    56.4141  1411.3943
  281.0000   -63.8316     6.9085     8.1219     8.5462   111.9457     0.0186     0.1488     2.4433    57.0135  1411.3943
  281.5000   -63.8376     6.6648     8.0626     8.5157   113.6576     0.0216     0.1497     2.4463    57.2391  1409.8691
  282.0000   -63.8436     6.5321     8.0038     8.5003   116.1689     0.0246     0.1457     2.4493    57.6146  1393.8530
  282.5000   -63.8496     6.5299     7.8907     8.5000   116.6214     0.0261     0.1506     2.4523    57.6904  1381.7091
  283.0000   -63.8556     6.5278     7.7254     8.5450   115.8673     0.0215     0.1475     2.4470    56.4213  1357.4213
  283.5000   -63.8617     6.5256     7.5612     8.5900   118.4314     0.0110     0.1424     2.4493    56.7965  1322.3389
  284.0000   -63.8677     6.5688     7.2024     8.6199   118.2805     0.0005     0.1433     2.4545    55.8267  1280.2950
  284.5000   -63.8746     6.2277     7.0030     8.7254   116.0030     0.0155     0.1527     2.4533    57.6268  1199.5502
  285.0000   -63.8797     5.8743     7.0002     8.6616   109.2308     0.0170     0.1652     2.4388    59.0060  1230.5847
  285.5000   -63.8862     5.5192     7.0467     8.5132   109.0774     0.0201     0.1747     2.4222    58.5967  1307.4962
  286.0000   -63.8917     5.3297     7.0431     8.5281   109.0397     0.0350     0.1814     2.4065    58.1497  1422.1890
  286.5000   -63.8978     5.1825     6.8481     8.5580   108.4766     0.0650     0.1880     2.3899    57.3290  1426.3766
  287.0000   -63.9038     5.1450     6.3865     8.5728   110.5882     0.0800     0.1847     2.3817    55.9104  1408.2002
  287.5000   -63.9098     5.1078     6.0761     8.6027   112.2474     0.0649     0.1729     2.3817    55.5381  1370.9146
  288.0000   -63.9167     5.0709     5.8734     8.6175   113.0015     0.0334     0.1478     2.4440    53.5217  1364.1680
  288.5000   -63.9218     5.0732     5.8305     8.6172   108.6274     0.0319     0.1282     2.4974    55.3172  1374.9625
  289.0000   -63.8138     5.2093     5.9505     8.6018   104.4042     0.0334     0.1318     2.4929    56.5144  1399.2504
  289.5000   -63.6343     5.3909     6.1575     8.6015   107.4208     0.0333     0.1355     2.4756    57.1138  1441.0795
  290.0000   -63.4897     5.6566     6.4605     8.6012   108.0241     0.0333     0.1370     2.4658    56.8163  1481.7395
  290.5000   -63.4955     6.0180     6.8261     8.6009   104.5551     0.0333     0.1337     2.4696    55.6219  1466.7167
  291.0000   -63.5013     6.5823     7.1264     8.6157   105.7617     0.0363     0.1303     2.4748    55.0254  1468.0659
  291.5000   -63.3553     6.8591     7.3087     8.6305   107.1192     0.0288     0.1297     2.4771    53.0089  1461.3193
  292.0000   -63.3625     6.9523     7.4582     8.6454   106.6667     0.0213     0.1309     2.4763    54.1318  1444.6967
  292.5000   -63.2179     6.8539     7.5078     8.6450   105.7617     0.0212     0.1318     2.4778    55.2540  1458.6434
  293.0000   -63.2252     6.3057     7.4522     8.6447   106.8175     0.0242     0.1442     2.4786    54.2091  1461.3193
  293.5000   -63.2310     5.8013     7.2962     8.6444   109.3816     0.0272     0.1500     2.4598    55.0326  1453.2234
  294.0000   -63.2368     5.4870     7.0942     8.6441   110.7391     0.0662     0.1617     2.4422    51.9702  1446.4768
  294.5000   -63.2426     5.2621     6.8382     8.6589   111.0407     0.0752     0.1669     2.4200    51.5232  1451.8740
  295.0000   -63.3987     5.0814     6.3890     8.6737   111.7949     0.0677     0.1645     2.4132    60.0448  1432.9835
  295.5000   -63.4045     4.9753     6.0425     8.6886   111.9457     0.0302     0.1436     2.4252    58.5518  1430.2849
  296.0000   -63.5609     4.9390     5.7544     8.7033   110.9603     0.0317     0.1026     2.4410    57.4322  1414.0929
  296.5000   -63.5680     4.9720     5.5951     9.1060   103.9517     0.0376     0.0968     2.4275    53.9957  1407.3463
  297.0000   -63.2730     5.0392     5.5929     9.0048   103.8009     0.0361     0.1047     2.4358    55.1182  1408.6957
  297.5000   -62.9766     5.2511     5.7475     8.6873   104.8567     0.0301     0.1071     2.4508    56.4649  1420.8396
  298.0000   -62.8320     5.5867     6.2134     8.6719   105.7617     0.0271     0.1110     2.5011    57.0792  1442.4288
  298.5000   -62.8393     6.0683     6.6866     8.7773   105.0075     0.0286     0.1110     2.5064    55.8702  1462.6687
  299.0000   -62.9955     6.5989     7.0156     9.2045   102.4283     0.0301     0.1143     2.5049    53.1060  1447.8260
  299.5000   -63.0027     7.0609     7.2597     8.7767   101.5385     0.0270     0.1192     2.5011    58.1900  1480.2098
  300.0000   -63.0070     7.2675     7.4221     8.7614   100.9351     0.0255     0.1171     2.4996    61.6295  1505.8384
  300.5000   -62.9841     7.3948     7.4988     8.7764   101.9925     0.0315     0.1158     2.4959    58.7162  1509.5616
  301.0000   -62.9629     7.5222     7.5754     8.7764   105.3122     0.0300     0.1155     2.4958    56.6997  1479.9939
  301.5000   -62.9416     7.6100     7.7668     8.7613   106.9905     0.0315     0.1122     2.5021    54.3839  1485.7328
