~VERSION INFORMATION
 VERS.                2.0:   CWLS LOG ASCII STANDARD - VERSION 2.0
 WRAP.                 NO:   ONE LINE PER DEPTH STEP
~WELL INFORMATION
#MNEM.UNIT      DATA TYPE    INFORMATION
#----------   ------------   ------------------------------
 STRT.F           16.0000:   START DEPTH
 STOP.F          900.0000:   STOP DEPTH
 STEP.F            0.5000:   STEP LENGTH
 NULL.          -999.2500:   NO VALUE
 COMP. FENIX & SCISSON INC:   COMPANY
 WELL.    NPR-3 #65S15-15:   WELL
 FLD .             TEAPOT:   FIELD
 LOC .      S15 T38N R78W:   LOCATION
 CNTY.            NATRONA:   COUNTY
 STAT.            WYOMING:   STATE
 CTRY. UNITED STATES OF AMERICA:   COUNTRY
 SRVC.            Unknown:   SERVICE COMPANY
 DATE.        11-MAY-1978:   LOGDATE
 API .       490251062400:   API NUMBER
~CURVE INFORMATION
#MNEM.UNIT       API CODE    CURVE DESCRIPTION
#----------   ------------   ------------------------------
 DEPT.F                  :   
 RHOB.G/C3   45 350 01 00:   BULK DENSITY
 DPHI.DEC    45 890 12 00:   DENSITY POROSITY SANDSTONE
 CORR.G/C3   45 356 01 00:   DENSITY CORRECTION
 GRD .GAPI   45 310 01 00:   GAMMA RAY FROM DENSITY LOG
 CALD.IN     45 280 60 00:   CALIPER FROM DENSITY LOG
 SPR .MV     05 010 01 00:   SPONTANEOUS POTENTIAL FROM RES.
 SN  .OHMM   05 040 16 00:   SHORT NORMAL 16"
 IL  .OHMM   05 120 00 00:   INDUCTION LOG
~PARAMETER INFORMATION
#MNEM.UNIT          VALUE    DESCRIPTION
#----------   ------------   ------------------------------
 PD  .                 GL:   PERMANENT DATUM
 EPD .F              5289:   ELEVATION PERMANENT DATUM
 LMF .                 KB:   LOG MEASURED FROM
 DAPD.F                 4:   FEET ABOVE PERMANENT DATUM
 DMF .                 KB:   DRILLING MEASURED FROM
 EKB .F              5293:   KELLING BUSHING
 EDF .F                  :   DRILLING FLOOR
 EGL .F              5289:   GROUND LEVEL
 DATE.          5-11-1978:   RUN DATE
 RUN .                  1:   RUN NUMBER
 DD  .F               887:   DEPTH DRILLER
 DL  .F               889:   DEPTH LOGGER
 BLI .F               883:   BOTTOM LOG INTERVAL
 TLI .F                40:   TOP LOG INTERVAL
 CS  .IN            8.625:   CASING SIZE
 CBD .F                40:   CASING BOTTOM DRILLER
 CBL .F                40:   CASING BOTTOM LOGGER
 BS  .IN            7.875:   BIT SIZE
 BSD .F               887:   BIT SIZE AT DEPTH
 DFT .                KCL:   DRILLING FLUID TYPE
 DFD .                8.6:   DRILLING FLUID DENSITY
 DFV .                 30:   DRILLING FLUID VISCOSITY
 DFPH.                9.5:   DRILLING FLUID PH
 DFL .                  8:   DRILLING FLUID LOSS
 MSS .                   :   MUD SAMPLE SOURCE
 RMS .OHMM            .42:   RESISTIVITY MUD SAMPLE
 MST .F                68:   MUD SAMPLE TEMPERATURE
 RMF .OHMM            .38:   RESISTIVITY MUD FILTRATE SAMPLE
 MFST.F                68:   MUD FILTRATE SAMPLE TEMPERATURE
 RMC .OHMM            .68:   RESISTIVITY MUD CAKE
 MCST.F                66:   MUD CAKE SAMPLE TEMPERATURE
 MFSS.           MEASURED:   MUD FILTRATE SAMPLE SOURCE
 MCSS.                   :   MUD CAKE SAMPLE SOURCE
 RMB .OHMM               :   RESISTIVITY MUD AT BHT
 BHT .F                72:   BOTTOM HOLE TEMPERATURE
 TCS .HRS               2:   TIME CURCULATED STOPPED
 TLAB.HRS                :   TIME LOGGER AT BOTTOM
 MRT .F                72:   MAXIMUM RECORDED TEMPERATURE
 LUN .              CASP.:   LOGGING UNIT NUMBER
 LUL .               2958:   LOGGING UNIT LOCATION
 ENGI.             MILLER:   RECORDING ENGINEER
 WITN.           MCGINLEY:   WITNESSED BY
 CLNT.            A2DTECH:   CLIENT CODE
 ORIG.      2" & 5" PRINT:   ORIGIN OF DATA
 UWI .       490251062400:   UNIQUE WELL ID
 DICO. A2D Technologies, Inc.:   DIGITIZING COMPANY
 OS  .                   :   OTHER SERVICES
 PWI .                   :   PRIMARY WELL IDENTIFIER
 R1  .                   :   REMARKS 1
 R2  .                   :   REMARKS 2
~OTHER INFORMATION
~A   DEPT     RHOB       DPHI       CORR         GRD      CALD        SPR         SN         IL   
# ...
  664.0000     2.5235     0.0934     0.0065    77.2170     7.4296   -39.1475     9.0775     8.8004
  664.5000     2.5232     0.0939     0.0066    77.5286     7.4352   -39.2063     9.1579     8.7276
  665.0000     2.5225     0.0898     0.0129    78.4941     7.4407   -39.2632     9.2391     8.6554
  665.5000     2.5236     0.0843     0.0198    79.4357     7.4419   -39.3284     9.3210     8.6105
  666.0000     2.5333     0.0824     0.0211    79.8540     7.4212   -38.9201     9.4413     8.9842
  666.5000     2.5372     0.0881     0.0187    79.4014     7.4007   -38.3414     9.6790     9.2411
  667.0000     2.5324     0.0922     0.0163    78.9504     7.3803   -38.1091     9.9217     9.5059
  667.5000     2.5274     0.0963     0.0145    78.1711     7.3599   -37.8877    10.1706     9.7803
  668.0000     2.5205     0.0998     0.0157    76.1953     7.3395   -37.4411    10.4626    10.0901
  668.5000     2.5138     0.1018     0.0162    74.6099     7.3191   -36.5505    10.8587    10.4937
  669.0000     2.5071     0.1062     0.0131    73.9616     7.2988   -35.6683    11.2697    10.9135
  669.5000     2.5041     0.1268     0.0116    72.7550     7.2799   -34.9896    11.8858    11.4539
  670.0000     2.4952     0.1360     0.0203    65.8212     7.2642   -34.6010    11.7282    11.2575
  670.5000     2.4566     0.1405     0.0305    57.4176     7.2479   -34.2266    11.4554    11.0059
  671.0000     2.4488     0.1450     0.0396    51.1601     7.2596   -33.5271    11.1892    10.7572
  671.5000     2.4406     0.1493     0.0441    48.1081     7.2772   -32.7996    10.9286    10.5150
  672.0000     2.4327     0.1645     0.0487    46.2696     7.2948   -32.5827    10.6743    10.2783
  672.5000     2.4172     0.1749     0.0533    46.4231     7.3125   -32.3925    10.4258    10.0469
  673.0000     2.3989     0.1746     0.0545    46.1394     7.3301   -32.1983    10.3470     9.9687
  673.5000     2.3819     0.1782     0.0418    44.9318     7.3443   -32.0013    10.3324     9.9395
  674.0000     2.3785     0.1812     0.0250    44.2439     7.3326   -32.0019    10.3176     9.9103
  674.5000     2.3746     0.1801     0.0340    43.6777     7.3211   -32.0383    10.3027     9.8812
  675.0000     2.3722     0.1801     0.0365    43.7945     7.3098   -32.0755    10.2878     9.8521
  675.5000     2.3702     0.1789     0.0390    45.9184     7.3047   -32.1125    10.2729     9.8232
  676.0000     2.3735     0.1661     0.0500    48.8726     7.3639   -32.1461    10.2580     9.7956
  676.5000     2.3908     0.1707     0.0421    51.4438     7.4560   -32.0272    10.2432     9.7044
  677.0000     2.4016     0.1777     0.0346    52.1129     7.4833   -31.6146    10.2284     9.6178
  677.5000     2.3849     0.1830     0.0337    52.4663     7.4817   -31.2069    10.2136     9.5320
  678.0000     2.3749     0.1881     0.0331    52.2539     7.4795   -30.8013    10.1988     9.4413
  678.5000     2.3664     0.1973     0.0364    50.5564     7.4774   -30.6537    10.1840     9.5106
  679.0000     2.3580     0.1929     0.0483    50.3329     7.4753   -30.8256    10.1632     9.5855
  679.5000     2.3533     0.1872     0.0601    49.8481     7.4732   -30.9950    10.2747     9.6610
  680.0000     2.3626     0.1787     0.0706    49.1235     7.4711   -31.1659    10.4681     9.7161
  680.5000     2.3733     0.1689     0.0584    48.3942     7.4691   -31.3425    10.6651     9.7644
  681.0000     2.3842     0.1754     0.0386    48.1283     7.4673   -31.2425    10.8659     9.8129
  681.5000     2.3903     0.1856     0.0326    47.9549     7.4589   -31.0809    11.0704     9.8616
  682.0000     2.3760     0.2009     0.0336    47.3982     7.4844   -31.3343    11.2788    10.0615
  682.5000     2.3603     0.1976     0.0438    44.9043     7.4937   -32.1903    11.4911    10.4146
  683.0000     2.3433     0.1920     0.0528    42.4077     7.4740   -32.9746    11.7074    10.7853
  683.5000     2.3605     0.1752     0.0526    42.6546     7.4537   -33.2850    11.9278    11.1681
  684.0000     2.3902     0.1584     0.0520    45.4604     7.4332   -33.5754    12.1523    11.5643
  684.5000     2.4200     0.1417     0.0488    47.2857     7.4127   -33.8666    12.3319    11.8858
  685.0000     2.4469     0.1288     0.0456    47.0438     7.4010   -34.1574    12.3319    11.8858
  685.5000     2.4574     0.1285     0.0468    47.0601     7.3941   -34.4521    12.2145    11.7726
  686.0000     2.4613     0.1221     0.0502    49.7108     7.3873   -34.4913    12.1025    11.6647
  686.5000     2.4662     0.1199     0.0506    54.1171     7.3805   -34.3829    11.9916    11.5578
  687.0000     2.4742     0.1248     0.0315    54.5634     7.3737   -34.2713    11.8817    11.4519
  687.5000     2.4739     0.1324     0.0123    54.7323     7.3664   -34.1597    11.7727    11.3469
  688.0000     2.4634     0.1485    -0.0019    54.7041     7.3790   -34.0485    11.6648    11.2429
  688.5000     2.4421     0.1589     0.0117    53.5906     7.3972   -33.9372    11.5579    11.1399
  689.0000     2.4211     0.1613     0.0240    52.4801     7.4155   -33.8259    11.4520    11.0378
  689.5000     2.4072     0.1636     0.0194    51.8965     7.4338   -33.7147    11.3509    10.9403
  690.0000     2.4037     0.1660     0.0142    51.7682     7.4518   -33.6033    11.3560    10.9161
  690.5000     2.4000     0.1677     0.0110    52.2506     7.4601   -33.4911    11.3609    10.8928
  691.0000     2.3989     0.1649     0.0135    53.0365     7.4366   -33.3758    11.3658    10.8695
  691.5000     2.4012     0.1617     0.0158    55.3539     7.4143   -33.5222    11.3707    10.8463
  692.0000     2.4057     0.1596     0.0182    57.8378     7.3920   -33.7025    11.3756    10.8231
  692.5000     2.4102     0.1580     0.0204    59.5225     7.3696   -33.8833    11.3805    10.8000
  693.0000     2.4142     0.1563     0.0184    59.5836     7.3472   -34.0633    11.3854    10.7769
  693.5000     2.4150     0.1561     0.0162    58.8474     7.3258   -34.2437    11.3904    10.7539
  694.0000     2.4159     0.1563     0.0143    56.7898     7.3224   -34.4233    11.3953    10.7310
  694.5000     2.4168     0.1537     0.0137    55.4741     7.3198   -34.5686    11.4002    10.7080
  695.0000     2.4176     0.1485     0.0130    55.5826     7.3170   -34.5835    11.4051    10.6852
  695.5000     2.4215     0.1505     0.0124    58.2251     7.3143   -34.6006    11.4100    10.6623
  696.0000     2.4256     0.1525     0.0117    59.6772     7.3115   -34.6180    11.4150    10.6396
  696.5000     2.4219     0.1548     0.0111    59.8782     7.3088   -34.6354    11.4199    10.6169
  697.0000     2.4183     0.1570     0.0109    58.9027     7.3066   -34.6528    11.4248    10.5942
  697.5000     2.4146     0.1587     0.0132    57.6333     7.2791   -34.6702    11.4298    10.5716
  698.0000     2.4134     0.1577     0.0157    56.9336     7.2453   -34.6876    11.4347    10.5490
  698.5000     2.4136     0.1524     0.0155    57.6073     7.2258   -34.7050    11.4396    10.5265
  699.0000     2.4170     0.1561     0.0140    59.3131     7.2282   -34.7224    11.4446    10.5040
  699.5000     2.4203     0.1480     0.0122    60.2642     7.2304   -34.7398    11.4495    10.4815
  700.0000     2.4239     0.1589     0.0055    61.1005     7.2326   -34.7572    11.4560    10.4591
  700.5000     2.4184     0.1721    -0.0012    62.0072     7.2347   -34.7746    11.4490    10.4368
  701.0000     2.3970     0.1702     0.0008    61.5934     7.2369   -34.7920    11.4354    10.4145
  701.5000     2.3921     0.1667     0.0034    61.0804     7.2391   -34.8094    11.4218    10.3923
  702.0000     2.3959     0.1632     0.0060    61.2450     7.2413   -34.8268    11.4082    10.3701
  702.5000     2.4014     0.1623     0.0086    62.2751     7.2437   -34.8442    11.3947    10.3479
  703.0000     2.4070     0.1621     0.0111    62.7823     7.2441   -34.8616    11.3811    10.3258
  703.5000     2.4088     0.1560     0.0137    60.7678     7.2063   -34.8790    11.3676    10.3038
  704.0000     2.4095     0.1513     0.0133    59.2763     7.1676   -34.8964    11.3541    10.2818
