~VERSION INFORMATION
 VERS.                2.0:   CWLS LOG ASCII STANDARD - VERSION 2.0
 WRAP.                 NO:   ONE LINE PER DEPTH STEP
~WELL INFORMATION
#MNEM.UNIT      DATA TYPE    INFORMATION
#----------   ------------   ------------------------------
 STRT.F           20.0000:   START DEPTH
 STOP.F          678.0000:   STOP DEPTH
 STEP.F            0.5000:   STEP LENGTH
 NULL.          -999.2500:   NO VALUE
 COMP. FENIX & SCISSON INC:   COMPANY
 WELL. 27-42 SX 11 WO #27-11:   WELL
 FLD .        TEAPOT DOME:   FIELD
 LOC .      S11 T38N R78W:   LOCATION
 CNTY.            NATRONA:   COUNTY
 STAT.            WYOMING:   STATE
 CTRY. UNITED STATES OF AMERICA:   COUNTRY
 SRVC.      Dresser Atlas:   SERVICE COMPANY
 DATE.        13-AUG-1985:   LOGDATE
 API .       490251083800:   API NUMBER
~CURVE INFORMATION
#MNEM.UNIT       API CODE    CURVE DESCRIPTION
#----------   ------------   ------------------------------
 DEPT.F                  :   
 RHOB.G/C3   45 350 01 00:   BULK DENSITY
 CORR.G/C3   45 356 01 00:   DENSITY CORRECTION
 CALD.IN     45 280 60 00:   CALIPER
 GRD .GAPI   45 310 01 00:   GAMMA RAY FROM DENSITY LOG
 DPOR.DEC    45 890 12 00:   DENSITY POROSITY SANDSTONE
 NPOR.DEC    42 890 03 00:   NEUTRON POROSITY SANDSTONE
 SPR .MV     07 010 01 00:   SPONTANEOUS POTENTIAL
 SFL .OHMM   07 220 01 00:   SHALLOW FOCUSED LOG RESISTIVITY
 ILD .OHMM   07 120 46 00:   INDUCTION LOG DEEP
 ILM .OHMM   07 120 44 00:   INDUCTION LOG MEDIUM
~PARAMETER INFORMATION
#MNEM.UNIT          VALUE    DESCRIPTION
#----------   ------------   ------------------------------
 PD  .                 GL:   PERMANENT DATUM
 EPD .F              5188:   ELEVATION PERMANENT DATUM
 LMF .                 KB:   LOG MEASURED FROM
 DAPD.F                 5:   FEET ABOVE PERMANENT DATUM
 DMF .                 KB:   DRILLING MEASURED FROM
 EKB .F              5193:   KELLING BUSHING
 EGL .F              5188:   GROUND LEVEL
 DATE.          8-13-1985:   RUN DATE
 RUN .                  8:   RUN NUMBER
 DD  .F               632:   DEPTH DRILLER
 BLI .F               598:   BOTTOM LOG INTERVAL
 TLI .F               303:   TOP LOG INTERVAL
 CBL .F               303:   CASING BOTTOM LOGGER
 BS  .IN              .75:   BIT SIZE
 BSD .F               632:   BIT SIZE AT DEPTH
 DFT .          KCL WATER:   DRILLING FLUID TYPE
 LUN .            HL-6274:   LOGGING UNIT NUMBER
 LUL .           GILLETTE:   LOGGING UNIT LOCATION
 ENGI.             RAUTIO:   RECORDING ENGINEER
 WITN.            SCHULTE:   WITNESSED BY
 CLNT.            A2DTECH:   CLIENT CODE
 ORIG.           2" PRINT:   ORIGIN OF DATA
 UWI .       490251083800:   UNIQUE WELL ID
 DICO. A2D Technologies, Inc.:   DIGITIZING COMPANY
~OTHER INFORMATION
~A   DEPT     RHOB       CORR       CALD        GRD       DPOR       NPOR        SPR        SFL        ILD          ILM 
# ...
  623.0000     2.4835     0.0296     9.0996   115.7657     0.1216     0.2614    -2.9721    10.4270     9.5257     9.3478
  623.5000     2.4724     0.0257     9.1029   118.6308     0.1271     0.2546    -2.9843    10.5398     9.5707     9.3988
  624.0000     2.4667     0.0216     9.1061   118.1331     0.1265     0.2535    -2.9913    10.7682     9.6159     9.4501
  624.5000     2.4688     0.0201     9.1093   119.7997     0.1244     0.2568    -2.9856    11.0014     9.6886     9.5016
  625.0000     2.4676     0.0300     9.1125   123.0902     0.1174     0.2589    -2.9847    11.2412     9.6705     9.5131
  625.5000     2.5061     0.0452     9.1158   124.1700     0.1002     0.2574    -3.0375    11.4316     9.6198     9.5131
  626.0000     2.5228     0.0606     9.1190   123.3169     0.0912     0.2544    -3.2527    11.4325     9.5692     9.5128
  626.5000     2.5238     0.0571     9.1221   122.5061     0.0990     0.2514    -3.4662    11.2744     9.5188     9.5129
  627.0000     2.5061     0.0443     9.1257   122.7809     0.1102     0.2501    -3.6818    11.0403     9.4687     9.5130
  627.5000     2.4914     0.0325     9.1279   123.9996     0.1169     0.2686    -3.8978    10.8107     9.4189     9.4416
  628.0000     2.4851     0.0323     9.1329   125.1195     0.1136     0.2810    -4.1178    10.6201     9.3696     9.3434
  628.5000     2.5061     0.0358     9.1382   126.2425     0.1006     0.2820    -4.3234    10.6201     9.3394     9.2463
  629.0000     2.5192     0.0415     9.1437   125.3071     0.0949     0.2820    -4.5658    10.6201     9.3396     9.1795
  629.5000     2.5248     0.0450     9.1492   123.8315     0.0936     0.2844    -4.5798    10.6201     9.3397     9.2183
  630.0000     2.5148     0.0443     9.1545   123.7308     0.1033     0.2868    -4.5867    10.6201     9.3399     9.2579
  630.5000     2.5006     0.0318     9.1599   121.1232     0.1114     0.2860    -4.5819    10.6201     9.3400     9.2977
  631.0000     2.4872     0.0205     9.1660   120.1715     0.1248     0.2834    -4.5825    10.6201     9.3401     9.3401
  631.5000     2.4725     0.0122     9.1629   120.2400     0.1225     0.2809    -4.5837    10.5034     9.3403     9.1967
  632.0000     2.4786     0.0178     9.1544   120.3787     0.1163     0.2788    -4.5836    10.4252     9.2480     9.0462
  632.5000     2.4897     0.0243     9.1463   122.5676     0.1104     0.2781    -4.5568    10.4290     9.1299     8.8981
  633.0000     2.5014     0.0310     9.1385   124.1460     0.1051     0.2763    -4.4429    10.4264     9.0132     8.7524
  633.5000     2.5127     0.0376     9.1309   125.6704     0.0984     0.2745    -4.3305    10.3792     8.8981     8.6092
  634.0000     2.5174     0.0446     9.1218   126.9872     0.0986     0.2750    -4.2157    10.2033     8.7844     8.4683
  634.5000     2.5108     0.0482     9.1115   126.8317     0.1016     0.2763    -4.1021    10.0303     8.6721     8.3297
  635.0000     2.5143     0.0466     9.1016   129.0896     0.0978     0.2776    -3.9872     9.8601     8.5613     8.2144
  635.5000     2.5227     0.0426     9.0919   132.4554     0.0920     0.2766    -3.8730     9.6905     8.4519     8.0665
  636.0000     2.5206     0.0389     9.0819   133.2961     0.0969     0.2766    -3.7848     9.6892     8.3466     7.9408
  636.5000     2.5134     0.0360     9.0722   132.5764     0.1008     0.2783    -3.7833     9.6892     8.2527     7.8169
  637.0000     2.5129     0.0355     9.0624   131.9874     0.0977     0.2796    -3.8104     9.6892     8.1598     7.6950
  637.5000     2.5164     0.0397     9.0520   131.4457     0.0944     0.2763    -3.9144     9.6892     8.0680     7.5750
  638.0000     2.5284     0.0467     9.0490   133.2656     0.0880     0.2709    -4.0160     9.6892     7.9772     7.4944
  638.5000     2.5409     0.0534     9.0530   135.3237     0.0824     0.2804    -4.1185     9.5986     7.8875     7.4944
  639.0000     2.5389     0.0551     9.0565   136.7782     0.0849     0.2796    -4.2223     9.5021     7.7987     7.4944
  639.5000     2.5311     0.0513     9.0598   137.7539     0.0908     0.2765    -4.3242     9.4066     7.7109     7.4710
  640.0000     2.5234     0.0477     9.0633   137.4947     0.0960     0.2771    -4.4261     9.3120     7.6242     7.4320
  640.5000     2.5168     0.0440     9.0668   137.0393     0.0988     0.2777    -4.5336     9.2184     7.5384     7.3932
  641.0000     2.5121     0.0403     9.0702   136.6059     0.1014     0.2795    -4.5880     9.1703     7.4944     7.3545
  641.5000     2.5081     0.0365     9.0737   136.6657     0.1040     0.2819    -4.5530     9.2468     7.4944     7.3162
  642.0000     2.5066     0.0373     9.0771   136.9588     0.1049     0.2844    -4.4568     9.3564     7.4944     7.2779
  642.5000     2.5096     0.0411     9.0805   137.5498     0.1011     0.2868    -4.3659     9.5131     7.4944     7.2396
  643.0000     2.5171     0.0449     9.0840   138.6652     0.0970     0.2882    -4.2765     9.4816     7.4560     7.2016
  643.5000     2.5315     0.0487     9.0874   139.7299     0.0826     0.2876    -4.1721     9.3273     7.4170     7.1637
  644.0000     2.5425     0.0517     9.0909   140.1777     0.0834     0.2853    -4.3307     9.1756     7.3783     7.1261
  644.5000     2.5381     0.0517     9.0943   139.5075     0.0869     0.2872    -4.6097     9.0263     7.3192     7.0922
  645.0000     2.5310     0.0503     9.0977   138.6072     0.0897     0.2912    -4.8592     8.8795     7.2384     6.9837
  645.5000     2.5306     0.0489     9.1012   138.0716     0.0889     0.2875    -4.9924     8.7351     7.1585     6.8856
  646.0000     2.5284     0.0472     9.1046   138.5314     0.0900     0.3056    -5.0560     8.5930     7.0795     6.7890
  646.5000     2.5210     0.0451     9.1081   138.2794     0.0970     0.3113    -5.3663     8.4532     7.0014     6.6935
  647.0000     2.5138     0.0431     9.1115   137.5246     0.0989     0.3168    -5.2029     8.3157     6.9242     6.5991
  647.5000     2.5138     0.0410     9.1150   138.2169     0.1003     0.3152    -5.1144     8.2144     6.8375     6.5059
  648.0000     2.5042     0.0394     9.1184   140.0203     0.1067     0.3129    -5.0161     8.2144     6.7132     6.4139
  648.5000     2.5095     0.0429     9.1218   140.8008     0.0987     0.3140    -4.9760     8.2144     6.7132     6.3509
  649.0000     2.5220     0.0490     9.1255   141.4300     0.0930     0.3155    -4.9810     8.2144     6.7132     6.3507
  649.5000     2.5194     0.0499     9.1277   142.1176     0.0999     0.3155    -4.9808     8.2612     6.5467     6.3568
  650.0000     2.5109     0.0429     9.1275   142.9518     0.1048     0.3140    -4.9812     8.3665     6.3315     6.1191
  650.5000     2.5028     0.0365     9.1275   144.3740     0.1079     0.3124    -4.9797     8.0651     6.1234     5.8899
  651.0000     2.4949     0.0319     9.1275   146.2221     0.1123     0.3135    -4.9784     8.2001     5.9220     5.6693
  651.5000     2.4870     0.0319     9.1275   145.2798     0.1177     0.3181    -4.9886     8.4215     5.7274     5.4571
  652.0000     2.4794     0.0319     9.1275   144.8368     0.1232     0.3236    -4.8808     8.6792     5.5879     5.3862
  652.5000     2.4713     0.0315     9.1275   145.7096     0.1287     0.3369    -4.7002     7.4235     5.5878     5.3849
  653.0000     2.4657     0.0360     9.1275   144.4863     0.1250     0.3382    -4.5238     6.2014     5.8318     5.3869
  653.5000     2.4779     0.0471     9.1275   144.0396     0.1144     0.3354    -4.3697     5.2886     6.0420     5.6002
  654.0000     2.4963     0.0519     9.1277   146.9385     0.1038     0.3331    -4.2023     8.6792     6.2600     5.8303
  654.5000     2.5144     0.0466     9.1252   147.5176     0.1008     0.3201    -4.4556     8.6792     6.4857     6.0697
  655.0000     2.5113     0.0422     9.1213   146.6222     0.1045     0.3047    -4.7387     8.8012     6.7196     6.3187
  655.5000     2.5054     0.0397     9.1175   145.7892     0.1071     0.2849    -5.0320     8.9089     6.9626     6.5777
  656.0000     2.5030     0.0399     9.1139   144.9366     0.1015     0.2835    -5.3206     9.0180     7.2138     6.8471
