~VERSION INFORMATION
 VERS.                2.0:   CWLS LOG ASCII STANDARD - VERSION 2.0
 WRAP.                 NO:   ONE LINE PER DEPTH STEP
~WELL INFORMATION
#MNEM.UNIT      DATA TYPE    INFORMATION
#----------   ------------   ------------------------------
 STRT.F           25.0000:   START DEPTH
 STOP.F          867.0000:   STOP DEPTH
 STEP.F            0.5000:   STEP LENGTH
 NULL.          -999.2500:   NO VALUE
 COMP. LAWRENCE/ALLISON INC:   COMPANY
 WELL.    38-11 SX #35-35:   WELL
 FLD .             TEAPOT:   FIELD
 LOC .      S35 T39N R78W:   LOCATION
 CNTY.            NATRONA:   COUNTY
 STAT.            WYOMING:   STATE
 CTRY. UNITED STATES OF AMERICA:   COUNTRY
 SRVC.      Dresser Atlas:   SERVICE COMPANY
 DATE.        07-AUG-1985:   LOGDATE
 API .       490251104100:   API NUMBER
~CURVE INFORMATION
#MNEM.UNIT       API CODE    CURVE DESCRIPTION
#----------   ------------   ------------------------------
 DEPT.F                  :   
 SPR .MV     07 010 01 00:   SPONTANEOUS POTENTIAL
 RILD.OHMM   07 120 46 00:   INDUCTION LOG DEEP RESISTIVITY
 RILM.OHMM   07 120 44 00:   INDUCTION LOG MEDIUM RESISTIVITY
 RFOC.OHMM   07 220 04 00:   RESISTIVITY FOCUSED LOG
 PORD.DEC    45 890 12 00:   POROSITY DENSITY SANDSTONE
 CNC .DEC    42 890 03 00:   NEUTRON POROSITY SANDSTONE
 GRD .GAPI   45 310 01 00:   GAMMA RAY FROM DENSITY LOG
 CALD.IN     45 280 60 00:   CALIPER FROM DENSITY LOG
 CORR.G/C3   45 356 01 00:   DENSITY CORRECTION
 DEN .G/C3   45 350 01 00:   COMPENSATED BULK DENSTIY
~PARAMETER INFORMATION
#MNEM.UNIT          VALUE    DESCRIPTION
#----------   ------------   ------------------------------
 PD  .                 GL:   PERMANENT DATUM
 EPD .F              5110:   ELEVATION PERMANENT DATUM
 LMF .                 GL:   LOG MEASURED FROM
 DMF .                 GL:   DRILLING MEASURED FROM
 EGL .F              5110:   GROUND LEVEL
 DATE.             8-7-85:   RUN DATE
 RUN .                  1:   RUN NUMBER
 DD  .F               900:   DEPTH DRILLER
 DL  .F               869:   DEPTH LOGGER
 BLI .F               867:   BOTTOM LOG INTERVAL
 TLI .F                40:   TOP LOG INTERVAL
 CS  .IN            8.625:   CASING SIZE
 CBD .F                40:   CASING BOTTOM DRILLER
 CBL .F                40:   CASING BOTTOM LOGGER
 BS  .IN            7.875:   BIT SIZE
 BSD .F               900:   BIT SIZE AT DEPTH
 DFT .             4% KCL:   DRILLING FLUID TYPE
 MSS .           FLOWLINE:   MUD SAMPLE SOURCE
 RMS .OHMM           .222:   RESISTIVITY MUD SAMPLE
 MST .F                71:   MUD SAMPLE TEMPERATURE
 TCS .HRS               2:   TIME CURCULATED STOPPED
 MRT .F               100:   MAXIMUM RECORDED TEMPERATURE
 LUN .               6264:   LOGGING UNIT NUMBER
 LUL .               GLTE:   LOGGING UNIT LOCATION
 ENGI.           FAHLSING:   RECORDING ENGINEER
 WITN.              FIVAS:   WITNESSED BY
 CLNT.            A2DTECH:   CLIENT CODE
 ORIG.       2", 5" PRINT:   ORIGIN OF DATA
 UWI .       490251104100:   UNIQUE WELL ID
 DICO. A2D Technologies, Inc.:   DIGITIZING COMPANY
~OTHER INFORMATION
~A   DEPT      SPR       RILD       RILM       RFOC       PORD          CNC      GRD       CALD       CORR        DEN   
# ...
  460.5000   -67.8273     7.9823     8.2625     8.5639     0.1177     0.3227   105.5023     8.1577     0.0369     2.4805
  461.0000   -67.9851     7.8713     8.2040     8.5616     0.1231     0.3137   108.2195     8.1894     0.0549     2.4716
  461.5000   -68.2933     7.7618     8.2596     8.7384     0.1216     0.3020   108.8440     8.2042     0.0714     2.4791
  462.0000   -68.4511     7.5490     8.0883     8.6162     0.1180     0.3038   109.1629     8.1388     0.0776     2.4822
  462.5000   -68.7594     7.2916     7.8124     8.3792     0.1222     0.3113   108.2926     8.0846     0.0595     2.4748
  463.0000   -69.0677     7.0429     7.5982     8.1488     0.1291     0.3110   108.0203     8.0853     0.0461     2.4591
  463.5000   -69.2271     6.8498     7.2886     7.8701     0.1379     0.3080   107.4556     8.1161     0.0266     2.4464
  464.0000   -69.3848     6.7545     7.0888     7.7067     0.1411     0.3101   107.1766     8.1469     0.0025     2.4405
  464.5000   -69.6930     6.6606     6.9892     7.4947     0.1389     0.3182   107.5088     8.1324    -0.0077     2.4503
  465.0000   -69.8508     6.5680     6.8424     7.2384     0.1362     0.3149   107.5354     8.1330     0.0108     2.4519
  465.5000   -70.0086     6.5215     6.7451     7.0393     0.1341     0.3086   109.6547     8.1336     0.0239     2.4489
  466.0000   -70.1664     6.3866     6.6108     6.9409     0.1379     0.3047   112.9698     8.1493     0.0254     2.4475
  466.5000   -70.3242     6.3853     6.6091     7.0355     0.1388     0.3053   112.4029     8.1346     0.0239     2.4468
  467.0000   -70.4820     6.3904     6.6078     7.2806     0.1373     0.3113   109.7389     8.1354     0.0270     2.4499
  467.5000   -70.6397     6.6064     6.6064     7.6390     0.1313     0.3185   106.7760     8.1360     0.0375     2.4682
  468.0000   -70.4949     6.8842     6.6972     7.9607     0.1229     0.3244   102.9162     8.1517     0.0690     2.4880
  468.5000   -70.3520     7.0754     6.8828     8.0684     0.1133     0.3331    97.8605     8.1523     0.0930     2.4990
  469.0000   -70.0602     7.3222     7.1722     7.6800     0.1073     0.3385    96.6847     8.1529     0.0990     2.5031
  469.5000   -69.4664     7.3207     7.4224     7.5782     0.1049     0.3337   100.0064     8.1535     0.1005     2.4912
  470.0000   -69.1730     7.3703     7.6286     7.9507     0.1100     0.3271   102.7236     8.1240     0.0841     2.4800
  470.5000   -69.0301     7.3684     7.8404     8.2277     0.1175     0.3183   103.0425     8.1093     0.0572     2.4771
  471.0000   -69.0376     7.3669     7.7849     8.3404     0.1196     0.2957    98.2925     8.1101     0.0483     2.4854
  471.5000   -69.0451     7.3147     7.5715     8.2232     0.1106     0.2903    92.0410     8.1107     0.0438     2.4929
  472.0000   -69.2030     7.3132     7.4149     8.0525     0.1085     0.2918    91.7620     8.0960     0.0589     2.5004
  472.5000   -69.5127     7.3117     7.3624     7.8310     0.1132     0.2963    95.6817     8.1421     0.0799     2.4870
  473.0000   -69.5201     7.3102     7.3102     7.6684     0.1201     0.3058    98.9968     8.1427     0.1009     2.4736
  473.5000   -69.2268     7.3087     7.2585     7.7194     0.1270     0.3211   102.6108     8.1433     0.0979     2.4617
  474.0000   -69.2342     7.3073     7.2570     7.7713     0.1285     0.3439   105.3280     8.1439     0.0470     2.4685
  474.5000   -69.0894     7.3058     7.2555     7.8766     0.1228     0.3516   102.0661     8.1141     0.0153     2.4775
  475.0000   -69.2490     7.3043     7.3043     7.8745     0.1192     0.3424   101.4948     8.1148     0.0222     2.4780
  475.5000   -69.2565     7.3028     7.3533     7.9269     0.1200     0.3286   103.0585     8.1154     0.0637     2.4724
  476.0000   -69.4143     7.3013     7.4027     8.0349     0.1227     0.3265   105.4629     8.1160     0.0847     2.4769
  476.5000   -69.4217     7.3503     7.4083     8.0889     0.1164     0.3322   105.0792     8.1166     0.0832     2.4859
  477.0000   -69.2787     7.4506     7.4509     8.1986     0.1134     0.3292   102.6865     8.1185     0.0638     2.4920
  477.5000   -69.2861     7.5010     7.5010     8.2531     0.1146     0.3209   102.2257     8.1503     0.0654     2.4852
  478.0000   -69.1429     7.4991     7.5514     8.3081     0.1182     0.3098   102.5579     8.1639     0.0624     2.4830
  478.5000   -69.0000     7.4975     7.5494     8.3058     0.1188     0.3048   100.1928     8.1492     0.0550     2.4805
  479.0000   -68.8571     7.4960     7.4960     8.3035     0.1194     0.3040    98.1267     8.1196     0.0071     2.4698
  479.5000   -68.8646     7.4945     7.4945     8.2391     0.1283     0.3115    96.9509     8.1203     0.0011     2.4564
  480.0000   -68.8722     7.4418     7.4929     8.0100     0.1376     0.3133    97.5820     8.1057     0.0326     2.4504
  480.5000   -68.8797     7.4918     7.5955     7.7968     0.1367     0.3187    99.4023     8.1215     0.0402     2.4512
  481.0000   -68.8872     7.4899     7.6469     7.7411     0.1355     0.3250   100.6247     8.1069     0.0252     2.4453
  481.5000   -68.8961     7.5406     7.6982     7.9552     0.1394     0.3357   102.1461     8.1227     0.0248     2.4513
  482.0000   -68.9036     7.5387     7.7500     8.0641     0.1360     0.3312   103.3619     8.1081     0.0553     2.4626
  482.5000   -68.9110     7.5371     7.7480     8.1740     0.1292     0.3151   101.0035     8.1239     0.0688     2.4739
  483.0000   -68.9184     7.5878     7.7464     8.2848     0.1206     0.3070    98.6385     8.1245     0.0494     2.4814
  483.5000   -69.2266     7.5862     7.7448     8.2826     0.1166     0.3082    95.0776     8.1251     0.0359     2.4912
  484.0000   -69.3843     7.5846     7.6900     8.2803     0.1112     0.3136    93.0115     8.1257     0.0695     2.5024
  484.5000   -69.5421     7.5831     7.5831     8.2781     0.1055     0.3050    93.0381     8.1263     0.0914     2.5032
  485.0000   -69.5496     7.5781     7.5294     8.2189     0.1049     0.3031    96.6522     8.1269     0.0852     2.5040
  485.5000   -69.5570     7.4761     7.4247     8.0482     0.1060     0.3043    99.0704     8.1275     0.0751     2.5033
  486.0000   -69.5644     7.3721     7.4232     7.8810     0.1057     0.3106    99.0972     8.1282     0.0616     2.5019
  486.5000   -69.5718     7.2693     7.4254     7.8247     0.1066     0.3213    98.8246     8.1288     0.0647     2.4982
  487.0000   -69.5792     7.1682     7.5232     7.8225     0.1093     0.3345    97.3215     8.1294     0.0887     2.4937
  487.5000   -69.5866     7.0685     7.5737     7.8204     0.1129     0.3261    96.7851     8.1300     0.1231     2.4847
  488.0000   -69.5940     7.0185     7.5198     7.8183     0.1153     0.3120    98.9111     8.1153     0.1381     2.4872
  488.5000   -69.6015     7.0171     7.5182     7.8161     0.1185     0.3013    99.2300     8.1161     0.1412     2.5149
  489.0000   -69.6091     7.0642     7.4650     7.8140     0.1042     0.3079    97.7618     8.1167     0.1158     2.5381
  489.5000   -69.6166     7.0628     7.4122     7.8119     0.0871     0.3207    96.3003     8.1173     0.0784     2.5449
  490.0000   -69.6255     7.0613     7.4106     7.8061     0.0796     0.3345   101.1101     8.1026     0.0485     2.5352
  490.5000   -69.4807     7.0599     7.4091     7.8076     0.0939     0.3463   105.0231     8.1034     0.0381     2.5158
  491.0000   -69.4900     7.0584     7.4076     7.8054     0.1092     0.3383   107.4347     8.0737     0.0321     2.4867
  491.5000   -69.4974     7.0570     7.3552     7.8028     0.1206     0.3240   105.3753     8.0743     0.0319     2.4741
  492.0000   -69.5048     7.0071     7.3537     7.7470     0.1220     0.3213   103.0102     8.0749     0.0427     2.4846
  492.5000   -69.5122     6.9407     7.3522     7.7449     0.1104     0.3288   103.9337     8.0755     0.0562     2.4958
  493.0000   -69.5196     6.8710     7.3507     7.6895     0.1074     0.3267   107.2488     8.0761     0.0712     2.4981
  493.5000   -69.5271     6.8120     7.3492     7.6874     0.1091     0.3255   110.8628     8.0794     0.0893     2.4922
