~VERSION INFORMATION
 VERS.                2.0:   CWLS LOG ASCII STANDARD - VERSION 2.0
 WRAP.                 NO:   ONE LINE PER DEPTH STEP
~WELL INFORMATION
#MNEM.UNIT      DATA TYPE    INFORMATION
#----------   ------------   ------------------------------
 STRT.F           30.0000:   START DEPTH
 STOP.F          732.0000:   STOP DEPTH
 STEP.F            0.5000:   STEP LENGTH
 NULL.          -999.2500:   NO VALUE
 COMP. FENIX & SCISSON INC:   COMPANY
 WELL.        31-S #31-14:   WELL
 FLD .             TEAPOT:   FIELD
 LOC .      S14 T38N R78W:   LOCATION
 CNTY.            NATRONA:   COUNTY
 STAT.            WYOMING:   STATE
 CTRY. UNITED STATES OF AMERICA:   COUNTRY
 SRVC.              Welex:   SERVICE COMPANY
 DATE.        16-FEB-1977:   LOGDATE
 API .       490251027300:   API NUMBER
~CURVE INFORMATION
#MNEM.UNIT       API CODE    CURVE DESCRIPTION
#----------   ------------   ------------------------------
 DEPT.F                  :   
 CALD.IN     45 280 60 00:   CALIPER FROM DENSITY LOG
 CORR.G/C3   45 356 01 00:   DENSITY CORRECTION
 DPHI.DEC    45 890 12 00:   DENSITY POROSITY SANDSTONE
 GRD .GAPI   45 310 01 00:   GAMMA RAY FROM DENSITY LOG
 RHOB.G/C3   45 350 01 00:   BULK DENSITY
 GURD.OHMM   07 270 05 00:   SHALLOW SHORT GUARD RESISTIVITY
 ILM .OHMM   07 120 44 00:   INDUCTION LOG MEDIUM
 ILD .OHMM   07 120 46 00:   INDUCTION LOG DEEP
 SPR .MV     07 010 01 00:   SPONTANEOUS POTENTIAL
~PARAMETER INFORMATION
#MNEM.UNIT          VALUE    DESCRIPTION
#----------   ------------   ------------------------------
 PD  .                 GL:   PERMANENT DATUM
 EPD .F              5186:   ELEVATION PERMANENT DATUM
 LMF .                 GL:   LOG MEASURED FROM
 DMF .                 GL:   DRILLING MEASURED FROM
 EKB .F              5195:   KELLING BUSHING
 EGL .F              5186:   GROUND LEVEL
 DATE.        16-FEB-1977:   RUN DATE
 RUN .                  1:   RUN NUMBER
 DD  .F               740:   DEPTH DRILLER
 DL  .F               736:   DEPTH LOGGER
 BLI .F               734:   BOTTOM LOG INTERVAL
 TLI .F                30:   TOP LOG INTERVAL
 CS  .IN            8.625:   CASING SIZE
 CBD .F                40:   CASING BOTTOM DRILLER
 CBL .F                44:   CASING BOTTOM LOGGER
 BS  .IN            7.875:   BIT SIZE
 BSD .F               740:   BIT SIZE AT DEPTH
 DFT .   OIL EMULSION MUD:   DRILLING FLUID TYPE
 DFD .                8.3:   DRILLING FLUID DENSITY
 DFV .                 48:   DRILLING FLUID VISCOSITY
 DFPH.               10.5:   DRILLING FLUID PH
 DFL .                7.5:   DRILLING FLUID LOSS
 MSS .           FLOWLINE:   MUD SAMPLE SOURCE
 RMS .OHMM           0.80:   RESISTIVITY MUD SAMPLE
 MST .F                64:   MUD SAMPLE TEMPERATURE
 RMF .OHMM           0.68:   RESISTIVITY MUD FILTRATE SAMPLE
 MFST.F                64:   MUD FILTRATE SAMPLE TEMPERATURE
 RMC .OHMM           1.01:   RESISTIVITY MUD CAKE
 MCST.F                63:   MUD CAKE SAMPLE TEMPERATURE
 MFSS.               MEAS:   MUD FILTRATE SAMPLE SOURCE
 MCSS.               MEAS:   MUD CAKE SAMPLE SOURCE
 RMB .OHMM           0.74:   RESISTIVITY MUD AT BHT
 BHT .F                69:   BOTTOM HOLE TEMPERATURE
 TCS .HRS               5:   TIME CURCULATED STOPPED
 MRT .F                69:   MAXIMUM RECORDED TEMPERATURE
 LUN .               8611:   LOGGING UNIT NUMBER
 LUL .           GILLETTE:   LOGGING UNIT LOCATION
 ENGI.           D.LAWSON:   RECORDING ENGINEER
 WITN.             K.JAPP:   WITNESSED BY
 CLNT.            A2DTECH:   CLIENT CODE
 ORIG.         2.5" PRINT:   ORIGIN OF DATA
 UWI .       490251027300:   UNIQUE WELL ID
 DICO. A2D Technologies, Inc.:   DIGITIZING COMPANY
~OTHER INFORMATION
~A   DEPT       CALD      CORR      DPHI         GRD        RHOB     GURD        ILM        ILD        SPR   
# ...
  395.0000     7.6944     0.1402     0.0851   120.7567     2.5320   918.0420    11.3589     9.6538   -52.8190
  395.5000     7.6039     0.1402     0.0794   119.9100     2.5380   930.5690    11.6919     9.9347   -52.3759
  396.0000     7.5454     0.1438     0.0719   119.2859     2.5424   943.0961    12.0347    10.3651   -51.9288
  396.5000     7.5079     0.1470     0.0642   118.4911     2.5469   947.7310    12.2743    10.7152   -51.3353
  397.0000     7.4855     0.1520     0.0611   117.3504     2.5498   937.5727    12.4456    11.0126   -51.0386
  397.5000     7.5287     0.1535     0.0624   116.4616     2.5399   932.8936    12.6193    10.8618   -50.4451
  398.0000     7.6376     0.1549     0.0638   116.1662     2.5278   932.9289    12.7954    10.7130   -49.8516
  398.5000     7.8109     0.1548     0.0662   116.4694     2.5199   935.9377    12.9826    10.4153   -49.5391
  399.0000     7.9293     0.1548     0.0692   117.3907     2.5127   938.9464    13.1551    10.2794   -49.2146
  399.5000     8.0181     0.1547     0.0751   118.0178     2.5080   941.9552    13.1569    10.2787   -48.9614
  400.0000     8.1068     0.1547     0.0804   118.5460     2.5022   944.9639    13.3405    10.3254   -48.6647
  400.5000     8.1362     0.1546     0.0816   118.8442     2.4992   944.9938    13.4213    10.4432   -48.6647
  401.0000     8.1656     0.1545     0.0796   118.5490     2.5052   945.5998    13.5286    10.4774   -48.5143
  401.5000     8.1478     0.1545     0.0779   118.2537     2.5111   945.0493    13.3460    10.5117   -48.3680
  402.0000     8.1196     0.1556     0.0768   118.2554     2.5126   942.0974    13.1659    10.5459   -48.3680
  402.5000     8.0915     0.1574     0.0777   119.4437     2.5109   942.1326    13.1679    10.5802   -48.3680
  403.0000     8.0633     0.1633     0.0792   120.3353     2.5096   946.8713    13.0571    10.6144   -48.3680
  403.5000     8.0443     0.1692     0.0786   120.9303     2.5102   951.1378    12.9351    10.6486   -48.3680
  404.0000     8.0142     0.1722     0.0762   120.9317     2.5140   944.6710    12.8131    10.6829   -48.3680
  404.5000     7.9544     0.1751     0.0741   120.1567     2.5194   937.0249    12.6912    10.7171   -48.3680
  405.0000     7.8947     0.1811     0.0719   119.0307     2.5246   929.3788    12.5692    10.7398   -48.3105
  405.5000     7.8616     0.1870     0.0697   118.8739     2.5298   921.2861    12.4472    10.5960   -48.2156
  406.0000     7.7988     0.1905     0.0675   120.9379     2.5351   918.3198    12.3064    10.4506   -48.1207
  406.5000     7.7657     0.1937     0.0652   121.8296     2.5393   915.3537    12.3080    10.3146   -48.0257
  407.0000     7.7445     0.1999     0.0630   122.1277     2.5437   915.3693    12.3096    10.1766   -47.9308
  407.5000     7.7441     0.2032     0.0613   121.5356     2.5467   915.3842    12.1433    10.1797   -47.8359
  408.0000     7.7733     0.2047     0.0588   119.9170     2.5497   918.3794    12.1450    10.1825   -47.7410
  408.5000     7.8321     0.2077     0.0571   118.2659     2.5497   919.9937    12.1467    10.1859   -47.6301
  409.0000     7.8614     0.2046     0.0567   116.6148     2.5450   921.3921    12.1484    10.1885   -47.3976
  409.5000     7.8313     0.2016     0.0579   114.9971     2.5358   927.3668    12.0747    10.1912   -47.3932
  410.0000     7.8012     0.1985     0.0638   113.7586     2.5250   930.3613    11.9860    10.1938   -47.6855
  410.5000     7.7711     0.1923     0.0769   113.3284     2.5083   930.3754    11.9879    10.1965   -47.6803
  411.0000     7.7706     0.1856     0.0935   114.1781     2.4934   926.8932    12.1552    10.3403   -47.9733
  411.5000     7.7999     0.1796     0.0982   115.7488     2.4855   914.9173    12.3248    10.3431   -47.9686
  412.0000     7.8292     0.1733     0.1006   115.1286     2.4812   904.7493    12.4968    10.2044   -48.2612
  412.5000     7.8731     0.1669     0.1004   113.6506     2.4783   897.6483    12.3280    10.2077   -48.5537
  413.0000     7.9171     0.1606     0.0980   112.7660     2.4783   896.2556    12.1225    10.2110   -48.5490
  413.5000     7.9464     0.1562     0.0957   112.4748     2.4797   906.6246    11.8337    10.0744   -48.8420
  414.0000     8.0053     0.1529     0.0944   114.8903     2.4843   915.5797    11.6010     9.9397   -48.8368
  414.5000     8.0049     0.1496     0.0935   116.6815     2.4888   918.5742    11.4269     9.9423   -48.8323
  415.0000     8.0045     0.1464     0.0947   117.2404     2.4901   915.6079    11.2064     9.8005   -48.8272
  415.5000     8.0070     0.1448     0.0953   116.8516     2.4876   909.2045    11.0551     9.5461   -49.1197
  416.0000     8.0333     0.1448     0.0958   116.3620     2.4835   900.1796    10.9059     9.4184   -49.1155
  416.5000     8.0328     0.1448     0.0958   116.2127     2.4819   893.9058    10.6120     9.2414   -49.1113
  417.0000     8.0323     0.1448     0.0935   116.3750     2.4827   888.8415    10.4687     9.1038   -49.1068
  417.5000     8.0467     0.1448     0.0897   116.9741     2.4871   890.3991    10.3274     8.9229   -49.3996
  418.0000     8.0611     0.1478     0.0861   118.1667     2.4916   894.8375    10.3289     8.8040   -49.4995
  418.5000     8.0606     0.1511     0.0852   119.6560     2.4960   897.8319    10.3303     8.8063   -49.6869
  419.0000     8.0602     0.1544     0.0862   121.4461     2.4990   897.8460    10.3318     8.9303   -49.9792
  419.5000     8.0598     0.1576     0.0881   122.3380     2.5006   894.8798    10.3334     8.9435   -49.9741
  420.0000     8.0593     0.1609     0.0899   121.9881     2.5019   888.7350    10.3347     9.0837   -50.2671
  420.5000     8.0589     0.1627     0.0893   121.3719     2.4970   879.4811    10.3361     9.1864   -50.5592
  421.0000     8.0288     0.1657     0.0881   121.1680     2.4960   872.3531    10.3374     9.1889   -50.5549
  421.5000     8.0283     0.1627     0.0869   122.2048     2.4960   866.9340    10.3198     9.1915   -50.5905
  422.0000     8.0279     0.1627     0.0858   124.1495     2.4974   866.6609    10.1992     9.0691   -50.8433
  422.5000     8.0274     0.1627     0.0858   124.4519     2.4974   877.0897    10.1509     9.0714   -50.8383
  423.0000     8.0269     0.1627     0.0864   124.1609     2.4989   874.1234    10.0630     8.9499   -50.9733
  423.5000     7.9968     0.1628     0.0871   123.8698     2.5004   871.1561    10.0647     8.8304   -51.1261
  424.0000     7.9964     0.1657     0.0878   123.8755     2.5019   880.1124    10.0660     8.5811   -51.4178
  424.5000     7.9663     0.1657     0.0887   124.4956     2.5019   886.0876    10.0673     8.4082   -51.4135
  425.0000     7.9659     0.1657     0.0899   125.1731     2.5019   885.6058    10.0686     8.2139   -51.7061
  425.5000     7.9654     0.1657     0.0899   126.4233     2.5015   875.5270    10.0699     8.0302   -51.7018
  426.0000     7.9650     0.1657     0.0869   127.9703     2.4983   861.1373    10.0521     7.9229   -51.9944
  426.5000     7.9734     0.1657     0.0834   129.2206     2.4952   862.2845     9.7998     7.8170   -51.9896
  427.0000     7.9939     0.1657     0.0816   128.6271     2.4944   868.2829     9.6198     7.6077   -52.2827
  427.5000     7.9933     0.1657     0.0834   127.1820     2.4974   859.3560     9.1596     7.5059   -52.5742
  428.0000     7.9928     0.1657     0.0853   126.2975     2.5018   844.4685     8.4303     7.4055   -52.5689
  428.5000     7.9924     0.1627     0.0841   125.6306     2.5048   829.5810     7.9809     7.3064   -52.8614
  429.0000     7.9919     0.1627     0.0816   125.1217     2.5049   817.5352     7.7658     7.2087   -52.8572
  429.5000     7.9915     0.1597     0.0845   124.8308     2.5017   829.8997     7.7668     7.1123   -52.8530
  430.0000     7.9614     0.1567     0.0876   124.5397     2.4984   863.9979     7.7678     7.1146   -53.1455
  430.5000     7.9610     0.1556     0.0911   124.8427     2.4918   872.4874     7.7689     7.1169   -53.1410
  431.0000     7.9309     0.1537     0.0935   125.2423     2.4845   866.9489     7.8774     7.1187   -53.2127
