~VERSION INFORMATION
 VERS.                2.0:   CWLS LOG ASCII STANDARD - VERSION 2.0
 WRAP.                 NO:   ONE LINE PER DEPTH STEP
~WELL INFORMATION
#MNEM.UNIT      DATA TYPE    INFORMATION
#----------   ------------   ------------------------------
 STRT.F          100.0000:   START DEPTH
 STOP.F          812.0000:   STOP DEPTH
 STEP.F            0.5000:   STEP LENGTH
 NULL.          -999.2500:   NO VALUE
 COMP.               NAVY:   COMPANY
 WELL. RES 3 TEAPOT DOM #42S-11:   WELL
 FLD .             TEAPOT:   FIELD
 LOC .      S11 T38N R78W:   LOCATION
 CNTY.            NATRONA:   COUNTY
 STAT.            WYOMING:   STATE
 CTRY. UNITED STATES OF AMERICA:   COUNTRY
 SRVC.       Schlumberger:   SERVICE COMPANY
 DATE.        02-AUG-1961:   LOGDATE
 API .       490250636700:   API NUMBER
~CURVE INFORMATION
#MNEM.UNIT       API CODE    CURVE DESCRIPTION
#----------   ------------   ------------------------------
 DEPT.F                  :   
 SPR .MV     05 010 01 00:   SPONTANEOUS POTENTIAL FROM RES.
 ILD .OHMM   05 120 46 00:   INDUCTION LOG DEEP
 ASN .OHMM   05 041 16 00:   AMPLIFIED SHORT NORMAL 16"
 CILD.MMHO   05 110 46 00:   CONDUCTIVITY INDUCTION LOG DEEP
 GR  .GAPI   30 310 01 00:   GAMMA RAY
~PARAMETER INFORMATION
#MNEM.UNIT          VALUE    DESCRIPTION
#----------   ------------   ------------------------------
 PD  .                 GL:   PERMANENT DATUM
 EPD .F              5172:   ELEVATION PERMANENT DATUM
 LMF .                 KB:   LOG MEASURED FROM
 DAPD.F                 5:   FEET ABOVE PERMANENT DATUM
 DMF .                 KB:   DRILLING MEASURED FROM
 EKB .F              5177:   KELLING BUSHING
 EGL .F              5172:   GROUND LEVEL
 DATE.             8-2-61:   RUN DATE
 RUN .                  1:   RUN NUMBER
 DD  .F               810:   DEPTH DRILLER
 DL  .F               813:   DEPTH LOGGER
 BLI .F               812:   BOTTOM LOG INTERVAL
 TLI .F               100:   TOP LOG INTERVAL
 BS  .IN             6.75:   BIT SIZE
 BSD .F               810:   BIT SIZE AT DEPTH
 DFT .       OIL EMULSION:   DRILLING FLUID TYPE
 DFD .                9.2:   DRILLING FLUID DENSITY
 DFV .                 56:   DRILLING FLUID VISCOSITY
 MFSS.                  M:   MUD FILTRATE SAMPLE SOURCE
 MCSS.                  M:   MUD CAKE SAMPLE SOURCE
 RMB .OHMM            .70:   RESISTIVITY MUD AT BHT
 BHT .F                80:   BOTTOM HOLE TEMPERATURE
 TCS .HRS               1:   TIME CURCULATED STOPPED
 MRT .F                80:   MAXIMUM RECORDED TEMPERATURE
 LUN .               2552:   LOGGING UNIT NUMBER
 LUL .                RIV:   LOGGING UNIT LOCATION
 ENGI.             RANDLE:   RECORDING ENGINEER
 WITN.          VORGENSON:   WITNESSED BY
 CLNT.            A2DTECH:   CLIENT CODE
 ORIG.       2", 5" PRINT:   ORIGIN OF DATA
 UWI .       490250636700:   UNIQUE WELL ID
 DICO. A2D Technologies, Inc.:   DIGITIZING COMPANY
~OTHER INFORMATION
~A   DEPT      SPR        ILD        ASN        CILD        GR   
  100.0000   -26.7276  -999.2500  -999.2500   254.7931  -999.2500
  100.5000   -26.7276  -999.2500  -999.2500   254.7931  -999.2500
  101.0000   -26.9309  -999.2500  -999.2500   254.7931  -999.2500
  101.5000   -26.8848  -999.2500  -999.2500   253.7841  -999.2500
  102.0000   -26.8260  -999.2500  -999.2500   251.7659  -999.2500
  102.5000   -26.7672  -999.2500  -999.2500   248.7386  -999.2500
  103.0000   -26.6603  -999.2500  -999.2500   247.0785  -999.2500
  103.5000   -26.5948  -999.2500  -999.2500   246.5676  -999.2500
  104.0000   -26.4920  -999.2500  -999.2500   244.1449  -999.2500
  104.5000   -26.4683  -999.2500  -999.2500   242.1892  -999.2500
  105.0000   -26.4324  -999.2500  -999.2500   240.2335  -999.2500
  105.5000   -26.4039  -999.2500  -999.2500   238.2778  -999.2500
  106.0000   -26.3680  -999.2500  -999.2500   236.3221  -999.2500
  106.5000   -26.3432  -999.2500  -999.2500   234.3664  -999.2500
  107.0000   -26.3061  -999.2500  -999.2500   232.4107  -999.2500
  107.5000   -26.3732  -999.2500  -999.2500   230.4550  -999.2500
  108.0000   -26.5362  -999.2500  -999.2500   228.5570  -999.2500
  108.5000   -26.5216  -999.2500  -999.2500   228.5570  -999.2500
  109.0000   -26.5221  -999.2500  -999.2500   228.5570  -999.2500
  109.5000   -26.5348  -999.2500  -999.2500   228.5570  -999.2500
  110.0000   -26.3753  -999.2500  -999.2500   227.5479  -999.2500
  110.5000   -26.2967  -999.2500  -999.2500   225.8863  -999.2500
  111.0000   -26.2525  -999.2500  -999.2500   223.1483  -999.2500
  111.5000   -26.1351  -999.2500  -999.2500   220.4104  -999.2500
  112.0000   -26.1677  -999.2500  -999.2500   219.4753  -999.2500
  112.5000   -26.3312  -999.2500  -999.2500   223.5116  -999.2500
  113.0000   -26.3905  -999.2500  -999.2500   222.5025  -999.2500
  113.5000   -26.6032  -999.2500  -999.2500   218.4653  -999.2500
  114.0000   -26.6666  -999.2500     1.1300   215.1050  -999.2500
  114.5000   -26.5049  -999.2500     1.2532   211.7448  -999.2500
  115.0000   -26.4298  -999.2500     1.3764   208.3846  -999.2500
  115.5000   -26.3286  -999.2500     1.5237   204.3391  -999.2500
  116.0000   -26.2425  -999.2500     1.6211   204.2684  -999.2500
  116.5000   -26.1474  -999.2500     1.8675   207.3663  -999.2500
  117.0000   -26.0575     2.7750     2.1139   219.1725  -999.2500
  117.5000   -25.9645     3.0070     2.2786   233.3890  -999.2500
  118.0000   -25.8739     3.3664     2.8375   247.6054  -999.2500
  118.5000   -25.7800     3.5822     3.5846   261.8218  -999.2500
  119.0000   -25.7119     3.4813     4.0238   276.0382  -999.2500
  119.5000   -25.7118     3.5822     4.1723   290.2546  -999.2500
  120.0000   -25.6593     3.5822     4.3173   299.1927  -999.2500
  120.5000   -25.7346     3.5949     4.4363   299.1927  -999.2500
  121.0000   -25.7663     3.8377     4.5703   297.7245  -999.2500
  121.5000   -25.7984     4.1026     4.6033   295.1564  -999.2500
  122.0000   -25.8305     4.3673     4.7704   276.2180  -999.2500
  122.5000   -25.8611     4.6315     5.0205   257.3259  -999.2500
  123.0000   -25.8968     4.8948     5.2762   238.4339  -999.2500
  123.5000   -25.9164     5.1627     5.5194   219.5419  -999.2500
  124.0000   -25.9154     5.3932     5.7868   202.3209  -999.2500
  124.5000   -25.9036     5.3368     5.7309   194.8705  -999.2500
  125.0000   -25.8675     4.5826     4.9818   188.0256  -999.2500
  125.5000   -25.8345     4.0601     4.1606   181.1806  -999.2500
  126.0000   -25.7988     4.2653     4.5163   174.3357  -999.2500
  126.5000   -25.7661     4.3765     5.4479   171.0394  -999.2500
  127.0000   -25.7286     4.4997     6.0926   168.0121  -999.2500
  127.5000   -25.7096     4.6139     6.3490   163.5259  -999.2500
  128.0000   -25.7121     4.7316     6.4734   159.7612  -999.2500
  128.5000   -25.7109     4.8526     6.5233   156.9122  -999.2500
  129.0000   -25.7118     4.9735     6.5061   159.9395  -999.2500
  129.5000   -25.7113     5.0747     6.3284   161.9576  -999.2500
  130.0000   -25.7123     5.1039     6.1700   166.9358  -999.2500
  130.5000   -25.7075     5.0927     5.9737   173.2673  -999.2500
  131.0000   -25.6601     5.1041     5.9263   179.5989  -999.2500
  131.5000   -25.6080     5.0748     5.7615   185.9305  -999.2500
  132.0000   -25.5565     4.9726     5.6363   192.2620  -999.2500
  132.5000   -25.5061     4.8067     5.4563   199.2936  -999.2500
  133.0000   -25.4451     4.6357     5.2396   202.3461  -999.2500
  133.5000   -25.3875     4.4620     5.0320   207.4798  -999.2500
  134.0000   -25.3266     4.2831     4.8152   221.6044  -999.2500
  134.5000  -999.2500     4.1094     4.6059   247.5296  -999.2500
  135.0000  -999.2500     3.9281     4.3875   273.4548  -999.2500
  135.5000  -999.2500     3.7603     4.1832   299.3800  -999.2500
  136.0000  -999.2500     3.5659     3.9537   313.3199  -999.2500
  136.5000  -999.2500     3.4746     3.8574   309.6910  -999.2500
  137.0000  -999.2500     3.4729     3.8572   306.2563  -999.2500
  137.5000  -999.2500     3.5720     3.9592   308.9052  -999.2500
  138.0000  -999.2500     3.8054     4.1816   313.3199  -999.2500
  138.5000  -999.2500     4.0020     4.3716   301.5902  -999.2500
  139.0000  -999.2500     4.2147     4.5788   281.6154  -999.2500
  139.5000  -999.2500     4.4173     4.6857   261.6407  -999.2500
  140.0000  -999.2500     4.6260     4.7752   241.6659  -999.2500
  140.5000  -999.2500     4.8300     4.8674   221.6911  -999.2500
  141.0000  -999.2500     5.0346     4.8916   205.3481  -999.2500
  141.5000  -999.2500     4.9715     4.8022   201.3118  -999.2500
  142.0000  -999.2500     4.3670     4.3613   204.7023  -999.2500
  142.5000  -999.2500     3.7007     3.9514   209.0695  -999.2500
  143.0000  -999.2500     2.9888     3.5396   214.9655  -999.2500
  143.5000  -999.2500     2.4567     3.1255   214.9431  -999.2500
  144.0000  -999.2500     2.4729     2.5117   216.5333  -999.2500
  144.5000  -999.2500     2.6345     2.5930   221.0224  -999.2500
  145.0000  -999.2500     3.3296     3.4265   240.0346  -999.2500
  145.5000  -999.2500     3.7232     3.9906   293.2129  -999.2500
  146.0000  -999.2500     3.5603     3.6947   346.3524  -999.2500
  146.5000  -999.2500     3.2751     3.4259   399.9792  -999.2500
  147.0000  -999.2500     2.9390     3.1816   458.6277  -999.2500
  147.5000  -999.2500     2.6870     2.9762   480.7265  -999.2500
  148.0000  -999.2500     2.6644     2.8187   498.9909  -999.2500
  148.5000  -999.2500     2.7638     2.8192   495.8039  -999.2500
  149.0000  -999.2500     3.0129     2.9025   487.6110  -999.2500
  149.5000  -999.2500     3.2572     3.1690   473.7500  -999.2500
  150.0000  -999.2500     3.5100     3.4626   446.5187  -999.2500
  150.5000  -999.2500     3.7594     3.7444   381.9500  -999.2500
  151.0000  -999.2500     4.0084     4.0440   321.8500  -999.2500
  151.5000  -999.2500     4.2633     4.2023   288.0928  -999.2500
  152.0000  -999.2500     4.4771     4.2529   262.1796  -999.2500
  152.5000  -999.2500     4.4939     4.3275   239.6569  -999.2500
  153.0000  -999.2500     4.4924     4.3578   225.5298  -999.2500
  153.5000  -999.2500     4.4914     4.3664   228.0424  -999.2500
  154.0000  -999.2500     4.4940     4.3710   231.8391  -999.2500
  154.5000  -999.2500     4.4882     4.3429   235.3622  -999.2500
  155.0000  -999.2500     4.4505     4.3411   237.3953  -999.2500
  155.5000  -999.2500     4.4012     4.3073   239.1580  -999.2500
  156.0000  -999.2500     4.2374     4.1758   240.9464  -999.2500
  156.5000  -999.2500     4.1244     4.0716   248.8650  -999.2500
  157.0000  -999.2500     3.9959     3.9588   259.2236  -999.2500
  157.5000  -999.2500     3.8703     3.8507   272.2370  -999.2500
  158.0000  -999.2500     3.6956     3.7401   292.7346  -999.2500
  158.5000  -999.2500     3.4234     3.6307   313.2694  -999.2500
  159.0000  -999.2500     3.1420     3.5203   333.8042  -999.2500
  159.5000  -999.2500     2.8440     3.4111   354.3391  -999.2500
  160.0000  -999.2500     2.5707     3.2992   374.8739  -999.2500
  160.5000  -999.2500     2.6535     3.1911   395.4087  -999.2500
