~VERSION INFORMATION
 VERS.                2.0:   CWLS LOG ASCII STANDARD - VERSION 2.0
 WRAP.                 NO:   ONE LINE PER DEPTH STEP
~WELL INFORMATION
#MNEM.UNIT      DATA TYPE    INFORMATION
#----------   ------------   ------------------------------
 STRT.F           30.0000:   START DEPTH
 STOP.F          602.0000:   STOP DEPTH
 STEP.F            0.5000:   STEP LENGTH
 NULL.          -999.2500:   NO VALUE
 COMP. FENIX & SCISSON U.S NAVY:   COMPANY
 WELL.   S-3 NPR #3 #51-3:   WELL
 FLD .             TEAPOT:   FIELD
 LOC .       S3 T38N R78W:   LOCATION
 CNTY.            NATRONA:   COUNTY
 STAT.            WYOMING:   STATE
 CTRY. UNITED STATES OF AMERICA:   COUNTRY
 SRVC.              Welex:   SERVICE COMPANY
 DATE.        08-MAR-1977:   LOGDATE
 API .       490251030800:   API NUMBER
~CURVE INFORMATION
#MNEM.UNIT       API CODE    CURVE DESCRIPTION
#----------   ------------   ------------------------------
 DEPT.F                  :   
 SPR .MV     07 010 01 00:   SPONTANEOUS POTENTIAL
 ILD .OHMM   07 120 46 00:   INDUCTION LOG DEEP
 ILM .OHMM   07 120 44 00:   INDUCTION LOG MEDIUM
 SGRD.OHMM   07 221 05 00:   SHALLOW SHORT GUARD RESISTIVITY
 CALD.IN     45 280 60 00:   CALIPER FROM DENSITY LOG
 CORR.G/C3   45 356 01 00:   DENSITY CORRECTION
 RHOB.G/C3   45 350 01 00:   BULK DENSITY
 DPHI.DEC    45 890 12 00:   DENSITY POROSITY SANDSTONE
 GRD .GAPI   45 310 01 00:   GAMMA RAY FROM DENSITY LOG
~PARAMETER INFORMATION
#MNEM.UNIT          VALUE    DESCRIPTION
#----------   ------------   ------------------------------
 PD  .                 GL:   PERMANENT DATUM
 EPD .F              5140:   ELEVATION PERMANENT DATUM
 LMF .                 GL:   LOG MEASURED FROM
 DAPD.F                  :   FEET ABOVE PERMANENT DATUM
 DMF .                 GL:   DRILLING MEASURED FROM
 EKB .F                  :   KELLING BUSHING
 EDF .F                  :   DRILLING FLOOR
 EGL .F              5140:   GROUND LEVEL
 DATE.             3-8-77:   RUN DATE
 RUN .                  1:   RUN NUMBER
 DD  .F               611:   DEPTH DRILLER
 DL  .F               555:   DEPTH LOGGER
 BLI .F               553:   BOTTOM LOG INTERVAL
 TLI .F                40:   TOP LOG INTERVAL
 CS  .IN            8.625:   CASING SIZE
 CBD .F                40:   CASING BOTTOM DRILLER
 CBL .F                40:   CASING BOTTOM LOGGER
 BS  .IN            7.875:   BIT SIZE
 BSD .F               611:   BIT SIZE AT DEPTH
 DFT .           CHEM GEL:   DRILLING FLUID TYPE
 DFD .                8.6:   DRILLING FLUID DENSITY
 DFV .                 42:   DRILLING FLUID VISCOSITY
 DFPH.                  8:   DRILLING FLUID PH
 DFL .                3.2:   DRILLING FLUID LOSS
 MSS .           FLOWLINE:   MUD SAMPLE SOURCE
 RMS .OHMM           1.49:   RESISTIVITY MUD SAMPLE
 MST .F                48:   MUD SAMPLE TEMPERATURE
 RMF .OHMM           1.07:   RESISTIVITY MUD FILTRATE SAMPLE
 MFST.F                48:   MUD FILTRATE SAMPLE TEMPERATURE
 RMC .OHMM           2.34:   RESISTIVITY MUD CAKE
 MCST.F                48:   MUD CAKE SAMPLE TEMPERATURE
 MFSS.           MEASURED:   MUD FILTRATE SAMPLE SOURCE
 MCSS.           MEASURED:   MUD CAKE SAMPLE SOURCE
 RMB .OHMM           1.19:   RESISTIVITY MUD AT BHT
 BHT .F                60:   BOTTOM HOLE TEMPERATURE
 TCS .HRS               2:   TIME CURCULATED STOPPED
 TLAB.HRS                :   TIME LOGGER AT BOTTOM
 MRT .F                60:   MAXIMUM RECORDED TEMPERATURE
 LUN .               0716:   LOGGING UNIT NUMBER
 LUL .             VERNAL:   LOGGING UNIT LOCATION
 ENGI.           CALLAHAN:   RECORDING ENGINEER
 WITN.         STUEBINGER:   WITNESSED BY
 CLNT.            A2DTECH:   CLIENT CODE
 ORIG.       2", 5" PRINT:   ORIGIN OF DATA
 UWI .       490251030800:   UNIQUE WELL ID
 DICO. A2D Technologies, Inc.:   DIGITIZING COMPANY
 OS  .                   :   OTHER SERVICES
 PWI .                   :   PRIMARY WELL IDENTIFIER
 R1  .                   :   REMARKS 1
 R2  .                   :   REMARKS 2
 LSRV.                   :   LOG MNEMONIC
~OTHER INFORMATION
~A   DEPT      SPR        ILD        ILM       SGRD       CALD       CORR       RHOB       DPHI        GRD   
   30.0000  -999.2500  -999.2500  -999.2500  -999.2500  -999.2500  -999.2500  -999.2500  -999.2500   105.2263
   30.5000  -999.2500  -999.2500  -999.2500  -999.2500  -999.2500  -999.2500  -999.2500  -999.2500   102.5014
   31.0000  -999.2500  -999.2500  -999.2500  -999.2500  -999.2500  -999.2500  -999.2500  -999.2500   103.0050
   31.5000  -999.2500  -999.2500  -999.2500  -999.2500  -999.2500  -999.2500  -999.2500  -999.2500   105.6605
   32.0000  -999.2500  -999.2500  -999.2500  -999.2500  -999.2500  -999.2500  -999.2500  -999.2500   107.1653
   32.5000  -999.2500  -999.2500  -999.2500  -999.2500  -999.2500  -999.2500  -999.2500  -999.2500   108.6700
   33.0000  -999.2500  -999.2500  -999.2500  -999.2500  -999.2500  -999.2500  -999.2500  -999.2500   111.3832
   33.5000  -999.2500  -999.2500  -999.2500  -999.2500  -999.2500  -999.2500  -999.2500  -999.2500   113.4922
   34.0000  -999.2500  -999.2500  -999.2500  -999.2500  -999.2500  -999.2500  -999.2500  -999.2500   117.1117
   34.5000  -999.2500  -999.2500  -999.2500  -999.2500  -999.2500  -999.2500  -999.2500  -999.2500   126.0483
   35.0000  -999.2500  -999.2500  -999.2500  -999.2500  -999.2500  -999.2500  -999.2500  -999.2500   130.5427
   35.5000  -999.2500  -999.2500  -999.2500  -999.2500  -999.2500  -999.2500  -999.2500  -999.2500   134.9176
   36.0000  -999.2500  -999.2500  -999.2500  -999.2500  -999.2500  -999.2500  -999.2500  -999.2500   139.2924
   36.5000  -999.2500  -999.2500  -999.2500  -999.2500  -999.2500  -999.2500  -999.2500  -999.2500   142.6098
   37.0000  -999.2500  -999.2500  -999.2500  -999.2500  -999.2500  -999.2500  -999.2500  -999.2500   146.6826
   37.5000  -999.2500  -999.2500  -999.2500  -999.2500  -999.2500  -999.2500  -999.2500  -999.2500   148.6405
   38.0000  -999.2500  -999.2500  -999.2500  -999.2500  -999.2500  -999.2500  -999.2500  -999.2500   150.0000
   38.5000  -999.2500  -999.2500  -999.2500  -999.2500  -999.2500  -999.2500  -999.2500  -999.2500   150.0000
   39.0000  -999.2500  -999.2500  -999.2500  -999.2500  -999.2500  -999.2500  -999.2500  -999.2500   150.0000
   39.5000  -999.2500  -999.2500  -999.2500  -999.2500  -999.2500  -999.2500  -999.2500  -999.2500   150.0000
   40.0000  -999.2500  -999.2500  -999.2500  2000.0000    11.0897     0.1785     2.1152     0.2982   149.8183
   40.5000  -999.2500     0.8873     4.8288  2000.0000    10.2806     0.1298     2.2009     0.2846   148.6040
   41.0000  -999.2500     0.5773     6.0233  2000.0000     8.5583     0.0756     2.1925     0.2647   147.8348
   41.5000  -999.2500     0.5017     6.5422  2000.0000     8.1235     0.0078     2.2211     0.2656   146.1740
   42.0000  -999.2500     0.5466     6.9118  1867.6644     8.0479     0.0469     2.4007     0.1490   147.9809
   42.5000  -999.2500     0.7196     7.3023   164.2319     7.9411     0.0652     2.4642     0.1244   147.9751
   43.0000  -999.2500     1.0311     7.8325   123.5798     7.8517     0.0815     2.4841     0.1160   146.9118
   43.5000  -999.2500     1.6970     8.2066   126.9769     7.8060     0.0996     2.4901     0.1052   145.3954
   44.0000  -999.2500     4.5981     8.3754   219.3394     7.7604     0.1026     2.4750     0.1022   141.9153
   44.5000  -999.2500     6.5887     8.5476  1272.9879     7.7597     0.0499     2.4840     0.1159   140.5499
   45.0000  -999.2500     7.1584     8.7840  1678.7014     7.7740     0.0273     2.4230     0.1386   142.0532
   45.5000  -999.2500     7.2537     8.9030   292.9720     7.7882     0.0137     2.4191     0.1431   143.5580
   46.0000  -999.2500     7.4537     9.0860   405.4874     7.7874     0.0182     2.4116     0.1440   143.2500
   46.5000  -999.2500     9.9658     9.2089  -999.2500     7.8165     0.0347     2.4146     0.1431   142.4889
   47.0000  -999.2500    12.5530     9.2692  -999.2500     7.8309     0.0498     2.4318     0.1383   141.4257
   47.5000  -999.2500    13.9886     9.2646  -999.2500     7.8751     0.0483     2.4438     0.1272   141.2688
   48.0000  -999.2500    13.2236     9.2820  -999.2500     7.9191     0.0196     2.4430     0.1338   143.8309
   48.5000  -999.2500    12.5894     9.2960  -999.2500     7.9483     0.0362     2.4295     0.1311   142.9173
   49.0000  -999.2500    12.6694     9.3109  -999.2500     7.9476     0.0392     2.4497     0.1275   141.8541
   49.5000  -999.2500    13.3842     9.3258  -999.2500     7.9467     0.0301     2.4482     0.1260   141.8482
   50.0000  -999.2500    13.6574     9.2226  -999.2500     7.9460     0.0136     2.4383     0.1299   141.9949
   50.5000  -999.2500    13.1411     9.0743  -999.2500     7.9453     0.0015     2.4255     0.1401   140.7792
   51.0000  -999.2500    11.1540     8.8735  -999.2500     7.9296     0.0000     2.4052     0.1491   141.3776
   51.5000  -999.2500     9.3728     8.8688  -999.2500     7.9289     0.0002     2.3961     0.1558   140.6868
   52.0000  -999.2500     9.0479     8.8641  -999.2500     7.9132     0.0060     2.3968     0.1549   139.7029
   52.5000  -999.2500     8.7951     8.8593  -999.2500     7.9124     0.0150     2.4043     0.1522   141.0565
   53.0000  -999.2500     8.7290     8.8546  -999.2500     7.8966     0.0345     2.4155     0.1476   142.4102
   53.5000  -999.2500     8.6634     8.8498  -999.2500     7.8809     0.0526     2.4252     0.1396   141.8002
   54.0000  -999.2500     8.6570     8.9055  -999.2500     7.8652     0.0668     2.4350     0.1333   141.0390
   54.5000  -999.2500     8.7133     8.9007  -999.2500     7.8196     0.0816     2.4409     0.1300   142.0906
   55.0000  -999.2500     8.7687     8.9579  -999.2500     7.7590     0.0962     2.4341     0.1303   144.5418
   55.5000  -999.2500     8.8845     8.9531  -999.2500     7.6534     0.1158     2.4206     0.1363   145.2512
   56.0000  -999.2500     8.9409     8.9483  -999.2500     7.5180     0.1248     2.4348     0.1327   144.4886
   56.5000  -999.2500     8.9978     8.9435  1465.4491     7.5620     0.1158     2.4197     0.1372   145.2380
   57.0000  -999.2500     9.0549     8.9386    45.9154     7.6511     0.1037     2.4347     0.1300   146.5917
   57.5000  -999.2500     9.1125     8.9327    56.1015     7.7701     0.0811     2.4106     0.1441   147.9454
   58.0000  -999.2500     9.1704     8.9279   107.5175     7.8892     0.1097     2.4369     0.1357   148.2417
   58.5000  -999.2500     9.2287     8.9232    91.6441     7.9932     0.0863     2.4210     0.1381   147.9094
   59.0000  -999.2500     9.2873     8.9180   264.2728     8.0374     0.0750     2.4142     0.1453   146.7180
   59.5000  -999.2500     9.2804     8.8520  -999.2500     8.0517     0.0886     2.4209     0.1393   144.1442
   60.0000  -999.2500     9.2746     8.8473  -999.2500     7.9909     0.1232     2.4525     0.1246   142.7789
   60.5000  -999.2500     9.2038     8.8424  -999.2500     7.9004     0.1066     2.4411     0.1291   142.7730
   61.0000  -999.2500     9.0715     8.8366  -999.2500     7.7649     0.1292     2.4471     0.1207   142.9345
   61.5000  -999.2500     8.9412     8.8319  -999.2500     7.5845     0.1503     2.4914     0.1006   142.2900
   62.0000  -999.2500     8.9358     8.8268  -999.2500     7.5239     0.0614     2.4741     0.1003   141.8492
   62.5000  -999.2500     8.9305     8.8850  -999.2500     7.5694     0.0312     2.4425     0.1264   143.9567
   63.0000  -999.2500     8.9250     8.8791  -999.2500     7.6421     0.0342     2.4379     0.1280   148.0295
   63.5000  -999.2500     8.9184     8.8739  -999.2500     7.7312     0.0433     2.4559     0.1220   149.3846
   64.0000  -999.2500     8.9764     8.9313  -999.2500     7.8652     0.0538     2.4611     0.1168   147.7157
   64.5000  -999.2500     9.0335     8.9887  -999.2500     7.9694     0.0613     2.4573     0.1172   148.7673
   65.0000  -999.2500     9.0267     8.9827  -999.2500     7.9536     0.0432     2.4310     0.1285   149.2146
   65.5000  -999.2500     9.0842     9.0415  -999.2500     7.9379     0.0598     2.4324     0.1334   148.7541
   66.0000  -999.2500     9.0786     9.0355  -999.2500     7.9371     0.0372     2.4268     0.1400   148.1441
