~VERSION INFORMATION
 VERS.                2.0:   CWLS LOG ASCII STANDARD - VERSION 2.0
 WRAP.                 NO:   ONE LINE PER DEPTH STEP
~WELL INFORMATION
#MNEM.UNIT      DATA TYPE    INFORMATION
#----------   ------------   ------------------------------
 STRT.F          672.0000:   START DEPTH
 STOP.F         2343.5000:   STOP DEPTH
 STEP.F            0.5000:   STEP LENGTH
 NULL.          -999.2500:   NO VALUE
 COMP. FENIX & SCISSON INC:   COMPANY
 WELL.   23 SHX-33 #23-33:   WELL
 FLD .             TEAPOT:   FIELD
 LOC .      S33 T39N R78W:   LOCATION
 CNTY.            NATRONA:   COUNTY
 STAT.            WYOMING:   STATE
 CTRY. UNITED STATES OF AMERICA:   COUNTRY
 SRVC.            Unknown:   SERVICE COMPANY
 DATE.        01-MAY-1978:   LOGDATE
 API .       490251062700:   API NUMBER
~CURVE INFORMATION
#MNEM.UNIT       API CODE    CURVE DESCRIPTION
#----------   ------------   ------------------------------
 DEPT.F                  :   
 IL  .OHMM   05 120 00 00:   INDUCTION LOG
 CIL .MMHO   05 110 00 00:   CONDUCTIVITY INDUCTION LOG
 CALD.IN     45 280 60 00:   CALIPER FROM DENSITY LOG
 GRD .GAPI   45 310 01 00:   GAMMA RAY FROM DENSITY LOG
 DPHI.DEC    45 890 12 00:   DENSITY POROSITY SANDSTONE
 RHOB.G/C3   45 350 01 00:   BULK DENSITY
 CORR.G/C3   45 356 01 00:   DENSITY CORRECTION
~PARAMETER INFORMATION
#MNEM.UNIT          VALUE    DESCRIPTION
#----------   ------------   ------------------------------
 PD  .                 GL:   PERMANENT DATUM
 EPD .F              5163:   ELEVATION PERMANENT DATUM
 LMF .                 KB:   LOG MEASURED FROM
 DAPD.F                10:   FEET ABOVE PERMANENT DATUM
 DMF .                 KB:   DRILLING MEASURED FROM
 EKB .F              5173:   KELLING BUSHING
 EGL .F              5163:   GROUND LEVEL
 DATE.           5-1-1978:   RUN DATE
 RUN .                  1:   RUN NUMBER
 DD  .F              2331:   DEPTH DRILLER
 DL  .F              2260:   DEPTH LOGGER
 BLI .F              2250:   BOTTOM LOG INTERVAL
 TLI .F               690:   TOP LOG INTERVAL
 CS  .IN            9.625:   CASING SIZE
 CBD .F               683:   CASING BOTTOM DRILLER
 CBL .F               690:   CASING BOTTOM LOGGER
 BS  .IN             8.75:   BIT SIZE
 BSD .F              2331:   BIT SIZE AT DEPTH
 DFT .                OIL:   DRILLING FLUID TYPE
 BHT .F               104:   BOTTOM HOLE TEMPERATURE
 TCS .HRS               5:   TIME CURCULATED STOPPED
 MRT .F               104:   MAXIMUM RECORDED TEMPERATURE
 LUN .               2958:   LOGGING UNIT NUMBER
 LUL .               CASP:   LOGGING UNIT LOCATION
 ENGI.             MILLER:   RECORDING ENGINEER
 WITN.           MCGINLEY:   WITNESSED BY
 CLNT.            A2DTECH:   CLIENT CODE
 ORIG.       2", 5" PRINT:   ORIGIN OF DATA
 UWI .       490251062700:   UNIQUE WELL ID
 DICO. A2D Technologies, Inc.:   DIGITIZING COMPANY
~OTHER INFORMATION
~A   DEPT       IL        CIL       CALD         GRD      DPHI       RHOB       CORR   
# ...
 1218.0000     6.8207   135.8586     9.7599   114.4897    -0.0064     2.5622     0.0415
 1218.5000     6.8252   135.8586     9.7763   114.5630    -0.0075     2.5592     0.0413
 1219.0000     6.8298   135.8586     9.7928   114.6116    -0.0086     2.5569     0.0420
 1219.5000     6.8343   135.8586     9.8093   114.1174    -0.0138     2.5570     0.0426
 1220.0000     6.8389   135.5960     9.8258   113.5966    -0.0249     2.5656     0.0432
 1220.5000     6.8433   134.5717     9.8408   113.8994    -0.0221     2.5802     0.0432
 1221.0000     6.8468   133.5475     9.8426   114.5725    -0.0218     2.5858     0.0432
 1221.5000     6.8879   132.5232     9.8459   114.0660    -0.0236     2.5828     0.0432
 1222.0000     6.9325   131.9195     9.8491   113.3989    -0.0242     2.5864     0.0432
 1222.5000     6.9772   132.2447     9.8525   113.1749    -0.0246     2.5908     0.0432
 1223.0000     7.0214   132.5698     9.8558   113.0792    -0.0246     2.5862     0.0432
 1223.5000     7.0507   132.8950     9.8591   113.1365    -0.0238     2.5852     0.0432
 1224.0000     7.0350   133.2201     9.8624   113.5086    -0.0163     2.5889     0.0432
 1224.5000     7.0189   133.5453     9.8657   114.2423    -0.0091     2.5783     0.0432
 1225.0000     7.0027   133.8705     9.8690   116.3661    -0.0097     2.5654     0.0432
 1225.5000     6.9865   134.1956     9.8723   118.8233    -0.0105     2.5626     0.0432
 1226.0000     6.9703   134.5208     9.8756   121.1466    -0.0112     2.5617     0.0432
 1226.5000     6.9541   134.8459     9.8790   121.2577    -0.0120     2.5657     0.0432
 1227.0000     6.9380   135.1711     9.8812   119.4490    -0.0127     2.5651     0.0432
 1227.5000     6.9218   135.4962     9.8759   117.3716    -0.0134     2.5585     0.0432
 1228.0000     6.9056   135.8214     9.8614   115.2809    -0.0121     2.5677     0.0432
 1228.5000     6.8895   137.6727     9.8599   113.8581    -0.0101     2.5673     0.0432
 1229.0000     6.8733   137.8788     9.8591   113.5862    -0.0082     2.5657     0.0432
 1229.5000     6.8571   137.8788     9.8582   113.2782     0.0035     2.5677     0.0432
 1230.0000     6.8409   137.8788     9.8573   112.7528     0.0010     2.5626     0.0432
 1230.5000     6.8243   137.8788     9.8564   112.8088    -0.0033     2.5466     0.0432
 1231.0000     6.8110   138.7588     9.8554   113.0133    -0.0036     2.5382     0.0432
 1231.5000     6.7491   139.6806     9.8545   113.2373    -0.0023     2.5573     0.0432
 1232.0000     6.7087   140.6024     9.8536   109.9655    -0.0025     2.5639     0.0433
 1232.5000     6.6652   141.5242     9.8527   110.0437    -0.0032     2.5556     0.0432
 1233.0000     6.6220   142.4461     9.8518   119.4745    -0.0038     2.5491     0.0429
 1233.5000     6.5789   143.3679     9.8509   127.6119    -0.0026     2.5537     0.0408
 1234.0000     6.5359   144.2897     9.8499   120.5866    -0.0011     2.5587     0.0388
 1234.5000     6.4922   145.2115     9.8490   113.6347    -0.0007     2.5537     0.0368
 1235.0000     6.4482   146.1333     9.8481   111.0605    -0.0022     2.5487     0.0347
 1235.5000     6.4010   146.9697     9.8472   111.6609    -0.0037     2.5460     0.0327
 1236.0000     6.4085   144.8712     9.8463   111.2375    -0.0052     2.5522     0.0313
 1236.5000     6.4165   143.9629     9.8454   109.8529    -0.0062     2.5594     0.0313
 1237.0000     6.4238   144.0087     9.8444   107.2647    -0.0055     2.5542     0.0320
 1237.5000     6.4311   144.0544     9.8435   105.3881    -0.0048     2.5479     0.0331
 1238.0000     6.4384   144.1001     9.8425   107.9723    -0.0042     2.5516     0.0342
 1238.5000     6.4446   144.1458     9.8423   109.9996    -0.0035     2.5562     0.0357
 1239.0000     6.4444   144.1916     9.8558   109.2381    -0.0031     2.5594     0.0402
 1239.5000     6.4419   144.2373     9.8606   108.6544    -0.0032     2.5551     0.0462
 1240.0000     6.4355   144.2830     9.8391   108.6661    -0.0033     2.5511     0.0521
 1240.5000     6.4291   144.3287     9.8374   108.6640    -0.0034     2.5510     0.0579
 1241.0000     6.4227   144.3745     9.8351   108.6758    -0.0035     2.5509     0.0638
 1241.5000     6.4163   144.4202     9.8324   108.7670    -0.0035     2.5521     0.0697
 1242.0000     6.4099   144.4659     9.8298   111.6571    -0.0068     2.5535     0.0754
 1242.5000     6.4035   144.5116     9.8271   115.3929    -0.0082     2.5650     0.0631
 1243.0000     6.3971   144.5574     9.8245   115.2467     0.0004     2.5683     0.0488
 1243.5000     6.3907   144.6031     9.8218   111.7338     0.0037     2.5538     0.0406
 1244.0000     6.3843   144.6488     9.8191   109.8039     0.0003     2.5399     0.0422
 1244.5000     6.3779   144.6945     9.8165   110.0787    -0.0110     2.5402     0.0477
 1245.0000     6.3714   144.7403     9.8138   107.3420    -0.0231     2.5554     0.0533
 1245.5000     6.3646   144.7860     9.8112   105.6833    -0.0273     2.5817     0.0588
 1246.0000     6.3649   144.8317     9.8085   105.5218    -0.0294     2.5884     0.0617
 1246.5000     6.4130   144.8774     9.8059   105.3486    -0.0311     2.5919     0.0627
 1247.0000     6.4635   144.9232     9.8032   103.7589    -0.0327     2.5953     0.0636
 1247.5000     6.5138   144.3290     9.8006    99.9551    -0.0337     2.5988     0.0646
 1248.0000     6.5641   142.8658     9.7979    96.1818    -0.0377     2.6023     0.0652
 1248.5000     6.6143   141.4026     9.7953    92.5601    -0.0394     2.6057     0.0613
 1249.0000     6.6646   139.0236     9.7926    89.8288    -0.0363     2.6092     0.0568
 1249.5000     6.7148   136.1785     9.7900    87.9666    -0.0353     2.6113     0.0523
 1250.0000     6.7651   135.3732     9.7873    87.5867    -0.0340     2.6028     0.0477
 1250.5000     6.8153   134.8263     9.7845    87.6268    -0.0297     2.6013     0.0432
 1251.0000     6.8657   134.2794     9.7823    88.1043    -0.0260     2.6069     0.0392
 1251.5000     6.9177   133.7325     9.7950    89.1601    -0.0288     2.5976     0.0409
 1252.0000     6.9292   133.1857     9.8579    91.8775    -0.0351     2.5915     0.0494
 1252.5000     6.9292   132.8283     9.9318    94.7007    -0.0428     2.5979     0.0579
 1253.0000     6.9283   132.8283    10.0072    97.1088    -0.0504     2.6085     0.0632
 1253.5000     6.9384   132.8283    10.0201    96.6204    -0.0532     2.6192     0.0631
 1254.0000     6.9719   131.0452    10.0198    94.1230    -0.0554     2.6295     0.0624
 1254.5000     7.1070   127.9403    10.0408    90.7833    -0.0575     2.6313     0.0616
 1255.0000     7.2482   124.8353    10.0726    85.3219    -0.0596     2.6365     0.0612
 1255.5000     7.3891   121.7303    10.0881    79.6209    -0.0556     2.6502     0.0575
 1256.0000     7.5301   118.6869     9.8786    74.0239    -0.0397     2.6537     0.0506
 1256.5000     7.6704   118.5905     9.8698    69.2711    -0.0311     2.6285     0.0528
 1257.0000     7.7800   118.4961     9.9242    67.5931    -0.0272     2.6110     0.0639
 1257.5000     7.7796   118.4016     9.9781    71.4870    -0.0328     2.5936     0.0689
 1258.0000     7.8061   118.3072     9.9805    86.6324    -0.0361     2.5996     0.0647
 1258.5000     7.8895   118.2127     9.9801    93.7046    -0.0321     2.6047     0.0599
 1259.0000     7.9405   118.1182     9.9805    92.2438    -0.0269     2.6034     0.0553
 1259.5000     7.9851   118.0238    10.0043    90.1992    -0.0217     2.5950     0.0551
 1260.0000     7.9055   117.9297    10.0613    90.1908    -0.0162     2.5861     0.0539
 1260.5000     7.8177   117.8360    10.0714    90.2866    -0.0203     2.5771     0.0527
 1261.0000     7.7490   117.7439    10.0547    90.3839    -0.0234     2.5796     0.0514
 1261.5000     7.7675   117.2441    10.0393    90.1983    -0.0216     2.5854     0.0511
 1262.0000     7.8219   115.9130    10.0438    89.5707    -0.0196     2.5907     0.0485
 1262.5000     7.8688   114.5806    10.0495    88.7349    -0.0201     2.5786     0.0460
 1263.0000     7.9158   113.2499    10.0552    88.1643    -0.0216     2.5598     0.0434
