~VERSION INFORMATION
 VERS.                2.0:   CWLS LOG ASCII STANDARD - VERSION 2.0
 WRAP.                 NO:   ONE LINE PER DEPTH STEP
~WELL INFORMATION
#MNEM.UNIT      DATA TYPE    INFORMATION
#----------   ------------   ------------------------------
 STRT.F           90.0000:   START DEPTH
 STOP.F         1312.0000:   STOP DEPTH
 STEP.F            0.5000:   STEP LENGTH
 NULL.          -999.2500:   NO VALUE
 COMP. US NAVY/ INTEX OIL CO:   COMPANY
 WELL. RES 3 TEAPOT DOME NPR "S' #42-2:   WELL
 FLD .             TEAPOT:   FIELD
 LOC .       S2 T38N R78W:   LOCATION
 CNTY.            NATRONA:   COUNTY
 STAT.            WYOMING:   STATE
 CTRY. UNITED STATES OF AMERICA:   COUNTRY
 SRVC. Schlumberger Well Surveying Corp:   SERVICE COMPANY
 DATE.        17-JUL-1964:   LOGDATE
 API .       490250646400:   API NUMBER
~CURVE INFORMATION
#MNEM.UNIT       API CODE    CURVE DESCRIPTION
#----------   ------------   ------------------------------
 DEPT.F                  :   
 GR  .GAPI   30 310 01 00:   GAMMA RAY
 CALS.IN     60 280 50 00:   CALIPER FROM SONIC LOG
 DT  .US/F   60 520 32 00:   INTERVAL TRANSIT TIME
 SPR .MV     05 010 01 00:   SPONTANEOUS POTENTIAL FROM RES.
 CILD.MMHO   05 110 46 00:   CONDUCTIVITY INDUCTION LOG DEEP
 ILD .OHMM   05 120 46 00:   INDUCTION LOG DEEP
 ASN .OHMM   05 040 16 00:   AMPLIFIED SHORT NORMAL 16"
~PARAMETER INFORMATION
#MNEM.UNIT          VALUE    DESCRIPTION
#----------   ------------   ------------------------------
 PD  .                 GL:   PERMANENT DATUM
 EPD .F              5142:   ELEVATION PERMANENT DATUM
 LMF .                 KB:   LOG MEASURED FROM
 DAPD.F                 8:   FEET ABOVE PERMANENT DATUM
 DMF .                 KB:   DRILLING MEASURED FROM
 EKB .F              5150:   KELLING BUSHING
 EGL .F              5142:   GROUND LEVEL
 DATE.          7-17-1964:   RUN DATE
 RUN .                  1:   RUN NUMBER
 DD  .F              1300:   DEPTH DRILLER
 DL  .F              1310:   DEPTH LOGGER
 BLI .F              1309:   BOTTOM LOG INTERVAL
 TLI .F               107:   TOP LOG INTERVAL
 CS  .IN            12.25:   CASING SIZE
 CBD .F                10:   CASING BOTTOM DRILLER
 BS  .IN               11:   BIT SIZE
 BSD .F              1300:   BIT SIZE AT DEPTH
 DFT .            GEL-OIL:   DRILLING FLUID TYPE
 DFD .                9.6:   DRILLING FLUID DENSITY
 DFV .                 63:   DRILLING FLUID VISCOSITY
 DFPH.                  8:   DRILLING FLUID PH
 DFL .                9.6:   DRILLING FLUID LOSS
 MSS .           FLOWLINE:   MUD SAMPLE SOURCE
 RMS .OHMM           2.07:   RESISTIVITY MUD SAMPLE
 MST .F                92:   MUD SAMPLE TEMPERATURE
 RMF .OHMM           1.42:   RESISTIVITY MUD FILTRATE SAMPLE
 MFST.F                92:   MUD FILTRATE SAMPLE TEMPERATURE
 RMC .OHMM           2.33:   RESISTIVITY MUD CAKE
 MCST.F                92:   MUD CAKE SAMPLE TEMPERATURE
 MFSS.                 FP:   MUD FILTRATE SAMPLE SOURCE
 MCSS.                 FP:   MUD CAKE SAMPLE SOURCE
 TCS .HRS               1:   TIME CURCULATED STOPPED
 LUN .               4507:   LOGGING UNIT NUMBER
 LUL .              CSPR.:   LOGGING UNIT LOCATION
 ENGI.             DANNER:   RECORDING ENGINEER
 WITN.          JORGENSEN:   WITNESSED BY
 CLNT.            A2DTECH:   CLIENT CODE
 ORIG.        2" 5" PRINT:   ORIGIN OF DATA
 UWI .       490250646400:   UNIQUE WELL ID
 DICO. A2D Technologies, Inc.:   DIGITIZING COMPANY
~OTHER INFORMATION
~A   DEPT       GR       CALS         DT        SPR        CILD         ILD        ASN 
# ...
  863.5000    43.8644    10.1643    97.9418   -46.4696    72.3517    14.1220    15.7236
  864.0000    42.4621     9.4825    98.1058   -45.7548    73.7350    13.8124    15.5485
  864.5000    41.0746     9.4995    98.0681   -45.0482    74.4428    13.6462    15.3561
  865.0000    42.4650    10.0072    97.1385   -44.3327    74.1074    13.6750    15.2774
  865.5000    43.3300    10.8792    97.5050   -44.0928    73.7721    13.7624    15.3560
  866.0000    42.4110    10.9841    97.3394   -44.2535    73.4368    13.8888    15.4107
  866.5000    42.1198    11.0445    98.4287   -44.4785    73.1014    14.0029    15.4763
  867.0000    41.3645    11.0519    98.3235   -44.9858    72.7661    14.1221    15.5387
  867.5000    38.6275    11.0612    99.3177   -45.4355    72.4308    14.2421    15.5979
  868.0000    38.5431    11.0706    99.5624   -45.7398    72.0954    14.3418    15.6676
  868.5000    39.4755    11.0800    99.4940   -46.0516    71.7601    14.1762    15.5989
  869.0000    34.8437    11.0894    98.7851   -46.1085    72.1321    13.9586    15.4187
  869.5000    29.3732    11.0988    97.5778   -45.9159    73.4125    13.7517    15.2524
  870.0000    25.9155    11.1082    97.0984   -45.5054    74.6929    13.5396    15.0783
  870.5000    25.6603    11.1177    96.2249   -45.0848    75.9733    13.3301    14.9086
  871.0000    26.2777    11.1270    95.2912   -44.8187    77.2536    13.1189    14.7359
  871.5000    26.9933    11.1366    94.8293   -44.7495    78.5340    12.9081    14.5655
  872.0000    28.2018    11.1252    95.0318   -44.6418    79.8144    12.6975    14.3920
  872.5000    29.2859    11.0962    96.1809   -44.5540    81.0947    12.4870    14.2234
  873.0000    28.1790    11.0659    96.9212   -44.4551    82.3751    12.2774    14.0449
  873.5000    27.0311    11.0843    97.2390   -44.3638    83.6555    12.0645    13.8828
  874.0000    27.6428    11.1154    97.3607   -44.2663    84.9358    11.9337    13.7938
  874.5000    33.4553    11.1415    96.9170   -44.1771    84.5946    12.1425    13.9223
  875.0000    36.5251    11.1409    96.3124   -44.0531    82.5826    12.5726    14.0926
  875.5000    37.7091    11.1411    94.3135   -43.6784    80.5706    12.9531    14.3032
  876.0000    41.5272    11.1396    89.5329   -43.2545    78.5586    13.3907    14.8859
  876.5000    46.7965    11.1576    84.7593   -42.6287    76.5529    13.5474    15.5110
  877.0000    46.8488    11.1452    79.9989   -42.0065    74.5734    13.4326    16.1478
  877.5000    41.5555    11.1346    76.2299   -41.3385    74.5726    13.3759    17.0759
  878.0000    37.7159    11.1237    74.4827   -41.0316    74.5721    13.2710    17.0327
  878.5000    36.0288    11.1129    73.9936   -41.0868    74.5736    13.2282    15.9252
  879.0000    35.7620    11.1024    77.7263   -41.2064    75.5753    12.8918    14.8676
  879.5000    35.8153    11.0865    81.8232   -41.3645    80.8076    12.2927    13.8031
  880.0000    38.3624    11.0114    86.3621   -41.5094    85.8341    11.7529    12.7858
  880.5000    41.2936    10.8735    89.8569   -41.6537    90.8590    11.1758    12.5253
  881.0000    40.8164    10.7550    91.4157   -41.8136    95.5868    10.6785    12.2923
  881.5000    39.4813    10.7627    91.5194   -41.8462    97.0071    10.4707    12.0588
  882.0000    41.0296    10.8910    91.5930   -41.5345    97.9736    10.4613    11.9444
  882.5000    44.4316    11.0531    91.4240   -41.2229    98.6028    10.4734    11.9220
  883.0000    44.2008    11.1186    91.2249   -40.9037    98.5382    10.4820    11.9004
  883.5000    44.6969    11.1215    90.8503   -40.6000    98.4737    10.4925    11.8792
  884.0000    44.3860    11.1157    90.3823   -40.2984    98.4071    10.5020    11.8576
  884.5000    46.4642    11.0840    89.9096   -40.0034    98.3341    10.5121    11.8354
  885.0000    50.4214    11.0523    89.9096   -39.7115    98.2692    10.5217    11.8125
  885.5000    53.5816    11.0477    89.7055   -39.4650    98.2043    10.5313    11.7901
  886.0000    56.0840    11.0594    89.3675   -39.3921    98.1394    10.5406    11.7674
  886.5000    51.2275    11.0717    89.5156   -39.3349    98.0745    10.5500    11.7446
  887.0000    50.6297    11.0787    89.7691   -39.2795    98.0096    10.5594    11.7219
  887.5000    52.9275    11.0275    89.9473   -39.2274    97.9447    10.5687    11.6992
  888.0000    53.9971    10.9822    89.9448   -39.1766    97.8798    10.5781    11.6765
  888.5000    53.8359    11.0190    89.6913   -39.1286    97.8149    10.5874    11.6538
  889.0000    53.3623    11.0571    89.5315   -39.0795    97.7500    10.5969    11.6311
  889.5000    51.3116    11.0943    89.6084   -39.0309    97.6851    10.6062    11.6083
  890.0000    49.1060    11.1157    89.3718   -38.9819    97.6202    10.6157    11.5856
  890.5000    47.6928    11.0926    89.0102   -38.9331    97.7168    10.6249    11.5629
  891.0000    46.2513    11.0707    88.5040   -38.8841    97.8997    10.6347    11.5402
  891.5000    46.4278    11.0651    88.5040   -38.8352    98.0826    10.6433    11.5175
  892.0000    46.7689    11.0735    88.2992   -38.7864    98.2655    10.6545    11.4948
  892.5000    47.1234    11.0822    87.8665   -38.7375    98.4484    10.6550    11.4720
  893.0000    46.8783    11.0908    87.8916   -38.6889    98.5986    10.6073    11.4493
  893.5000    46.4465    11.0995    87.9448   -38.6396    98.9545    10.5616    11.4266
  894.0000    46.0420    11.1081    87.8434   -38.5915    99.2563    10.5157    11.4038
  894.5000    47.7334    11.1168    87.6038   -38.5412    99.5581    10.4699    11.3812
  895.0000    48.2713    11.1255    87.4384   -38.4957    99.8599    10.4242    11.3584
  895.5000    47.1716    11.1341    87.5310   -38.4368   100.1617    10.3782    11.3358
  896.0000    47.2100    11.1353    87.6277   -38.2805   100.4635    10.3326    11.3128
  896.5000    46.3525    11.1045    87.7750   -38.1361   100.7653    10.2865    11.2906
  897.0000    45.9108    11.0744    88.1010   -37.9922   101.0671    10.2414    11.2674
  897.5000    46.3625    11.0434    88.4269   -37.8464   101.3689    10.1941    11.2613
  898.0000    47.6410    11.0789    88.8931   -37.7050   101.6016    10.1601    11.2537
  898.5000    49.0185    11.1189    89.5269   -37.5542   101.4476    10.1521    11.2391
  899.0000    49.5974    11.0940    89.5884   -37.4543   101.3223    10.1455    11.2274
  899.5000    48.8248    11.0681    89.5654   -37.4722   101.1970    10.1392    11.2146
  900.0000  -999.2500    11.0428    89.5433   -37.4895   101.0717    10.1327    11.2019
  900.5000  -999.2500    11.0401    89.5201   -37.5088   100.9464    10.1263    11.1902
  901.0000  -999.2500    11.0402    89.2539   -37.5270   100.8211    10.1199    11.1759
  901.5000  -999.2500    11.0402    88.7520   -37.5455   100.6958    10.1135    11.1673
  902.0000  -999.2500    11.0402    88.5040   -37.5647   100.6006    10.1070    11.1330
  902.5000  -999.2500    11.0402    88.5040   -37.5821   101.1723    10.1007    11.0821
  903.0000  -999.2500    11.0402    88.7486   -37.6028   101.6332    10.0941    11.0417
  903.5000  -999.2500    11.0402    89.1398   -37.6172   102.0940    10.0883    10.9925
  904.0000  -999.2500    11.0402    89.4303   -37.6446   102.5549    10.0808    10.9649
  904.5000  -999.2500    11.0402    89.5089   -37.6099   103.0157    10.0764    10.9570
  905.0000  -999.2500    11.0402    89.4210   -37.4579   103.4765    10.0665    10.9708
  905.5000  -999.2500    11.0402    89.3243   -37.3094   104.2465    10.0673    10.8720
  906.0000  -999.2500    11.0402    89.2284   -37.1558   105.1340    10.0092    10.7252
  906.5000  -999.2500    11.0402    89.1311   -37.0073   106.0216     9.9162    10.6295
  907.0000  -999.2500    11.0402    89.1672   -36.8522   106.9091     9.8381    10.5188
  907.5000  -999.2500    11.0402    89.3589   -36.7079   107.6076     9.7538    10.4153
  908.0000  -999.2500    11.0402    89.6213   -36.5390   108.4151     9.6724    10.3093
  908.5000  -999.2500    11.0402    89.7191   -36.4218   109.0807     9.5902    10.2020
