~VERSION INFORMATION
 VERS.                2.0:   CWLS LOG ASCII STANDARD - VERSION 2.0
 WRAP.                 NO:   ONE LINE PER DEPTH STEP
~WELL INFORMATION
#MNEM.UNIT      DATA TYPE    INFORMATION
#----------   ------------   ------------------------------
 STRT.F         1099.5000:   START DEPTH
 STOP.F         2700.0000:   STOP DEPTH
 STEP.F            0.5000:   STEP LENGTH
 NULL.          -999.2500:   NO VALUE
 COMP. LAWRENCE/ALLISON INC NPR #3:   COMPANY
 WELL.   47 STX 14 #47-14:   WELL
 FLD .             TEAPOT:   FIELD
 LOC .      S14 T38N R78W:   LOCATION
 CNTY.            NATRONA:   COUNTY
 STAT.            WYOMING:   STATE
 CTRY. UNITED STATES OF AMERICA:   COUNTRY
 SRVC.            Unknown:   SERVICE COMPANY
 DATE.        01-SEP-1988:   LOGDATE
 API .       490251124400:   API NUMBER
~CURVE INFORMATION
#MNEM.UNIT       API CODE    CURVE DESCRIPTION
#----------   ------------   ------------------------------
 DEPT.F                  :   
 ROP .MIN/FT 91 810 01 00:   RATE OF DRILLING PENETRATION
 TGAS.UNITS  91 830 01 00:   TOTAL GAS FROM HOTWIRE
~PARAMETER INFORMATION
#MNEM.UNIT          VALUE    DESCRIPTION
#----------   ------------   ------------------------------
 EKB .F              5286:   KELLING BUSHING
 EGL .F              5276:   GROUND LEVEL
 DATE.             9-1-88:   RUN DATE
 DD  .F              2700:   DEPTH DRILLER
 CBD .F              1088:   CASING BOTTOM DRILLER
 TCS .HRS            1200:   TIME CURCULATED STOPPED
 TLAB.HRS            1223:   TIME LOGGER AT BOTTOM
 ENGI.               HUSK:   RECORDING ENGINEER
 WITN.           PETERSON:   WITNESSED BY
 CLNT.            A2DTECH:   CLIENT CODE
 ORIG.           5" PRINT:   ORIGIN OF DATA
 UWI .       490251124400:   UNIQUE WELL ID
 DICO. A2D Technologies, Inc.:   DIGITIZING COMPANY
~OTHER INFORMATION
~A  DEPT       ROP       TGAS   
# ...
 2193.0000     0.3392   363.3599
 2193.5000     0.2972   363.3564
 2194.0000     0.3173   363.3530
 2194.5000     0.3580   363.3495
 2195.0000     0.3987   363.3460
 2195.5000     0.4291   363.3426
 2196.0000     0.4698   363.3391
 2196.5000     0.4809   363.3356
 2197.0000     0.4429   363.3322
 2197.5000     0.4158   363.3287
 2198.0000     0.3939   363.3252
 2198.5000     0.3721   363.3218
 2199.0000     0.3502   363.3183
 2199.5000     0.3473   363.3148
 2200.0000     0.3507   363.3111
 2200.5000     0.3490   363.2731
 2201.0000     0.3473   363.2318
 2201.5000     0.3457   363.1905
 2202.0000     0.3440   363.1492
 2202.5000     0.3424   363.1079
 2203.0000     0.3407   363.0666
 2203.5000     0.3391   363.0253
 2204.0000     0.3374   362.9840
 2204.5000     0.3357   362.9427
 2205.0000     0.3355   362.9014
 2205.5000     0.3363   362.8601
 2206.0000     0.3359   362.8188
 2206.5000     0.3250   362.7775
 2207.0000     0.3145   362.7362
 2207.5000     0.3252   362.6949
 2208.0000     0.3379   362.6536
 2208.5000     0.3695   362.6123
 2209.0000     0.4049   362.5710
 2209.5000     0.4579   362.5297
 2210.0000     0.5005   362.4884
 2210.5000     0.4681   362.4471
 2211.0000     0.4324   362.4058
 2211.5000     0.3929   362.3645
 2212.0000     0.3565   362.3232
 2212.5000     0.3134   362.2819
 2213.0000     0.3191   362.2406
 2213.5000     0.3917   362.1993
 2214.0000     0.4402   362.1580
 2214.5000     0.4729   362.1167
 2215.0000     0.4731   362.0753
 2215.5000     0.4569   362.0341
 2216.0000     0.4282   361.9928
 2216.5000     0.3975   361.9514
 2217.0000     0.3758   361.9102
 2217.5000     0.3678   361.8689
 2218.0000     0.3674   361.8275
 2218.5000     0.3669   361.7863
 2219.0000     0.3665   361.7449
 2219.5000     0.3660   361.7036
 2220.0000     0.3656   361.6624
 2220.5000     0.3652   361.6210
 2221.0000     0.3752   361.5797
 2221.5000     0.4058   361.5384
 2222.0000     0.4467   361.4971
 2222.5000     0.4876   361.4558
 2223.0000     0.4872   361.4145
 2223.5000     0.4971   361.3732
 2224.0000     0.4864   361.3319
 2224.5000     0.5187   361.2906
 2225.0000     0.5785   361.2493
 2225.5000     0.6421   361.2080
 2226.0000     0.7133   361.1667
 2226.5000     0.7839   361.1254
 2227.0000     0.5231   361.0841
 2227.5000     0.4318   361.0428
 2228.0000     0.3590   361.0015
 2228.5000     0.5239   360.9602
 2229.0000     0.6888   360.9189
 2229.5000     0.8227   360.8776
 2230.0000     0.9669   360.8363
 2230.5000     0.9800   360.7950
 2231.0000     0.9155   360.7537
 2231.5000     0.8440   360.7124
 2232.0000     0.7689   360.6711
 2232.5000     0.7557   360.6298
 2233.0000     0.7659   360.5885
 2233.5000     0.7678   360.5472
 2234.0000     0.7673   360.5059
 2234.5000     0.7566   360.4646
 2235.0000     0.7252   360.4233
 2235.5000     0.6731   360.3820
 2236.0000     0.6107   360.3407
 2236.5000     0.6000   360.2994
 2237.0000     0.6332   360.2581
 2237.5000     0.6887   360.2168
 2238.0000     0.7701   360.1755
 2238.5000     0.8153   360.1342
 2239.0000     0.7705   360.0929
 2239.5000     0.7380   360.0515
 2240.0000     0.7056   360.0103
 2240.5000     0.6752   359.9690
 2241.0000     0.6607   359.9276
 2241.5000     0.6709   359.8864
 2242.0000     0.6874   359.8451
 2242.5000     0.7259   359.8037
 2243.0000     0.7751   359.7625
 2243.5000     0.8174   359.7211
 2244.0000     0.8727   359.6798
 2244.5000     0.8413   359.6385
 2245.0000     0.8400   359.5972
 2245.5000     0.8266   359.5559
 2246.0000     0.7879   359.5146
 2246.5000     0.7128   359.4733
 2247.0000     0.6354   359.4320
 2247.5000     0.5496   359.3907
 2248.0000     0.5598   359.3494
 2248.5000     0.5694   359.3081
 2249.0000     0.5690   359.2668
 2249.5000     0.5686   359.2255
 2250.0000     0.5553   359.1809
 2250.5000     0.5015   359.2495
 2251.0000     0.4510   359.3241
 2251.5000     0.4078   359.3987
 2252.0000     0.3687   359.4733
 2252.5000     0.3535   359.5479
 2253.0000     0.3591   359.6225
 2253.5000     0.3637   359.6971
 2254.0000     0.3633   359.7716
 2254.5000     0.3635   359.8462
 2255.0000     0.3738   359.9208
 2255.5000     0.4223   359.9954
 2256.0000     0.5375   360.0700
 2256.5000     0.5417   360.1446
 2257.0000     0.4418   360.2192
 2257.5000     0.3597   360.2938
 2258.0000     0.2847   360.3683
 2258.5000     0.2838   360.4429
 2259.0000     0.2932   360.5175
 2259.5000     0.3026   360.5921
 2260.0000     0.3003   360.6667
 2260.5000     0.2760   360.7413
 2261.0000     0.2324   360.8159
 2261.5000     0.1854   360.8905
 2262.0000     0.1224   360.9651
 2262.5000     0.1362   361.0396
 2263.0000     0.1692   361.1142
 2263.5000     0.2153   361.1888
 2264.0000     0.2733   361.2634
 2264.5000     0.3065   361.3380
 2265.0000     0.3130   361.4126
 2265.5000     0.3121   361.4872
 2266.0000     0.3112   361.5617
 2266.5000     0.3102   361.6364
 2267.0000     0.3093   361.7109
 2267.5000     0.3084   361.7855
 2268.0000     0.3074   361.8601
 2268.5000     0.3065   361.9347
 2269.0000     0.3056   362.0093
 2269.5000     0.3046   362.0839
 2270.0000     0.3037   362.1584
 2270.5000     0.3028   362.2330
 2271.0000     0.3019   362.3076
 2271.5000     0.3085   362.3822
 2272.0000     0.3261   362.4568
 2272.5000     0.3402   362.5314
 2273.0000     0.3496   362.6060
 2273.5000     0.3797   362.6806
 2274.0000     0.3995   362.7552
 2274.5000     0.4193   362.8297
 2275.0000     0.4080   362.9043
 2275.5000     0.3761   362.9789
 2276.0000     0.3228   363.0535
 2276.5000     0.2916   363.1281
 2277.0000     0.2907   363.2027
 2277.5000     0.2898   363.2773
 2278.0000     0.2888   363.3519
 2278.5000     0.2879   363.4265
 2279.0000     0.2870   363.5010
 2279.5000     0.2861   363.5805
 2280.0000     0.2851   355.2434
 2280.5000     0.2842   355.1094
 2281.0000     0.2833   354.9755
 2281.5000     0.2823   354.8415
 2282.0000     0.2814   354.7076
 2282.5000     0.2805   354.5736
 2283.0000     0.2894   354.4397
 2283.5000     0.3151   354.3057
 2284.0000     0.3574   354.1718
 2284.5000     0.4098   354.0378
 2285.0000     0.4622   353.9038
 2285.5000     0.4738   353.7699
 2286.0000     0.3924   353.6359
 2286.5000     0.3604   353.5020
 2287.0000     0.3548   353.3680
 2287.5000     0.3476   353.2341
 2288.0000     0.3491   353.1001
 2288.5000     0.3520   352.9662
 2289.0000     0.3800   352.8322
 2289.5000     0.4445   352.6982
 2290.0000     0.5103   352.5643
 2290.5000     0.4824   352.4303
 2291.0000     0.4402   352.2964
 2291.5000     0.4187   352.1624
 2292.0000     0.3971   352.0285
 2292.5000     0.3962   351.8945
 2293.0000     0.3952   351.7606
 2293.5000     0.3943   351.6266
 2294.0000     0.3934   351.4926
 2294.5000     0.3969   367.5493
 2295.0000     0.4280   517.4644
 2295.5000     0.4633   726.5905
 2296.0000     0.5132   861.2471
 2296.5000     0.5437  -999.2500
 2297.0000     0.5302  1608.7778
 2297.5000     0.4866  1575.5393
 2298.0000     0.4430  1566.0287
 2298.5000     0.4160  1577.0442
 2299.0000     0.4106  1608.7024
 2299.5000     0.4038  1609.3970
 2300.0000     0.4081  1610.0918
 2300.5000     0.4123  1610.8142
 2301.0000     0.4114  1611.5370
 2301.5000     0.4166  1612.2593
 2302.0000     0.4198  1612.9817
 2302.5000     0.4121  1613.7043
 2303.0000     0.3933  1614.4268
 2303.5000     0.3635  1615.1490
 2304.0000     0.3598  1615.8716
 2304.5000     0.3406  1620.3105
 2305.0000     0.3765  1627.6376
 2305.5000     0.4056  1628.3601
 2306.0000     0.4209  1629.0826
 2306.5000     0.4319  1629.8051
 2307.0000     0.4263  1630.5276
 2307.5000     0.4097  1643.6354
 2308.0000     0.3760  1639.4054
 2308.5000     0.3332  1604.6339
 2309.0000     0.3410  1532.6819
 2309.5000     0.3835  1439.6998
 2310.0000     0.4390  1304.7260
 2310.5000     0.4891  1233.1731
 2311.0000     0.5172  1171.9410
 2311.5000     0.4932  1100.3882
 2312.0000     0.4504  1049.4772
 2312.5000     0.4158  1008.8876
 2313.0000     0.4092   988.9399
 2313.5000     0.3987   999.9559
 2314.0000     0.3985   977.6176
