~VERSION INFORMATION
 VERS.                2.0:   CWLS LOG ASCII STANDARD - VERSION 2.0
 WRAP.                 NO:   ONE LINE PER DEPTH STEP
~WELL INFORMATION
#MNEM.UNIT      DATA TYPE    INFORMATION
#----------   ------------   ------------------------------
 STRT.F           70.0000:   START DEPTH
 STOP.F         1088.0000:   STOP DEPTH
 STEP.F            0.5000:   STEP LENGTH
 NULL.          -999.2500:   NO VALUE
 COMP. U S NAVY/INTEX OIL CO:   COMPANY
 WELL. RES 3 TEAPOT DOME #66S-11:   WELL
 FLD .             TEAPOT:   FIELD
 LOC .      S11 T38N R78W:   LOCATION
 CNTY.            NATRONA:   COUNTY
 STAT.            WYOMING:   STATE
 CTRY. UNITED STATES OF AMERICA:   COUNTRY
 SRVC.         Lane Wells:   SERVICE COMPANY
 DATE.        06-MAR-1960:   LOGDATE
 API .       490250633400:   API NUMBER
~CURVE INFORMATION
#MNEM.UNIT       API CODE    CURVE DESCRIPTION
#----------   ------------   ------------------------------
 DEPT.F                  :   
 SPR .MV     05 010 01 00:   SPONTANEOUS POTENTIAL FROM RES.
 ILD .OHMM   05 120 46 00:   INDUCTION LOG DEEP
 CILD.MMHO   05 110 00 00:   CONDUCTIVITY INDUCTION LOG
 ASN .OHMM   05 041 16 00:   AMPLIFIED SHORT NORMAL 16"
~PARAMETER INFORMATION
#MNEM.UNIT          VALUE    DESCRIPTION
#----------   ------------   ------------------------------
 PD  .                 GL:   PERMANENT DATUM
 EPD .F              5238:   ELEVATION PERMANENT DATUM
 LMF .                 KB:   LOG MEASURED FROM
 DAPD.F                 5:   FEET ABOVE PERMANENT DATUM
 DMF .                 KB:   DRILLING MEASURED FROM
 EKB .F              5243:   KELLING BUSHING
 EGL .F              5238:   GROUND LEVEL
 DATE.             3-6-60:   RUN DATE
 RUN .                  1:   RUN NUMBER
 DD  .F              1085:   DEPTH DRILLER
 DL  .F              1087:   DEPTH LOGGER
 BLI .F              1085:   BOTTOM LOG INTERVAL
 TLI .F                70:   TOP LOG INTERVAL
 CS  .IN            8.625:   CASING SIZE
 CBD .F                12:   CASING BOTTOM DRILLER
 BS  .IN            7.875:   BIT SIZE
 BSD .F              1085:   BIT SIZE AT DEPTH
 DFT .   GEL/OIL EMULSION:   DRILLING FLUID TYPE
 DFD .               10.3:   DRILLING FLUID DENSITY
 DFV .                 37:   DRILLING FLUID VISCOSITY
 DFPH.                8.5:   DRILLING FLUID PH
 DFL .                7.2:   DRILLING FLUID LOSS
 MSS .          FLOW LINE:   MUD SAMPLE SOURCE
 RMS .OHMM           1.65:   RESISTIVITY MUD SAMPLE
 MST .F                70:   MUD SAMPLE TEMPERATURE
 RMF .OHMM            1.2:   RESISTIVITY MUD FILTRATE SAMPLE
 MFST.F                68:   MUD FILTRATE SAMPLE TEMPERATURE
 RMC .OHMM            1.8:   RESISTIVITY MUD CAKE
 MCST.F                68:   MUD CAKE SAMPLE TEMPERATURE
 MFSS.              PRESS:   MUD FILTRATE SAMPLE SOURCE
 MCSS.              PRESS:   MUD CAKE SAMPLE SOURCE
 RMB .OHMM            1.5:   RESISTIVITY MUD AT BHT
 BHT .F                74:   BOTTOM HOLE TEMPERATURE
 MRT .F                74:   MAXIMUM RECORDED TEMPERATURE
 LUN .               4474:   LOGGING UNIT NUMBER
 LUL .             CASPER:   LOGGING UNIT LOCATION
 ENGI.      NELSON/GRIGGS:   RECORDING ENGINEER
 WITN.   JORGENSEN/HUDSON:   WITNESSED BY
 CLNT.            A2DTECH:   CLIENT CODE
 ORIG.       2", 5" PRINT:   ORIGIN OF DATA
 UWI .       490250633400:   UNIQUE WELL ID
 DICO. A2D Technologies, Inc.:   DIGITIZING COMPANY
~OTHER INFORMATION
~A   DEPT      SPR          ILD      CILD         ASN 
# ...
  946.0000   -42.5703     8.4993   138.8724     9.3875
  946.5000   -42.1551     8.4873   139.1241     9.3929
  947.0000   -41.5104     8.4753   139.3778     9.3396
  947.5000   -40.8583     8.4617   139.6318     9.2851
  948.0000   -40.2021     8.4261   139.8865     9.2315
  948.5000   -39.9615     8.3907   140.1396     9.2046
  949.0000   -39.9793     8.3554   140.3936     9.2568
  949.5000   -40.0861     8.3198   139.6472     9.3089
  950.0000   -40.1942     8.2907   138.7369     9.3624
  950.5000   -40.3021     8.3296   137.8265     9.3568
  951.0000   -40.4098     8.3680   136.8515     9.3442
  951.5000   -40.5175     8.4059   138.0227     9.3320
  952.0000   -40.6252     8.4433   139.6233     9.3433
  952.5000   -40.7332     8.4625   141.2238     9.3891
  953.0000   -40.8402     8.4463   141.4024     9.4987
  953.5000   -40.9516     8.4307   139.2821     9.6515
  954.0000   -40.7577     8.4150   137.1328     9.8228
  954.5000   -40.3814     8.3993   135.0626     9.9739
  955.0000   -40.0693     8.3838   136.0118     9.8990
  955.5000   -40.0048     8.3617   136.9373     9.8294
  956.0000   -39.9367     8.3366   137.8628     9.8342
  956.5000   -39.8683     8.3114   138.7883     9.6872
  957.0000   -39.7998     8.2861   139.7138     9.5219
  957.5000   -39.7313     8.2609   140.6393     9.3727
  958.0000   -39.6628     8.2357   141.5647     9.2276
  958.5000   -39.5946     8.2104   142.4902     9.1534
  959.0000   -39.5229     8.1991   143.4157     9.0811
  959.5000   -39.4449     8.1989   143.9144     9.0590
  960.0000   -39.3781     8.1989   143.3475     9.0424
  960.5000   -39.6272     8.1990   142.7806     9.0428
  961.0000   -39.8941     8.1986   142.2240     9.0489
  961.5000   -40.1598     8.2257   143.1352     9.0580
  962.0000   -40.4255     8.2686   144.0001     9.0981
  962.5000   -40.6934     8.3119   142.7265     9.1560
  963.0000   -40.9433     8.3564   141.4897     9.2650
  963.5000   -41.0506     8.4456   140.2529     9.3720
  964.0000   -40.7552     8.5895   139.0161     9.5474
  964.5000   -40.4747     8.7325   136.7460     9.7197
  965.0000   -40.2837     8.8819   134.0250     9.8951
  965.5000   -40.9936     8.9146   131.3041    10.2760
  966.0000   -41.3452     9.0803   128.5832    10.7568
  966.5000   -40.7264     9.3840   124.0731    11.0543
  967.0000   -41.4775     9.7453   118.9714    11.5682
  967.5000   -42.5792    10.1270   113.8696    11.9932
  968.0000   -43.6919    10.5086   110.2007    12.5263
  968.5000   -44.7710    10.8903   107.5042    13.1242
  969.0000   -45.3131    11.2719   104.8078    13.8228
  969.5000   -45.2130    11.6535   102.1114    14.5016
  970.0000   -45.1463    12.0351    99.4150    15.4998
  970.5000   -45.3752    12.4166    96.7186    16.5262
  971.0000   -45.6099    12.8003    94.0221    17.5501
  971.5000   -45.8429    13.2186    91.3570    18.0789
  972.0000   -45.4435    13.2515    88.5510    17.8183
  972.5000   -44.5449    13.0626    90.9277    17.4095
  973.0000   -43.4958    12.8744    93.5190    17.1270
  973.5000   -43.0257    12.6813    96.1100    16.8025
  974.0000   -43.7599    12.4098    98.7018    16.2197
  974.5000   -43.9656    12.1285   101.2931    15.6314
  975.0000   -43.8285    11.8469   103.8845    15.0679
  975.5000   -43.7161    11.5651   106.4759    14.6160
  976.0000   -44.2594    11.3698   109.0672    14.1818
  976.5000   -44.8227    11.1928   110.0179    14.0355
  977.0000   -45.0877    11.0169   108.3005    13.9156
  977.5000   -44.9831    10.8801   106.6515    13.7291
  978.0000   -44.4659    10.8639   108.0365    13.5204
  978.5000   -43.9104    10.8458   109.8017    13.3106
  979.0000   -43.4880    10.8275   108.3942    13.1011
  979.5000   -43.4291    10.8103   108.7681    12.8840
  980.0000   -43.3657    10.8272   109.1804    12.8356
  980.5000   -42.7983    10.9173   109.5926    12.8348
  981.0000   -41.8262    10.9156   110.0179    12.8354
  981.5000   -40.8459    10.7381   110.4706    12.8353
  982.0000   -40.5911    10.5607   111.2592    12.8363
  982.5000   -41.3700    10.5267   112.0481    12.7544
  983.0000   -42.1483    10.4712   112.8373    12.6220
  983.5000   -42.6746    10.4146   113.5967    12.4886
  984.0000   -43.0276    10.3579   113.9585    12.3650
  984.5000   -43.1322    10.3010   114.3068    12.2669
  985.0000   -42.7482    10.2356   114.6545    12.1679
  985.5000   -42.3594    10.1338   115.0041    12.0194
  986.0000   -41.9770    10.0351   115.3846    11.8128
  986.5000   -41.5678     9.9363   116.6129    11.6067
  987.0000   -41.1108     9.8356   117.9637    11.4005
  987.5000   -40.6509     9.7410   119.3145    11.2200
  988.0000   -40.1915     9.6453   120.6653    11.2069
  988.5000   -39.7203     9.5493   122.0161    11.1885
  989.0000   -40.0348     9.4557   123.3670    11.1698
  989.5000   -40.3549     9.4324   124.7178    11.1508
  990.0000   -40.6717     9.4122   126.0686    11.1253
  990.5000   -40.9890     9.3916   127.4215    11.0711
  991.0000   -41.3082     9.3711   127.9108    11.0174
  991.5000   -41.2982     9.3388   127.3831    10.9650
  992.0000   -41.2344     9.3013   126.8754    10.9001
  992.5000   -41.1698     9.2634   126.3715    10.8172
  993.0000   -41.1060     9.2252   125.8676    10.7331
  993.5000   -41.0422     9.1863   125.3630    10.6489
  994.0000   -40.9783     9.1709   124.8567    10.5660
  994.5000   -40.9144     9.1564   124.3291    10.5178
  995.0000   -40.8527     9.1418   124.7290    10.5458
  995.5000   -40.8766     9.1272   125.2626    10.5724
  996.0000   -41.0588     9.1125   125.7961    10.5989
  996.5000   -41.0876     9.0982   126.3296    10.5744
  997.0000   -40.8671     9.0698   126.8631    10.5307
  997.5000   -40.6501     9.0385   127.3966    10.3936
  998.0000   -40.4325     9.0071   127.9071    10.2964
  998.5000   -40.2406     8.9757   127.9057    10.2544
  999.0000   -40.1221     8.9443   128.1606     9.9469
  999.5000   -40.0042     8.9160   128.4523     9.9042
 1000.0000   -39.8863     8.9156   128.7455     9.8539
 1000.5000   -39.7678     8.9157   129.0387     9.8266
 1001.0000   -39.6498     8.9158   129.3314     9.8186
 1001.5000   -39.5551     8.9158   129.6277     9.8103
 1002.0000   -39.6189     8.9158   129.6937     9.7991
 1002.5000   -39.6804     8.9158   129.8776     9.7876
 1003.0000   -39.7416     8.9158   130.1104     9.7768
 1003.5000   -39.8031     8.9158   130.3439     9.7763
 1004.0000   -39.8655     8.9158   130.5775     9.7711
 1004.5000   -39.8887     8.9158   130.8111     9.7455
 1005.0000   -39.6708     8.9158   131.0450     9.7229
 1005.5000   -38.1945     8.9158   131.2774     9.7271
 1006.0000   -38.0219     8.9158   131.4848     9.7335
 1006.5000   -38.4865     8.9158   131.2859     9.7407
 1007.0000   -39.1525     8.9158   131.0691     9.7689
 1007.5000   -38.8321     8.9160   130.8523     9.7993
 1008.0000   -38.4346     8.9148   130.6355     9.8295
 1008.5000   -38.1129     8.8768   130.4187     9.8594
 1009.0000   -38.2103     8.8369   130.2011     9.8819
 1009.5000   -38.3001     8.7972   129.9823     9.8758
 1010.0000   -38.3889     8.7577   129.7720     9.8694
 1010.5000   -38.4783     8.7365   130.2232     9.8665
 1011.0000   -38.5701     8.7366   131.0150     9.8448
 1011.5000   -38.6273     8.7365   131.8068     9.8209
 1012.0000   -38.1645     8.7366   132.5986     9.7968
 1012.5000   -37.6816     8.7366   133.2737     9.7709
 1013.0000   -37.6297     8.7277   133.6366     9.7362
 1013.5000   -37.7148     8.7121   134.2870     9.7013
 1014.0000   -37.8028     8.6963   134.9374     9.6565
 1014.5000   -37.8927     8.6806   135.5878     9.6054
 1015.0000   -37.7165     8.6649   136.2382     9.5542
 1015.5000   -37.3537     8.6495   136.8515     9.5189
 1016.0000   -36.9824     8.6313   136.8515     9.4909
 1016.5000   -36.9814     8.6130   136.8521     9.5098
 1017.0000   -37.1911     8.5948   136.8514     9.5511
 1017.5000   -37.3719     8.5764   136.8508     9.5919
 1018.0000   -37.0878     8.5588   136.8517     9.6332
 1018.5000   -36.7962     8.5260   136.9412     9.6431
