~VERSION INFORMATION
 VERS.                2.0:   CWLS LOG ASCII STANDARD - VERSION 2.0
 WRAP.                 NO:   ONE LINE PER DEPTH STEP
~WELL INFORMATION
#MNEM.UNIT      DATA TYPE    INFORMATION
#----------   ------------   ------------------------------
 STRT.F           30.0000:   START DEPTH
 STOP.F          506.0000:   STOP DEPTH
 STEP.F            0.5000:   STEP LENGTH
 NULL.          -999.2500:   NO VALUE
 COMP. FENIX & SCISSON INC:   COMPANY
 WELL.    42 SX-3F1 #55-3:   WELL
 FLD .             TEAPOT:   FIELD
 LOC .       S3 T38N R78W:   LOCATION
 CNTY.            NATRONA:   COUNTY
 STAT.            WYOMING:   STATE
 CTRY. UNITED STATES OF AMERICA:   COUNTRY
 SRVC.              Welex:   SERVICE COMPANY
 DATE.        26-MAY-1980:   LOGDATE
 API .       490251082900:   API NUMBER
~CURVE INFORMATION
#MNEM.UNIT       API CODE    CURVE DESCRIPTION
#----------   ------------   ------------------------------
 DEPT.F                  :   
 GRD .GAPI   45 310 01 00:   GAMMA RAY FROM DENSITY LOG
 CALD.IN     45 280 60 00:   CALIPER
 RHOB.G/C3   45 350 01 00:   BULK DENSITY
 CORR.G/C3   45 356 01 00:   DENSITY CORRECTION
 DPHI.DEC    45 890 12 00:   DENSITY POROSITY SANDSTONE
 NPHI.DEC    42 890 03 00:   NEUTRON POROSITY SANDSTONE
 GURD.OHMM   07 220 05 00:   GUARD RESISTIVITY
 ILD .OHMM   07 120 46 00:   INDUCTION LOG DEEP
 ILM .OHMM   07 120 44 00:   INDUCTION LOG MEDIUM
 SPR .MV     07 010 01 00:   SPONTANEOUS POTENTIAL
~PARAMETER INFORMATION
#MNEM.UNIT          VALUE    DESCRIPTION
#----------   ------------   ------------------------------
 PD  .                 GL:   PERMANENT DATUM
 EPD .F              5161:   ELEVATION PERMANENT DATUM
 LMF .                 KB:   LOG MEASURED FROM
 DAPD.F                 4:   FEET ABOVE PERMANENT DATUM
 DMF .                 KB:   DRILLING MEASURED FROM
 EKB .F              5165:   KELLING BUSHING
 EGL .F              5161:   GROUND LEVEL
 DATE.            5-26-80:   RUN DATE
 RUN .                  1:   RUN NUMBER
 DD  .F               500:   DEPTH DRILLER
 DL  .F               502:   DEPTH LOGGER
 BLI .F               500:   BOTTOM LOG INTERVAL
 TLI .F                34:   TOP LOG INTERVAL
 BS  .IN            9.875:   BIT SIZE
 BSD .F               500:   BIT SIZE AT DEPTH
 DFT .          KCL WATER:   DRILLING FLUID TYPE
 DFD .                9.5:   DRILLING FLUID DENSITY
 DFV .                 45:   DRILLING FLUID VISCOSITY
 MSS .            MUD PIT:   MUD SAMPLE SOURCE
 RMS .OHMM            .39:   RESISTIVITY MUD SAMPLE
 MST .F                75:   MUD SAMPLE TEMPERATURE
 RMF .OHMM           .312:   RESISTIVITY MUD FILTRATE SAMPLE
 MFST.F                75:   MUD FILTRATE SAMPLE TEMPERATURE
 RMC .OHMM           .468:   RESISTIVITY MUD CAKE
 MCST.F                75:   MUD CAKE SAMPLE TEMPERATURE
 MFSS.           MEASURED:   MUD FILTRATE SAMPLE SOURCE
 MCSS.           MEASURED:   MUD CAKE SAMPLE SOURCE
 RMB .OHMM            .39:   RESISTIVITY MUD AT BHT
 BHT .F                75:   BOTTOM HOLE TEMPERATURE
 TCS .HRS               2:   TIME CURCULATED STOPPED
 MRT .F                75:   MAXIMUM RECORDED TEMPERATURE
 LUN .               9685:   LOGGING UNIT NUMBER
 LUL .             CASPER:   LOGGING UNIT LOCATION
 ENGI.            TOTHILL:   RECORDING ENGINEER
 WITN.            RHOADES:   WITNESSED BY
 CLNT.            A2DTECH:   CLIENT CODE
 ORIG.           5" PRINT:   ORIGIN OF DATA
 UWI .       490251082900:   UNIQUE WELL ID
 DICO. A2D Technologies, Inc.:   DIGITIZING COMPANY
~OTHER INFORMATION
~A   DEPT      GRD       CALD       RHOB       CORR         DPHI       NPHI      GURD        ILD        ILM       SPR   
# ...
  130.5000    97.7813    10.1467     2.4718     0.0414     0.1241     0.2514     9.0406     8.3063     8.6833   -40.0274
  131.0000    98.0756    10.1817     2.4676     0.0426     0.1329     0.2481     9.0615     8.2977     8.6733   -40.1855
  131.5000    98.0219    10.2051     2.4616     0.0348     0.1340     0.2482     9.0823     8.2892     8.6633   -40.3485
  132.0000    97.9747    10.1580     2.4548     0.0272     0.1340     0.2501     9.1038     8.2807     8.6532   -40.3336
  132.5000    97.9267    10.1142     2.4578     0.0255     0.1221     0.2501     9.1270     8.2721     8.6433   -40.2478
  133.0000    97.8788    10.1252     2.4545     0.0328     0.1279     0.2536     9.1312     8.2632     8.5856   -40.1608
  133.5000    97.8308    10.1386     2.4646     0.0398     0.1365     0.2568     8.5596     8.2527     8.4997   -40.0739
  134.0000    97.7829    10.1518     2.4792     0.0440     0.1423     0.2563     8.8500     8.2539     8.4147   -39.9872
  134.5000    97.7350    10.1649     2.4509     0.0271     0.1333     0.2558     9.0461     7.9826     8.3305   -39.9005
  135.0000    97.6871    10.1704     2.4416     0.0182     0.1251     0.2596     8.7211     7.7987     8.2522   -39.8137
  135.5000    97.6392    10.1678     2.4568     0.0325     0.1319     0.2624     8.4698     7.6298     8.0409   -39.7270
  136.0000    97.5913    10.1653     2.4703     0.0480     0.1331     0.2676     8.2261     7.4661     7.8465   -39.6403
  136.5000    97.5426    10.1628     2.4583     0.0477     0.1296     0.2728     7.8102     7.3068     7.6567   -39.5536
  137.0000    97.4882    10.1603     2.4590     0.0431     0.1431     0.2750     7.6171     7.1508     7.4716   -39.4669
  137.5000    97.7364    10.1578     2.4591     0.0439     0.1519     0.2748     7.4047     6.9985     7.2909   -39.3801
  138.0000    98.0555    10.1553     2.4427     0.0239     0.1468     0.2751     7.2576     6.8471     7.1146   -39.2934
  138.5000    98.3762    10.1528     2.4249     0.0080     0.1437     0.2774     7.5997     6.8062     6.9961   -39.2067
  139.0000    98.6961    10.1486     2.4316     0.0141     0.1505     0.2780     7.8842     6.8062     7.3306   -39.1200
  139.5000    99.0154    10.1436     2.4379     0.0144     0.1374     0.2772     7.9000     6.8290     7.5961   -39.0331
  140.0000    99.3364    10.1386     2.4266     0.0217     0.1394     0.2757     7.9159     6.8725     7.6682   -38.9464
  140.5000    99.8819    10.1334     2.4539     0.0334     0.1254     0.2771     7.9318     6.9162     7.6682   -38.8606
  141.0000   100.9592    10.1297     2.4559     0.0398     0.1240     0.2752     7.9478     6.9603     7.6682   -38.8392
  141.5000   102.0294    10.1264     2.4721     0.0451     0.1276     0.2732     8.0461     7.0046     7.7032   -38.9109
  142.0000   103.0967    10.1230     2.4684     0.0415     0.1117     0.2757     8.2513     7.0492     7.8010   -38.9798
  142.5000   104.1766    10.1196     2.4651     0.0438     0.1157     0.2742     8.2289     7.0940     7.8822   -39.1287
  143.0000   104.4292    10.1163     2.4921     0.0617     0.1197     0.2680     8.1998     7.1392     7.8822   -39.3170
  143.5000   104.1935    10.1126     2.4881     0.0539     0.1249     0.2664     8.1762     7.1846     7.8822   -39.5072
  144.0000   103.9486    10.1230     2.4807     0.0443     0.1288     0.2658     8.3298     7.2304     7.9496   -39.6968
  144.5000   103.7030    10.1356     2.4661     0.0345     0.1268     0.2649     8.7995     7.3036     8.0348   -39.8830
  145.0000   103.4578    10.1487     2.4673     0.0364     0.1230     0.2638     8.5123     7.4167     8.1144   -39.8212
  145.5000   103.2127    10.1518     2.4703     0.0442     0.1158     0.2603     8.2522     7.5320     8.1709   -39.4482
  146.0000   102.9738    10.1517     2.4807     0.0500     0.1153     0.2578     8.7497     7.6498     8.2277   -39.0808
  146.5000   103.0023    10.1525     2.4876     0.0574     0.1141     0.2600     8.8806     7.6800     8.2850   -38.8042
  147.0000   103.5784    10.1811     2.4908     0.0544     0.1298     0.2573     8.6706     7.6990     8.3282   -38.8096
  147.5000   104.1439    10.2092     2.4697     0.0377     0.1353     0.2603     8.5051     7.7177     8.2036   -38.8099
  148.0000   104.5845    10.1810     2.4525     0.0175     0.1384     0.2636     8.4824     7.7388     8.1052   -38.8100
  148.5000   104.2270    10.1528     2.4464     0.0048     0.1372     0.2692     8.6979     7.7241     8.0081   -38.8100
  149.0000   103.8710    10.1591     2.4548     0.0023     0.1336     0.2680     8.8720     7.7072     7.8822   -38.8101
  149.5000   103.4958    10.1664     2.4538     0.0003     0.1315     0.2718     8.9624     7.6902     7.8973   -38.8103
  150.0000   104.1379    10.1705     2.4527     0.0072     0.1276     0.2728     8.5005     7.6733     7.9194   -38.8105
  150.5000   105.2255    10.1655     2.4724     0.0143     0.1336     0.2742     8.2963     7.5980     7.9415   -38.7934
  151.0000   104.9073    10.1607     2.4618     0.0137     0.1393     0.2763     8.2330     7.4989     7.9637   -38.6430
  151.5000   104.1295    10.1560     2.4528     0.0095     0.1391     0.2749     8.1768     7.3920     7.9859   -38.4896
  152.0000   103.3316    10.1512     2.4449     0.0053     0.1426     0.2728     8.3088     7.4108     8.0082   -38.4570
  152.5000   102.5579    10.1465     2.4376     0.0008     0.1308     0.2710     8.4570     7.4316     8.0312   -38.5297
  153.0000   103.0752    10.1417     2.4522     0.0085     0.1328     0.2691     8.5606     7.4526     8.0555   -38.6037
  153.5000   103.6833    10.1370     2.4622     0.0162     0.1233     0.2673     8.4880     7.4736     8.0802   -38.6780
  154.0000   104.2846    10.1321     2.4551     0.0106     0.1280     0.2680     8.4050     7.4947     8.1050   -38.7522
  154.5000   103.6348    10.1224     2.4729     0.0278     0.1280     0.2696     8.4350     7.5158     8.1299   -38.8263
  155.0000   103.3385    10.1124     2.4662     0.0301     0.1248     0.2722     8.4933     7.5370     8.1548   -38.9004
  155.5000   103.9539    10.1024     2.4735     0.0385     0.1296     0.2682     8.5521     7.5582     8.1825   -38.9744
  156.0000   104.5571    10.0933     2.4648     0.0457     0.1258     0.2668     8.6112     7.5794     8.2522   -39.0626
  156.5000   105.1635    10.1018     2.4729     0.0407     0.1238     0.2672     8.6395     7.5978     8.2025   -39.1616
  157.0000   105.7693    10.1110     2.4675     0.0356     0.1163     0.2667     8.4394     7.5609     8.1088   -39.2604
  157.5000   106.3777    10.1201     2.4767     0.0384     0.1129     0.2642     8.2916     7.5278     8.0162   -39.3593
  158.0000   106.9933    10.1292     2.4869     0.0476     0.1198     0.2651     8.2373     7.4950     7.9246   -39.4580
  158.5000   107.4933    10.1321     2.4931     0.0549     0.1261     0.2677     8.2093     7.4601     7.8632   -39.5576
  159.0000   106.2222    10.1322     2.4748     0.0437     0.1220     0.2724     8.1814     7.4258     7.8063   -39.6044
  159.5000   105.0134    10.1321     2.4687     0.0366     0.1278     0.2727     8.1536     7.3794     7.7499   -39.6195
  160.0000   103.8055    10.1321     2.4784     0.0431     0.1372     0.2790     8.1258     7.3333     7.6938   -39.6340
  160.5000   102.5776    10.1321     2.4691     0.0383     0.1344     0.2806     8.1021     7.2875     7.6382   -39.6485
  161.0000   102.5108    10.1361     2.4522     0.0247     0.1383     0.2800     8.1021     7.2195     7.5830   -39.6630
  161.5000   102.4951    10.1416     2.4564     0.0149     0.1333     0.2803     8.1021     7.1097     7.5283   -39.6775
  162.0000   101.4355    10.1472     2.4491     0.0122     0.1472     0.2843     8.1021     6.9961     7.4739   -39.6921
  162.5000   100.4132    10.1527     2.4568     0.0241     0.1567     0.2844     7.9321     6.8274     7.3511   -39.7066
  163.0000   100.7244    10.1582     2.4590     0.0098     0.1531     0.2826     7.4655     6.6540     7.2075   -39.7211
  163.5000   101.0331    10.1637     2.4172    -0.0114     0.1599     0.2839     7.0251     6.4849     7.0669   -39.7357
