~VERSION INFORMATION
 VERS.                2.0:   CWLS LOG ASCII STANDARD - VERSION 2.0
 WRAP.                 NO:   ONE LINE PER DEPTH STEP
~WELL INFORMATION
#MNEM.UNIT      DATA TYPE    INFORMATION
#----------   ------------   ------------------------------
 STRT.F           70.0000:   START DEPTH
 STOP.F         1088.0000:   STOP DEPTH
 STEP.F            0.5000:   STEP LENGTH
 NULL.          -999.2500:   NO VALUE
 COMP. U S NAVY/INTEX OIL CO:   COMPANY
 WELL. RES 3 TEAPOT DOME #66S-11:   WELL
 FLD .             TEAPOT:   FIELD
 LOC .      S11 T38N R78W:   LOCATION
 CNTY.            NATRONA:   COUNTY
 STAT.            WYOMING:   STATE
 CTRY. UNITED STATES OF AMERICA:   COUNTRY
 SRVC.         Lane Wells:   SERVICE COMPANY
 DATE.        06-MAR-1960:   LOGDATE
 API .       490250633400:   API NUMBER
~CURVE INFORMATION
#MNEM.UNIT       API CODE    CURVE DESCRIPTION
#----------   ------------   ------------------------------
 DEPT.F                  :   
 SPR .MV     05 010 01 00:   SPONTANEOUS POTENTIAL FROM RES.
 ILD .OHMM   05 120 46 00:   INDUCTION LOG DEEP
 CILD.MMHO   05 110 00 00:   CONDUCTIVITY INDUCTION LOG
 ASN .OHMM   05 041 16 00:   AMPLIFIED SHORT NORMAL 16"
~PARAMETER INFORMATION
#MNEM.UNIT          VALUE    DESCRIPTION
#----------   ------------   ------------------------------
 PD  .                 GL:   PERMANENT DATUM
 EPD .F              5238:   ELEVATION PERMANENT DATUM
 LMF .                 KB:   LOG MEASURED FROM
 DAPD.F                 5:   FEET ABOVE PERMANENT DATUM
 DMF .                 KB:   DRILLING MEASURED FROM
 EKB .F              5243:   KELLING BUSHING
 EGL .F              5238:   GROUND LEVEL
 DATE.             3-6-60:   RUN DATE
 RUN .                  1:   RUN NUMBER
 DD  .F              1085:   DEPTH DRILLER
 DL  .F              1087:   DEPTH LOGGER
 BLI .F              1085:   BOTTOM LOG INTERVAL
 TLI .F                70:   TOP LOG INTERVAL
 CS  .IN            8.625:   CASING SIZE
 CBD .F                12:   CASING BOTTOM DRILLER
 BS  .IN            7.875:   BIT SIZE
 BSD .F              1085:   BIT SIZE AT DEPTH
 DFT .   GEL/OIL EMULSION:   DRILLING FLUID TYPE
 DFD .               10.3:   DRILLING FLUID DENSITY
 DFV .                 37:   DRILLING FLUID VISCOSITY
 DFPH.                8.5:   DRILLING FLUID PH
 DFL .                7.2:   DRILLING FLUID LOSS
 MSS .          FLOW LINE:   MUD SAMPLE SOURCE
 RMS .OHMM           1.65:   RESISTIVITY MUD SAMPLE
 MST .F                70:   MUD SAMPLE TEMPERATURE
 RMF .OHMM            1.2:   RESISTIVITY MUD FILTRATE SAMPLE
 MFST.F                68:   MUD FILTRATE SAMPLE TEMPERATURE
 RMC .OHMM            1.8:   RESISTIVITY MUD CAKE
 MCST.F                68:   MUD CAKE SAMPLE TEMPERATURE
 MFSS.              PRESS:   MUD FILTRATE SAMPLE SOURCE
 MCSS.              PRESS:   MUD CAKE SAMPLE SOURCE
 RMB .OHMM            1.5:   RESISTIVITY MUD AT BHT
 BHT .F                74:   BOTTOM HOLE TEMPERATURE
 MRT .F                74:   MAXIMUM RECORDED TEMPERATURE
 LUN .               4474:   LOGGING UNIT NUMBER
 LUL .             CASPER:   LOGGING UNIT LOCATION
 ENGI.      NELSON/GRIGGS:   RECORDING ENGINEER
 WITN.   JORGENSEN/HUDSON:   WITNESSED BY
 CLNT.            A2DTECH:   CLIENT CODE
 ORIG.       2", 5" PRINT:   ORIGIN OF DATA
 UWI .       490250633400:   UNIQUE WELL ID
 DICO. A2D Technologies, Inc.:   DIGITIZING COMPANY
~OTHER INFORMATION
~A   DEPT      SPR          ILD      CILD         ASN 
# ...
 1019.0000   -36.5006     8.4848   137.5130     9.6295
 1019.5000   -36.4829     8.4433   138.0821     9.6150
 1020.0000   -36.4888     8.4015   138.6516     9.5870
 1020.5000   -36.6772     8.3502   139.2211     9.5585
 1021.0000   -36.8816     8.2848   139.7901     9.5311
 1021.5000   -37.0819     8.2198   140.3573     9.4804
 1022.0000   -37.0957     8.1556   140.4338     9.4273
 1022.5000   -36.8027     8.1020   141.0666     9.3703
 1023.0000   -36.5146     8.0438   141.6573     9.3096
 1023.5000   -36.2213     7.9839   142.2448     9.2489
 1024.0000   -36.1717     7.9246   142.8322     9.1882
 1024.5000   -36.2391     7.8642   143.4246     9.1189
 1025.0000   -36.2907     7.8169   143.9984     9.0348
 1025.5000   -35.2984     7.7537   145.7724     8.9519
 1026.0000   -34.2959     7.6917   148.2153     8.8422
 1026.5000   -34.8857     7.6301   151.1612     8.7277
 1027.0000   -35.9090     7.5672   154.1071     8.6139
 1027.5000   -35.7272     7.4503   157.0530     8.4988
 1028.0000   -35.3303     7.3323   159.9989     8.3840
 1028.5000   -34.9290     7.2321   162.9449     8.2664
 1029.0000   -34.9479     7.1329   165.4741     8.1578
 1029.5000   -35.0398     7.0342   164.2448     7.9817
 1030.0000   -34.9863     6.9349   164.4833     7.7835
 1030.5000   -34.9296     6.8152   165.8841     7.5847
 1031.0000   -34.8825     6.5987   167.2630     7.3848
 1031.5000   -34.4943     6.3841   171.4843     7.1473
 1032.0000   -34.0613     6.1751   182.0525     6.8530
 1032.5000   -34.0088     5.8785   192.6416     6.5604
 1033.0000   -34.0680     5.5746   203.2307     6.2786
 1033.5000   -34.1302     5.2698   213.8121     5.8569
 1034.0000   -34.1915     4.9627   224.3949     5.4302
 1034.5000   -34.2538     4.6284   234.9770     4.9949
 1035.0000   -34.3206     4.5770   245.9750     4.6925
 1035.5000   -34.2924     4.4760   251.3417     4.4188
 1036.0000   -33.4622     4.4889   247.0650     4.4916
 1036.5000   -32.6470     4.6745   242.8157     4.8711
 1037.0000   -32.7432     4.9200   238.5665     5.3067
 1037.5000   -33.6942     5.1667   227.7965     6.0125
 1038.0000   -34.0788     5.4134   213.3347     6.7165
 1038.5000   -33.8807     5.6601   198.8730     7.1684
 1039.0000   -33.5155     5.9068   188.3578     7.3980
 1039.5000   -33.1399     6.1509   184.7156     7.5074
 1040.0000   -32.9642     6.3479   181.0733     7.6057
 1040.5000   -32.9436     6.4326   177.4311     7.7489
 1041.0000   -33.1102     6.5197   173.8535     7.8920
 1041.5000   -33.2733     6.6099   170.5881     8.0351
 1042.0000   -33.4371     6.7371   167.3161     8.1841
 1042.5000   -33.6022     6.8804   164.0475     8.3616
 1043.0000   -33.7746     7.0872   160.7789     8.5374
 1043.5000   -33.4827     7.2661   157.5085     8.7094
 1044.0000   -32.8539     7.4415   154.2319     8.9076
 1044.5000   -32.2109     7.6169   150.9960     9.1012
 1045.0000   -31.5641     7.7981   148.6492     9.2991
 1045.5000   -30.9233     7.8877   147.3111     9.4618
 1046.0000   -30.9954     7.9533   145.9445     9.6202
 1046.5000   -31.1300     8.0181   144.5787     9.7783
 1047.0000   -31.2627     8.0831   143.2129     9.9333
 1047.5000   -31.3938     8.1483   141.8470    10.1006
 1048.0000   -31.3710     8.2165   140.4812    10.2822
 1048.5000   -31.0195     8.3004   139.1154    10.4646
 1049.0000   -30.6751     8.3834   138.0057    10.6463
 1049.5000   -30.3321     8.4670   137.0325    10.7945
 1050.0000   -29.9911     8.5530   136.0593    10.8510
 1050.5000   -30.0117     8.5581   135.0861    10.9077
 1051.0000   -30.6601     8.5575   134.1162    10.9586
 1051.5000   -31.3100     8.5574   133.3349    10.9573
 1052.0000   -31.9416     8.5574   133.8804    10.9571
 1052.5000   -31.9930     8.5574   134.4122    10.9571
 1053.0000   -31.4229     8.5572   134.9463    10.9572
 1053.5000   -30.8827     8.5456   135.4793    10.9576
 1054.0000   -30.5759     8.5144   136.0124    10.9549
 1054.5000   -30.8242     8.4835   136.5422    10.8819
 1055.0000   -31.0637     8.4525   137.2215    10.8041
 1055.5000   -31.2990     8.4216   138.0822    10.7178
 1056.0000   -31.2523     8.3906   138.9453    10.5766
 1056.5000   -30.7906     8.3597   139.8084    10.4371
 1057.0000   -30.3715     8.3287   140.1116    10.4406
 1057.5000   -30.4309     8.2978   138.9788    10.4646
 1058.0000   -30.5006     8.2680   139.0753    10.4889
 1058.5000   -30.3973     8.2387   139.9384    10.5212
 1059.0000   -30.0927     8.2094   140.8015    10.5943
 1059.5000   -29.7900     8.1802   141.6645    10.4272
 1060.0000   -29.4849     8.1509   142.3572    10.2336
 1060.5000   -29.1814     8.1216   143.2203     9.7436
 1061.0000   -28.9394     8.0842   144.0834     9.5942
 1061.5000   -29.1758     8.0409   144.9464     9.7048
 1062.0000   -29.1303     7.9978   145.7961     9.3539
 1062.5000   -28.8652     7.9545   145.3018     9.0200
 1063.0000   -28.5975     7.9193   144.6976     8.8541
 1063.5000   -28.3442     7.8685   144.0935     8.7645
 1064.0000   -28.1760     7.8821   143.4893     8.6540
 1064.5000   -28.0044     7.9734   142.8852     8.5283
 1065.0000   -27.8440     8.0640   142.2810     8.5500
 1065.5000   -27.9001     8.1548   142.4935     8.6179
 1066.0000   -27.9641     8.2456   142.8875     8.4399
 1066.5000   -28.0274     8.2671   143.2816     8.2594
 1067.0000   -28.0912     8.2010   143.6756     8.1103
 1067.5000   -28.1524     8.1402   143.8277     7.9926
 1068.0000   -28.1165     8.0239   142.6935     7.9164
 1068.5000   -27.7517     8.4346   139.6295     7.9799
 1069.0000   -27.3874     8.8638   135.0170     8.0477
 1069.5000   -27.2121     9.2883   130.3644     8.0134
 1070.0000   -27.0893     9.5085   126.7395     7.9391
 1070.5000   -26.9624     9.3075   123.1146     7.8842
 1071.0000   -27.0346     9.1152   125.4001     8.0266
 1071.5000   -27.1665     8.9223   128.7985     7.9786
 1072.0000   -27.2999     8.7298   132.1968     7.7646
 1072.5000   -27.4327     8.5372   136.3690     7.5506
 1073.0000   -27.5655     8.3379   140.9001     7.3864
 1073.5000   -27.6983     8.2046   141.1473     7.2422
 1074.0000   -27.8311     8.0857   139.6369     7.1796
 1074.5000   -27.9642     7.9675   139.6040     7.1206
 1075.0000   -28.0966     7.8492   142.4360     7.0730
 1075.5000   -28.1929     7.7377   145.2679     7.0244
 1076.0000   -28.1517     7.6722   149.3739     6.9644
 1076.5000   -28.1133     7.6051   150.8003     6.8961
 1077.0000   -28.0753     7.5378   151.6526     6.8292
 1077.5000   -28.0392     7.4704   152.4903     6.7690
 1078.0000   -28.1063     7.4028   152.9222     6.7015
 1078.5000   -28.2883     7.3837   155.6816     6.6356
 1079.0000   -28.4705     7.3734   158.9072     6.5683
 1079.5000   -28.4983     7.3632   161.9172     6.4103
 1080.0000   -28.3863     7.3529   160.9194     6.1367
 1080.5000   -28.2725     7.3425   158.9095     5.9147
 1081.0000   -28.1581     7.3322   156.8957     6.0270
 1081.5000   -28.0399     7.3219   154.7406     6.2305
 1082.0000   -28.0814     7.3116   153.3552     6.6814
 1082.5000   -28.1637     7.3026   151.2322     7.1695
 1083.0000   -28.1667     7.3029   151.6853     7.6031
 1083.5000   -28.0834     7.3033   152.1347     7.9100
 1084.0000   -27.9518     7.3011   152.5943     8.1207
 1084.5000   -27.6039     7.2386   153.3153     8.3011
 1085.0000   -27.2616     7.1736   155.1360     8.4652
 1085.5000   -26.9361     7.1224   156.5295     8.5608
 1086.0000   -26.7764     7.1235   156.5295     8.5599
 1086.5000   -26.7561     7.1236   156.5295     8.5601
 1087.0000   -26.7564     7.1237   156.5295     8.5599
 1087.5000   -26.7567     7.1237   156.5295     8.5599
 1088.0000   -26.7568     7.1237   156.5295     8.5599
