~VERSION INFORMATION
 VERS.                2.0:   CWLS LOG ASCII STANDARD - VERSION 2.0
 WRAP.                 NO:   ONE LINE PER DEPTH STEP
~WELL INFORMATION
#MNEM.UNIT      DATA TYPE    INFORMATION
#----------   ------------   ------------------------------
 STRT.F           30.0000:   START DEPTH
 STOP.F          750.0000:   STOP DEPTH
 STEP.F            0.5000:   STEP LENGTH
 NULL.          -999.2500:   NO VALUE
 COMP. FENIX & SCISSON INC:   COMPANY
 WELL. TEAPOT DOME SX #38-11:   WELL
 FLD .             TEAPOT:   FIELD
 LOC .      S11 T38N R78W:   LOCATION
 CNTY.            NATRONA:   COUNTY
 STAT.            WYOMING:   STATE
 CTRY. UNITED STATES OF AMERICA:   COUNTRY
 SRVC.            Unknown:   SERVICE COMPANY
 DATE.        23-FEB-1978:   LOGDATE
 API .       490251058200:   API NUMBER
~CURVE INFORMATION
#MNEM.UNIT       API CODE    CURVE DESCRIPTION
#----------   ------------   ------------------------------
 DEPT.F                  :   
 CALD.IN     45 280 60 00:   CALIPER FROM DENSITY LOG
 GRD .GAPI   45 310 01 00:   GAMMA RAY FROM DENSITY LOG
 RHOB.G/C3   45 350 01 00:   BULK DENSITY
 DPHI.DEC    45 890 12 00:   DENSITY POROSITY SANDSTONE
 CORR.G/C3   45 356 01 00:   DENSITY CORRECTION
 SPR .MV     07 010 01 00:   SPONTANEOUS POTENTIAL FROM RES. LOG
 SN  .OHMM   07 040 16 00:   SHORT NORMAL 16'
 ILD .OHMM   07 120 46 00:   INDUCTION LOG DEEP
~PARAMETER INFORMATION
#MNEM.UNIT          VALUE    DESCRIPTION
#----------   ------------   ------------------------------
 PD  .                 GL:   PERMANENT DATUM
 EPD .F              5204:   ELEVATION PERMANENT DATUM
 LMF .                 KB:   LOG MEASURED FROM
 DAPD.F                 4:   FEET ABOVE PERMANENT DATUM
 DMF .                 KB:   DRILLING MEASURED FROM
 EKB .F              5208:   KELLING BUSHING
 EGL .F              5204:   GROUND LEVEL
 DATE.            2-23-78:   RUN DATE
 RUN .                  1:   RUN NUMBER
 DD  .F               755:   DEPTH DRILLER
 DL  .F               751:   DEPTH LOGGER
 BLI .F               745:   BOTTOM LOG INTERVAL
 TLI .F                45:   TOP LOG INTERVAL
 CS  .IN            8.625:   CASING SIZE
 CBD .F                40:   CASING BOTTOM DRILLER
 CBL .F                40:   CASING BOTTOM LOGGER
 BS  .IN            7.875:   BIT SIZE
 BSD .F               755:   BIT SIZE AT DEPTH
 DFT .         LIGNO SULF:   DRILLING FLUID TYPE
 DFD .                8.7:   DRILLING FLUID DENSITY
 DFV .                 33:   DRILLING FLUID VISCOSITY
 DFPH.                 10:   DRILLING FLUID PH
 DFL .                  4:   DRILLING FLUID LOSS
 MSS .          FLOW LINE:   MUD SAMPLE SOURCE
 RMS .OHMM              2:   RESISTIVITY MUD SAMPLE
 MST .F                60:   MUD SAMPLE TEMPERATURE
 RMF .OHMM            1.9:   RESISTIVITY MUD FILTRATE SAMPLE
 MFST.F                62:   MUD FILTRATE SAMPLE TEMPERATURE
 RMC .OHMM            3.5:   RESISTIVITY MUD CAKE
 MCST.F                60:   MUD CAKE SAMPLE TEMPERATURE
 MFSS.               MEAS:   MUD FILTRATE SAMPLE SOURCE
 MCSS.               MEAS:   MUD CAKE SAMPLE SOURCE
 RMB .OHMM           1.69:   RESISTIVITY MUD AT BHT
 BHT .F                71:   BOTTOM HOLE TEMPERATURE
 TCS .HRS               3:   TIME CURCULATED STOPPED
 MRT .F                71:   MAXIMUM RECORDED TEMPERATURE
 LUN .               2958:   LOGGING UNIT NUMBER
 LUL .               CASP:   LOGGING UNIT LOCATION
 ENGI.            POINTER:   RECORDING ENGINEER
 WITN.           MCGINLEY:   WITNESSED BY
 CLNT.            A2DTECH:   CLIENT CODE
 ORIG.       2", 5" PRINT:   ORIGIN OF DATA
 UWI .       490251058200:   UNIQUE WELL ID
 DICO. A2D Technologies, Inc.:   DIGITIZING COMPANY
~OTHER INFORMATION
~A   DEPT     CALD         GRD      RHOB       DPHI       CORR        SPR         SN        ILD   
# ...
  313.5000     8.3700   110.0564     2.4585     0.1121     0.0072   -34.8496     8.9688     7.9251
  314.0000     8.3676   110.1199     2.4417     0.1151     0.0096   -35.0463     8.9730     7.8763
  314.5000     8.3652   108.3087     2.4497     0.1091     0.0290   -34.8337     8.9771     7.8382
  315.0000     8.3628   105.7993     2.4640     0.1035     0.0473   -34.7371     8.9813     7.7662
  315.5000     8.3604   104.3243     2.4785     0.1024     0.0511   -34.9890     8.9854     7.7886
  316.0000     8.3580    99.4173     2.4899     0.1014     0.0409   -34.0030     8.9896     7.8248
  316.5000     8.3556    99.2442     2.4875     0.1003     0.0291   -34.3956     8.9938     7.8611
  317.0000     8.3532   102.8897     2.4851     0.1006     0.0272   -34.7663     8.9980     7.8976
  317.5000     8.3512   106.0496     2.4836     0.1010     0.0306   -35.1357     9.0019     7.9343
  318.0000     8.3151   108.4197     2.4852     0.1013     0.0340   -35.5196     9.0020     7.9711
  318.5000     8.2581   108.3530     2.4873     0.1016     0.0362   -35.1401     9.0020     8.0582
  319.0000     8.2011   106.3389     2.4821     0.1019     0.0329   -34.6280     9.0020     8.0545
  319.5000     8.1438   103.1484     2.4767     0.1023     0.0376   -35.8389     9.0020     8.0488
  320.0000     8.0850   101.3616     2.4801     0.1029     0.0361   -36.2781     9.0020     8.0430
  320.5000     8.0809   101.5538     2.4843     0.1111     0.0283   -35.7914     9.0020     8.0373
  321.0000     8.0930   102.2118     2.4790     0.1216     0.0204   -36.1938     9.0020     8.0316
  321.5000     8.1050   104.6135     2.4630     0.1282     0.0168   -35.1658     9.0020     8.0259
  322.0000     8.1352   106.9969     2.4470     0.1364     0.0163   -33.9095     9.0020     8.0201
  322.5000     8.1415   107.2372     2.4380     0.1501     0.0158   -35.1008     9.0020     8.0144
  323.0000     8.1490   102.5956     2.4225     0.1637     0.0153   -35.6311     9.0020     8.0087
  323.5000     8.1569    99.3783     2.3897     0.1773     0.0152   -35.7861     9.0020     8.0030
  324.0000     8.1649   100.9482     2.3550     0.1839     0.0364   -35.9373     9.0020     7.9973
  324.5000     8.1765   104.0199     2.3524     0.1151     0.0909   -35.2918     9.0020     7.9916
  325.0000     8.2029   104.0609     2.4205     0.1068     0.1393   -34.2077     9.0020     7.9860
  325.5000     8.2288   104.1937     2.4726     0.0976     0.1470   -34.3939     9.0021     7.9694
  326.0000     8.2477   104.1084     2.4804     0.0552     0.1713   -35.6911     8.9687     7.9482
  326.5000     8.2258   102.8067     2.5399     0.0622     0.1885   -36.0230     8.9215     7.9270
  327.0000     8.2052   102.5217     2.5601     0.0740     0.1410   -35.8653     8.8747     7.9059
  327.5000     8.2023   101.7208     2.5280     0.0827     0.0903   -36.3460     8.8281     7.8849
  328.0000     8.2431   100.2661     2.4943     0.0925     0.1069   -36.2350     8.7817     7.8639
  328.5000     8.2711    99.6733     2.5153     0.0639     0.1120   -36.0560     8.7356     7.8430
  329.0000     8.2704   100.1257     2.5390     0.0738     0.0748   -36.4557     8.6897     7.8222
  329.5000     8.2704   101.5469     2.5099     0.0856     0.0441   -35.4242     8.6438     7.8014
  330.0000     8.2707   104.0245     2.4805     0.0974     0.0294   -36.3075     8.5955     7.7806
  330.5000     8.2691   105.9555     2.4750     0.1070     0.0289   -35.5781     8.6016     7.7599
  331.0000     8.2323   105.9073     2.4665     0.1074     0.0313   -33.7959     8.6125     7.7393
  331.5000     8.1952   105.9117     2.4638     0.1059     0.0339   -34.5300     8.6234     7.7187
  332.0000     8.1565   106.6429     2.4752     0.1031     0.0346   -35.4704     8.6342     7.6982
  332.5000     8.1958   108.8169     2.4826     0.1014     0.0342   -36.3664     8.6450     7.6777
  333.0000     8.2145   107.4024     2.4809     0.1018     0.0339   -35.5775     8.6559     7.6573
  333.5000     8.1732   104.9629     2.4832     0.1031     0.0335   -34.4366     8.6667     7.6368
  334.0000     8.2212   103.7113     2.4809     0.1044     0.0331   -35.2687     8.6776     7.6237
  334.5000     8.2743   103.2952     2.4776     0.1054     0.0333   -36.1575     8.6884     7.6491
  335.0000     8.3161   106.0179     2.4746     0.1036     0.0345   -36.9820     8.6993     7.6748
  335.5000     8.3338   113.5299     2.4753     0.0997     0.0358   -36.8260     8.7102     7.7006
  336.0000     8.3492   111.9390     2.4782     0.0957     0.0369   -36.5556     8.7211     7.7265
  336.5000     8.3384   109.0633     2.4906     0.0914     0.0333   -36.2862     8.7320     7.7525
  337.0000     8.3384   106.0232     2.4977     0.0979     0.0294   -36.0913     8.7430     7.7786
  337.5000     8.3743   104.2103     2.4900     0.1010     0.0336   -35.7184     8.7538     7.8047
  338.0000     8.4090   103.6411     2.4837     0.1003     0.0378   -34.7958     8.7711     7.8310
  338.5000     8.4293   103.5239     2.4862     0.0996     0.0409   -35.6670     8.8079     7.8573
  339.0000     8.4293   103.4094     2.4885     0.0990     0.0400   -35.3434     8.8452     7.8837
  339.5000     8.4294   103.3146     2.4862     0.0977     0.0388   -34.9689     8.8825     7.9103
  340.0000     8.4295   103.5327     2.4834     0.0965     0.0375   -35.8534     8.9200     7.9369
  340.5000     8.4294   105.4706     2.4863     0.0969     0.0363   -36.9568     8.9577     7.9635
  341.0000     8.4290   105.2648     2.4909     0.0991     0.0351   -36.5339     9.0020     7.9842
  341.5000     8.4462   104.4855     2.4913     0.1014     0.0338   -35.5079     8.8932     7.9232
  342.0000     8.4677   104.1137     2.4871     0.1036     0.0333   -34.6183     8.7232     7.8501
  342.5000     8.4345   104.0881     2.4827     0.1059     0.0353   -35.1495     8.5960     7.7777
  343.0000     8.3973   104.2757     2.4783     0.1081     0.0373   -36.3520     8.5960     7.6948
  343.5000     8.3820   108.0813     2.4790     0.1104     0.0391   -35.3715     8.6111     7.7021
  344.0000     8.4286   110.2726     2.4813     0.1126     0.0331   -36.4151     8.6216     7.7132
  344.5000     8.4251   109.2134     2.4832     0.1149     0.0260   -36.1232     8.6321     7.7244
  345.0000     8.4204   106.6674     2.4715     0.1149     0.0193   -34.5442     8.6427     7.7356
  345.5000     8.4159   103.1904     2.4545     0.1115     0.0276   -35.7203     8.6533     7.7469
  346.0000     8.4115    99.6879     2.4627     0.1049     0.0368   -36.6144     8.6644     7.7589
  346.5000     8.4072    98.7455     2.4779     0.1010     0.0356   -35.8888     8.6741     7.7678
  347.0000     8.4028    99.3535     2.4863     0.1036     0.0264   -34.8942     8.6778     7.6100
  347.5000     8.3984    99.8022     2.4779     0.1062     0.0172   -34.4821     8.4359     7.4672
  348.0000     8.3940    99.8750     2.4551     0.1090     0.0154   -34.9822     8.2530     7.3270
  348.5000     8.3896   102.3101     2.4504     0.1098     0.0200   -35.4581     8.0739     7.1894
  349.0000     8.3852   105.4913     2.4679     0.1049     0.0248   -35.9477     7.9833     7.1472
  349.5000     8.3809   106.5241     2.4817     0.0995     0.0230   -35.9763     8.0525     7.1472
  350.0000     8.3765   104.7271     2.4929     0.0957     0.0231   -36.7078     8.1061     7.1472
  350.5000     8.3712   102.2458     2.4962     0.0954     0.0225   -36.7995     8.1330     7.1471
  351.0000     8.3538    99.6586     2.4988     0.0962     0.0116   -36.0329     8.2113     7.1470
  351.5000     8.3546    98.8999     2.4986     0.1028     0.0009   -35.2606     8.2992     7.1472
  352.0000     8.3763    98.7817     2.4772     0.1213    -0.0094   -34.6869     8.3880     7.2512
  352.5000     8.3972    98.6901     2.4559     0.1160     0.0069   -35.8999     8.4778     7.3685
  353.0000     8.4178    98.5959     2.4427     0.1110     0.0248   -35.9988     8.5686     7.4877
  353.5000     8.4293    98.4110     2.4689     0.1118     0.0271   -34.4657     8.5960     7.6089
