~VERSION INFORMATION
 VERS.                2.0:   CWLS LOG ASCII STANDARD - VERSION 2.0
 WRAP.                 NO:   ONE LINE PER DEPTH STEP
~WELL INFORMATION
#MNEM.UNIT      DATA TYPE    INFORMATION
#----------   ------------   ------------------------------
 STRT.F            0.0000:   START DEPTH
 STOP.F          752.0000:   STOP DEPTH
 STEP.F            0.1000:   STEP LENGTH
 NULL.          -999.2500:   NO VALUE
 COMP. BROWN JOHN E&C INC:   COMPANY
 WELL. N P R 3 STX-34 #53-1-34:   WELL
 FLD .             TEAPOT:   FIELD
 LOC .      S34 T39N R78W:   LOCATION
 CNTY.            NATRONA:   COUNTY
 STAT.            WYOMING:   STATE
 CTRY. UNITED STATES OF AMERICA:   COUNTRY
 SRVC.     Atlas Wireline:   SERVICE COMPANY
 DATE.        29-OCT-1991:   LOGDATE
 API .       490252248700:   API NUMBER
~CURVE INFORMATION
#MNEM.UNIT       API CODE    CURVE DESCRIPTION
#----------   ------------   ------------------------------
 DEPT.F                  :   
 GRR .GAPI   07 310 01 00:   GAMMA RAY
 RILD.OHMM   07 120 46 00:   INDUCTION LOG DEEP RESISTIVITY
 RILM.OHMM   07 120 44 00:   RESITIVITY LONG MEDIUM
~PARAMETER INFORMATION
#MNEM.UNIT          VALUE    DESCRIPTION
#----------   ------------   ------------------------------
 PD  .                 GL:   PERMANENT DATUM
 EPD .F              5067:   ELEVATION PERMANENT DATUM
 LMF .                 KB:   LOG MEASURED FROM
 DAPD.F                10:   FEET ABOVE PERMANENT DATUM
 DMF .                 KB:   DRILLING MEASURED FROM
 EKB .F              5077:   KELLING BUSHING
 EGL .F              5067:   GROUND LEVEL
 DATE.        29-OCT-1991:   RUN DATE
 RUN .                  1:   RUN NUMBER
 DD  .F               760:   DEPTH DRILLER
 DL  .F               760:   DEPTH LOGGER
 BLI .F               758:   BOTTOM LOG INTERVAL
 TLI .F                 0:   TOP LOG INTERVAL
 CS  .IN            9.625:   CASING SIZE
 CBD .F                52:   CASING BOTTOM DRILLER
 CBL .F                52:   CASING BOTTOM LOGGER
 BS  .IN             8.75:   BIT SIZE
 BSD .F               760:   BIT SIZE AT DEPTH
 DFT .        AIR DRILLED:   DRILLING FLUID TYPE
 MRT .F               154:   MAXIMUM RECORDED TEMPERATURE
 LUN .            HL 6307:   LOGGING UNIT NUMBER
 LUL .             CASPER:   LOGGING UNIT LOCATION
 ENGI.          RASMUSSEN:   RECORDING ENGINEER
 WITN.        GARY STRONG:   WITNESSED BY
 CLNT.            A2DTECH:   CLIENT CODE
 ORIG.           5" PRINT:   ORIGIN OF DATA
 UWI .       490252248700:   UNIQUE WELL ID
 DICO. A2D Technologies, Inc.:   DIGITIZING COMPANY
~OTHER INFORMATION
~A    DEPT      GRR      RILD       RILM   
# ...
   91.0000   125.3191     7.0791     7.2137
   91.1000   125.3186     7.1201     7.2556
   91.2000   125.3180     7.1613     7.2848
   91.3000   125.3174     7.2027     7.2891
   91.4000   125.3168     7.2519     7.3362
   91.5000   125.3131     7.2863     7.3740
   91.6000   125.0129     7.3027     7.3879
   91.7000   124.8113     7.3196     7.4081
   91.8000   124.4115     7.3538     7.4400
   91.9000   123.7170     7.3538     7.4423
   92.0000   122.8038     7.3956     7.4925
   92.1000   122.2868     7.4384     7.4927
   92.2000   119.8617     7.4570     7.4929
   92.3000   117.5480     7.4725     7.4931
   92.4000   115.9843     7.5092     7.4933
   92.5000   114.7251     7.5092     7.4935
   92.6000   112.9052     7.5092     7.4937
   92.7000   110.4829     7.5092     7.4939
   92.8000   109.0929     7.5092     7.4942
   92.9000   107.5903     7.5092     7.4944
   93.0000   106.3419     7.5092     7.4946
   93.1000   105.6393     7.5092     7.4948
   93.2000   105.6613     7.4705     7.4950
   93.3000   105.9406     7.4570     7.4633
   93.4000   106.1608     7.4570     7.4433
   93.5000   106.7474     7.4340     7.4435
   93.6000   107.6139     7.3512     7.4389
   93.7000   108.8064     7.3027     7.3923
   93.8000   110.5464     7.2669     7.3924
   93.9000   112.2910     7.2251     7.3926
   94.0000   113.3394     7.1835     7.3723
   94.1000   114.5904     7.1422     7.3301
   94.2000   115.6308     7.1004     7.2909
   94.3000   116.2751     7.0035     7.2911
   94.4000   116.5249     6.9709     7.2555
   94.5000   116.7746     6.9308     7.2140
   94.6000   117.2232     6.8910     7.1907
   94.7000   117.2833     6.8442     7.1723
   94.8000   117.0324     6.7635     7.0909
   94.9000   116.7814     6.7257     7.0425
   95.0000   116.5204     6.6285     6.9776
   95.1000   116.2796     6.5565     6.8979
   95.2000   116.0286     6.4929     6.8040
   95.3000   115.7777     6.3915     6.6941
   95.4000   115.5268     6.3522     6.6151
   95.5000   115.2758     6.2844     6.5057
   95.6000   115.0039     6.2124     6.3668
   95.7000   114.5446     6.1232     6.2026
   95.8000   114.2205     5.9469     5.9590
   95.9000   113.8447     5.6268     5.6071
   96.0000   113.3434     5.4489     5.3674
   96.1000   112.8421     5.2584     5.1195
   96.2000   112.2771     4.9369     4.8614
   96.3000   111.8396     4.6397     4.6546
   96.4000   111.1721     4.4429     4.4962
   96.5000   110.4206     4.2900     4.3470
   96.6000   109.7307     4.0941     4.2353
   96.7000   109.2484     3.9770     4.1310
   96.8000   109.2477     3.8419     3.9544
   96.9000   109.2472     3.7111     3.7640
   97.0000   109.4019     3.5846     3.6085
   97.1000   109.5486     3.4614     3.5058
   97.2000   109.6496     3.2076     3.3889
   97.3000   110.1525     3.0784     3.2946
   97.4000   110.4008     2.9132     3.1828
   97.5000   110.6505     2.7439     3.0677
   97.6000   111.0447     2.5868     2.9430
   97.7000   111.5447     2.4956     2.8078
   97.8000   112.0448     2.4139     2.6840
   97.9000   112.5694     2.3521     2.5747
   98.0000   113.0449     2.3129     2.4652
   98.1000   113.9165     2.2819     2.3680
   98.2000   115.4513     2.2427     2.2988
   98.3000   117.4534     2.2012     2.2156
   98.4000   119.4844     2.1551     2.1802
   98.5000   121.9455     2.1060     2.1429
   98.6000   123.7620     2.0520     2.0939
   98.7000   126.2887     1.9936     2.0344
   98.8000   129.2869     1.9387     1.9765
   98.9000   132.6110     1.9014     1.9141
   99.0000   136.0969     1.8728     1.8756
   99.1000   139.7936     1.8407     1.8472
   99.2000   143.6853     1.8044     1.8212
   99.3000   147.0426     1.7682     1.7952
   99.4000   149.3486     1.7475     1.7850
   99.5000   151.6955     1.7126     1.7731
   99.6000   155.9068     1.6881     1.7646
   99.7000   159.1545     1.6711     1.7609
   99.8000   161.0020     1.6615     1.7609
   99.9000   160.1543     1.6469     1.7631
  100.0000   157.3374     1.6133     1.7734
  100.1000   156.3300     1.5863     1.7857
  100.2000   154.9216     1.5975     1.7982
  100.3000   154.1585     1.5976     1.8085
  100.4000   153.9058     1.6050     1.8274
  100.5000   153.7005     1.6090     1.8424
  100.6000   153.6992     1.6126     1.8571
  100.7000   153.4501     1.6254     1.8768
  100.8000   153.1974     1.6549     1.8880
  100.9000   153.0905     1.6831     1.8986
  101.0000   153.0893     1.7280     1.9266
  101.1000   153.0880     1.7673     1.9667
  101.2000   153.0868     1.7983     2.0127
  101.3000   153.0856     1.8315     2.0598
  101.4000   153.0844     1.8769     2.1106
  101.5000   152.9410     1.8977     2.1812
  101.6000   152.6882     1.9450     2.2682
  101.7000   152.4355     2.0022     2.3398
  101.8000   152.1718     2.0774     2.3945
  101.9000   151.9300     2.1816     2.4504
  102.0000   151.6772     2.2509     2.5123
  102.1000   151.5631     2.3120     2.6223
  102.2000   151.4743     2.3902     2.7352
  102.3000   151.1486     2.4748     2.8569
  102.4000   150.3491     2.5576     2.9920
  102.5000   146.5557     2.6311     3.1256
  102.6000   144.5757     2.6994     3.2064
  102.7000   142.9119     2.7420     3.3607
  102.8000   140.5628     2.8015     3.5119
  102.9000   137.4443     2.8922     3.6783
  103.0000   133.3978     3.0117     3.8811
  103.1000   131.7629     3.1389     4.1053
  103.2000   128.9069     3.3288     4.2969
  103.3000   125.5043     3.4319     4.5213
  103.4000   121.2590     3.5396     4.7346
  103.5000   115.8528     3.6538     4.8899
  103.6000   113.1182     3.8878     4.9966
  103.7000   109.9004     4.4134     5.0839
  103.8000   107.4500     4.6865     5.1866
  103.9000   105.6919     4.7098     5.3046
  104.0000   104.3348     4.7731     5.4439
  104.1000   103.4043     5.1535     5.6373
  104.2000   103.1260     5.8691     5.8708
  104.3000   103.1250     6.4233     6.0120
  104.4000   102.9487     6.7373     6.3483
  104.5000   102.6959     7.0358     6.6614
  104.6000   102.4432     7.3858     7.1114
  104.7000   102.1684     7.7553     7.7401
  104.8000   101.6059     8.1588     8.4732
  104.9000   101.6048     8.5435     8.8722
  105.0000   101.2607     8.7956     9.1866
  105.1000   100.7564     8.9708     9.4673
  105.2000   100.2522     9.0970     9.7113
  105.3000    99.7662     9.2245     9.9157
  105.4000    99.4806     9.3967    10.0890
  105.5000    99.4796     9.6215    10.2689
  105.6000    99.4784     9.8435    10.3860
  105.7000    99.7107     9.9395    10.4596
  105.8000   100.2126    10.0311    10.5552
  105.9000   100.6997    10.1485    10.6551
  106.0000   100.9862    10.2481    10.7068
  106.1000   101.4156    10.2489    10.7066
  106.2000   101.5891    10.3064    10.7065
  106.3000   101.4747    10.3220    10.7530
  106.4000   101.2841    10.3227    10.7811
  106.5000   101.2718    10.3234    10.7810
  106.6000   100.9789    10.3241    10.7808
  106.7000   101.1895    10.3249    10.7807
  106.8000   101.2793    10.2701    10.7226
  106.9000   101.3876    10.2116    10.6606
  107.0000   101.5794    10.1533    10.5989
  107.1000   101.5857    10.0954    10.5184
  107.2000   101.8794    10.0314    10.4038
  107.3000   102.2943     9.9060    10.3381
  107.4000   102.7962     9.8033    10.1768
  107.5000   103.2980     9.7306    10.0016
  107.6000   103.7450     9.6199     9.8574
  107.7000   104.0068     9.4708     9.7275
  107.8000   105.2004     9.3576     9.5597
  107.9000   105.6081     9.1786     9.3759
  108.0000   105.8033     8.8585     9.1867
  108.1000   105.6999     8.5738     8.9765
  108.2000   105.4471     8.3748     8.7474
  108.3000   105.1945     8.2311     8.5104
  108.4000   105.1933     8.0928     8.3121
  108.5000   104.9914     7.9872     8.0419
  108.6000   105.0380     7.8698     7.9231
  108.7000   105.1897     7.7349     7.7286
  108.8000   105.2361     7.6023     7.4701
  108.9000   105.4898     7.4719     7.1728
  109.0000   105.7368     7.3419     6.8884
  109.1000   105.9871     7.1471     6.6151
