~VERSION INFORMATION
 VERS.                2.0:   CWLS LOG ASCII STANDARD - VERSION 2.0
 WRAP.                 NO:   ONE LINE PER DEPTH STEP
~WELL INFORMATION
#MNEM.UNIT      DATA TYPE    INFORMATION
#----------   ------------   ------------------------------
 STRT.F           34.0000:   START DEPTH
 STOP.F          662.0000:   STOP DEPTH
 STEP.F            0.5000:   STEP LENGTH
 NULL.          -999.2500:   NO VALUE
 COMP. FENIX & SCISSON INC:   COMPANY
 WELL.     55 S 34 #34-34:   WELL
 FLD .          N.P.R. #3:   FIELD
 LOC .      S34 T39N R78W:   LOCATION
 CNTY.            NATRONA:   COUNTY
 STAT.            WYOMING:   STATE
 CTRY. UNITED STATES OF AMERICA:   COUNTRY
 SRVC.       Schlumberger:   SERVICE COMPANY
 DATE.        15-MAR-1977:   LOGDATE
 API .       490251030500:   API NUMBER
~CURVE INFORMATION
#MNEM.UNIT       API CODE    CURVE DESCRIPTION
#----------   ------------   ------------------------------
 DEPT.F                  :   
 GRD .GAPI   45 310 01 00:   GAMMA RAY FROM DENSITY LOG
 CORR.G/C3   45 356 01 00:   DENSITY CORRECTION
 RHOB.G/C3   45 350 01 00:   BULK DENSITY
 DPOR.DEC    45 890 12 00:   DENSITY POROSITY SANDSTONE
 SPR .MV     07 010 01 00:   SPONTANEOUS POTENTIAL
 LL8 .OHMM   07 220 08 00:   LATEROLOG-8 RES.
 ILD .OHMM   07 120 46 00:   INDUCTION LOG DEEP
 ILM .OHMM   07 120 44 00:   INDUCTION LOG MEDIUM
 CALD.IN     45 280 60 00:   CALIPER
~PARAMETER INFORMATION
#MNEM.UNIT          VALUE    DESCRIPTION
#----------   ------------   ------------------------------
 PD  .                 GL:   PERMANENT DATUM
 EPD .F              5087:   ELEVATION PERMANENT DATUM
 LMF .                 GL:   LOG MEASURED FROM
 DMF .                 GL:   DRILLING MEASURED FROM
 EKB .F              5091:   KELLING BUSHING
 EGL .F              5087:   GROUND LEVEL
 DATE.            3-15-77:   RUN DATE
 RUN .                  1:   RUN NUMBER
 DD  .F               670:   DEPTH DRILLER
 DL  .F               663:   DEPTH LOGGER
 BLI .F               657:   BOTTOM LOG INTERVAL
 TLI .F                40:   TOP LOG INTERVAL
 CS  .IN            8.625:   CASING SIZE
 CBD .F                40:   CASING BOTTOM DRILLER
 CBL .F                40:   CASING BOTTOM LOGGER
 BS  .IN            7.875:   BIT SIZE
 BSD .F               670:   BIT SIZE AT DEPTH
 DFT .                KCL:   DRILLING FLUID TYPE
 DFD .                8.6:   DRILLING FLUID DENSITY
 DFV .                 31:   DRILLING FLUID VISCOSITY
 DFPH.                  8:   DRILLING FLUID PH
 DFL .                8.8:   DRILLING FLUID LOSS
 MSS .                PIT:   MUD SAMPLE SOURCE
 RMS .OHMM           .246:   RESISTIVITY MUD SAMPLE
 MST .F                76:   MUD SAMPLE TEMPERATURE
 RMF .OHMM           .243:   RESISTIVITY MUD FILTRATE SAMPLE
 MFST.F                76:   MUD FILTRATE SAMPLE TEMPERATURE
 MFSS.                  M:   MUD FILTRATE SAMPLE SOURCE
 RMB .OHMM           .267:   RESISTIVITY MUD AT BHT
 BHT .F                70:   BOTTOM HOLE TEMPERATURE
 TCS .HRS            1800:   TIME CURCULATED STOPPED
 TLAB.HRS            2200:   TIME LOGGER AT BOTTOM
 MRT .F                70:   MAXIMUM RECORDED TEMPERATURE
 LUN .               5642:   LOGGING UNIT NUMBER
 LUL .               CSPR:   LOGGING UNIT LOCATION
 ENGI.             MARTIN:   RECORDING ENGINEER
 WITN.              BURKE:   WITNESSED BY
 CLNT.            A2DTECH:   CLIENT CODE
 ORIG. 2", 2.5", 5" PRINT:   ORIGIN OF DATA
 UWI .       490251030500:   UNIQUE WELL ID
 DICO. A2D Technologies, Inc.:   DIGITIZING COMPANY
~OTHER INFORMATION
~A   DEPT       GRD      CORR       RHOB       DPOR        SPR        LL8        ILD        ILM       CALD   
# ...
  107.0000    89.8183     0.0146     2.4177     0.1410   -71.3127    11.3878    13.2737    10.6833     8.2797
  107.5000    91.4087     0.0160     2.4280     0.1385   -70.3632    12.4443    14.0771    11.7171     8.3149
  108.0000    90.7792     0.0138     2.4211     0.1343   -70.0899    12.7197    13.2203    11.7161     8.3495
  108.5000    89.8792     0.0062     2.4056     0.1446   -70.5170    12.2452    12.4225    11.0499     8.3800
  109.0000    92.4748     0.0020     2.3781     0.1566   -70.8283    11.6104    11.6715    10.5643     8.3847
  109.5000    95.5063     0.0081     2.3797     0.1631   -71.1532    10.7751    10.9467     9.1910     8.3444
  110.0000   100.4327     0.0178     2.3759     0.1638   -71.5724    10.8848     9.6160     7.5504     8.3044
  110.5000   105.7023     0.0106     2.3124     0.1868   -72.0711     8.9853     7.1129     6.2677     8.2757
  111.0000   106.6509     0.0124     2.2610     0.2194   -72.5602     6.2187     5.2613     5.6677     8.2763
  111.5000   102.5135     0.0107     2.2623     0.2353   -72.7919     5.0601     4.9676     5.4473     8.2763
  112.0000    97.8314     0.0007     2.3036     0.2131   -72.4407     6.5016     5.3024     5.7306     8.2763
  112.5000    95.0615     0.0013     2.3393     0.1892   -71.2780     8.2592     5.6604     6.0905     8.2763
  113.0000    93.8360    -0.0026     2.3682     0.1691   -70.1977    10.4919     6.0425     6.4814     8.2763
  113.5000    92.8466    -0.0087     2.3638     0.1714   -69.1415    11.5997     6.4304     6.9436     8.2763
  114.0000    92.7828    -0.0104     2.3577     0.1767   -68.0914    10.8598     7.0676     7.5989     8.2763
  114.5000    93.0139     0.0011     2.3700     0.1714   -67.1925    10.3850     7.7347     8.3163     8.2763
  115.0000    93.2250     0.0153     2.3863     0.1618   -66.3187    10.2897     8.4646     9.0986     8.2763
  115.5000    92.3001     0.0294     2.3999     0.1511   -65.0919    10.2897     9.2635     9.9276     8.2763
  116.0000    91.0909     0.0312     2.3938     0.1538   -63.7436    10.2897     9.7300    10.3568     8.2763
  116.5000    90.1768     0.0190     2.3872     0.1579   -62.2113    11.0676    10.1007    10.7514     8.2763
  117.0000    89.4237     0.0099     2.3889     0.1566   -60.6781    11.8291    10.4856    11.1610     8.2762
  117.5000    88.8450     0.0011     2.3880     0.1574   -59.3061    12.5983    10.8851    11.5863     8.2767
  118.0000    88.4130     0.0069     2.3827     0.1615   -58.2544    12.8040    11.2314    11.9249     8.2876
  118.5000    88.2799     0.0112     2.3709     0.1657   -57.3014    12.9170    11.4565    12.1468     8.2986
  119.0000    88.4113     0.0074     2.3552     0.1735   -56.4108    13.0363    11.6513    12.3533     8.3094
  119.5000    89.1566     0.0131     2.3517     0.1792   -55.5131    13.1570    11.8494    12.5622     8.3203
  120.0000    90.1606     0.0096     2.3371     0.1840   -54.6263    13.1975    12.0486    12.7783     8.3311
  120.5000    91.1781     0.0061     2.3327     0.1916   -54.1141    13.1195    12.1583    12.8567     8.3424
  121.0000    92.1954     0.0114     2.3304     0.1880   -53.6713    13.0592    12.1930    12.8933     8.3532
  121.5000    91.8023    -0.0045     2.3172     0.2000   -53.2234    12.9991    12.2277    12.9301     8.3753
  122.0000    90.1886     0.0016     2.3224     0.2000   -52.7405    12.9558    12.2626    12.9670     8.3648
  122.5000    88.8227     0.0136     2.3604     0.1747   -52.8634    13.1697    12.2976    13.0038     8.3562
  123.0000    88.8498     0.0386     2.3990     0.1532   -53.2036    13.4758    12.3323    13.0400     8.3479
  123.5000    89.9920     0.0245     2.4146     0.1439   -53.5410    13.7889    12.3648    13.0773     8.3395
  124.0000    91.1166     0.0338     2.3862     0.1558   -53.8704    14.0772    12.5749    13.2992     8.3312
  124.5000    91.5898     0.0089     2.3660     0.1714   -53.9610    13.8753    12.8127    13.5155     8.3229
  125.0000    88.7946     0.0040     2.3689     0.1703   -53.4925    13.6848    13.0570    13.7353     8.3158
  125.5000    87.9952    -0.0053     2.3732     0.1677   -52.8203    14.6649    13.2236    13.8595     8.3115
  126.0000    88.5729    -0.0050     2.3777     0.1642   -51.8530    15.5793    13.2847    13.9235     8.3068
  126.5000    89.6316     0.0053     2.3791     0.1635   -50.8658    15.0760    13.3460    13.9878     8.3021
  127.0000    89.0016     0.0155     2.3737     0.1663   -49.8785    14.5407    13.4077    14.0524     8.2974
  127.5000    87.4505     0.0202     2.3680     0.1662   -48.8924    14.3362    13.4432    14.0885     8.2927
  128.0000    85.9098     0.0176     2.3672     0.1728   -47.9030    14.3382    13.4908    14.1364     8.2881
  128.5000    84.7284     0.0137     2.3676     0.1691   -46.9199    14.3958    13.5368    14.1845     8.2838
  129.0000    86.4492     0.0036     2.3513     0.1759   -46.3855    14.4756    13.5829    14.2328     8.2788
  129.5000    89.4432     0.0083     2.3447     0.1828   -45.8621    14.5559    13.6291    14.2812     8.2983
  130.0000    91.2331     0.0113     2.3396     0.1873   -44.9054    14.6366    13.6755    14.3298     8.2964
  130.5000    92.2069     0.0010     2.3353     0.1908   -44.4007    14.7174    13.7220    14.3785     8.2961
  131.0000    90.8167     0.0051     2.3427     0.1852   -44.0619    14.7973    13.7687    14.4274     8.2962
  131.5000    89.2730     0.0100     2.3589     0.1876   -43.9237    14.8776    13.8155    14.4765     8.2962
  132.0000    87.9611     0.0194     2.3825     0.1729   -43.7815    15.5793    13.8626    14.5259     8.2962
  132.5000    87.7013     0.0241     2.3715     0.1615   -43.6392    15.5409    13.9099    14.5754     8.2962
  133.0000    89.0208     0.0090     2.3565     0.1734   -43.4968    15.4873    13.9481    14.6061     8.2962
  133.5000    91.2975    -0.0024     2.3540     0.1808   -43.3546    15.4338    13.8615    14.4978     8.2962
  134.0000    93.5876     0.0010     2.3610     0.1723   -43.2121    15.3806    13.7749    14.4075     8.2962
  134.5000    94.7203     0.0060     2.3550     0.1800   -43.0526    15.3275    13.6891    14.3177     8.2962
  135.0000    91.6239     0.0110     2.3535     0.1777   -42.8156    15.2746    13.6039    14.2286     8.2962
  135.5000    87.7570     0.0239     2.3659     0.1721   -42.5815    15.2220    13.5192    14.1400     8.2962
  136.0000    86.8005     0.0113     2.3781     0.1665   -42.3497    15.1688    13.4430    14.0771     8.2962
  136.5000    85.9706     0.0205     2.3805     0.1645   -42.0074    15.1546    13.5732    14.2451     8.2962
  137.0000    85.5739     0.0130     2.3772     0.1659   -41.6406    15.1543    13.6932    14.3769     8.2962
  137.5000    86.3465     0.0197     2.3776     0.1590   -41.2733    15.1545    13.8142    14.5104     8.2963
  138.0000    88.7506     0.0330     2.3839     0.1635   -40.9079    15.1545    13.9479    14.6058     8.3006
  138.5000    89.9928     0.0404     2.3751     0.1622   -40.6879    15.1561    13.9479    14.5581     8.3102
  139.0000    90.8389     0.0214     2.3633     0.1699   -41.1048    15.0830    13.8323    14.4675     8.3197
  139.5000    91.6578     0.0078     2.3574     0.1788   -41.5174    14.9897    13.7462    14.3775     8.3293
  140.0000    92.4615     0.0143     2.3714     0.1656   -41.5615    14.8969    13.6606    14.2880     8.3388
  140.5000    92.8849     0.0242     2.3830     0.1595   -41.6131    14.8048    13.5756    14.1990     8.3484
  141.0000    91.8285     0.0125     2.3615     0.1748   -41.6676    14.7133    13.4911    14.0746     8.3580
  141.5000    90.2456    -0.0078     2.3347     0.1872   -41.8387    14.6224    13.4430    14.0819     8.3676
  142.0000    89.1123     0.0115     2.3571     0.1872   -42.2319    14.5311    13.2490    13.8412     8.3755
  142.5000    89.2254     0.0371     2.3767     0.1591   -42.6220    14.4468    13.1019    13.6907     8.3608
  143.0000    89.8110     0.0246     2.3811     0.1620   -43.0126    14.2731    12.9564    13.5387     8.3446
