~VERSION INFORMATION
 VERS.                2.0:   CWLS LOG ASCII STANDARD - VERSION 2.0
 WRAP.                 NO:   ONE LINE PER DEPTH STEP
~WELL INFORMATION
#MNEM.UNIT      DATA TYPE    INFORMATION
#----------   ------------   ------------------------------
 STRT.F           95.0000:   START DEPTH
 STOP.F          862.0000:   STOP DEPTH
 STEP.F            0.5000:   STEP LENGTH
 NULL.          -999.2500:   NO VALUE
 COMP. U S NAVY INTEX OIL:   COMPANY
 WELL. RES 3 TEAMPT DOME #13-S-35:   WELL
 FLD .        TEAPOT DOME:   FIELD
 LOC .      S35 T39N R78W:   LOCATION
 CNTY.            NATRONA:   COUNTY
 STAT.            WYOMING:   STATE
 CTRY. UNITED STATES OF AMERICA:   COUNTRY
 SRVC.       Schlumberger:   SERVICE COMPANY
 DATE.        27-JUL-1963:   LOGDATE
 API .       490250655000:   API NUMBER
~CURVE INFORMATION
#MNEM.UNIT       API CODE    CURVE DESCRIPTION
#----------   ------------   ------------------------------
 DEPT.F                  :   
 SPR .MV     05 010 01 00:   SPONTANEOUS POTENTIAL FROM RES.
 ILD .OHMM   05 120 46 00:   INDUCTION LOG DEEP
 ASN .OHMM   05 041 18 00:   AMPLIFIED SHORT NORMAL 18"
 CILD.MMHO   05 110 46 00:   CONDUCTIVITY INDUCTION LOG DEEP
 GR  .GAPI   30 310 01 00:   GAMMA RAY
~PARAMETER INFORMATION
#MNEM.UNIT          VALUE    DESCRIPTION
#----------   ------------   ------------------------------
 PD  .                 GL:   PERMANENT DATUM
 EPD .F              5100:   ELEVATION PERMANENT DATUM
 LMF .                 KB:   LOG MEASURED FROM
 DAPD.F               5.0:   FEET ABOVE PERMANENT DATUM
 DMF .                 KB:   DRILLING MEASURED FROM
 EKB .F              5105:   KELLING BUSHING
 EGL .F              5100:   GROUND LEVEL
 DATE.        27-JUL-1963:   RUN DATE
 RUN .                  1:   RUN NUMBER
 DD  .F               862:   DEPTH DRILLER
 DL  .F               863:   DEPTH LOGGER
 BLI .F               862:   BOTTOM LOG INTERVAL
 TLI .F               100:   TOP LOG INTERVAL
 CS  .IN            8.625:   CASING SIZE
 CBD .F                10:   CASING BOTTOM DRILLER
 BS  .IN             6.75:   BIT SIZE
 BSD .F               862:   BIT SIZE AT DEPTH
 DFT . NATURAL- GEL ADDED:   DRILLING FLUID TYPE
 DFD .                9.0:   DRILLING FLUID DENSITY
 DFV .                 38:   DRILLING FLUID VISCOSITY
 DFPH.                8.5:   DRILLING FLUID PH
 DFL .                5.6:   DRILLING FLUID LOSS
 MSS .           FLOWLINE:   MUD SAMPLE SOURCE
 RMS .OHMM            4.6:   RESISTIVITY MUD SAMPLE
 MST .F                83:   MUD SAMPLE TEMPERATURE
 RMF .OHMM            3.8:   RESISTIVITY MUD FILTRATE SAMPLE
 MFST.F                83:   MUD FILTRATE SAMPLE TEMPERATURE
 RMC .OHMM            4.8:   RESISTIVITY MUD CAKE
 MCST.F                83:   MUD CAKE SAMPLE TEMPERATURE
 MFSS.                 FP:   MUD FILTRATE SAMPLE SOURCE
 MCSS.                 FP:   MUD CAKE SAMPLE SOURCE
 TCS .HRS               1:   TIME CURCULATED STOPPED
 LUN .               2523:   LOGGING UNIT NUMBER
 LUL .               CSPR:   LOGGING UNIT LOCATION
 ENGI.            GIFFORD:   RECORDING ENGINEER
 WITN.          JORGENSON:   WITNESSED BY
 CLNT.            A2DTECH:   CLIENT CODE
 ORIG.           5" PRINT:   ORIGIN OF DATA
 UWI .       490250655000:   UNIQUE WELL ID
 DICO. A2D Technologies, Inc.:   DIGITIZING COMPANY
~OTHER INFORMATION
~A   DEPT      SPR        ILD        ASN       CILD         GR   
# ...
  339.0000   -37.6547     8.6668     9.6416   115.5476  -999.2500
  339.5000   -37.8063     8.9644     9.7308   108.8263  -999.2500
  340.0000   -37.6579     9.1114     9.8650   104.3573  -999.2500
  340.5000   -37.2089     9.3338    10.0144   101.3898  -999.2500
  341.0000   -37.0598     9.5552     9.8818   100.6745  -999.2500
  341.5000   -37.0665     9.7032     9.9503   100.7188  -999.2500
  342.0000   -37.6639     9.8494    10.0275   100.7543  -999.2500
  342.5000   -38.1158     9.9211    10.1625    98.5375  -999.2500
  343.0000   -38.4175     9.9919    10.2295    97.0219  -999.2500
  343.5000   -38.4189     9.9884    10.2996    94.1128  -999.2500
  344.0000   -38.2702     9.9848    10.4432    93.3887  -999.2500
  344.5000   -38.4221    10.1319    10.4352    94.1838  -999.2500
  345.0000   -38.5737    10.2036    10.5054    94.9700  -999.2500
  345.5000   -39.0256    10.1992    10.5726    95.7651  -999.2500
  346.0000   -39.4775    10.2718    10.5660    95.8005  -999.2500
  346.5000   -39.7795    10.2671    10.4845    95.8360  -999.2500
  347.0000   -40.0812    10.2629    10.4767    94.3700  -999.2500
  347.5000   -40.2328    10.2593    10.4703    92.1620  -999.2500
  348.0000   -40.5446    10.2558    10.4639    90.6871  -999.2500
  348.5000   -40.6864    10.3275    10.4575    89.2211  -999.2500
  349.0000   -40.6879    10.3984    10.5277    88.5135  -999.2500
  349.5000   -40.0887    10.4710    10.6697    88.5511  -999.2500
  350.0000   -39.6396    10.6172    10.8882    88.7712  -999.2500
  350.5000   -39.0424    10.9167    11.2566    89.3543  -999.2500
  351.0000   -38.8945    10.9139    11.5501    89.3721  -999.2500
  351.5000   -38.8981    10.8364    11.3922    89.3867  -999.2500
  352.0000   -39.0512    10.8343    11.2359    89.4013  -999.2500
  352.5000   -39.2042    10.9074    11.2295    89.4159  -999.2500
  353.0000   -39.5075    10.9137    11.2231    89.4305  -999.2500
  353.5000   -39.9615    11.0531    11.2167    89.4450  -999.2500
  354.0000   -40.2647    11.1267    11.2104    89.4596  -999.2500
  354.5000   -40.2676    11.2746    11.2789    88.6636  -999.2500
  355.0000   -40.1197    11.4235    11.3506    87.2365  -999.2500
  355.5000   -39.9731    11.4967    11.4911    86.5003  -999.2500
  356.0000   -39.9761    11.6445    11.7080    85.7642  -999.2500
  356.5000   -40.1291    11.7193    11.8515    84.2809  -999.2500
  357.0000   -40.4555    12.0167    12.1450    82.0432  -999.2500
  357.5000   -41.3369    12.4657    12.5134    80.5563  -999.2500
  358.0000   -41.9404    13.1412    12.8819    76.8171  -999.2500
  358.5000   -42.5439    13.8168    13.4002    71.4854  -999.2500
  359.0000   -42.6969    15.0194    13.8436    66.0962  -999.2500
  359.5000   -42.5490    16.5985    14.4449    61.0987  -999.2500
  360.0000   -41.9520    17.1235    15.0551    58.8574  -999.2500
  360.5000   -41.1852    17.2766    15.9218    57.3705  -999.2500
  361.0000   -40.0066    17.3450    16.8150    57.3887  -999.2500
  361.5000   -39.5583    16.8151    17.4833    56.6489  -999.2500
  362.0000   -39.5620    15.9093    17.2520    55.9160  -999.2500
  362.5000   -40.7661    15.3047    16.7209    57.4324  -999.2500
  363.0000   -42.2705    14.5495    16.1898    60.6309  -999.2500
  363.5000   -43.4746    13.7943    15.5837    67.2250  -999.2500
  364.0000   -44.6787    13.1897    15.0425    72.4948  -999.2500
  364.5000   -45.5826    12.5695    14.3699    75.5124  -999.2500
  365.0000   -45.8864    12.2059    13.9888    77.7792  -999.2500
  365.5000   -45.4389    12.0531    13.7575    80.0461  -999.2500
  366.0000   -44.8412    11.9756    13.5262    81.5621  -999.2500
  366.5000   -44.6932    11.8981    13.3699    81.5767  -999.2500
  367.0000   -45.5978    11.8206    13.2136    82.3420  -999.2500
  367.5000   -45.7508    11.8185    13.0573    81.6059  -999.2500
  368.0000   -45.4514    11.8163    12.9010    81.6241  -999.2500
  368.5000   -44.9845    11.8140    12.7386    81.6387  -999.2500
  369.0000   -43.6582    11.8113    12.3619    80.8989  -999.2500
  369.5000   -42.3097    11.8092    12.2056    80.1627  -999.2500
  370.0000   -41.2616    11.7317    12.1992    79.4265  -999.2500
  370.5000   -40.3629    11.6542    12.4177    79.4447  -999.2500
  371.0000   -41.2674    11.6520    12.6362    80.9610  -999.2500
  371.5000   -41.7208    11.3486    12.6299    84.9699  -999.2500
  372.0000   -42.0240    10.8866    12.4735    94.5071  -999.2500
  372.5000   -42.0276     9.9883    12.2423   100.5277  -999.2500
  373.0000   -41.8804     9.2331    11.8540   107.2990  -999.2500
  373.5000   -40.9824     8.4779    11.3284   114.8211  -999.2500
  374.0000   -39.6339     7.7227    10.5940   123.8447  -999.2500
  374.5000   -37.6849     7.1181     9.8541   132.8683  -999.2500
  375.0000   -35.5857     6.6641     9.0142   141.8919  -999.2500
  375.5000   -34.5376     6.2101     8.5491   150.3456  -999.2500
  376.0000   -34.0761     5.8996     8.2639   159.9427  -999.2500
  376.5000   -33.7926     5.6780     8.0045   165.2125  -999.2500
  377.0000   -33.7963     5.6759     7.7833   166.7286  -999.2500
  377.5000   -33.7992     5.5984     7.5730   167.4940  -999.2500
  378.0000   -33.9522     5.5962     7.3778   168.2593  -999.2500
  378.5000   -34.2554     5.5940     7.2125   169.0246  -999.2500
  379.0000   -34.8590     5.5918     7.0621   167.5377  -999.2500
  379.5000   -35.3128     5.5143     6.9568   166.8015  -999.2500
  380.0000   -35.7858     5.5120     7.0914   165.7568  -999.2500
  380.5000   -36.0696     5.5852     7.2410   164.4073  -999.2500
  381.0000   -36.0725     5.5825     7.3306   163.0132  -999.2500
  381.5000   -36.0754     5.5803     7.3901   160.1043  -999.2500
  382.0000   -35.4777     5.6540     7.4048   159.3681  -999.2500
  382.5000   -34.8800     5.7271     7.4344   159.3863  -999.2500
  383.0000   -34.2822     5.7244     7.4335   159.4009  -999.2500
  383.5000   -33.8284     5.7975     7.2387   159.4155  -999.2500
  384.0000   -33.6876     5.8083     7.0884   160.1808  -999.2500
  384.5000   -33.6912     5.8684     6.9981   160.1954  -999.2500
  385.0000   -33.6941     5.8657     6.9977   160.1602  -999.2500
  385.5000   -33.8472     5.9393     7.0145   157.2252  -999.2500
  386.0000   -34.0002     6.0872     7.1769   154.2368  -999.2500
  386.5000   -34.3034     6.1608     7.3264   152.7462  -999.2500
  387.0000   -34.4565     6.1581     7.4310   152.0100  -999.2500
  387.5000   -34.4595     6.2312     7.5062   152.0282  -999.2500
  388.0000   -34.4630     6.3043     7.5801   152.0428  -999.2500
  388.5000   -34.3151     6.3774     7.5648   152.8082  -999.2500
  389.0000   -34.0177     6.3747     7.5045   153.5934  -999.2500
  389.5000   -33.8704     6.4484     7.4741   154.4495  -999.2500
  390.0000   -33.7232     6.4456     7.4137   161.8645  -999.2500
  390.5000   -33.7268     6.2928     7.3534   165.6329  -999.2500
  391.0000   -33.7297     5.9895     7.2931   166.3982  -999.2500
  391.5000   -33.8829     5.7613     7.2327   167.1635  -999.2500
  392.0000   -33.8864     5.8345     7.1414   167.1781  -999.2500
  392.5000   -34.0395     5.8317     7.0520   167.1927  -999.2500
  393.0000   -34.0424     5.9054     7.0667   166.4565  -999.2500
  393.5000   -34.1955     6.0533     7.1113   163.3886  -999.2500
  394.0000   -34.0475     6.0511     7.2309   159.7325  -999.2500
  394.5000   -34.0511     6.1242     7.5153   160.4979  -999.2500
  395.0000   -33.9039     6.1220     7.5600   159.0110  -999.2500
  395.5000   -33.7566     6.1320     7.6195   157.5204  -999.2500
  396.0000   -33.3098     6.2682     7.7991   154.5356  -999.2500
  396.5000   -33.0124     6.4161     7.8137   150.0457  -999.2500
  397.0000   -32.8645     6.4892     7.5884   147.0573  -999.2500
  397.5000   -32.8681     6.6376     7.5131   147.0720  -999.2500
  398.0000   -33.3215     6.7113     7.5577   146.3357  -999.2500
  398.5000   -34.3754     6.7839     7.7373   145.5995  -999.2500
  399.0000   -34.6787     6.8570     7.9017   144.1162  -999.2500
  399.5000   -34.3812     7.0048     8.0213   141.1278  -999.2500
