~VERSION INFORMATION
 VERS.                2.0:   CWLS LOG ASCII STANDARD - VERSION 2.0
 WRAP.                 NO:   ONE LINE PER DEPTH STEP
~WELL INFORMATION
#MNEM.UNIT      DATA TYPE    INFORMATION
#----------   ------------   ------------------------------
 STRT.F           28.0000:   START DEPTH
 STOP.F          659.0000:   STOP DEPTH
 STEP.F            0.5000:   STEP LENGTH
 NULL.          -999.2500:   NO VALUE
 COMP. FENIX & SCISSON INC:   COMPANY
 WELL.    NPR 3 #46-SX-34:   WELL
 FLD .             TEAPOT:   FIELD
 LOC .      S34 T39N R78W:   LOCATION
 CNTY.            NATRONA:   COUNTY
 STAT.            WYOMING:   STATE
 CTRY. UNITED STATES OF AMERICA:   COUNTRY
 SRVC.              Welex:   SERVICE COMPANY
 DATE.        01-MAY-1977:   LOGDATE
 API .       490251035600:   API NUMBER
~CURVE INFORMATION
#MNEM.UNIT       API CODE    CURVE DESCRIPTION
#----------   ------------   ------------------------------
 DEPT.F                  :   
 CALD.IN     45 280 60 00:   CALIPER FROM DENSITY
 GRD .GAPI   45 310 01 00:   GAMMA RAY FROM DENSITY LOG
 CORR.G/C3   45 356 01 00:   DENSITY CORRECTION
 DPHI.DEC    45 890 12 00:   DENSITY POROSITY SANDSTONE
 RHOB.G/C3   45 350 01 00:   BULK DENSITY
 SPR .MV     07 010 01 00:   SPONTANEOUS POTENTIAL
 ILD .OHMM   07 120 46 00:   INDUCTION LOG DEEP
 ILM .OHMM   07 120 44 00:   INDUCTION LOG MEDIUM
 SGRD.OHMM   07 221 05 00:   SHALLOW SHORT GUARD RESISTIVITY
~PARAMETER INFORMATION
#MNEM.UNIT          VALUE    DESCRIPTION
#----------   ------------   ------------------------------
 PD  .                 GL:   PERMANENT DATUM
 EPD .F              5120:   ELEVATION PERMANENT DATUM
 LMF .                 GL:   LOG MEASURED FROM
 DMF .                 GL:   DRILLING MEASURED FROM
 EGL .F              5120:   GROUND LEVEL
 DATE.        01-MAY-1977:   RUN DATE
 RUN .                  1:   RUN NUMBER
 DD  .F               660:   DEPTH DRILLER
 DL  .F               663:   DEPTH LOGGER
 BLI .F               661:   BOTTOM LOG INTERVAL
 TLI .F                28:   TOP LOG INTERVAL
 CS  .IN            8.625:   CASING SIZE
 BS  .IN               12:   BIT SIZE
 BSD .F               660:   BIT SIZE AT DEPTH
 DFT .            KCL MUD:   DRILLING FLUID TYPE
 DFD .                8.7:   DRILLING FLUID DENSITY
 TCS .HRS            0100:   TIME CURCULATED STOPPED
 MRT .F                71:   MAXIMUM RECORDED TEMPERATURE
 ENGI.          T. JOYNER:   RECORDING ENGINEER
 WITN.            R. LYON:   WITNESSED BY
 CLNT.            A2DTECH:   CLIENT CODE
 ORIG.           5" PRINT:   ORIGIN OF DATA
 UWI .       490251035600:   UNIQUE WELL ID
 DICO. A2D Technologies, Inc.:   DIGITIZING COMPANY
~OTHER INFORMATION
~A   DEPT     CALD        GRD        CORR      DPHI       RHOB        SPR        ILD        ILM       SGRD   
# ...
  101.0000     7.8222   110.4204    -0.0023     0.1407     2.4409   -40.6617     8.3667    10.0455    10.9081
  101.5000     7.8173   108.7087    -0.0023     0.1420     2.4379   -40.6022     8.1693     9.8449    10.5407
  102.0000     7.8165   107.2072     0.0006     0.1431     2.4378   -40.5948     8.0591     9.7802    10.3979
  102.5000     7.8157   105.8559     0.0021     0.1425     2.4416   -40.5875     7.9514     9.7852    10.4006
  103.0000     7.7999   104.8048     0.0006     0.1401     2.4461   -40.7289     7.8447     9.8570    10.4747
  103.5000     7.7991   103.4535     0.0005     0.1383     2.4521   -40.7215     7.8468     9.9979    10.6223
  104.0000     7.7984   101.9520     0.0020     0.1347     2.4551   -40.8629     7.8490    10.0712    10.6980
  104.5000     7.8127   100.7507     0.0035     0.1305     2.4610   -40.8555     7.7966    10.0753    10.7742
  105.0000     7.8119   101.3513     0.0050     0.1266     2.4670   -40.8482     7.7452     9.9414    10.8510
  105.5000     7.8113   102.8529     0.0065     0.1230     2.4715   -40.8408     7.6945     9.8762    10.7786
  106.0000     7.8105   105.2252     0.0095     0.1218     2.4703   -40.8333     7.8035     9.8131    10.7062
  106.5000     7.8098   107.9079     0.0110     0.1264     2.4655   -40.8259     7.8597     9.6163    10.7089
  107.0000     7.8090   109.9700     0.0091     0.1264     2.4662   -40.9674     8.0261     9.4234    10.7111
  107.5000     7.8233   113.6637     0.0047     0.1264     2.4654   -40.9598     8.1398     9.2343    10.7874
  108.0000     7.8225   114.5646     0.0018     0.1274     2.4609   -40.9524     8.3121     9.1746    10.9395
  108.5000     7.8218   114.4144    -0.0013     0.1333     2.4533   -40.9449     8.3760     9.2419    11.1704
  109.0000     7.8210   113.6637    -0.0028     0.1355     2.4503   -40.9360     8.4322     9.3097    11.3278
  109.5000     7.8202   112.9129    -0.0028     0.1340     2.4495   -40.9286     8.4929     9.3779    11.1726
  110.0000     7.8347   111.4114    -0.0029     0.1331     2.4555   -40.9213     8.5544     9.5121    10.9385
  110.5000     7.8337   110.5105    -0.0029     0.1334     2.4502   -40.9139     8.6160     9.6481    10.6378
  111.0000     7.8330   110.8108    -0.0014     0.1355     2.4480   -40.9065     8.7984     9.7869    10.4369
  111.5000     7.8322   111.1111     0.0001     0.1388     2.4457   -40.8991     8.9230     9.7909    10.5970
  112.0000     7.8314   111.4114     0.0000     0.1416     2.4411   -40.8917     8.9254     9.7266    10.8827
  112.5000     7.8308   111.8619     0.0030     0.1410     2.4456   -40.8843     8.9279     9.6648    11.2667
  113.0000     7.8301   112.1622     0.0045     0.1365     2.4516   -40.9495     8.9303     9.6687    11.6642
  113.5000     7.8293   112.4625     0.0091     0.1327     2.4579   -41.0258     8.9327     9.5402    11.9104
  114.0000     7.8436   110.5605     0.0120     0.1267     2.4647   -41.1020     8.8738     9.4776    11.9952
  114.5000     7.8428   107.3574     0.0105     0.1281     2.4651   -41.1783     8.8152     9.4163    11.8334
  115.0000     7.8421   108.7087     0.0089     0.1320     2.4591   -41.2545     8.7565     9.3555    11.4348
  115.5000     7.8565   110.5105     0.0059     0.1323     2.4553   -41.3307     8.5796     9.3603    11.0808
  116.0000     7.8556   109.6096     0.0028     0.1332     2.4522   -41.4070     8.2917     9.3641    10.7482
  116.5000     7.8700   109.0090     0.0028     0.1356     2.4500   -41.5699     8.0129     9.3679    10.3178
  117.0000     7.8691   109.4595     0.0027     0.1372     2.4492   -41.7113     7.7435     9.4366    10.0392
  117.5000     7.8683   112.6126     0.0012     0.1372     2.4507   -41.8601     7.4832     9.5058     9.9717
  118.0000     7.8675   114.2643    -0.0019     0.1345     2.4522   -41.9942     7.2817     9.6417    10.1827
  118.5000     7.8517   111.5616    -0.0034     0.1381     2.4461   -42.1356     7.1346     9.7796    10.4696
  119.0000     7.8511   109.3093    -0.0049     0.1384     2.4438   -42.1280     7.0388     9.9194    10.6171
  119.5000     7.8353   109.9099    -0.0065     0.1402     2.4400   -42.1458     6.8966     9.8552    10.5458
  120.0000     7.8346   112.1622    -0.0080     0.1446     2.4363   -42.2623     6.8985     9.7916    10.4755
  120.5000     7.8338   116.5165    -0.0080     0.1484     2.4317   -42.2530     6.9004     9.7283    10.1932
  121.0000     7.8331   120.7207    -0.0081     0.1508     2.4276   -42.2457     6.9023     9.7323     9.9866
  121.5000     7.8473   123.5736    -0.0081     0.1529     2.4233   -42.2383     6.9046     9.5995     9.7169
  122.0000     7.8466   122.9730    -0.0081     0.1520     2.4196   -42.2309     6.9065     9.4753     9.5200
  122.5000     7.8610   118.4685    -0.0082     0.1463     2.4279   -42.2235     6.9561     9.4141     9.3915
  123.0000     7.8601   120.5706    -0.0082     0.1409     2.4369   -42.2161     6.9580     9.4181     9.3935
  123.5000     7.8593   121.0210    -0.0082     0.1385     2.4481   -42.2087     7.0566     9.4880     9.5296
  124.0000     7.8585   121.0210    -0.0067     0.1358     2.4496   -42.0525     7.1073     9.6902     9.6663
  124.5000     7.8578   120.4004    -0.0068     0.1391     2.4489   -42.0452     7.2080     9.8288     9.8729
  125.0000     7.8420   117.7177    -0.0098     0.1416     2.4398   -42.0378     7.4115     9.9693    10.0030
  125.5000     7.8111   113.3634    -0.0099     0.1455     2.4330   -42.0304     7.5685    10.1118    10.0747
  126.0000     7.8105   109.1592    -0.0099     0.1423     2.4495   -42.0230     7.7822    10.1860    10.1465
  126.5000     7.8098   108.1081    -0.0099     0.1377     2.4495   -42.0156     7.9470    10.2606    10.1486
  127.0000     7.7940   106.9069    -0.0084     0.1395     2.4435   -42.0082     8.1153    10.2648    10.2209
  127.5000     7.7932   106.4565    -0.0070     0.1452     2.4329   -41.8520     8.2302    10.1974    10.2230
  128.0000     7.7925   108.1081    -0.0040     0.1483     2.4299   -41.8446     8.3467    10.2732    10.2958
  128.5000     7.7917   109.7598    -0.0025     0.1456     2.4354   -41.8373     8.3490    10.2775    10.3692
  129.0000     7.7909   111.8619    -0.0040     0.1426     2.4422   -41.8299     8.3513    10.2817    10.3713
  129.5000     7.7902   109.9099    -0.0041     0.1390     2.4495   -41.8225     8.3536    10.3570    10.3734
  130.0000     7.7894   108.5586    -0.0041     0.1357     2.4561   -41.8151     8.2984    10.4329    10.3755
  130.5000     7.8039   107.6577    -0.0041     0.1309     2.4599   -41.8077     8.1870    10.4372    10.3777
  131.0000     7.8181   107.5075    -0.0026     0.1282     2.4644   -41.8003     8.0216    10.3698    10.2377
  131.5000     7.8322   107.8479     0.0004     0.1264     2.4689   -41.7930     7.9653    10.3026    10.1694
  132.0000     7.8314   108.5786     0.0018     0.1254     2.4756   -41.7856     7.9104    10.2360    10.0322
  132.5000     7.8307   109.4595     0.0048     0.1228     2.4741   -41.7782     7.8558    10.1699     9.9648
  133.0000     7.8301   110.2102     0.0063     0.1235     2.4680   -41.7708     7.8120    10.1042     9.8309
  133.5000     7.8293   111.4114     0.0078     0.1276     2.4673   -41.7634     7.8687    10.0380     9.7648
  134.0000     7.8135   113.2132     0.0078     0.1273     2.4718   -41.7560     7.9253     9.9020     9.7673
  134.5000     7.8128   116.6667     0.0093     0.1231     2.4770   -41.7381     7.9823     9.7739     9.7693
  135.0000     7.8120   118.0180     0.0092     0.1174     2.4830   -41.5923     8.2077     9.7107     9.7713
  135.5000     7.8082   112.6126     0.0107     0.1159     2.4815   -41.5848     8.4395     9.7265     9.8410
  136.0000     7.8107   109.6096     0.0122     0.1201     2.4744   -41.4286     8.6778     9.8546     9.9796
  136.5000     7.7947   106.7568     0.0137     0.1256     2.4716   -41.2723     8.9229     9.9955    10.0514
  137.0000     7.7939   104.4402     0.0155     0.1202     2.4786   -41.1146     9.1118    10.1385    10.2695
