~VERSION INFORMATION
 VERS.                2.0:   CWLS LOG ASCII STANDARD - VERSION 2.0
 WRAP.                 NO:   ONE LINE PER DEPTH STEP
~WELL INFORMATION
#MNEM.UNIT      DATA TYPE    INFORMATION
#----------   ------------   ------------------------------
 STRT.F           24.5000:   START DEPTH
 STOP.F          750.0000:   STOP DEPTH
 STEP.F            0.5000:   STEP LENGTH
 NULL.          -999.2500:   NO VALUE
 COMP. FENIX & SCISSON INC:   COMPANY
 WELL.    NPR 3 SX #35-11:   WELL
 FLD .          N.P.R. #3:   FIELD
 LOC .      S11 T38N R78W:   LOCATION
 CNTY.            NATRONA:   COUNTY
 STAT.            WYOMING:   STATE
 CTRY. UNITED STATES OF AMERICA:   COUNTRY
 SRVC.            Unknown:   SERVICE COMPANY
 DATE.        23-FEB-1978:   LOGDATE
 API .       490251027200:   API NUMBER
~CURVE INFORMATION
#MNEM.UNIT       API CODE    CURVE DESCRIPTION
#----------   ------------   ------------------------------
 DEPT.F                  :   
 ILM .OHMM   07 120 44 00:   INDUCTION LOG MEDIUM
 ILD .OHMM   07 120 46 00:   INDUCTION LOG DEEP
 LL8 .OHMM   07 220 08 00:   LATEROLOG-8 RES.
 SPR .MV     07 010 01 00:   SPONTANEOUS POTENTIAL
 CALD.IN     45 280 60 00:   CALIPER FROM DENSITY LOG
 CORR.G/C3   45 356 01 00:   DENSITY CORRECTION
 DPHI.DEC    45 890 12 00:   DENSITY POROSITY SANDSTONE
 GRD .GAPI   45 310 01 00:   GAMMA RAY FROM DENSITY LOG
 RHOB.G/C3   45 350 01 00:   BULK DENSITY
 IL  .OHMM   05 120 40 00:   INDUCTION RESISTIVITY
 SN  .OHMM   05 040 16 00:   SHORT NORMAL 16"
 SPR1.MV     05 010 01 00:   SPONTANEOUS POTENTIAL INDUCTION ELECTRICAL LOG
~PARAMETER INFORMATION
#MNEM.UNIT          VALUE    DESCRIPTION
#----------   ------------   ------------------------------
 PD  .                 GL:   PERMANENT DATUM
 EPD .F              5204:   ELEVATION PERMANENT DATUM
 LMF .                 KB:   LOG MEASURED FROM
 DAPD.F                 4:   FEET ABOVE PERMANENT DATUM
 DMF .                 KB:   DRILLING MEASURED FROM
 EKB .F              5208:   KELLING BUSHING
 EGL .F              5204:   GROUND LEVEL
 DATE.        23-FEB-1978:   RUN DATE
 RUN .                  1:   RUN NUMBER
 DD  .F               755:   DEPTH DRILLER
 DL  .F               751:   DEPTH LOGGER
 BLI .F               745:   BOTTOM LOG INTERVAL
 TLI .F                45:   TOP LOG INTERVAL
 CS  .IN            8.625:   CASING SIZE
 CBD .F                40:   CASING BOTTOM DRILLER
 CBL .F                40:   CASING BOTTOM LOGGER
 BS  .IN            7.875:   BIT SIZE
 BSD .F               755:   BIT SIZE AT DEPTH
 DFT .         LIGNO SULF:   DRILLING FLUID TYPE
 DFD .                8.7:   DRILLING FLUID DENSITY
 DFV .                 33:   DRILLING FLUID VISCOSITY
 DFPH.                 10:   DRILLING FLUID PH
 DFL .                  4:   DRILLING FLUID LOSS
 MSS .           FLOWLINE:   MUD SAMPLE SOURCE
 RMS .OHMM            2.0:   RESISTIVITY MUD SAMPLE
 MST .F                60:   MUD SAMPLE TEMPERATURE
 RMF .OHMM            1.9:   RESISTIVITY MUD FILTRATE SAMPLE
 MFST.F                62:   MUD FILTRATE SAMPLE TEMPERATURE
 RMC .OHMM            3.5:   RESISTIVITY MUD CAKE
 MCST.F                60:   MUD CAKE SAMPLE TEMPERATURE
 MFSS.               MEAS:   MUD FILTRATE SAMPLE SOURCE
 RMB .OHMM           1.69:   RESISTIVITY MUD AT BHT
 BHT .F                71:   BOTTOM HOLE TEMPERATURE
 TCS .HRS               3:   TIME CURCULATED STOPPED
 MRT .F                71:   MAXIMUM RECORDED TEMPERATURE
 CLNT.            A2DTECH:   CLIENT CODE
 ORIG.           5" PRINT:   ORIGIN OF DATA
 UWI .       490251027200:   UNIQUE WELL ID
 DICO. A2D Technologies, Inc.:   DIGITIZING COMPANY
~OTHER INFORMATION
~A   DEPT      ILM        ILD        LL8        SPR       CALD       CORR       DPHI         GRD      RHOB         IL         SN       SPR1   
# ...
  444.5000     8.0760     8.1808     8.6510   -27.4086     8.2094     0.0135     0.1253   111.3338     2.4331     5.3069     6.2415   -37.2233
  445.0000     8.0828     8.2449     8.4827   -27.6820     8.2146     0.0189     0.1259   111.1458     2.4377     5.1280     6.0718   -36.7654
  445.5000     8.2006     8.2525     8.3734   -27.9599     8.2140     0.0236     0.1219   110.9319     2.4499     5.0941     5.8657   -36.7566
  446.0000     8.2074     8.2597     8.3100   -27.9398     8.2016     0.0222     0.1176   114.7977     2.4591     5.0967     5.7062   -37.0472
  446.5000     8.2141     8.2675     8.1502   -27.9202     8.2040     0.0201     0.1204   116.2128     2.4503     5.1344     5.5126   -37.4875
  447.0000     8.1083     8.2181     8.0489   -28.2026     8.2063     0.0180     0.1217   117.1458     2.4425     5.2083     5.4435   -37.3290
  447.5000     8.1151     8.2256     7.9488   -28.4802     8.2088     0.0129     0.1231   118.0581     2.4343     5.3571     5.7730   -36.8711
  448.0000     8.0106     8.2331     7.9006   -28.7528     8.2112     0.0190     0.1302   116.1963     2.4193     5.5872     6.6223   -36.8623
  448.5000     7.9072     8.1258     7.9074   -28.7332     8.2134     0.0184     0.1292   113.2991     2.4371     5.9087     7.1528   -37.1562
  449.0000     7.8040     8.0792     7.9141   -28.5650     8.2160     0.0156     0.1251   111.9970     2.4303     6.2054     7.4098   -37.3064
  449.5000     7.7035     7.8664     7.7035   -28.3967     8.2184     0.0172     0.1311   111.2783     2.4253     6.5171     7.5698   -37.5933
  450.0000     7.4334     7.3994     7.5483   -28.0799     8.2239     0.0264     0.1280   110.4908     2.4473     6.7504     7.7976   -37.7472
  450.5000     7.0072     7.1557     7.5263   -27.7667     8.2375     0.0325     0.1219   109.9902     2.4437     6.8963     7.8992   -38.0151
  451.0000     6.7272     6.8202     7.5131   -27.7455     8.2107     0.0289     0.1282   112.6987     2.4280     6.9930     7.9577   -38.2830
  451.5000     6.5509     6.5481     7.5714   -27.5775     8.1236     0.0493     0.1222   114.6571     2.4492     7.0505     7.9677   -38.4191
  452.0000     6.3340     6.3304     7.2704   -27.5580     8.0658     0.0306     0.1290   115.2703     2.4320     7.0957     8.0805   -38.4012
  452.5000     5.9988     5.9124     7.1782   -27.3900     8.1433     0.0202     0.1371   112.9193     2.4155     7.0986     8.1927   -38.3832
  453.0000     5.6422     5.6765     7.0355   -27.3706     8.1904     0.0241     0.1404   110.2646     2.4179     7.1505     8.2540   -38.2872
  453.5000     5.5301     5.5248     6.8420   -27.5046     8.2227     0.0250     0.1365   108.8004     2.4248     7.2529     8.2574   -38.1976
  454.0000     5.4978     5.4529     4.9710   -27.6337     8.2095     0.0357     0.1385   108.0743     2.4204     7.3060     8.2608   -38.1796
  454.5000     5.5405     5.4191     4.5001   -27.6094     8.2122     0.0448     0.1496   110.7828     2.4055     7.3085     8.2643   -38.0758
  455.0000     5.5835     5.4992     4.7283   -27.5900     8.2298     0.0209     0.1556   115.2710     2.3988     7.3110     8.3836   -37.9940
  455.5000     5.7050     5.5795     6.0510   -27.5705     8.2322     0.0142     0.1456   118.7176     2.3922     7.3644     8.3871   -37.8848
  456.0000     5.9512     5.8597     7.7880   -27.5511     8.2346     0.0257     0.1266   119.6284     2.4232     7.3669     8.5082   -37.7145
  456.5000     6.2079     6.2827     7.5807   -27.5316     8.2215     0.0265     0.1223   119.3547     2.4429     7.4208     8.5712   -37.3514
  457.0000     6.5206     6.5982     7.5886   -27.5122     8.2245     0.0229     0.1208   120.4263     2.4505     7.5271     8.6949   -36.9756
  457.5000     7.1880     7.0745     7.8074   -27.6413     8.2114     0.0260     0.1195   121.4919     2.4536     7.5297     8.6985   -36.6530
  458.0000     7.6023     7.5331     8.2007   -28.0725     8.2144     0.0215     0.1186   119.8789     2.4568     7.5323     8.7021   -36.5389
  458.5000     7.9302     7.9114     8.1511   -28.2016     8.2164     0.0187     0.1171   118.4147     2.4591     7.5349     8.7057   -36.7348
  459.0000     7.9918     7.9717     7.9907   -28.1813     8.2341     0.0166     0.1155   117.8374     2.4638     7.5373     8.7091   -37.0215
  459.5000     8.0539     8.0325     7.8333   -28.3113     8.2365     0.0235     0.1140   118.0102     2.4669     7.5400     8.7127   -37.1960
  460.0000     8.0592     8.0380     7.9490   -28.5891     8.2385     0.0229     0.1172   117.4449     2.4613     7.5426     8.7165   -37.4451
  460.5000     8.0484     8.0436     8.1220   -29.1640     8.2408     0.0193     0.1220   117.4688     2.4533     7.4930     8.5996   -37.3796
  461.0000     7.9611     8.0492     8.4142   -29.1441     8.2431     0.0156     0.1221   117.6415     2.4499     7.4956     8.5433   -36.8767
  461.5000     8.0802     8.0548     8.7772   -29.1248     8.2306     0.0203     0.1159   116.6238     2.4565     7.4292     8.4877   -36.8591
  462.0000     8.0869     8.1712     8.9066   -29.1055     8.2331     0.0220     0.1122   115.8710     2.4641     7.3462     8.4323   -36.8414
  462.5000     8.0937     8.2335     8.9140   -29.0862     8.2355     0.0265     0.1086   116.8899     2.4740     7.2474     8.4358   -36.5244
  463.0000     8.3271     8.3047     8.7973   -28.7696     8.2379     0.0244     0.1097   118.3929     2.4820     7.1500     8.3226   -36.3570
  463.5000     8.3918     8.4247     8.7441   -28.4529     8.2404     0.0238     0.1124   119.4117     2.4699     7.0499     8.2064   -36.3394
  464.0000     8.3988     8.4815     8.8138   -27.8391     8.2426     0.0262     0.1172   118.8909     2.4644     6.9590     7.9821   -36.3217
  464.5000     8.3462     8.4873     9.0057   -27.6711     8.2450     0.0188     0.1208   114.1160     2.4536     6.8185     7.8815   -36.4538
  465.0000     8.4128     8.5520     9.0756   -27.5031     8.2474     0.0287     0.1159   111.2698     2.4494     6.7268     7.8301   -36.8852
  465.5000     8.5368     8.6172     9.0832   -27.6330     8.2498     0.0431     0.1038   111.1545     2.4711     6.6512     7.7789   -37.3166
  466.0000     8.6031     8.6231     9.0907   -27.4642     8.2522     0.0252     0.0956   115.3770     2.4855     6.5471     7.5692   -37.8978
  466.5000     8.6102     8.6291     9.0983   -27.5933     8.2396     0.0291     0.1071   117.9008     2.4859     6.4144     7.2626   -38.3292
  467.0000     8.6771     8.6948     9.1059   -27.4253     8.1974     0.0390     0.1001   119.1132     2.4823     6.3276     6.9200   -38.0120
  467.5000     8.6228     8.6410     9.2401   -27.2572     8.0657     0.0549     0.0907   119.4445     2.4963     6.1144     6.4573   -37.9896
  468.0000     8.6303     8.6470     9.3764   -26.9406     8.0830     0.0302     0.0961   115.5896     2.5021     5.9490     5.7790   -37.8055
  468.5000     8.5778     8.5934     9.6468   -26.7726     8.1748     0.0206     0.1081   110.1076     2.4765     5.5907     5.2445   -37.3497
  469.0000     8.4672     8.5995     9.3920   -26.7531     8.1772     0.0237     0.1096   109.9544     2.4777     5.1457     4.8939   -37.1550
  469.5000     8.4160     8.4875     9.2072   -27.0357     8.1645     0.0269     0.1068   110.3043     2.4814     4.6064     4.5986   -36.7097
  470.0000     8.4232     8.3768     9.1496   -27.3135     8.1671     0.0247     0.1131   110.9234     2.4662     3.9830     4.2318   -36.5219
  470.5000     8.4301     8.3828     9.1591   -27.7349     8.1695     0.0188     0.1175   112.4354     2.4583     3.3965     3.8404   -36.1994
  471.0000     8.4371     8.3886     9.1018   -28.3098     8.1868     0.0174     0.1148   114.2451     2.4645     2.9573     3.3659   -35.8540
  471.5000     8.4441     8.3364     8.8633   -28.7410     8.2041     0.0244     0.1117   115.0131     2.4690     2.7031     3.0975   -35.4045
  472.0000     8.4511     8.2837     8.6889   -29.3111     8.2065     0.0335     0.1147   115.3346     2.4734     2.5937     2.9513   -35.0818
