~VERSION INFORMATION
 VERS.                2.0:   CWLS LOG ASCII STANDARD - VERSION 2.0
 WRAP.                 NO:   ONE LINE PER DEPTH STEP
~WELL INFORMATION
#MNEM.UNIT      DATA TYPE    INFORMATION
#----------   ------------   ------------------------------
 STRT.F           20.0000:   START DEPTH
 STOP.F          610.0000:   STOP DEPTH
 STEP.F            0.5000:   STEP LENGTH
 NULL.          -999.2500:   NO VALUE
 COMP. LAWRENCE/ALLISON INC:   COMPANY
 WELL.    44-55 SX #10-10:   WELL
 FLD .             TEAPOT:   FIELD
 LOC .      S10 T38N R78W:   LOCATION
 CNTY.            NATRONA:   COUNTY
 STAT.            WYOMING:   STATE
 CTRY. UNITED STATES OF AMERICA:   COUNTRY
 SRVC.            Unknown:   SERVICE COMPANY
 DATE.        29-AUG-1984:   LOGDATE
 API .       490251098300:   API NUMBER
~CURVE INFORMATION
#MNEM.UNIT       API CODE    CURVE DESCRIPTION
#----------   ------------   ------------------------------
 DEPT.F                  :   
 AC  .US/F   60 520 00 00:   ACOUSTIC SONIC
 SPR .MV     07 010 01 00:   SPONTANEOUS POTENTIAL
 RILD.OHMM   07 120 46 00:   INDUCTION LOG DEEP RESISTIVITY
 RILM.OHMM   07 120 44 00:   INDUCTION LOG MEDIUM RESISTIVITY
 RFOC.OHMM   07 220 04 00:   RESISTIVITY FOCUSED LOG
 GRD .GAPI   45 310 01 00:   GAMMA RAY FROM DENSITY LOG
 CALD.IN     45 280 60 00:   CALIPER
 DEN .G/C3   45 350 01 00:   COMPENSATED BULK DENSTIY
 CNC .DEC    42 890 03 00:   NEUTRON POROSITY SANDSTONE
 PORD.DEC    45 890 12 00:   DENSITY POROSITY SANDSTONE
 CORR.G/C3   45 356 01 00:   DENSITY CORRECTION
~PARAMETER INFORMATION
#MNEM.UNIT          VALUE    DESCRIPTION
#----------   ------------   ------------------------------
 PD  .                 GL:   PERMANENT DATUM
 EPD .F              5247:   ELEVATION PERMANENT DATUM
 LMF .                 KB:   LOG MEASURED FROM
 DAPD.F                13:   FEET ABOVE PERMANENT DATUM
 DMF .                 KB:   DRILLING MEASURED FROM
 EKB .F              5260:   KELLING BUSHING
 EGL .F              5247:   GROUND LEVEL
 DATE.        29-AUG-1984:   RUN DATE
 RUN .                  1:   RUN NUMBER
 DD  .F               613:   DEPTH DRILLER
 DL  .F               607:   DEPTH LOGGER
 BLI .F               607:   BOTTOM LOG INTERVAL
 TLI .F                42:   TOP LOG INTERVAL
 CBL .F                42:   CASING BOTTOM LOGGER
 BS  .IN            7.875:   BIT SIZE
 BSD .F               613:   BIT SIZE AT DEPTH
 DFT .          KCL WATER:   DRILLING FLUID TYPE
 MSS .               TANK:   MUD SAMPLE SOURCE
 RMS .OHMM           .295:   RESISTIVITY MUD SAMPLE
 MST .F                75:   MUD SAMPLE TEMPERATURE
 TCS .HRS               3:   TIME CURCULATED STOPPED
 MRT .F               100:   MAXIMUM RECORDED TEMPERATURE
 LUN .               4082:   LOGGING UNIT NUMBER
 LUL .               ROOS:   LOGGING UNIT LOCATION
 ENGI.             MILLER:   RECORDING ENGINEER
 WITN.            JOHNSON:   WITNESSED BY
 CLNT.            A2DTECH:   CLIENT CODE
 ORIG.       2", 5" PRINT:   ORIGIN OF DATA
 UWI .       490251098300:   UNIQUE WELL ID
 DICO. A2D Technologies, Inc.:   DIGITIZING COMPANY
~OTHER INFORMATION
~A   DEPT       AC        SPR       RILD       RILM       RFOC         GRD      CALD        DEN        CNC       PORD       CORR   
# ...
  569.0000    94.8403   -48.7391     9.4301     9.9762    10.3420   108.6777     7.5988     2.5245     0.2858     0.0922     0.0622
  569.5000    94.5521   -48.6025     9.4422     9.9544    10.5450   105.6651     7.5981     2.5209     0.2952     0.0942     0.0833
  570.0000    94.1537   -48.4662     9.4542     9.9327    10.7524   107.8769     7.5974     2.5155     0.2990     0.0963     0.0760
  570.5000    93.7335   -48.3296     9.4555     9.9110    10.9636   112.1417     7.5967     2.5093     0.3111     0.1001     0.0664
  571.0000    93.4200   -48.1932     9.4555     9.8481    11.1514   115.0320     7.5960     2.5043     0.3221     0.1032     0.0570
  571.5000    93.4795   -48.0568     9.4555     9.7450    11.0914   112.2055     7.5952     2.5105     0.3331     0.1010     0.0477
  572.0000    93.7008   -47.9203     9.4554     9.6428    11.0308   109.9245     7.5945     2.5159     0.3441     0.0988     0.0313
  572.5000    94.4411   -47.7838     9.3623     9.5418    10.9713   111.7522     7.5938     2.5125     0.3519     0.1003     0.0187
  573.0000    95.2315   -47.6472     9.2308     9.4418    10.6752   113.4502     7.5931     2.5086     0.3255     0.1016     0.0362
  573.5000    95.7863   -47.5112     9.1012     9.3429    10.1769   112.3907     7.5924     2.5047     0.3078     0.1033     0.0510
  574.0000    96.1938   -47.4129     8.9734     9.2450    10.2650   112.6962     7.5917     2.5020     0.3124     0.1044     0.0523
  574.5000    96.5374   -47.4167     8.8474     9.1482    10.4455   113.8229     7.5910     2.5095     0.3214     0.1021     0.0663
  575.0000    96.7864   -47.5430     8.7232     9.0523    10.3182   113.6371     7.5902     2.5159     0.3314     0.0992     0.0687
  575.5000    97.1064   -47.9944     8.6007     8.9575    10.1614   114.1629     7.5895     2.5099     0.3318     0.0996     0.0580
  576.0000    97.5349   -48.4402     8.4799     8.8331    10.0069   117.7018     7.5888     2.5020     0.3154     0.1075     0.0502
  576.5000    97.7829   -48.8863     8.3608     8.7072     9.8157   118.5177     7.5881     2.4995     0.2990     0.1096     0.0512
  577.0000    97.7792   -49.3314     8.2434     8.5584     9.8527   115.2923     7.5874     2.5052     0.2954     0.1052     0.0528
  577.5000    97.6707   -49.7776     8.1622     8.6498     9.9146   111.8318     7.5867     2.5071     0.3094     0.1032     0.0264
  578.0000    97.5049   -49.9202     8.3500     8.8002     9.9769   112.6661     7.5860     2.5054     0.3221     0.1045    -0.0181
  578.5000    97.3364   -49.7966     8.5245     8.9532    10.0397   115.2366     7.5852     2.5037     0.3348     0.1059    -0.0048
  579.0000    97.4751   -49.3557     8.7027     9.1088    10.1028   115.5904     7.5845     2.5019     0.3539     0.1072     0.0179
  579.5000    97.5321   -48.8574     8.8667     9.2832    10.1663   118.6746     7.5838     2.5002     0.3403     0.1085     0.0362
  580.0000    97.2423   -48.3600     8.8444     9.2674    10.2302   121.6513     7.5831     2.4989     0.3158     0.1100     0.0386
  580.5000    96.7475   -47.8626     8.8195     9.2359    10.2945   116.3571     7.5824     2.4991     0.3134     0.1071     0.0348
  581.0000    96.3601   -47.6141     8.7949     9.2045    10.3619   110.6749     7.5817     2.5058     0.3113     0.1030     0.0320
  581.5000    96.1585   -47.6144     8.7704     9.1732    10.3308   105.2380     7.5810     2.5136     0.3122     0.0984     0.0287
  582.0000    96.2138   -47.6140     8.7460     9.1420    10.2921   102.0236     7.5802     2.5106     0.3214     0.0984     0.0252
  582.5000    96.3797   -47.6143     8.7217     9.1110    10.2536    98.6587     7.5795     2.5067     0.3365     0.1024     0.0274
  583.0000    96.6287   -47.6143     8.6969     9.0800    10.2152    95.3730     7.5787     2.5041     0.3471     0.1024     0.0490
  583.5000    96.7012   -47.6142     8.6712     9.0492    10.1769    96.0516     7.5779     2.5090     0.3441     0.1016     0.0698
  584.0000    96.6367   -47.6143     8.6455     9.0184    10.1388   101.0970     7.5771     2.5136     0.3355     0.0999     0.0803
  584.5000    96.7967   -47.6142     8.6199     8.9877    10.1008   106.1629     7.5764     2.5147     0.3294     0.0984     0.0755
  585.0000    97.0777   -47.7007     8.5944     8.9572    10.0628   109.7552     7.5756     2.5102     0.3354     0.1012     0.0688
  585.5000    97.3946   -47.8736     8.5687     8.9478    10.0253   111.1873     7.5749     2.5091     0.3370     0.1028     0.0620
  586.0000    97.6347   -48.0465     8.5482     8.9483     9.9953   110.3661     7.5741     2.5176     0.3113     0.0990     0.0552
  586.5000    97.4165   -48.2201     8.7093     8.9470    10.1769   110.0033     7.5733     2.5251     0.2902     0.0936     0.0484
  587.0000    96.6487   -48.3915     8.8610     9.1311    10.3484   113.0481     7.5725     2.5280     0.2958     0.0908     0.0425
  587.5000    95.8810   -48.4101     9.0151     9.3003    10.5229   118.4646     7.5718     2.5244     0.3069     0.0917     0.0482
  588.0000    95.1132   -48.4099     9.1719     9.4728    10.7002   118.4726     7.5710     2.5211     0.3181     0.0948     0.0602
  588.5000    94.3454   -48.4096     9.2819     9.6308    10.9485   113.6333     7.5702     2.5216     0.3292     0.0950     0.0581
  589.0000    93.6707   -48.4096     9.2669     9.7768    10.9083   112.4801     7.5695     2.5203     0.3370     0.0952     0.0494
  589.5000    93.5429   -48.4096     9.2544     9.9416    10.8583   114.2909     7.5687     2.5140     0.3314     0.0988     0.0409
  590.0000    93.7589   -48.4113     9.2419    10.0011    10.7469   113.8040     7.5679     2.5064     0.3178     0.1022     0.0325
  590.5000    94.3927   -48.3203     9.2294    10.0203    10.6299   110.7240     7.5672     2.4975     0.3090     0.1071     0.0240
  591.0000    95.0080   -48.1940     9.2169    10.0395    10.5143   106.8186     7.5664     2.4842     0.2974     0.1145     0.0165
  591.5000    95.5060   -48.0670     9.2046    10.0587    10.3998   103.1181     7.5656     2.4714     0.2874     0.1220     0.0165
  592.0000  -999.2500   -47.9400     9.1990    10.0780    10.3658   103.6685     7.5648     2.4657     0.2872     0.1277     0.0248
  592.5000  -999.2500   -47.8131     9.2085    10.1153    10.6556   107.9653     7.5641     2.4771     0.2890     0.1223     0.0340
  593.0000  -999.2500   -47.6862     9.2153    10.1603    10.9491   112.2087     7.5633     2.4870     0.2844     0.1157     0.0424
  593.5000  -999.2500   -47.5592     9.2221    10.2056    10.9225   116.4274     7.5625     2.4879     0.2798     0.1147     0.0404
  594.0000  -999.2500   -47.4320     9.2290    10.2511    10.8783   120.6443     7.5618     2.4887     0.2860     0.1137     0.0375
  594.5000  -999.2500   -47.3063     9.2358    10.2968    10.8342   122.7980     7.5610     2.4924     0.2898     0.1128     0.0345
  595.0000  -999.2500   -47.2556     9.2427    10.3427    10.7904  -999.2500     7.5606     2.5006     0.2934     0.1090     0.0341
  595.5000  -999.2500   -47.4011     9.2495    10.3610    10.7467  -999.2500     7.5606     2.5135     0.2989     0.1021     0.0306
  596.0000  -999.2500   -47.5435     9.2564    10.2945    10.7032  -999.2500     7.5606     2.5263     0.2994     0.0930     0.0393
  596.5000  -999.2500   -47.6860     9.2632    10.2473    10.6595  -999.2500     7.5606     2.5316     0.2942     0.0893     0.0496
  597.0000  -999.2500   -47.8123     9.2701    10.2003    10.7661  -999.2500     7.5606     2.5270     0.3002     0.0908     0.0537
  597.5000  -999.2500   -47.7713     9.2769    10.1536    10.8906  -999.2500     7.5606     2.5265     0.3066     0.0920     0.0558
  598.0000  -999.2500   -47.7234     9.2852    10.1070    11.0167  -999.2500     7.5606     2.5438     0.3137     0.0842     0.0579
  598.5000  -999.2500   -47.6760     9.3051    10.0838    11.1441  -999.2500     7.5606     2.5603     0.3208     0.0736     0.0648
  599.0000  -999.2500   -47.6305     9.3252    10.0838    11.2601  -999.2500     7.5606     2.5720     0.3314     0.0641     0.0776
