~VERSION INFORMATION
 VERS.                2.0:   CWLS LOG ASCII STANDARD - VERSION 2.0
 WRAP.                 NO:   ONE LINE PER DEPTH STEP
~WELL INFORMATION
#MNEM.UNIT      DATA TYPE    INFORMATION
#----------   ------------   ------------------------------
 STRT.F           37.5000:   START DEPTH
 STOP.F          525.5000:   STOP DEPTH
 STEP.F            0.5000:   STEP LENGTH
 NULL.          -999.2500:   NO VALUE
 COMP. LAWRENCE/ALLISON INC:   COMPANY
 WELL.    74-11 SX #10-10:   WELL
 FLD .             TEAPOT:   FIELD
 LOC .      S10 T38N R78W:   LOCATION
 CNTY.            NATRONA:   COUNTY
 STAT.            WYOMING:   STATE
 CTRY. UNITED STATES OF AMERICA:   COUNTRY
 SRVC.            Unknown:   SERVICE COMPANY
 DATE.        08-AUG-1984:   LOGDATE
 API .       490251097800:   API NUMBER
~CURVE INFORMATION
#MNEM.UNIT       API CODE    CURVE DESCRIPTION
#----------   ------------   ------------------------------
 DEPT.F                  :   
 CNC .DEC    42 890 03 00:   NEUTRON POROSITY SANDSTONE
 AC  .US/F   60 520 00 00:   ACCOUSTIC
 GRD .GAPI   45 310 01 00:   GAMMA RAY FROM DENSITY LOG
 CALD.IN     45 280 60 00:   CALIPER FROM DENSITY LOG
 CORR.G/C3   45 356 01 00:   DENSITY CORRECTION
 DPHI.DEC    45 890 12 00:   DENSITY POROSITY SANDSTONE
 DEN .G/C3   45 350 01 00:   COMPENSATED BULK DENSTIY
 RILD.OHMM   07 120 46 00:   RESISTIVITY INDUCTION LOG DEEP
 RILM.OHMM   07 120 44 00:   RESISTIVITY INDUCTION LOG MEDIUM
 RFOC.OHMM   07 220 04 00:   RESISTIVITY FOCUSED LOG
 SPR .MV     07 010 01 00:   SPONTANEOUS POTENTIAL FROM RES.
~PARAMETER INFORMATION
#MNEM.UNIT          VALUE    DESCRIPTION
#----------   ------------   ------------------------------
 PD  .                 GL:   PERMANENT DATUM
 EPD .F              5180:   ELEVATION PERMANENT DATUM
 LMF .                 GL:   LOG MEASURED FROM
 DMF .                 GL:   DRILLING MEASURED FROM
 EGL .F              5180:   GROUND LEVEL
 DATE.             8-8-84:   RUN DATE
 RUN .                  1:   RUN NUMBER
 DD  .F               525:   DEPTH DRILLER
 DL  .F               526:   DEPTH LOGGER
 BLI .F               525:   BOTTOM LOG INTERVAL
 TLI .F                42:   TOP LOG INTERVAL
 CS  .IN            9.625:   CASING SIZE
 CBD .F                42:   CASING BOTTOM DRILLER
 CBL .F                42:   CASING BOTTOM LOGGER
 BS  .IN            7.875:   BIT SIZE
 BSD .F               525:   BIT SIZE AT DEPTH
 DFT .          KCL WATER:   DRILLING FLUID TYPE
 MSS .           FLOWLINE:   MUD SAMPLE SOURCE
 RMS .OHMM           .141:   RESISTIVITY MUD SAMPLE
 MST .F                78:   MUD SAMPLE TEMPERATURE
 RMF .OHMM            .12:   RESISTIVITY MUD FILTRATE SAMPLE
 MFST.F                78:   MUD FILTRATE SAMPLE TEMPERATURE
 RMC .OHMM             .2:   RESISTIVITY MUD CAKE
 MCST.F                78:   MUD CAKE SAMPLE TEMPERATURE
 MFSS.               MEAS:   MUD FILTRATE SAMPLE SOURCE
 MCSS.               MEAS:   MUD CAKE SAMPLE SOURCE
 RMB .OHMM            .13:   RESISTIVITY MUD AT BHT
 BHT .F                89:   BOTTOM HOLE TEMPERATURE
 MRT .F                89:   MAXIMUM RECORDED TEMPERATURE
 LUN .               6307:   LOGGING UNIT NUMBER
 LUL .               GLTE:   LOGGING UNIT LOCATION
 ENGI.            JOHNSON:   RECORDING ENGINEER
 WITN.              FIVAS:   WITNESSED BY
 CLNT.            A2DTECH:   CLIENT CODE
 ORIG.           5" PRINT:   ORIGIN OF DATA
 UWI .       490251097800:   UNIQUE WELL ID
 DICO. A2D Technologies, Inc.:   DIGITIZING COMPANY
~OTHER INFORMATION
~A   DEPT      CNC         AC        GRD       CALD       CORR       DPHI        DEN       RILD       RILM       RFOC        SPR   
# ...
  434.0000     0.2916    91.9230    96.7570     7.8790     0.0910     0.0960     2.5190    14.1000     9.2190    13.0480   -50.2390
  434.5000     0.2947    92.3280    94.5130     7.8790     0.0830     0.1000     2.5150    13.9860     9.0840    13.0800   -50.8210
  435.0000     0.3034    92.1790    92.2010     7.8790     0.0740     0.1030     2.5110    13.9010     8.9500    13.1120   -51.4030
  435.5000     0.3095    92.2290    92.3600     7.8790     0.0690     0.1050     2.5060    13.8160     8.8150    13.1530   -51.9840
  436.0000     0.2973    92.3820    95.0830     7.8790     0.0790     0.1050     2.5050    13.6890     8.6800    13.0180   -52.5660
  436.5000     0.2964    92.5340    97.7230     7.8790     0.0900     0.1020     2.5100    13.5200     8.5320    12.8240   -53.1500
  437.0000     0.2991    92.6870    99.5490     7.8790     0.1090     0.0960     2.5210    13.3510     8.4730    12.6300   -53.7620
  437.5000     0.2994    93.0870    99.1480     7.8790     0.1260     0.0910     2.5320    13.1830     8.4090    12.4360   -53.8600
  438.0000     0.2829    93.5430    98.7880     7.8790     0.1160     0.0850     2.5430    13.0140     8.3440    12.2420   -53.7780
  438.5000     0.2801    93.8230    98.4370     7.8790     0.0960     0.0840     2.5460    12.8450     8.2990    12.1070   -53.6950
  439.0000     0.2887    93.9260    99.1280     7.8790     0.0760     0.0920     2.5290    12.7430     8.3710    12.3520   -53.6120
  439.5000     0.2993    93.8830    99.9250     7.8790     0.0580     0.1030     2.5150    12.6700     8.4260    12.5400   -53.5280
  440.0000     0.3065    93.8410   100.7660     7.8790     0.0570     0.1130     2.4960    12.5970     8.4820    12.7290   -53.4980
  440.5000     0.3118    93.7990    99.2810     7.8790     0.0630     0.1110     2.4910    12.5240     8.5320    12.9170   -54.0890
  441.0000     0.3090    93.7560   100.3040     7.8790     0.0690     0.1090     2.4970    12.4510     8.3490    13.1050   -54.5340
  441.5000     0.2919    93.6710   101.9080     7.8790     0.0740     0.1060     2.5040    12.3780     8.2440    13.2750   -54.9800
  442.0000     0.2997    93.5690   101.7710     7.8790     0.0790     0.1060     2.5010    12.3040     8.1660    13.0790   -55.4260
  442.5000     0.3038    93.7420   101.4900     7.8790     0.0840     0.1080     2.4980    12.2310     8.0870    12.9310   -55.8710
  443.0000     0.3080    94.0130   102.2830     7.8790     0.0690     0.1090     2.5000    12.1580     8.0090    12.7820   -56.3200
  443.5000     0.3286    94.2840   106.5410     7.8790     0.0460     0.1110     2.5000    12.1070     7.9300    12.6340   -56.8650
  444.0000     0.3354    94.5550   107.8550     7.8790     0.0350     0.1140     2.4910    11.8390     7.8520    12.4850   -57.4610
  444.5000     0.3177    94.8260   109.0920     7.8790     0.0320     0.1180     2.4830    11.5950     7.7810    12.3370   -58.0550
  445.0000     0.3195    95.0970   109.1290     7.8790     0.0330     0.1210     2.4760    11.3510     7.7030    12.1890   -58.6500
  445.5000     0.3198    95.2590   107.1630     7.8780     0.0420     0.1200     2.4770    11.1080     7.6320    12.0400   -59.2480
  446.0000     0.3163    95.3860   104.9410     7.8720     0.0560     0.1170     2.4850    10.8640     7.5690    11.9960   -59.8600
  446.5000     0.3019    95.5130   104.8110     7.8660     0.0710     0.1110     2.4930    10.6200     7.0960    11.9960   -60.0640
  447.0000     0.2936    95.6400   106.3410     7.8610     0.0800     0.1110     2.4960    10.3520     7.1880    11.9270   -60.1720
  447.5000     0.2812    95.7690   107.7400     7.8550     0.0660     0.1150     2.4900    10.4270     7.2910    11.6960   -60.2760
  448.0000     0.2739    96.0180   109.1490     7.8490     0.0520     0.1180     2.4820    10.5450     7.3630    11.3510   -60.3790
  448.5000     0.2925    96.2720   110.6950     7.8430     0.0390     0.1220     2.4740    10.3650     7.1890    11.4040   -60.4820
  449.0000     0.2991    96.5260   108.8340     7.8400     0.0510     0.1230     2.4750    10.1650     7.0430    11.5100   -60.5860
  449.5000     0.3046    96.7800   103.4650     7.8420     0.0610     0.1230     2.4780     9.9650     6.7770    11.6690   -60.6590
  450.0000     0.3098    96.9840    99.8080     7.8450     0.0650     0.1220     2.4800     9.7650     6.9180    11.3890   -60.7240
  450.5000     0.3097    97.6660   103.2550     7.8470     0.0680     0.1220     2.4790     9.5660     7.2280    10.8290   -60.7890
  451.0000     0.3112    98.2350   106.6290     7.8490     0.0690     0.1230     2.4750     9.3660     7.0430    10.2690   -60.8530
  451.5000     0.3148    98.8040   108.4850     7.8520     0.0620     0.1240     2.4710     9.2690     6.9030     9.8860   -60.9160
  452.0000     0.3093    98.8070   108.6030     7.8540     0.0540     0.1250     2.4710     9.7660     7.0880    10.7780   -60.9810
  452.5000     0.3105    97.9880   106.1290     7.8570     0.0520     0.1260     2.4700    10.1430     7.2540    11.5750   -60.9410
  453.0000     0.3117    97.1680   103.6980     7.8590     0.0550     0.1240     2.4700    10.5450     7.4310    12.1670   -60.8080
  453.5000     0.3116    96.3490   102.7250     7.8610     0.0570     0.1230     2.4740    10.9880     7.6980    12.3460   -60.6750
  454.0000     0.3057    95.3640   104.1400     7.8640     0.0540     0.1210     2.4780    11.4610     7.9840    12.5250   -60.5430
  454.5000     0.2881    94.9380   105.5960     7.8660     0.0400     0.1200     2.4820    11.9340     8.2700    12.7040   -60.4100
  455.0000     0.2911    94.4620   103.7600     7.8690     0.0340     0.1180     2.4860    12.3510     8.4530    12.8830   -60.2770
  455.5000     0.2948    93.9870   100.5570     7.8710     0.0290     0.1170     2.4860    12.4680     8.3490    13.0330   -60.1440
  456.0000     0.2880    93.5110    96.2850     7.8740     0.0380     0.1160     2.4860    12.5860     8.2720    13.0330   -60.0120
  456.5000     0.2814    93.0350    98.0580     7.8760     0.0530     0.1130     2.4860    12.7030     8.1950    13.1720   -59.8790
  457.0000     0.2875    92.7330    99.6370     7.8780     0.0690     0.1080     2.5010    12.8200     8.1480    13.2760   -59.9640
  457.5000     0.3006    92.7330    99.1090     7.8770     0.0770     0.1030     2.5070    12.9380     8.3470    13.3800   -60.3440
  458.0000     0.2860    92.7330    98.8670     7.8750     0.0730     0.1100     2.4960    13.0330     8.5160    13.4850   -60.7220
  458.5000     0.2810    92.7330   101.0990     7.8740     0.0630     0.1160     2.4850    13.0200     8.6840    13.5890   -61.0990
  459.0000     0.2800    92.6880   101.4150     7.8720     0.0640     0.1220     2.4760    13.0070     8.8520    13.6940   -61.4760
  459.5000     0.2797    92.5780    99.0910     7.8700     0.0650     0.1220     2.4800    12.9940     8.7420    13.7980   -61.8520
  460.0000     0.2883    92.4680    96.7800     7.8680     0.0640     0.1160     2.4840    12.9810     8.6330    13.9000   -62.2310
  460.5000     0.2998    92.3580    97.1000     7.8670     0.0610     0.1120     2.4890    12.9690     8.5240    13.7060   -62.6340
  461.0000     0.3078    92.2490    96.5650     7.8650     0.0580     0.1130     2.4900    12.9560     8.3830    13.5220   -62.6120
  461.5000     0.3074    92.1260    91.8330     7.8630     0.0550     0.1140     2.4890    12.9430     8.4110    13.6030   -62.3430
  462.0000     0.2882    92.0510    91.7980     7.8610     0.0570     0.1170     2.4840    12.9300     8.4670    13.7730   -62.0690
  462.5000     0.2894    91.9650    96.0460     7.8600     0.0560     0.1190     2.4800    12.9180     8.5320    13.6380   -61.7920
  463.0000     0.2900    91.9230   100.4150     7.8590     0.0520     0.1210     2.4750    12.8050     8.2230    13.4290   -61.3580
  463.5000     0.2906    92.2850   103.6160     7.8590     0.0460     0.1230     2.4780    12.6380     8.2460    13.2750   -60.9290
  464.0000     0.2757    92.6110   101.2710     7.8590     0.0610     0.1210     2.4820    12.4720     8.2810    13.9750   -60.5000
