~VERSION INFORMATION
 VERS.                2.0:   CWLS LOG ASCII STANDARD - VERSION 2.0
 WRAP.                 NO:   ONE LINE PER DEPTH STEP
~WELL INFORMATION
#MNEM.UNIT      DATA TYPE    INFORMATION
#----------   ------------   ------------------------------
 STRT.F          600.0000:   START DEPTH
 STOP.F         2218.0000:   STOP DEPTH
 STEP.F            0.5000:   STEP LENGTH
 NULL.          -999.2500:   NO VALUE
 COMP. US DEPTMNT OF ENRGY:   COMPANY
 WELL.   37 STX 10 #37-10:   WELL
 FLD .             TEAPOT:   FIELD
 LOC .      S10 T38N R78W:   LOCATION
 CNTY.            NATRONA:   COUNTY
 STAT.            WYOMING:   STATE
 CTRY. UNITED STATES OF AMERICA:   COUNTRY
 SRVC.            Unknown:   SERVICE COMPANY
 DATE.        15-MAY-1991:   LOGDATE
 API .       490251094200:   API NUMBER
~CURVE INFORMATION
#MNEM.UNIT       API CODE    CURVE DESCRIPTION
#----------   ------------   ------------------------------
 DEPT.F                  :   
 TGAS.UNITS  91 830 01 00:   TOTAL GAS FROM HOTWIRE
 ROP .MIN/FT 91 810 01 00:   RATE OF DRILLING PENETRATION
~PARAMETER INFORMATION
#MNEM.UNIT          VALUE    DESCRIPTION
#----------   ------------   ------------------------------
 EKB .F              5231:   KELLING BUSHING
 EGL .F              5221:   GROUND LEVEL
 DATE.            5-15-91:   RUN DATE
 DD  .F              2218:   DEPTH DRILLER
 BLI .F              2218:   BOTTOM LOG INTERVAL
 TLI .F               960:   TOP LOG INTERVAL
 ENGI.              TOWER:   RECORDING ENGINEER
 WITN.               HUSK:   WITNESSED BY
 CLNT.            A2DTECH:   CLIENT CODE
 ORIG.           5" PRINT:   ORIGIN OF DATA
 UWI .       490251094200:   UNIQUE WELL ID
 DICO. A2D Technologies, Inc.:   DIGITIZING COMPANY
~OTHER INFORMATION
~A   DEPT     TGAS          ROP 
# ...
  721.5000  -999.2500    -0.0075
  722.0000  -999.2500    -0.0082
  722.5000  -999.2500    -0.0081
  723.0000  -999.2500    -0.0081
  723.5000  -999.2500    -0.0081
  724.0000  -999.2500    -0.0082
  724.5000  -999.2500    -0.0082
  725.0000  -999.2500    -0.0082
  725.5000  -999.2500    -0.0083
  726.0000  -999.2500    -0.0083
  726.5000  -999.2500    -0.0083
  727.0000  -999.2500    -0.0083
  727.5000  -999.2500    -0.0084
  728.0000  -999.2500    -0.0084
  728.5000  -999.2500    -0.0084
  729.0000  -999.2500    -0.0085
  729.5000  -999.2500    -0.0084
  730.0000  -999.2500    -0.0079
  730.5000  -999.2500    -0.0075
  731.0000  -999.2500    -0.0066
  731.5000  -999.2500    -0.0056
  732.0000  -999.2500    -0.0045
  732.5000  -999.2500    -0.0035
  733.0000  -999.2500    -0.0024
  733.5000  -999.2500    -0.0014
  734.0000  -999.2500    -0.0003
  734.5000  -999.2500     0.0007
  735.0000  -999.2500     0.0018
  735.5000  -999.2500     0.0028
  736.0000  -999.2500     0.0039
  736.5000  -999.2500     0.0049
  737.0000  -999.2500     0.0058
  737.5000  -999.2500     0.0063
  738.0000  -999.2500     0.0068
  738.5000  -999.2500     0.0072
  739.0000  -999.2500     0.0077
  739.5000  -999.2500     0.0082
  740.0000  -999.2500     0.0086
  740.5000  -999.2500     0.0091
  741.0000  -999.2500     0.0096
  741.5000  -999.2500     0.0101
  742.0000  -999.2500     0.0105
  742.5000  -999.2500     0.0110
  743.0000  -999.2500     0.0115
  743.5000  -999.2500     0.0119
  744.0000  -999.2500     0.0124
  744.5000  -999.2500     0.0129
  745.0000  -999.2500     0.0133
  745.5000  -999.2500     0.0138
  746.0000  -999.2500     0.0143
  746.5000  -999.2500     0.0117
  747.0000  -999.2500    -0.0262
  747.5000  -999.2500    -0.0909
  748.0000  -999.2500    -0.1280
  748.5000  -999.2500    -0.1275
  749.0000  -999.2500    -0.1268
  749.5000  -999.2500    -0.1195
  750.0000  -999.2500    -0.1261
  750.5000  -999.2500    -0.1257
  751.0000  -999.2500    -0.1179
  751.5000  -999.2500    -0.1175
  752.0000  -999.2500    -0.1170
  752.5000  -999.2500    -0.1209
  753.0000  -999.2500    -0.1230
  753.5000  -999.2500    -0.1220
  754.0000  -999.2500    -0.1210
  754.5000  -999.2500    -0.1200
  755.0000  -999.2500    -0.1190
  755.5000  -999.2500    -0.1180
  756.0000  -999.2500    -0.1171
  756.5000  -999.2500    -0.1161
  757.0000  -999.2500    -0.1151
  757.5000  -999.2500    -0.1141
  758.0000  -999.2500    -0.1131
  758.5000  -999.2500    -0.1121
  759.0000  -999.2500    -0.1112
  759.5000  -999.2500    -0.1102
  760.0000  -999.2500    -0.1095
  760.5000  -999.2500    -0.1091
  761.0000  -999.2500    -0.1086
  761.5000  -999.2500    -0.1081
  762.0000  -999.2500    -0.1077
  762.5000  -999.2500    -0.1076
  763.0000  -999.2500    -0.1077
  763.5000  -999.2500    -0.1078
  764.0000  -999.2500    -0.1079
  764.5000  -999.2500    -0.1080
  765.0000  -999.2500    -0.1081
  765.5000  -999.2500    -0.1082
  766.0000  -999.2500    -0.1083
  766.5000  -999.2500    -0.1084
  767.0000  -999.2500    -0.1085
  767.5000  -999.2500    -0.1086
  768.0000  -999.2500    -0.1087
  768.5000  -999.2500    -0.1088
  769.0000  -999.2500    -0.1083
  769.5000  -999.2500    -0.1079
  770.0000  -999.2500    -0.1073
  770.5000  -999.2500    -0.1069
  771.0000  -999.2500    -0.1065
  771.5000  -999.2500    -0.1060
  772.0000  -999.2500    -0.1055
  772.5000  -999.2500    -0.1050
  773.0000  -999.2500    -0.1046
  773.5000  -999.2500    -0.1041
  774.0000  -999.2500    -0.1036
  774.5000  -999.2500    -0.1032
  775.0000  -999.2500    -0.1027
  775.5000  -999.2500    -0.1022
  776.0000  -999.2500    -0.1018
  776.5000  -999.2500    -0.1013
  777.0000  -999.2500    -0.1008
  777.5000  -999.2500    -0.1004
  778.0000  -999.2500    -0.0999
  778.5000  -999.2500    -0.0994
  779.0000  -999.2500    -0.0990
  779.5000  -999.2500    -0.0985
  780.0000  -999.2500    -0.0980
  780.5000  -999.2500    -0.0975
  781.0000  -999.2500    -0.0971
  781.5000  -999.2500    -0.0966
  782.0000  -999.2500    -0.0961
  782.5000  -999.2500    -0.0957
  783.0000  -999.2500    -0.0952
  783.5000  -999.2500    -0.0947
  784.0000  -999.2500    -0.0943
  784.5000  -999.2500    -0.0938
  785.0000  -999.2500    -0.0933
  785.5000  -999.2500    -0.0929
  786.0000  -999.2500    -0.0924
  786.5000  -999.2500    -0.0919
  787.0000  -999.2500    -0.0915
  787.5000  -999.2500    -0.0910
  788.0000  -999.2500    -0.0905
  788.5000  -999.2500    -0.0901
  789.0000  -999.2500    -0.0896
  789.5000  -999.2500    -0.0891
  790.0000  -999.2500    -0.0880
  790.5000  -999.2500    -0.0790
  791.0000  -999.2500    -0.0733
  791.5000  -999.2500    -0.0682
  792.0000  -999.2500    -0.0651
  792.5000  -999.2500    -0.0280
  793.0000  -999.2500     0.0006
  793.5000  -999.2500     0.0011
  794.0000  -999.2500     0.0016
  794.5000  -999.2500     0.0021
  795.0000  -999.2500     0.0025
  795.5000  -999.2500     0.0030
  796.0000  -999.2500     0.0035
  796.5000  -999.2500     0.0039
  797.0000  -999.2500     0.0044
  797.5000  -999.2500     0.0049
  798.0000  -999.2500     0.0053
  798.5000  -999.2500     0.0058
  799.0000  -999.2500     0.0063
  799.5000  -999.2500     0.0067
  800.0000  -999.2500     0.0072
  800.5000  -999.2500     0.0031
  801.0000  -999.2500     0.0076
  801.5000  -999.2500     0.0079
  802.0000  -999.2500     0.0081
  802.5000  -999.2500     0.0083
  803.0000  -999.2500     0.0085
  803.5000  -999.2500     0.0087
  804.0000  -999.2500     0.0089
  804.5000  -999.2500     0.0092
  805.0000  -999.2500     0.0094
  805.5000  -999.2500     0.0096
  806.0000  -999.2500     0.0098
  806.5000  -999.2500     0.0100
  807.0000  -999.2500     0.0102
  807.5000  -999.2500     0.0105
  808.0000  -999.2500     0.0107
  808.5000  -999.2500     0.0109
  809.0000  -999.2500     0.0111
  809.5000  -999.2500     0.0113
  810.0000  -999.2500     0.0115
  810.5000  -999.2500     0.0117
  811.0000  -999.2500     0.0120
  811.5000  -999.2500     0.0122
  812.0000  -999.2500     0.0124
  812.5000  -999.2500     0.0126
  813.0000  -999.2500     0.0128
  813.5000  -999.2500     0.0130
  814.0000  -999.2500     0.0133
  814.5000  -999.2500     0.0135
  815.0000  -999.2500     0.0137
  815.5000  -999.2500     0.0139
  816.0000  -999.2500     0.0141
  816.5000  -999.2500     0.0143
  817.0000  -999.2500     0.0146
  817.5000  -999.2500     0.0148
  818.0000  -999.2500     0.0150
  818.5000  -999.2500     0.0152
  819.0000  -999.2500     0.0154
  819.5000  -999.2500     0.0156
  820.0000  -999.2500     0.0159
  820.5000  -999.2500     0.0161
  821.0000  -999.2500    -0.1857
  821.5000  -999.2500    -0.2747
  822.0000  -999.2500    -0.2754
  822.5000  -999.2500    -0.2714
  823.0000  -999.2500    -0.2711
  823.5000  -999.2500    -0.2717
  824.0000  -999.2500    -0.2728
  824.5000  -999.2500    -0.2738
  825.0000  -999.2500    -0.2749
  825.5000  -999.2500    -0.2760
  826.0000  -999.2500    -0.2770
  826.5000  -999.2500    -0.2781
  827.0000  -999.2500    -0.2791
  827.5000  -999.2500    -0.2802
  828.0000  -999.2500    -0.2812
  828.5000  -999.2500    -0.2823
  829.0000  -999.2500    -0.2853
  829.5000  -999.2500    -0.2898
  830.0000  -999.2500    -0.2892
  830.5000  -999.2500    -0.2886
  831.0000  -999.2500    -0.2880
  831.5000  -999.2500    -0.2874
  832.0000  -999.2500    -0.2868
  832.5000  -999.2500    -0.2862
  833.0000  -999.2500    -0.2856
  833.5000  -999.2500    -0.2850
  834.0000  -999.2500    -0.2844
  834.5000  -999.2500    -0.2838
  835.0000  -999.2500    -0.2832
  835.5000  -999.2500    -0.2827
  836.0000  -999.2500    -0.2821
  836.5000  -999.2500    -0.2815
  837.0000  -999.2500    -0.2809
  837.5000  -999.2500    -0.2803
  838.0000  -999.2500    -0.2797
  838.5000  -999.2500    -0.2791
  839.0000  -999.2500    -0.2786
  839.5000  -999.2500    -0.2784
  840.0000  -999.2500    -0.2782
  840.5000  -999.2500    -0.2780
  841.0000  -999.2500    -0.2778
  841.5000  -999.2500    -0.2775
  842.0000  -999.2500    -0.2773
  842.5000  -999.2500    -0.2771
