~VERSION INFORMATION
 VERS.                2.0:   CWLS LOG ASCII STANDARD - VERSION 2.0
 WRAP.                 NO:   ONE LINE PER DEPTH STEP
~WELL INFORMATION
#MNEM.UNIT      DATA TYPE    INFORMATION
#----------   ------------   ------------------------------
 STRT.F           20.0000:   START DEPTH
 STOP.F          610.0000:   STOP DEPTH
 STEP.F            0.5000:   STEP LENGTH
 NULL.          -999.2500:   NO VALUE
 COMP. LAWRENCE/ALLISON INC:   COMPANY
 WELL.    44-55 SX #10-10:   WELL
 FLD .             TEAPOT:   FIELD
 LOC .      S10 T38N R78W:   LOCATION
 CNTY.            NATRONA:   COUNTY
 STAT.            WYOMING:   STATE
 CTRY. UNITED STATES OF AMERICA:   COUNTRY
 SRVC.            Unknown:   SERVICE COMPANY
 DATE.        29-AUG-1984:   LOGDATE
 API .       490251098300:   API NUMBER
~CURVE INFORMATION
#MNEM.UNIT       API CODE    CURVE DESCRIPTION
#----------   ------------   ------------------------------
 DEPT.F                  :   
 AC  .US/F   60 520 00 00:   ACOUSTIC SONIC
 SPR .MV     07 010 01 00:   SPONTANEOUS POTENTIAL
 RILD.OHMM   07 120 46 00:   INDUCTION LOG DEEP RESISTIVITY
 RILM.OHMM   07 120 44 00:   INDUCTION LOG MEDIUM RESISTIVITY
 RFOC.OHMM   07 220 04 00:   RESISTIVITY FOCUSED LOG
 GRD .GAPI   45 310 01 00:   GAMMA RAY FROM DENSITY LOG
 CALD.IN     45 280 60 00:   CALIPER
 DEN .G/C3   45 350 01 00:   COMPENSATED BULK DENSTIY
 CNC .DEC    42 890 03 00:   NEUTRON POROSITY SANDSTONE
 PORD.DEC    45 890 12 00:   DENSITY POROSITY SANDSTONE
 CORR.G/C3   45 356 01 00:   DENSITY CORRECTION
~PARAMETER INFORMATION
#MNEM.UNIT          VALUE    DESCRIPTION
#----------   ------------   ------------------------------
 PD  .                 GL:   PERMANENT DATUM
 EPD .F              5247:   ELEVATION PERMANENT DATUM
 LMF .                 KB:   LOG MEASURED FROM
 DAPD.F                13:   FEET ABOVE PERMANENT DATUM
 DMF .                 KB:   DRILLING MEASURED FROM
 EKB .F              5260:   KELLING BUSHING
 EGL .F              5247:   GROUND LEVEL
 DATE.        29-AUG-1984:   RUN DATE
 RUN .                  1:   RUN NUMBER
 DD  .F               613:   DEPTH DRILLER
 DL  .F               607:   DEPTH LOGGER
 BLI .F               607:   BOTTOM LOG INTERVAL
 TLI .F                42:   TOP LOG INTERVAL
 CBL .F                42:   CASING BOTTOM LOGGER
 BS  .IN            7.875:   BIT SIZE
 BSD .F               613:   BIT SIZE AT DEPTH
 DFT .          KCL WATER:   DRILLING FLUID TYPE
 MSS .               TANK:   MUD SAMPLE SOURCE
 RMS .OHMM           .295:   RESISTIVITY MUD SAMPLE
 MST .F                75:   MUD SAMPLE TEMPERATURE
 TCS .HRS               3:   TIME CURCULATED STOPPED
 MRT .F               100:   MAXIMUM RECORDED TEMPERATURE
 LUN .               4082:   LOGGING UNIT NUMBER
 LUL .               ROOS:   LOGGING UNIT LOCATION
 ENGI.             MILLER:   RECORDING ENGINEER
 WITN.            JOHNSON:   WITNESSED BY
 CLNT.            A2DTECH:   CLIENT CODE
 ORIG.       2", 5" PRINT:   ORIGIN OF DATA
 UWI .       490251098300:   UNIQUE WELL ID
 DICO. A2D Technologies, Inc.:   DIGITIZING COMPANY
~OTHER INFORMATION
~A   DEPT       AC        SPR       RILD       RILM       RFOC         GRD      CALD        DEN        CNC       PORD       CORR   
# ...
  355.5000    86.0579   -36.1531    23.6999    27.9668    20.6478    63.4075     7.8191     2.4170     0.2515     0.1591     0.0702
  356.0000    88.2460   -35.3441    23.5323    23.0396    19.9069    59.9443     7.8191     2.4067     0.2712     0.1653     0.0625
  356.5000    90.9514   -33.9938    22.9456    19.3668    18.8747    60.4367     7.8191     2.3966     0.2892     0.1721     0.0644
  357.0000    93.2721   -32.6475    22.2365    19.0140    17.6660    65.8886     7.8191     2.3834     0.2898     0.1843     0.0730
  357.5000    94.5472   -31.4214    21.5488    18.9380    17.7544    71.1429     7.8191     2.3529     0.2894     0.2000     0.0817
  358.0000    95.1996   -31.6950    20.8839    18.8026    17.8718    74.0934     7.8241     2.3234     0.2768     0.2146     0.0769
  358.5000    95.7385   -32.2022    20.0859    18.6681    18.1599    71.9724     7.8340     2.3181     0.2614     0.2088     0.0614
  359.0000    95.9431   -32.3422    20.1469    18.5346    18.1027    70.2031     7.8439     2.3520     0.2529     0.1920     0.0459
  359.5000    96.0928   -32.4085    20.2886    18.4020    18.0032    70.2043     7.8538     2.3813     0.2475     0.1733     0.0323
  360.0000    96.0955   -32.4718    20.4649    18.2704    17.9038    69.4743     7.8588     2.3999     0.2527     0.1653     0.0248
  360.5000    96.0322   -32.5361    20.1513    18.1397    17.8048    68.5691     7.8588     2.4131     0.2654     0.1605     0.0189
  361.0000    95.9695   -32.6005    19.7567    18.0094    17.7062    69.8491     7.8589     2.4074     0.2646     0.1618     0.0204
  361.5000    95.9072   -32.6639    19.3699    17.8818    17.4748    71.6569     7.8589     2.3993     0.2622     0.1662     0.0293
  362.0000    95.8386   -32.6753    18.9906    17.8265    17.3188    70.5906     7.8589     2.3948     0.2604     0.1698     0.0378
  362.5000    96.0881   -32.5993    18.8330    18.1066    17.2760    66.3498     7.8589     2.3931     0.2636     0.1710     0.0448
  363.0000    96.3656   -32.5246    19.5487    18.3420    17.2333    62.6350     7.8589     2.3925     0.2662     0.1713     0.0458
  363.5000    96.6423   -32.4497    20.1585    18.5806    17.1908    62.6397     7.8589     2.3902     0.2634     0.1732     0.0419
  364.0000    96.8363   -32.3749    20.6539    18.8222    17.1483    66.1995     7.8589     2.3846     0.2594     0.1760     0.0388
  364.5000    96.7116   -32.2999    20.4619    19.0140    17.1060    69.7430     7.8589     2.3800     0.2554     0.1785     0.0488
  365.0000    96.5334   -32.2247    20.2739    18.7795    17.0638    69.9704     7.8589     2.3887     0.2522     0.1745     0.0432
  365.5000    96.3373   -32.1546    20.0877    18.5515    17.0216    70.2039     7.8589     2.4000     0.2501     0.1675     0.0322
  366.0000    96.1377   -32.1171    19.9032    18.3263    16.9796    71.7148     7.8589     2.4113     0.2485     0.1612     0.0390
  366.5000    95.8383   -32.1321    19.7203    18.1038    16.9377    72.1757     7.8589     2.4220     0.2527     0.1546     0.0580
  367.0000    95.4391   -32.4651    19.5451    17.8838    16.8962    69.1010     7.8589     2.4218     0.2573     0.1530     0.0735
  367.5000    94.9401   -32.8040    19.4317    17.6669    16.8443    67.3486     7.8589     2.4211     0.2606     0.1540     0.0639
  368.0000    94.4411   -33.1454    19.2523    17.5032    16.7818    68.9646     7.8589     2.4291     0.2585     0.1521     0.0614
  368.5000    94.4112   -33.4862    19.0756    17.5042    16.7192    70.4996     7.8589     2.4405     0.2562     0.1408     0.0710
  369.0000    94.3413   -33.8273    18.9004    17.5044    16.6568    68.8075     7.8589     2.4501     0.2542     0.1354     0.0387
  369.5000    94.6369   -34.1679    18.8400    17.5059    16.5946    66.8049     7.8589     2.4381     0.2636     0.1415     0.0072
  370.0000    94.9056   -34.5074    18.8400    17.5072    16.5326    64.7373     7.8589     2.4262     0.2714     0.1480     0.0034
  370.5000    95.0399   -34.6674    18.8400    17.2644    16.4709    64.2886     7.8589     2.4256     0.2645     0.1513     0.0461
  371.0000    94.7405   -34.6105    18.5750    16.9922    16.4135    65.6982     7.8589     2.4272     0.2559     0.1508     0.0576
  371.5000    94.0348   -34.5555    18.1836    16.7224    16.0141    67.0798     7.8589     2.4262     0.2513     0.1509     0.0618
  372.0000    93.3932   -34.4999    17.8291    16.4567    15.6489    66.9684     7.8589     2.4212     0.2566     0.1534     0.0542
  372.5000    92.8543   -34.4444    17.2927    16.2014    15.2920    66.2660     7.8589     2.4162     0.2612     0.1570     0.0444
  373.0000    92.5948   -34.3889    16.8086    15.9647    14.9647    68.2037     7.8589     2.4182     0.2618     0.1581     0.0484
  373.5000    92.6846   -34.3337    16.5502    15.9671    14.9927    70.0850     7.8589     2.4255     0.2567     0.1529     0.0649
  374.0000    92.8842   -34.2934    16.5197    15.8210    15.0243    70.8601     7.8589     2.4329     0.2475     0.1482     0.0507
  374.5000    93.0838   -34.2952    16.4893    15.7670    15.0601    68.1363     7.8589     2.4335     0.2373     0.1470     0.0220
  375.0000    93.2834   -34.2976    16.4588    15.7178    15.0961    64.6760     7.8589     2.4326     0.2363     0.1473     0.0109
  375.5000    93.3433   -34.2442    16.4285    15.6687    15.1318    61.9419     7.8589     2.4317     0.2427     0.1477     0.0038
  376.0000    93.2435   -34.1220    16.5651    15.6198    15.1677    63.6944     7.8589     2.4285     0.2495     0.1480    -0.0033
  376.5000    93.0368   -34.2996    16.3067    15.5710    15.2036    66.6166     7.8589     2.4213     0.2529     0.1530    -0.0084
  377.0000    92.8443   -34.4871    16.0270    15.5223    15.2499    69.6664     7.8589     2.4144     0.2508     0.1572     0.0202
  377.5000    92.4399   -34.6736    15.7521    15.4739    15.1103    69.7523     7.8589     2.4123     0.2483     0.1585     0.0512
  378.0000    92.0722   -34.8597    15.4818    15.4255    14.9181    68.2880     7.8589     2.4085     0.2511     0.1615     0.0376
  378.5000    91.7045   -35.0458    15.2499    15.3773    14.7280    65.5211     7.8589     2.4016     0.2624     0.1657     0.0200
  379.0000    91.3806   -35.2319    15.4495    15.3293    14.5403    64.7094     7.8589     2.4105     0.2657     0.1661     0.0200
  379.5000    91.1588   -35.4179    15.6287    15.2814    14.3551    66.0201     7.8588     2.4323     0.2519     0.1549     0.0399
  380.0000    91.0978   -35.6040    15.8101    15.1312    14.1719    68.7177     7.8594     2.4541     0.2394     0.1418     0.0602
  380.5000    91.1976   -35.7902    15.9671    14.7861    13.9927    71.8100     7.8602     2.4637     0.2348     0.1280     0.0647
  381.0000    91.2487   -35.9766    15.3610    14.4488    13.8549    71.6046     7.8610     2.4596     0.2441     0.1326     0.0505
  381.5000    91.0578   -36.1607    14.8465    14.1495    13.7564    69.4853     7.8618     2.4452     0.2524     0.1401     0.0327
  382.0000    90.7519   -36.2655    14.3077    14.0237    13.6576    70.3561     7.8625     2.4328     0.2569     0.1469     0.0154
  382.5000    90.4450   -36.1353    14.1591    13.8990    13.5595    71.2068     7.8633     2.4374     0.2614     0.1469     0.0268
  383.0000    90.1384   -36.0078    14.1082    13.7755    13.4621    68.9279     7.8641     2.4498     0.2659     0.1382     0.0480
  383.5000    90.0854   -35.8803    14.0562    13.6530    13.3653    66.3919     7.8649     2.4623     0.2682     0.1303     0.0695
  384.0000    90.1472   -35.7529    14.0043    13.5316    13.2848    67.9866     7.8657     2.4747     0.2608     0.1230     0.0709
  384.5000    90.3230   -35.6255    13.9529    13.4084    13.3507    71.2286     7.8665     2.4731     0.2530     0.1232     0.0365
  385.0000    90.5731   -35.4981    13.9097    13.4720    13.4093    72.0289     7.8673     2.4704     0.2618     0.1254     0.0236
  385.5000    90.8226   -35.3704    13.9635    13.5544    13.6819    72.6939     7.8681     2.4676     0.2706     0.1276     0.0207
