~VERSION INFORMATION
 VERS.                2.0:   CWLS LOG ASCII STANDARD - VERSION 2.0
 WRAP.                 NO:   ONE LINE PER DEPTH STEP
~WELL INFORMATION
#MNEM.UNIT      DATA TYPE    INFORMATION
#----------   ------------   ------------------------------
 STRT.F            0.0000:   START DEPTH
 STOP.F         2720.0000:   STOP DEPTH
 STEP.F            0.5000:   STEP LENGTH
 NULL.          -999.2500:   NO VALUE
 COMP. DEPARTMENT OF ENERGY:   COMPANY
 WELL.       NPR-3 #410-A:   WELL
 FLD . TEAPOT NAVAL RESERVE:   FIELD
 LOC .      S20 T39N R78W:   LOCATION
 CNTY.            NATRONA:   COUNTY
 STAT.            WYOMING:   STATE
 CTRY. UNITED STATES OF AMERICA:   COUNTRY
 SRVC.      NL McCullough:   SERVICE COMPANY
 DATE.        26-JUL-1965:   LOGDATE
 API .       490251144500:   API NUMBER
~CURVE INFORMATION
#MNEM.UNIT       API CODE    CURVE DESCRIPTION
#----------   ------------   ------------------------------
 DEPT.F                  :   
 GR  .GAPI   30 310 01 00:   GAMMA RAY
 CALI.IN     30 280 01 00:   CALIPER
~PARAMETER INFORMATION
#MNEM.UNIT          VALUE    DESCRIPTION
#----------   ------------   ------------------------------
 PD  .                 GL:   PERMANENT DATUM
 LMF .                 GL:   LOG MEASURED FROM
 DATE.            7-16-65:   RUN DATE
 RUN .                  1:   RUN NUMBER
 DD  .F              2720:   DEPTH DRILLER
 TLI .F              2100:   TOP LOG INTERVAL
 CS  .IN            6.875:   CASING SIZE
 DFT .              WATER:   DRILLING FLUID TYPE
 ENGI. FITZSIMMONE/COWLTHORPE:   RECORDING ENGINEER
 WITN.             HUDSON:   WITNESSED BY
 CLNT.            A2DTECH:   CLIENT CODE
 ORIG.           5" PRINT:   ORIGIN OF DATA
 UWI .       490251144500:   UNIQUE WELL ID
 DICO. A2D Technologies, Inc.:   DIGITIZING COMPANY
~OTHER INFORMATION
~A    DEPT      GR         CALI 
# ...
 1215.0000  -999.2500     5.8923
 1215.5000  -999.2500     5.8899
 1216.0000  -999.2500     5.9023
 1216.5000  -999.2500     5.9160
 1217.0000  -999.2500     5.9296
 1217.5000  -999.2500     5.9433
 1218.0000  -999.2500     5.9424
 1218.5000  -999.2500     5.9287
 1219.0000  -999.2500     5.9146
 1219.5000  -999.2500     5.9097
 1220.0000  -999.2500     5.9096
 1220.5000  -999.2500     5.9096
 1221.0000  -999.2500     5.9097
 1221.5000  -999.2500     5.9091
 1222.0000  -999.2500     5.8934
 1222.5000  -999.2500     5.8772
 1223.0000  -999.2500     5.8745
 1223.5000  -999.2500     5.8839
 1224.0000  -999.2500     5.8934
 1224.5000  -999.2500     5.9029
 1225.0000  -999.2500     5.9130
 1225.5000  -999.2500     5.9274
 1226.0000  -999.2500     5.9084
 1226.5000  -999.2500     5.8796
 1227.0000  -999.2500     5.8848
 1227.5000  -999.2500     5.9082
 1228.0000  -999.2500     5.8941
 1228.5000  -999.2500     5.8767
 1229.0000  -999.2500     5.8848
 1229.5000  -999.2500     5.9227
 1230.0000  -999.2500     5.9480
 1230.5000  -999.2500     5.9376
 1231.0000  -999.2500     5.9281
 1231.5000  -999.2500     5.9186
 1232.0000  -999.2500     5.9091
 1232.5000  -999.2500     5.8994
 1233.0000  -999.2500     5.8901
 1233.5000  -999.2500     5.9019
 1234.0000  -999.2500     5.9255
 1234.5000  -999.2500     5.9654
 1235.0000  -999.2500     5.9513
 1235.5000  -999.2500     5.9294
 1236.0000  -999.2500     5.9075
 1236.5000  -999.2500     5.8858
 1237.0000  -999.2500     5.8711
 1237.5000  -999.2500     5.8810
 1238.0000  -999.2500     5.8902
 1238.5000  -999.2500     5.8994
 1239.0000  -999.2500     5.9086
 1239.5000  -999.2500     5.9178
 1240.0000  -999.2500     5.9275
 1240.5000  -999.2500     5.9297
 1241.0000  -999.2500     5.9297
 1241.5000  -999.2500     5.9297
 1242.0000  -999.2500     5.9297
 1242.5000  -999.2500     5.9297
 1243.0000  -999.2500     5.9297
 1243.5000  -999.2500     5.9297
 1244.0000  -999.2500     5.9297
 1244.5000  -999.2500     5.9297
 1245.0000  -999.2500     5.9297
 1245.5000  -999.2500     5.9297
 1246.0000  -999.2500     5.9297
 1246.5000  -999.2500     5.9296
 1247.0000  -999.2500     5.9232
 1247.5000  -999.2500     5.9082
 1248.0000  -999.2500     5.8933
 1248.5000  -999.2500     5.8783
 1249.0000  -999.2500     5.8632
 1249.5000  -999.2500     5.8503
 1250.0000  -999.2500     5.8663
 1250.5000  -999.2500     5.8827
 1251.0000  -999.2500     5.8989
 1251.5000  -999.2500     5.9152
 1252.0000  -999.2500     5.9298
 1252.5000  -999.2500     5.9213
 1253.0000  -999.2500     5.9098
 1253.5000  -999.2500     5.9167
 1254.0000  -999.2500     5.9256
 1254.5000  -999.2500     5.9244
 1255.0000  -999.2500     5.8858
 1255.5000  -999.2500     5.8501
 1256.0000  -999.2500     5.8537
 1256.5000  -999.2500     5.8636
 1257.0000  -999.2500     5.8794
 1257.5000  -999.2500     5.9059
 1258.0000  -999.2500     5.9320
 1258.5000  -999.2500     5.9510
 1259.0000  -999.2500     5.9538
 1259.5000  -999.2500     5.9569
 1260.0000  -999.2500     5.9598
 1260.5000  -999.2500     5.9629
 1261.0000  -999.2500     5.9659
 1261.5000  -999.2500     5.9686
 1262.0000  -999.2500     5.9561
 1262.5000  -999.2500     5.9276
 1263.0000  -999.2500     5.9141
 1263.5000  -999.2500     5.9268
 1264.0000  -999.2500     5.9391
 1264.5000  -999.2500     5.9516
 1265.0000  -999.2500     5.9640
 1265.5000  -999.2500     5.9765
 1266.0000  -999.2500     5.9893
 1266.5000  -999.2500     5.9834
 1267.0000  -999.2500     5.9759
 1267.5000  -999.2500     5.9685
 1268.0000  -999.2500     5.9611
 1268.5000  -999.2500     5.9537
 1269.0000  -999.2500     5.9463
 1269.5000  -999.2500     5.9389
 1270.0000  -999.2500     5.9315
 1270.5000  -999.2500     5.9241
 1271.0000  -999.2500     5.9166
 1271.5000  -999.2500     5.9097
 1272.0000  -999.2500     5.9096
 1272.5000  -999.2500     5.9096
 1273.0000  -999.2500     5.9096
 1273.5000  -999.2500     5.9096
 1274.0000  -999.2500     5.9095
 1274.5000  -999.2500     5.9179
 1275.0000  -999.2500     5.9279
 1275.5000  -999.2500     5.9482
 1276.0000  -999.2500     5.9468
 1276.5000  -999.2500     5.9448
 1277.0000  -999.2500     5.9427
 1277.5000  -999.2500     5.9406
 1278.0000  -999.2500     5.9386
 1278.5000  -999.2500     5.9365
 1279.0000  -999.2500     5.9344
 1279.5000  -999.2500     5.9324
 1280.0000  -999.2500     5.9298
 1280.5000  -999.2500     5.9486
 1281.0000  -999.2500     5.9748
 1281.5000  -999.2500     6.0017
 1282.0000  -999.2500     5.9966
 1282.5000  -999.2500     5.9772
 1283.0000  -999.2500     5.9571
 1283.5000  -999.2500     5.9577
 1284.0000  -999.2500     5.9699
 1284.5000  -999.2500     5.9820
 1285.0000  -999.2500     5.9769
 1285.5000  -999.2500     5.9409
 1286.0000  -999.2500     5.9379
 1286.5000  -999.2500     5.9493
 1287.0000  -999.2500     5.9456
 1287.5000  -999.2500     5.9400
 1288.0000  -999.2500     5.9344
 1288.5000  -999.2500     5.9335
 1289.0000  -999.2500     5.9627
 1289.5000  -999.2500     5.9889
 1290.0000  -999.2500     5.9745
 1290.5000  -999.2500     5.9591
 1291.0000  -999.2500     5.9440
 1291.5000  -999.2500     5.9290
 1292.0000  -999.2500     5.9131
 1292.5000  -999.2500     5.9176
 1293.0000  -999.2500     5.9286
 1293.5000  -999.2500     5.9398
 1294.0000  -999.2500     5.9497
 1294.5000  -999.2500     5.9499
 1295.0000  -999.2500     5.9498
 1295.5000  -999.2500     5.9498
 1296.0000  -999.2500     5.9498
 1296.5000  -999.2500     5.9498
 1297.0000  -999.2500     5.9498
 1297.5000  -999.2500     5.9498
 1298.0000  -999.2500     5.9498
 1298.5000  -999.2500     5.9498
 1299.0000  -999.2500     5.9498
 1299.5000  -999.2500     5.9498
 1300.0000  -999.2500     5.9497
 1300.5000  -999.2500     5.9521
 1301.0000  -999.2500     5.9696
 1301.5000  -999.2500     5.9881
 1302.0000  -999.2500     5.9520
 1302.5000  -999.2500     5.9095
 1303.0000  -999.2500     5.8971
 1303.5000  -999.2500     5.8912
 1304.0000  -999.2500     5.8966
 1304.5000  -999.2500     5.9018
 1305.0000  -999.2500     5.9070
 1305.5000  -999.2500     5.9122
 1306.0000  -999.2500     5.9175
 1306.5000  -999.2500     5.9226
 1307.0000  -999.2500     5.9280
 1307.5000  -999.2500     5.9247
 1308.0000  -999.2500     5.9170
 1308.5000  -999.2500     5.9093
 1309.0000  -999.2500     5.9016
 1309.5000  -999.2500     5.8939
 1310.0000  -999.2500     5.8903
 1310.5000  -999.2500     5.8943
 1311.0000  -999.2500     5.8980
 1311.5000  -999.2500     5.9018
 1312.0000  -999.2500     5.9056
 1312.5000  -999.2500     5.9093
 1313.0000  -999.2500     5.9131
 1313.5000  -999.2500     5.9169
 1314.0000  -999.2500     5.9206
 1314.5000  -999.2500     5.9244
 1315.0000  -999.2500     5.9282
 1315.5000  -999.2500     5.9319
 1316.0000  -999.2500     5.9357
 1316.5000  -999.2500     5.9395
 1317.0000  -999.2500     5.9433
 1317.5000  -999.2500     5.9470
 1318.0000  -999.2500     5.9486
 1318.5000  -999.2500     5.9425
 1319.0000  -999.2500     5.9368
 1319.5000  -999.2500     5.9321
 1320.0000  -999.2500     5.8743
 1320.5000  -999.2500     5.8559
 1321.0000  -999.2500     5.8842
 1321.5000  -999.2500     5.9120
 1322.0000  -999.2500     5.9134
 1322.5000  -999.2500     5.8706
 1323.0000  -999.2500     5.8827
 1323.5000  -999.2500     5.9142
 1324.0000  -999.2500     5.9294
 1324.5000  -999.2500     5.9298
 1325.0000  -999.2500     5.9297
 1325.5000  -999.2500     5.9297
 1326.0000  -999.2500     5.9297
 1326.5000  -999.2500     5.9297
 1327.0000  -999.2500     5.9297
 1327.5000  -999.2500     5.9297
 1328.0000  -999.2500     5.9297
 1328.5000  -999.2500     5.9297
 1329.0000  -999.2500     5.9297
 1329.5000  -999.2500     5.9297
 1330.0000  -999.2500     5.9297
 1330.5000  -999.2500     5.9297
 1331.0000  -999.2500     5.9297
 1331.5000  -999.2500     5.9297
 1332.0000  -999.2500     5.9297
 1332.5000  -999.2500     5.9297
 1333.0000  -999.2500     5.9296
 1333.5000  -999.2500     5.9251
 1334.0000  -999.2500     5.9204
 1334.5000  -999.2500     5.9158
 1335.0000  -999.2500     5.9112
 1335.5000  -999.2500     5.9065
 1336.0000  -999.2500     5.9019
