~VERSION INFORMATION
 VERS.                2.0:   CWLS LOG ASCII STANDARD - VERSION 2.0
 WRAP.                 NO:   ONE LINE PER DEPTH STEP
~WELL INFORMATION
#MNEM.UNIT      DATA TYPE    INFORMATION
#----------   ------------   ------------------------------
 STRT.F           88.0000:   START DEPTH
 STOP.F          893.0000:   STOP DEPTH
 STEP.F            0.5000:   STEP LENGTH
 NULL.          -999.2500:   NO VALUE
 COMP.          U.S. NAVY:   COMPANY
 WELL. RES 3 TEAPOT DOM #24S-35:   WELL
 FLD .        TEAPOT DOME:   FIELD
 LOC .      S35 T39N R78W:   LOCATION
 CNTY.            NATRONA:   COUNTY
 STAT.            WYOMING:   STATE
 CTRY. UNITED STATES OF AMERICA:   COUNTRY
 SRVC.       Schlumberger:   SERVICE COMPANY
 DATE.        26-JUL-1963:   LOGDATE
 API .       490250654800:   API NUMBER
~CURVE INFORMATION
#MNEM.UNIT       API CODE    CURVE DESCRIPTION
#----------   ------------   ------------------------------
 DEPT.F                  :   
 CALS.IN     60 280 50 00:   CALIPER FROM SONIC LOG
 DT  .US/F   60 520 00 00:   INTERVAL TRANSIT TIME
 GR  .GAPI   30 310 01 00:   GAMMA RAY
 ASN .OHMM   05 041 16 00:   AMPLIFIED SHORT NORMAL 16"
 CILD.MMHO   05 110 46 00:   CONDUCTIVITY INDUCTION LOG DEEP
 ILD .OHMM   05 120 46 00:   INDUCTION LOG DEEP
 SPR .MV     05 010 01 00:   SPONTANEOUS POTENTIAL FROM RES.
~PARAMETER INFORMATION
#MNEM.UNIT          VALUE    DESCRIPTION
#----------   ------------   ------------------------------
 PD  .                 GL:   PERMANENT DATUM
 EPD .F              5116:   ELEVATION PERMANENT DATUM
 LMF .                 KB:   LOG MEASURED FROM
 DAPD.F                 5:   FEET ABOVE PERMANENT DATUM
 DMF .                 KB:   DRILLING MEASURED FROM
 EKB .F              5121:   KELLING BUSHING
 EGL .F              5116:   GROUND LEVEL
 DATE.        26-JUL-1963:   RUN DATE
 RUN .                  1:   RUN NUMBER
 DD  .F               900:   DEPTH DRILLER
 DL  .F               894:   DEPTH LOGGER
 BLI .F               893:   BOTTOM LOG INTERVAL
 TLI .F                88:   TOP LOG INTERVAL
 CBD .F                10:   CASING BOTTOM DRILLER
 BS  .IN             6.75:   BIT SIZE
 BSD .F               900:   BIT SIZE AT DEPTH
 DFT .            GEL-OIL:   DRILLING FLUID TYPE
 DFD .                9.5:   DRILLING FLUID DENSITY
 DFV .                 92:   DRILLING FLUID VISCOSITY
 DFPH.                9.5:   DRILLING FLUID PH
 DFL .                5.8:   DRILLING FLUID LOSS
 MSS .           FLOWLINE:   MUD SAMPLE SOURCE
 RMS .OHMM           4.05:   RESISTIVITY MUD SAMPLE
 MST .F                75:   MUD SAMPLE TEMPERATURE
 RMF .OHMM           3.91:   RESISTIVITY MUD FILTRATE SAMPLE
 MFST.F                75:   MUD FILTRATE SAMPLE TEMPERATURE
 RMC .OHMM           3.54:   RESISTIVITY MUD CAKE
 MCST.F                75:   MUD CAKE SAMPLE TEMPERATURE
 MFSS.               MEAS:   MUD FILTRATE SAMPLE SOURCE
 MCSS.               MEAS:   MUD CAKE SAMPLE SOURCE
 TCS .HRS             0.5:   TIME CURCULATED STOPPED
 LUN .               4507:   LOGGING UNIT NUMBER
 LUL .               CSPR:   LOGGING UNIT LOCATION
 ENGI.             KNOBEL:   RECORDING ENGINEER
 WITN.          JORGENSON:   WITNESSED BY
 CLNT.            A2DTECH:   CLIENT CODE
 ORIG.           5" PRINT:   ORIGIN OF DATA
 UWI .       490250654800:   UNIQUE WELL ID
 DICO. A2D Technologies, Inc.:   DIGITIZING COMPANY
~OTHER INFORMATION
~A   DEPT     CALS         DT         GR          ASN      CILD         ILD      SPR   
# ...
  543.0000     6.3848    89.7508  -999.2500    11.5108   100.6980     9.9906   -15.7330
  543.5000     6.2962    90.7282  -999.2500    11.5109   100.7132     9.9892   -15.5892
  544.0000     6.2056    92.2502  -999.2500    11.5111   100.7299     9.9878   -15.5963
  544.5000     6.1606   105.4860  -999.2500    11.5112   100.7441     9.9864   -15.4525
  545.0000     6.1916   108.9805  -999.2500    11.5114   100.7587     9.9847   -15.4613
  545.5000     6.4201    95.9202  -999.2500    11.5115   100.7760     9.9833   -15.4684
  546.0000     6.6031    95.6155  -999.2500    11.5117   100.7891     9.9819   -15.4754
  546.5000     6.6949    96.0647  -999.2500    11.4362   101.5630     9.9801   -15.4827
  547.0000     6.6801    95.1544  -999.2500    11.3607   101.5807     9.9032   -15.4913
  547.5000     6.6657    94.6225  -999.2500    11.1339   101.5949     9.8262   -15.4984
  548.0000     6.6511    94.0150  -999.2500    10.9071   103.1265     9.8245   -15.5054
  548.5000     6.6213    93.5575  -999.2500    10.8316   103.8998     9.7475   -15.5143
  549.0000     6.5891    93.0928  -999.2500    10.7561   104.6758     9.6706   -15.5213
  549.5000     6.5465    92.4936  -999.2500    10.7563   106.2074     9.5937   -15.2267
  550.0000     6.5472    93.3960  -999.2500    10.7565   107.7390     9.2140   -15.2338
  550.5000     6.5488    94.6021  -999.2500    10.5297   116.0759     8.9845   -15.0930
  551.0000     6.6086    95.5817  -999.2500    10.3029   119.8623     8.6795   -15.1056
  551.5000     6.6545    96.5614  -999.2500    10.2200   124.4074     8.2990   -14.9624
  552.0000     6.6700    97.8429  -999.2500    10.1087   128.1937     8.0675   -14.9750
  552.5000     6.6854    98.8980  -999.2500     9.8638   130.4628     7.7638   -15.1359
  553.0000     6.6857    99.3494  -999.2500     9.5461   134.3096     7.5343   -15.1463
  553.5000     6.6708   100.2536  -999.2500     9.0318   138.0336     7.2293   -15.1586
  554.0000     6.6559   101.3861  -999.2500     8.8200   140.3025     7.1509   -15.1686
  554.5000     6.6562   101.5336  -999.2500     8.5779   141.8145     7.1480   -15.1787
  555.0000     6.6413   101.4563  -999.2500     8.3964   141.0467     7.2206   -15.0377
  555.5000     6.6416   101.2284  -999.2500     8.5477   140.2807     7.3688   -15.0483
  556.0000     6.6571   101.0005  -999.2500     8.7595   138.6345     7.5917   -15.0377
  556.5000     6.6575   100.6972  -999.2500     9.0015   137.2294     7.7399   -14.9174
  557.0000     6.6578   100.3183  -999.2500     9.1982   135.7047     7.8132   -14.9300
  557.5000     6.6581   100.0904  -999.2500     9.2738   134.9388     7.9607   -14.9400
  558.0000     6.6584    99.9380  -999.2500     9.2436   133.4140     8.0333   -15.1011
  558.5000     6.6587    99.6346  -999.2500     9.2133   133.4067     8.0297   -15.1136
  559.0000     6.6590    99.2558  -999.2500     9.1831   133.3977     8.1030   -15.1236
  559.5000     6.6593    99.0279  -999.2500     9.1377   133.3904     8.1757   -15.1327
  560.0000     6.6444    98.5635  -999.2500     9.0772   134.9007     8.2483   -15.1438
  560.5000     6.6483    98.1077  -999.2500     8.9998   134.8934     8.2447   -15.3047
  561.0000     6.6602    97.8161  -999.2500     8.9107   136.4036     8.2527   -15.3173
  561.5000     6.6605    98.9463  -999.2500     8.8956   136.3960     8.3144   -15.3274
  562.0000     6.6608    99.6241  -999.2500     8.8805   136.3872     8.3108   -15.3375
  562.5000     6.6611   100.2264  -999.2500     8.8805   134.8625     8.3079   -15.4984
  563.0000     6.6614   100.3004  -999.2500     8.9107   134.0965     8.3051   -15.5084
  563.5000     6.6769   100.3743  -999.2500     8.9410   133.3306     8.3021   -15.6041
  564.0000     6.6772   100.2219  -999.2500     8.9713   133.3081     8.2991   -15.8328
  564.5000     6.6775   100.3366  -999.2500     9.0015   131.7968     8.2956   -16.1445
  565.0000     6.6778   101.0488  -999.2500     9.0620   131.0308     8.2172   -16.1546
  565.5000     6.6826   101.1232  -999.2500     9.1528   131.0235     8.2143   -16.0136
  566.0000     6.6936   101.1968  -999.2500     9.2436   131.0163     8.2115   -15.8731
  566.5000     6.6939   101.4971  -999.2500     9.2738   131.0090     8.2085   -15.7324
  567.0000     6.6942   102.3258  -999.2500     9.2436   131.0015     8.2049   -15.5581
  567.5000     6.6945   102.7017  -999.2500     9.1528   131.7532     8.2020   -15.3025
  568.0000     6.6930   102.7760  -999.2500     9.0318   131.7441     8.1991   -15.3126
  568.5000     6.6799   102.4723  -999.2500     8.8351   133.2561     8.1207   -15.3228
  569.0000     6.6651   102.0934  -999.2500     8.6384   133.2473     8.0422   -15.1819
  569.5000     6.6654   101.8656  -999.2500     8.7141   133.2398     8.0322   -15.1945
  570.0000     6.6201   101.7131  -999.2500     8.9713   133.2322     7.8847   -15.3555
  570.5000     6.6356   101.7117  -999.2500     9.0318   133.2246     7.8822   -15.3650
  571.0000     6.6663   101.8611  -999.2500     8.9713   133.2162     7.8033   -15.5264
  571.5000     6.6666   102.0106  -999.2500     8.8934   133.2089     7.7249   -15.6899
  572.0000     6.6669   102.1711  -999.2500     8.7897   133.2017     7.7220   -15.7000
  572.5000     6.6672   102.5356  -999.2500     8.7141   133.9531     7.6435   -15.7100
  573.0000     6.6675   102.8360  -999.2500     8.6989   133.9441     7.5645   -15.7201
  573.5000     6.6526   102.8345  -999.2500     8.7292   134.6955     7.5616   -15.7302
  574.0000     6.6225   102.8330  -999.2500     8.7897   134.6883     7.5587   -15.7403
  574.5000     6.6076   102.8315  -999.2500     8.8549   134.6813     7.5558   -15.5995
  575.0000     6.6079   102.8301  -999.2500     8.9410   135.4325     7.4018   -15.4613
  575.5000     6.6234   102.9044  -999.2500     8.8654   136.9427     7.3982   -15.4714
  576.0000     6.6541   103.1290  -999.2500     8.7595   138.4510     7.2442   -15.4811
  576.5000     6.6696   103.2785  -999.2500     8.6687   139.9612     7.0903   -15.4917
  577.0000     6.6851   103.5054  -999.2500     8.6376   140.7145     7.0874   -15.3508
  577.5000     6.7006   104.0378  -999.2500     8.5930   141.4642     7.1601   -15.5142
  578.0000     6.7162   104.3306  -999.2500     8.5477   142.2156     7.1571   -15.5243
  578.5000     6.7317   104.1024  -999.2500     8.5174   142.9671     7.1535   -15.5344
  579.0000     6.7320   103.9500  -999.2500     8.5174   143.7186     7.1506   -15.5475
  579.5000     6.7323   104.0243  -999.2500     8.5023   143.7095     7.0722   -15.8587
  580.0000     6.7386   103.4942  -999.2500     8.4871   143.7026     7.1455   -16.0196
  580.5000     6.7480   102.8889  -999.2500     8.4871   144.4537     7.1419   -16.1805
  581.0000     6.7483   103.7931  -999.2500     8.4871   145.2051     7.1390   -16.1906
  581.5000     6.7334   104.1690  -999.2500     8.4720   143.6786     7.2117   -16.2007
  582.0000     6.7337   104.0166  -999.2500     8.4266   142.9126     7.2836   -15.9091
  582.5000     6.7340   103.4113  -999.2500     8.3964   142.1467     7.3562   -15.9217
  583.0000     6.7343   103.9462  -999.2500     8.4115   141.3807     7.4296   -15.7784
  583.5000     6.7347   104.7019  -999.2500     8.5325   140.6146     7.5015   -15.7910
  584.0000     6.7350   104.5386  -999.2500     8.6989   140.6056     7.4985   -15.6501
  584.5000     6.7353   103.7824  -999.2500     8.8502   139.8396     7.4950   -15.6606
  585.0000     6.7356   103.3281  -999.2500     8.9561   138.3149     7.4921   -15.5196
  585.5000     6.7359   102.6474  -999.2500     9.0166   136.7902     7.4892   -15.3801
  586.0000     6.7362   101.6647  -999.2500     9.0620   134.5068     7.5625   -15.3915
  586.5000     6.7365   100.7576  -999.2500     9.0923   132.5492     7.7100   -15.2504
  587.0000     6.7368   100.5301  -999.2500     9.1377   130.6968     7.8581   -15.2609
  587.5000     6.7371   100.7547  -999.2500     9.1982   128.9833     7.9308   -15.2734
  588.0000     6.7374   100.8634  -999.2500     9.2738   128.4061     8.0789   -15.2835
