~VERSION INFORMATION
 VERS.                2.0:   CWLS LOG ASCII STANDARD - VERSION 2.0
 WRAP.                 NO:   ONE LINE PER DEPTH STEP
~WELL INFORMATION
#MNEM.UNIT      DATA TYPE    INFORMATION
#----------   ------------   ------------------------------
 STRT.F           88.0000:   START DEPTH
 STOP.F          893.0000:   STOP DEPTH
 STEP.F            0.5000:   STEP LENGTH
 NULL.          -999.2500:   NO VALUE
 COMP.          U.S. NAVY:   COMPANY
 WELL. RES 3 TEAPOT DOM #24S-35:   WELL
 FLD .        TEAPOT DOME:   FIELD
 LOC .      S35 T39N R78W:   LOCATION
 CNTY.            NATRONA:   COUNTY
 STAT.            WYOMING:   STATE
 CTRY. UNITED STATES OF AMERICA:   COUNTRY
 SRVC.       Schlumberger:   SERVICE COMPANY
 DATE.        26-JUL-1963:   LOGDATE
 API .       490250654800:   API NUMBER
~CURVE INFORMATION
#MNEM.UNIT       API CODE    CURVE DESCRIPTION
#----------   ------------   ------------------------------
 DEPT.F                  :   
 CALS.IN     60 280 50 00:   CALIPER FROM SONIC LOG
 DT  .US/F   60 520 00 00:   INTERVAL TRANSIT TIME
 GR  .GAPI   30 310 01 00:   GAMMA RAY
 ASN .OHMM   05 041 16 00:   AMPLIFIED SHORT NORMAL 16"
 CILD.MMHO   05 110 46 00:   CONDUCTIVITY INDUCTION LOG DEEP
 ILD .OHMM   05 120 46 00:   INDUCTION LOG DEEP
 SPR .MV     05 010 01 00:   SPONTANEOUS POTENTIAL FROM RES.
~PARAMETER INFORMATION
#MNEM.UNIT          VALUE    DESCRIPTION
#----------   ------------   ------------------------------
 PD  .                 GL:   PERMANENT DATUM
 EPD .F              5116:   ELEVATION PERMANENT DATUM
 LMF .                 KB:   LOG MEASURED FROM
 DAPD.F                 5:   FEET ABOVE PERMANENT DATUM
 DMF .                 KB:   DRILLING MEASURED FROM
 EKB .F              5121:   KELLING BUSHING
 EGL .F              5116:   GROUND LEVEL
 DATE.        26-JUL-1963:   RUN DATE
 RUN .                  1:   RUN NUMBER
 DD  .F               900:   DEPTH DRILLER
 DL  .F               894:   DEPTH LOGGER
 BLI .F               893:   BOTTOM LOG INTERVAL
 TLI .F                88:   TOP LOG INTERVAL
 CBD .F                10:   CASING BOTTOM DRILLER
 BS  .IN             6.75:   BIT SIZE
 BSD .F               900:   BIT SIZE AT DEPTH
 DFT .            GEL-OIL:   DRILLING FLUID TYPE
 DFD .                9.5:   DRILLING FLUID DENSITY
 DFV .                 92:   DRILLING FLUID VISCOSITY
 DFPH.                9.5:   DRILLING FLUID PH
 DFL .                5.8:   DRILLING FLUID LOSS
 MSS .           FLOWLINE:   MUD SAMPLE SOURCE
 RMS .OHMM           4.05:   RESISTIVITY MUD SAMPLE
 MST .F                75:   MUD SAMPLE TEMPERATURE
 RMF .OHMM           3.91:   RESISTIVITY MUD FILTRATE SAMPLE
 MFST.F                75:   MUD FILTRATE SAMPLE TEMPERATURE
 RMC .OHMM           3.54:   RESISTIVITY MUD CAKE
 MCST.F                75:   MUD CAKE SAMPLE TEMPERATURE
 MFSS.               MEAS:   MUD FILTRATE SAMPLE SOURCE
 MCSS.               MEAS:   MUD CAKE SAMPLE SOURCE
 TCS .HRS             0.5:   TIME CURCULATED STOPPED
 LUN .               4507:   LOGGING UNIT NUMBER
 LUL .               CSPR:   LOGGING UNIT LOCATION
 ENGI.             KNOBEL:   RECORDING ENGINEER
 WITN.          JORGENSON:   WITNESSED BY
 CLNT.            A2DTECH:   CLIENT CODE
 ORIG.           5" PRINT:   ORIGIN OF DATA
 UWI .       490250654800:   UNIQUE WELL ID
 DICO. A2D Technologies, Inc.:   DIGITIZING COMPANY
~OTHER INFORMATION
~A   DEPT     CALS         DT         GR          ASN      CILD         ILD      SPR   
# ...
  179.0000  -999.2500  -999.2500  -999.2500     7.5858   154.0212     7.0755   -24.3560
  179.5000  -999.2500  -999.2500  -999.2500     7.6630   151.7451     7.1474   -24.3650
  180.0000  -999.2500  -999.2500  -999.2500     7.6914   148.7102     7.1446   -24.3755
  180.5000  -999.2500  -999.2500  -999.2500     7.6610   145.6753     7.1417   -24.3841
  181.0000  -999.2500  -999.2500  -999.2500     7.6306   143.3991     7.2899   -24.3927
  181.5000  -999.2500  -999.2500  -999.2500     7.6455   142.6404     7.2871   -24.4012
  182.0000  -999.2500  -999.2500  -999.2500     7.7059   140.3642     7.3597   -24.7136
  182.5000  -999.2500  -999.2500  -999.2500     7.8570   138.8467     7.4324   -24.8730
  183.0000  -999.2500  -999.2500  -999.2500     8.0082   138.8467     7.4288   -25.1833
  183.5000  -999.2500  -999.2500  -999.2500     8.0988   137.3293     7.4260   -25.3427
  184.0000  -999.2500  -999.2500  -999.2500     8.1138   136.5706     7.4224   -25.8140
  184.5000  -999.2500  -999.2500  -999.2500     8.1288   137.3293     7.4195   -25.9653
  185.0000  -999.2500  -999.2500  -999.2500     8.0681   139.6307     7.3411   -25.8209
  185.5000  -999.2500  -999.2500  -999.2500     8.0074   144.9165     7.3060   -25.6787
  186.0000  -999.2500  -999.2500  -999.2500     7.9165   151.7451     7.1783   -25.3876
  186.5000  -999.2500  -999.2500  -999.2500     7.7605   157.8149     7.0297   -25.2232
  187.0000  -999.2500  -999.2500  -999.2500     7.5833   161.6085     6.9513   -24.9546
  187.5000  -999.2500  -999.2500  -999.2500     7.4016   164.6434     6.7974   -24.8102
  188.0000  -999.2500  -999.2500  -999.2500     7.2048   167.6783     6.7190   -24.5193
  188.5000  -999.2500  -999.2500  -999.2500     7.2047   170.7132     6.6399   -24.3770
  189.0000  -999.2500  -999.2500  -999.2500     7.1289   172.2307     6.5615   -24.2348
  189.5000  -999.2500  -999.2500  -999.2500     7.0228   172.2307     6.4831   -24.2455
  190.0000  -999.2500  -999.2500  -999.2500     7.2194   170.7132     6.4804   -24.2541
  190.5000  -999.2500  -999.2500  -999.2500     7.2664   167.6783     6.4841   -24.2627
  191.0000  -999.2500  -999.2500  -999.2500     7.2962   164.6434     6.6256   -24.2715
  191.5000  -999.2500  -999.2500  -999.2500     7.3399   160.8498     6.7731   -24.2820
  192.0000  -999.2500  -999.2500  -999.2500     7.4003   157.8149     6.9220   -24.2906
  192.5000  -999.2500  -999.2500  -999.2500     7.4455   152.5038     7.0695   -24.4500
  193.0000  -999.2500  -999.2500  -999.2500     7.5967   148.7102     7.2177   -24.4586
  193.5000  -999.2500  -999.2500  -999.2500     7.9293   143.3991     7.4407   -24.6202
  194.0000  -999.2500  -999.2500  -999.2500     8.2469   137.3293     7.8155   -24.6274
  194.5000  -999.2500  -999.2500  -999.2500     8.5190   129.6891     8.1147   -24.6373
  195.0000  -999.2500  -999.2500  -999.2500     8.6551   122.1548     8.4140   -24.7967
  195.5000  -999.2500  -999.2500  -999.2500     9.1284   120.6373     8.6370   -24.8054
  196.0000  -999.2500  -999.2500  -999.2500    10.3492   118.3612     8.7104   -24.8161
  196.5000  -999.2500  -999.2500  -999.2500    10.7386   117.6024     8.8586   -24.8246
  197.0000  -999.2500  -999.2500  -999.2500    10.8784   117.6580     8.8550   -24.6802
  197.5000  -999.2500  -999.2500  -999.2500    10.5000   119.1199     8.7759   -24.6910
  198.0000  -999.2500  -999.2500  -999.2500    10.1282   122.1548     8.6220   -24.3979
  198.5000  -999.2500  -999.2500  -999.2500     9.7433   126.7071     8.3925   -24.4086
  199.0000  -999.2500  -999.2500  -999.2500     9.1228   131.2595     8.2386   -24.2664
  199.5000  -999.2500  -999.2500  -999.2500     8.9074   139.6991     7.9252   -24.2750
  200.0000  -999.2500  -999.2500  -999.2500     8.6989   143.3991     7.5524   -24.2836
  200.5000  -999.2500  -999.2500  -999.2500     8.5172   144.1744     7.7759   -24.2960
  201.0000  -999.2500  -999.2500  -999.2500     8.3809   144.1887     7.7715   -24.3060
  201.5000  -999.2500  -999.2500  -999.2500     8.2749   143.4442     7.7679   -24.4668
  202.0000  -999.2500  -999.2500  -999.2500     8.1234   143.4620     7.6133   -24.4768
  202.5000  -999.2500  -999.2500  -999.2500     8.0628   142.7139     7.5333   -24.4892
  203.0000  -999.2500  -999.2500  -999.2500     8.0324   141.9727     7.4543   -24.4992
  203.5000  -999.2500  -999.2500  -999.2500     8.0322   141.9879     7.4509   -24.5092
  204.0000  -999.2500  -999.2500  -999.2500     8.1249   142.0050     7.4471   -24.5191
  204.5000  -999.2500  -999.2500  -999.2500     8.2134   141.2605     7.4427   -24.5294
  205.0000  -999.2500  -999.2500  -999.2500     8.1830   140.5161     7.4392   -24.5415
  205.5000  -999.2500  -999.2500  -999.2500     8.1678   140.5311     7.4356   -24.5050
  206.0000  -999.2500  -999.2500  -999.2500     8.1828   140.5481     7.3565   -24.4082
  206.5000  -999.2500  -999.2500  -999.2500     8.2151   140.5614     7.3521   -24.2698
  207.0000  -999.2500  -999.2500  -999.2500     8.2732   140.5766     7.2730   -23.9806
  207.5000  -999.2500  -999.2500  -999.2500     8.2882   141.3531     7.2696   -23.8386
  208.0000  -999.2500  -999.2500  -999.2500     8.2729   142.1260     7.2659   -23.6964
  208.5000  -999.2500  -999.2500  -999.2500     8.2271   143.6577     7.1859   -23.7089
  209.0000  -999.2500  -999.2500  -999.2500     8.1516   145.1897     7.1824   -23.8721
  209.5000  -999.2500  -999.2500  -999.2500     8.0606   146.7247     7.1788   -24.0329
  210.0000  -999.2500  -999.2500  -999.2500     8.0302   148.2564     7.0997   -24.0429
  210.5000  -999.2500  -999.2500  -999.2500     7.9696   149.0293     7.0953   -24.3545
  211.0000  -999.2500  -999.2500  -999.2500     7.8605   149.8988     7.0921   -24.8195
  211.5000  -999.2500  -999.2500  -999.2500     7.7272   151.3375     7.0884   -25.1311
  212.0000  -999.2500  -999.2500  -999.2500     7.6666   152.1105     7.0846   -25.1411
  212.5000  -999.2500  -999.2500  -999.2500     7.6815   152.8832     6.9292   -25.1510
  213.0000  -999.2500  -999.2500  -999.2500     7.7268   153.6570     6.9256   -25.0102
  213.5000  -999.2500  -999.2500  -999.2500     7.7417   153.6722     6.8465   -25.0226
  214.0000  -999.2500  -999.2500  -999.2500     7.7568   154.4472     6.7674   -25.0326
  214.5000  -999.2500  -999.2500  -999.2500     7.7566   154.4614     6.7630   -25.0422
  215.0000  -999.2500  -999.2500  -999.2500     7.7564   152.9582     6.7598   -25.0528
  215.5000  -999.2500  -999.2500  -999.2500     7.7563   152.9760     6.7559   -24.9117
  216.0000  -999.2500  -999.2500  -999.2500     7.7410   152.2280     6.7521   -24.7708
  216.5000  -999.2500  -999.2500  -999.2500     7.6783   152.2458     6.7479   -24.6300
  217.0000  -999.2500  -999.2500  -999.2500     7.6045   152.2610     6.8208   -24.3338
  217.5000  -999.2500  -999.2500  -999.2500     7.5741   152.2778     6.8165   -24.1999
  218.0000  -999.2500  -999.2500  -999.2500     7.6042   152.2920     6.8883   -24.5140
  218.5000  -999.2500  -999.2500  -999.2500     7.6646   152.3063     6.8839   -24.8256
  219.0000  -999.2500  -999.2500  -999.2500     7.7249   151.5630     7.0314   -24.6848
  219.5000  -999.2500  -999.2500  -999.2500     7.7702   151.5782     7.0278   -24.5439
  220.0000  -999.2500  -999.2500  -999.2500     7.9062   151.2645     7.1098   -24.1039
  220.5000  -999.2500  -999.2500  -999.2500     8.0876   150.0906     7.1718   -23.9605
  221.0000  -999.2500  -999.2500  -999.2500     8.1631   150.1062     7.1674   -24.1238
  221.5000  -999.2500  -999.2500  -999.2500     8.1478   150.1226     7.1638   -24.2871
  222.0000  -999.2500  -999.2500  -999.2500     8.0549   149.6510     7.2195   -24.2971
  222.5000  -999.2500  -999.2500  -999.2500     7.8752   149.3924     7.3078   -24.3071
  223.0000  -999.2500  -999.2500  -999.2500     7.8297   148.6479     7.3036   -24.3170
  223.5000  -999.2500  -999.2500  -999.2500     7.9203   147.9070     7.2998   -24.3273
  224.0000  -999.2500  -999.2500  -999.2500     8.1097   146.4037     7.3717   -24.3395
