~VERSION INFORMATION
 VERS.                2.0:   CWLS LOG ASCII STANDARD - VERSION 2.0
 WRAP.                 NO:   ONE LINE PER DEPTH STEP
~WELL INFORMATION
#MNEM.UNIT      DATA TYPE    INFORMATION
#----------   ------------   ------------------------------
 STRT.F           34.0000:   START DEPTH
 STOP.F          604.0000:   STOP DEPTH
 STEP.F            0.5000:   STEP LENGTH
 NULL.          -999.2500:   NO VALUE
 COMP. FENIX & SCISSON INC:   COMPANY
 WELL.       NPR #17 SX-2:   WELL
 FLD .             TEAPOT:   FIELD
 LOC .       S2 T38N R78W:   LOCATION
 CNTY.            NATRONA:   COUNTY
 STAT.            WYOMING:   STATE
 CTRY. UNITED STATES OF AMERICA:   COUNTRY
 SRVC.       Schlumberger:   SERVICE COMPANY
 DATE.        18-MAR-1977:   LOGDATE
 API .       490251032700:   API NUMBER
~CURVE INFORMATION
#MNEM.UNIT       API CODE    CURVE DESCRIPTION
#----------   ------------   ------------------------------
 DEPT.F                  :   
 SPR .MV     07 010 01 00:   SPONTANEOUS POTENTIAL
 ILD .OHMM   07 120 46 00:   INDUCTION LOG DEEP
 ILM .OHMM   07 120 44 00:   INDUCTION LOG MEDIUM
 LL8 .OHMM   07 220 08 00:   LATEROLOG-8 RES.
 CALD.IN     45 280 60 00:   CALIPER FROM DENSITY LOG
 GRD .GAPI   45 310 01 00:   GAMMA RAY FROM DENSITY LOG
 CORR.G/C3   45 356 01 00:   DENSITY CORRECTION
 DPHI.DEC    45 890 12 00:   DENSITY POROSITY SANDSTONE
 RHOB.G/C3   45 350 01 00:   BULK DENSITY
~PARAMETER INFORMATION
#MNEM.UNIT          VALUE    DESCRIPTION
#----------   ------------   ------------------------------
 PD  .                 GL:   PERMANENT DATUM
 EPD .F              5122:   ELEVATION PERMANENT DATUM
 LMF .                 KB:   LOG MEASURED FROM
 DAPD.F                 4:   FEET ABOVE PERMANENT DATUM
 DMF .                 KB:   DRILLING MEASURED FROM
 EKB .F              5126:   KELLING BUSHING
 EGL .F              5122:   GROUND LEVEL
 DATE.        18-MAR-1977:   RUN DATE
 RUN .                  1:   RUN NUMBER
 DD  .F               600:   DEPTH DRILLER
 DL  .F               605:   DEPTH LOGGER
 BLI .F               604:   BOTTOM LOG INTERVAL
 TLI .F                44:   TOP LOG INTERVAL
 CS  .IN            8.625:   CASING SIZE
 CBD .F                40:   CASING BOTTOM DRILLER
 CBL .F                44:   CASING BOTTOM LOGGER
 BS  .IN            7.875:   BIT SIZE
 BSD .F               600:   BIT SIZE AT DEPTH
 DFT .            KCL MUD:   DRILLING FLUID TYPE
 DFD .                8.9:   DRILLING FLUID DENSITY
 DFV .                 39:   DRILLING FLUID VISCOSITY
 DFPH.                8.5:   DRILLING FLUID PH
 DFL .                6.1:   DRILLING FLUID LOSS
 MSS .                PIT:   MUD SAMPLE SOURCE
 RMS .OHMM           0.26:   RESISTIVITY MUD SAMPLE
 MST .F                52:   MUD SAMPLE TEMPERATURE
 RMF .OHMM           0.24:   RESISTIVITY MUD FILTRATE SAMPLE
 MFST.F                52:   MUD FILTRATE SAMPLE TEMPERATURE
 MFSS.               MEAS:   MUD FILTRATE SAMPLE SOURCE
 TCS .HRS            0230:   TIME CURCULATED STOPPED
 LUN .               7711:   LOGGING UNIT NUMBER
 LUL .               CSPR:   LOGGING UNIT LOCATION
 ENGI.             SAYLER:   RECORDING ENGINEER
 WITN.         STUEBINGER:   WITNESSED BY
 CLNT.            A2DTECH:   CLIENT CODE
 ORIG.           5" PRINT:   ORIGIN OF DATA
 UWI .       490251032700:   UNIQUE WELL ID
 DICO. A2D Technologies, Inc.:   DIGITIZING COMPANY
~OTHER INFORMATION
~A   DEPT      SPR        ILD        ILM        LL8       CALD        GRD       CORR       DPHI       RHOB   
# ...
  399.0000   -42.4881     8.9010     8.5041     8.8180     7.7947   118.1318     0.0460     0.1109     2.4787
  399.5000   -42.4807     8.8438     8.4487     8.8818     7.7950   117.6940     0.0526     0.1017     2.4899
  400.0000   -42.5644     8.7136     8.4523     9.0083     7.8101   117.8523     0.0533     0.0991     2.4929
  400.5000   -43.0591     8.6675     8.3972     9.1367     7.8114   117.5726     0.0563     0.0980     2.4863
  401.0000   -42.5971     8.6214     8.4001     9.2669     7.8128   117.7353     0.0639     0.0963     2.5020
  401.5000   -42.4362     8.6112     8.4030     9.3989     7.8141   119.9721     0.0707     0.0833     2.5155
  402.0000   -42.4243     8.6130     8.4059     9.4670     7.8303   121.1719     0.0745     0.0790     2.5164
  402.5000   -42.5644     8.5552     8.4674     9.5355     7.8316   120.4458     0.0775     0.0803     2.5179
  403.0000   -42.6985     8.5570     8.5294     9.5381     7.8329   120.1604     0.0821     0.0877     2.5061
  403.5000   -42.8386     8.5587     8.6517     9.4718     7.8194   119.8824     0.0751     0.0934     2.4942
  404.0000   -42.9757     8.6201     8.7150     9.1477     7.8208   116.7859     0.0611     0.0960     2.4875
  404.5000   -43.1129     8.7425     8.7181     8.9064     7.8047   116.2074     0.0521     0.1050     2.4772
  405.0000   -43.5451     8.8665     8.7819     8.9751     7.7347   116.2225     0.0499     0.1094     2.4772
  405.5000   -43.9802     9.0550     8.8462     9.2948     7.7060   116.0889     0.0552     0.0932     2.5004
  406.0000   -44.1203     9.1199     8.9730     9.6929     7.7373   115.9554     0.0590     0.0872     2.5005
  406.5000   -44.4065     8.9338     9.1651    10.1080     7.8128   115.6404     0.0403     0.0890     2.5021
  407.0000   -44.5436     8.6309     8.4939    10.3239     7.9328   113.3382     0.0336     0.0878     2.5060
  407.5000   -44.8268     8.1665     8.3216    10.3918     8.0083   112.1473     0.0328     0.0830     2.5090
  408.0000   -45.2649     7.8896     7.8201    10.4670     8.0987   113.3507     0.0224     0.0871     2.5033
  408.5000   -45.8462     7.6220     6.7610    10.3895     8.1296   114.4024     0.0194     0.0886     2.4897
  409.0000   -46.7284     7.1620     6.2659     9.5232     8.1458   115.4540     0.0172     0.1026     2.4778
  409.5000   -47.6107     6.8238     6.1816     7.1407     8.1471   117.6908     0.0149     0.1130     2.4675
  410.0000   -48.1979     6.5924     6.2702     4.8192     8.1333   122.0017     0.0135     0.1258     2.4339
  410.5000   -47.8850     6.5938     6.6308     4.6237     8.1201   125.5719     0.0173     0.1425     2.3959
  411.0000   -47.1279     6.5951     7.3105     5.9371     8.1362   126.1790     0.0158     0.1698     2.3616
  411.5000   -46.2218     6.7353     8.2296     9.1930     8.1375   120.7122     0.0054     0.1694     2.3662
  412.0000   -45.9118     7.3728     9.2002    10.6372     8.1537   115.0971    -0.0006     0.1356     2.4163
  412.5000   -45.7509     8.4725    10.0034    10.6402     8.1402   108.5932    -0.0051     0.1113     2.4806
  413.0000   -45.7390     9.2744    10.5054    10.7172     8.1415   107.4226     0.0055     0.0922     2.5090
  413.5000   -45.5780    10.1523    10.6561    10.9455     8.1431   106.9928     0.0130     0.0838     2.5136
  414.0000   -45.2680    10.5862    10.6598    11.1015     8.1445   104.9254     0.0183     0.0790     2.5159
  414.5000   -45.1071    10.8112    10.6635    11.0271     8.1458   103.9108     0.0229     0.0712     2.5302
  415.0000   -44.7971    10.8887    10.7415    10.8789     8.1471   104.5383     0.0274     0.0670     2.5355
  415.5000   -44.4871    10.9669    10.7453    10.8819     8.1484   104.9807     0.0275     0.0741     2.5303
  416.0000   -44.3262    11.0456    10.7490    10.8850     8.1346   105.4398     0.0245     0.0816     2.5147
  416.5000   -44.0162    11.2803    10.9791    10.8880     8.1510   106.4914     0.0230     0.0842     2.5096
  417.0000   -43.7062    11.5201    11.2142    10.9668     8.1524   106.2097     0.0298     0.0797     2.5164
  417.5000   -43.2472    11.8468    11.6955    11.1230     8.1537   102.3724     0.0231     0.0824     2.5120
  418.0000   -42.7882    13.2410    13.0748    11.4391     8.1398    95.7204     0.0141     0.0871     2.4993
  418.5000   -42.1802    14.3941    14.4151    12.1793     8.1118    90.6979     0.0172     0.0925     2.4964
  419.0000   -41.4231    15.4318    15.1386    15.0004     8.1131    82.7125     0.0240     0.0901     2.4995
  419.5000   -40.5170    16.5444    18.0157    23.7147     8.0848    73.5419     0.0307     0.0909     2.4906
  420.0000   -39.6109    19.4121    24.2949    31.3055     8.0712    67.0380     0.0383     0.1073     2.4735
  420.5000   -39.0029    21.1025    24.6433    33.5630     8.0577    66.6045     0.0353     0.1153     2.4556
  421.0000   -38.3949    23.2608    24.4812    29.8385     8.0145    69.2894     0.0286     0.1240     2.4423
  421.5000   -37.7868    25.4625    23.8186    23.7410     7.9862    70.3411     0.0264     0.1365     2.3983
  422.0000   -37.6259    30.5045    23.4962    24.2469     7.9092    71.5408     0.0137     0.1885     2.3364
  422.5000   -37.6140    35.5443    24.5067    27.6697     7.7959    73.2050     0.0250     0.2057     2.3066
  423.0000   -37.1550    36.2997    25.5585    29.2564     7.7976    74.5748     0.0265     0.2087     2.3059
  423.5000   -36.6959    36.0558    27.5974    29.4682     7.8137    76.2459     0.0288     0.2135     2.3030
  424.0000   -36.3860    35.0762    28.1883    30.0961     7.8595    76.4881     0.0236     0.2200     2.2889
  424.5000   -36.2250    34.3605    28.1981    29.0784     7.9054    76.3546     0.0281     0.2206     2.2845
  425.0000   -35.9151    33.4267    27.6261    26.9481     7.8767    76.0765     0.0207     0.2289     2.2681
  425.5000   -35.6051    32.9725    26.6924    27.7157     7.8483    74.0170     0.0169     0.2337     2.2674
  426.0000   -35.2951    32.0763    25.2584    31.1926     7.9390    72.8464     0.0200     0.2179     2.2946
  426.5000   -34.9851    31.8611    25.0901    30.7714     7.9106    73.8981     0.0313     0.2131     2.2991
  427.0000   -34.6752    31.8680    25.1010    29.9357     7.8671    76.2830     0.0448     0.2106     2.2990
  427.5000   -34.5142    31.8747    25.1097    30.3644     7.8388    79.2606     0.0494     0.2153     2.3245
  428.0000   -34.6513    31.6608    25.2935    31.2272     7.8701    79.8678     0.0644     0.1773     2.3634
  428.5000   -35.2355    31.6674    25.6562    31.0178     7.8862    77.5120     0.0427     0.1746     2.3605
  429.0000   -35.6707    31.4546    26.2055    30.3896     7.8876    74.7118     0.0382     0.1824     2.3471
  429.5000   -35.6588    31.4615    27.1411    29.3620     7.8590    73.3931     0.0450     0.1958     2.3218
  430.0000   -35.6469    31.4680    28.1100    28.3691     7.8308    72.5185     0.0292     0.2158     2.2793
  430.5000   -35.4860    31.6938    29.1135    28.1789     7.8173    72.5343     0.0429     0.2271     2.2824
  431.0000   -35.3250    32.5928    29.5310    30.2130     7.8187    71.7995     0.0436     0.2160     2.2944
  431.5000   -35.0150    33.2855    30.3735    31.5055     7.8351    71.3774     0.0407     0.2184     2.2937
  432.0000   -34.4070    36.1841    31.2401    32.6263     7.8362    71.7146     0.0377     0.2153     2.2930
  432.5000   -33.7990    36.1916    33.0366    34.2588     7.8378    74.2250     0.0482     0.2177     2.2946
  433.0000   -33.6380    36.7052    35.6721    33.7962     7.9004    77.6470     0.0445     0.2051     2.3104
  433.5000   -33.7781    37.4853    37.4624    32.6534     7.9905    79.4394     0.0438     0.1946     2.3396
  434.0000   -33.4652    38.6982    39.6168    32.8897     8.0195    79.3058     0.0371     0.1926     2.3344
  434.5000   -33.0062    42.4913    44.2889    34.2968     8.0060    77.5427     0.0364     0.2152     2.2964
  435.0000   -32.5471    44.6160    49.1694    37.5431     7.9925    77.7054     0.0372     0.2165     2.2950
