~VERSION INFORMATION
 VERS.                2.0:   CWLS LOG ASCII STANDARD - VERSION 2.0
 WRAP.                 NO:   ONE LINE PER DEPTH STEP
~WELL INFORMATION
#MNEM.UNIT      DATA TYPE    INFORMATION
#----------   ------------   ------------------------------
 STRT.F            0.0000:   START DEPTH
 STOP.F         3315.0000:   STOP DEPTH
 STEP.F            0.5000:   STEP LENGTH
 NULL.          -999.2500:   NO VALUE
 COMP. LAWRENCE/ALLISON INC     84-AX-:   COMPANY
 WELL.          SHX3 #1-3:   WELL
 FLD .            WILDCAT:   FIELD
 LOC .       S3 T38N R78W:   LOCATION
 CNTY.            NATRONA:   COUNTY
 STAT.            WYOMING:   STATE
 CTRY. UNITED STATES OF AMERICA:   COUNTRY
 SRVC.      Dresser Atlas:   SERVICE COMPANY
 DATE.        20-JAN-1986:   LOGDATE
 API .       490251104200:   API NUMBER
~CURVE INFORMATION
#MNEM.UNIT       API CODE    CURVE DESCRIPTION
#----------   ------------   ------------------------------
 DEPT.F                  :   
 SPR .MV     07 010 01 00:   SPONTANEOUS POTENTIAL
 RILD.OHMM   07 120 46 00:   INDUCTION LOG DEEP RESISTIVITY
 RILM.OHMM   07 120 44 00:   INDUCTION LOG MEDIUM RESISTIVITY
 RFOC.OHMM   07 220 04 00:   RESISTIVITY FOCUSED LOG
 AC  .US/F   60 520 00 00:   ACCOUSTIC
 CALD.IN     45 280 60 00:   CALIPER FROM DENSITY
 CORR.G/C3   45 356 01 00:   DENSITY CORRECTION
 DEN .G/C3   45 350 01 00:   COMPENSATED BULK DENSTIY
 PORD.DEC    45 890 12 00:   POROSITY DENSITY SANDSTONE
 CNC .DEC    42 890 03 00:   NEUTRON POROSITY SANDSTONE
 GRR .GAPI   07 310 01 00:   GAMMA RAY
~PARAMETER INFORMATION
#MNEM.UNIT          VALUE    DESCRIPTION
#----------   ------------   ------------------------------
 PD  .                 GL:   PERMANENT DATUM
 EPD .F              5136:   ELEVATION PERMANENT DATUM
 LMF .                 KB:   LOG MEASURED FROM
 DAPD.F                11:   FEET ABOVE PERMANENT DATUM
 DMF .                 KB:   DRILLING MEASURED FROM
 EKB .F              5147:   KELLING BUSHING
 EGL .F              5136:   GROUND LEVEL
 DATE.        26-JAN-1986:   RUN DATE
 RUN .                  1:   RUN NUMBER
 DD  .F              3320:   DEPTH DRILLER
 DL  .F              3317:   DEPTH LOGGER
 BLI .F              3315:   BOTTOM LOG INTERVAL
 CS  .IN            8.625:   CASING SIZE
 CBD .F               550:   CASING BOTTOM DRILLER
 CBL .F               592:   CASING BOTTOM LOGGER
 BS  .IN            7.875:   BIT SIZE
 BSD .F              3320:   BIT SIZE AT DEPTH
 DFT .        POLYMER KCL:   DRILLING FLUID TYPE
 DFD .                9.1:   DRILLING FLUID DENSITY
 DFV .                 38:   DRILLING FLUID VISCOSITY
 DFPH.                 10:   DRILLING FLUID PH
 DFL .                8.5:   DRILLING FLUID LOSS
 MSS .           FLOWLINE:   MUD SAMPLE SOURCE
 RMS .OHMM           .435:   RESISTIVITY MUD SAMPLE
 MST .F                72:   MUD SAMPLE TEMPERATURE
 RMF .OHMM           .352:   RESISTIVITY MUD FILTRATE SAMPLE
 MFST.F                72:   MUD FILTRATE SAMPLE TEMPERATURE
 RMC .OHMM            .54:   RESISTIVITY MUD CAKE
 MCST.F                72:   MUD CAKE SAMPLE TEMPERATURE
 MFSS.               MEAS:   MUD FILTRATE SAMPLE SOURCE
 MCSS.               MEAS:   MUD CAKE SAMPLE SOURCE
 RMB .OHMM            .29:   RESISTIVITY MUD AT BHT
 BHT .F               108:   BOTTOM HOLE TEMPERATURE
 TCS .HRS               3:   TIME CURCULATED STOPPED
 MRT .F               108:   MAXIMUM RECORDED TEMPERATURE
 LUN .               6274:   LOGGING UNIT NUMBER
 LUL .               GLTE:   LOGGING UNIT LOCATION
 ENGI.             RAUTIO:   RECORDING ENGINEER
 WITN.             STRONG:   WITNESSED BY
 CLNT.            A2DTECH:   CLIENT CODE
 ORIG.       2", 5" PRINT:   ORIGIN OF DATA
 UWI .       490251104200:   UNIQUE WELL ID
 DICO. A2D Technologies, Inc.:   DIGITIZING COMPANY
~OTHER INFORMATION
~A    DEPT     SPR       RILD       RILM       RFOC         AC       CALD       CORR        DEN       PORD        CNC        GRR   
# ...
 2958.5000   -43.6959     5.9430     6.1704     6.8573    78.4102     8.6372     0.0153     2.5230     0.0774     0.2191    55.7766
 2959.0000   -43.6944     5.8951     6.1267     6.8563    78.2627     8.6354     0.0183     2.5335     0.0695     0.2161    56.2365
 2959.5000   -43.8442     5.7718     5.9994     6.9114    78.0418     8.6339     0.0242     2.5312     0.0701     0.2158    56.9990
 2960.0000   -43.9940     5.5421     5.9157     7.0473    77.9694     8.6313     0.0347     2.5282     0.0738     0.2233    58.2153
 2960.5000   -44.1571     5.4271     5.8331     7.0461    78.0925     8.6157     0.0437     2.5296     0.0732     0.2348    59.4317
 2961.0000   -44.4448     5.3888     5.7120     6.9000    78.5138     8.6139     0.0527     2.5281     0.0729     0.2393    60.6480
 2961.5000   -44.5946     5.4634     5.7510     6.6179    79.5076     8.6280     0.0557     2.5266     0.0738     0.2402    61.2592
 2962.0000   -44.5710     5.5392     5.8304     6.2166    80.4109     8.6261     0.0497     2.5296     0.0744     0.2309    60.0550
 2962.5000   -44.4150     5.6548     5.9109     5.9211    80.8459     8.6246     0.0451     2.5348     0.0708     0.2152    57.6404
 2963.0000   -44.1362     5.6936     5.9925     5.7585    80.4744     8.6231     0.0421     2.5393     0.0672     0.2107    57.7978
 2963.5000   -43.9831     5.7721     6.0332     6.3008    79.2752     8.6217     0.0405     2.5431     0.0654     0.2110    58.4090
 2964.0000   -43.9816     5.8117     6.0741     6.8943    77.9255     8.6202     0.0390     2.5453     0.0639     0.2240    57.2047
 2964.5000   -44.1317     5.8514     6.1154     7.2363    77.0270     8.6187     0.0389     2.5400     0.0630     0.2337    55.3954
 2965.0000   -44.2815     5.8504     6.1141     7.4388    76.7290     8.6172     0.0372     2.5279     0.0696     0.2246    55.8553
 2965.5000   -44.4313     5.8905     6.0707     7.4898    76.8089     8.6309     0.0299     2.5226     0.0757     0.2162    57.9793
 2966.0000   -44.7320     5.8083     5.9446     7.1833    77.6397     8.6293     0.0208     2.5332     0.0745     0.2159    59.9521
 2966.5000   -45.0330     5.6485     5.7809     6.7011    79.2223     8.6430     0.0148     2.5407     0.0663     0.2180    58.4453
 2967.0000   -45.1828     5.3799     5.6216     6.2947    80.2035     8.6412     0.0178     2.5309     0.0654     0.2193    57.2411
 2967.5000   -45.1813     5.0534     5.2075     6.0373    80.3576     8.6397     0.0298     2.5263     0.0712     0.2250    57.0943
 2968.0000   -45.1798     4.5531     4.5004     6.2930    80.2852     8.6382     0.0388     2.5286     0.0751     0.2380    58.0096
 2968.5000   -45.1783     3.9351     3.8333     6.6511    80.1386     8.6367     0.0252     2.5233     0.0757     0.2581    59.9823
 2969.0000   -45.1768     3.2396     3.2375     6.8848    80.1432     8.6353     0.0146     2.4607     0.0821     0.3126    63.9218
 2969.5000   -44.8727     2.6303     2.7598     6.9803    81.3500     8.6493     0.0582     2.3937     0.1147     0.3505    73.7615
 2970.0000   -44.4173     2.4366     2.5811     4.7658    84.2108     8.6629     0.1364     2.2288     0.1779     0.3527    89.0474
 2970.5000   -43.6594     2.4703     2.6412     3.3922    91.8086     8.6308     0.2131     2.1781     0.2847     0.3091    93.8946
 2971.0000   -42.5989     2.6110     3.0267     2.3813   100.5341     8.5840     0.2208     2.2175     0.2880     0.2539    95.5648
 2971.5000   -41.8410     3.0203     3.5996     1.8939   104.8987     8.4908     0.0686     2.3652     0.2412     0.2413    90.1246
 2972.0000   -41.3856     3.6171     4.1349     2.1159   103.1731     8.4274     0.0325     2.5314     0.2126     0.2284    74.2456
 2972.5000   -42.2918     4.1264     4.3702     2.9106    93.2520     8.3976     0.0672     2.5720     0.0827     0.2062    58.8205
 2973.0000   -42.8955     4.3312     4.6190     4.2030    85.7370     8.3810     0.0791     2.5773     0.0450     0.1886    54.2879
 2973.5000   -43.0456     4.7726     5.0193     6.5052    76.8685     8.3644     0.0553     2.5772     0.0435     0.1835    51.2683
 2974.0000   -43.1954     5.3324     5.5691     7.3691    73.8647     8.3629     0.0264     2.5757     0.0435     0.1850    48.5512
 2974.5000   -43.3448     5.8351     6.0939     7.5754    73.7907     8.3917     0.0278     2.5644     0.0447     0.1866    49.0111
 2975.0000   -43.4950     6.2536     6.4407     7.6801    73.7970     8.4057     0.0383     2.5448     0.0505     0.2011    50.6813
 2975.5000   -43.6447     6.5198     6.6670     7.7325    73.9511     8.4193     0.0473     2.5260     0.0650     0.2044    51.7463
 2976.0000   -43.4916     6.6549     6.6197     7.6221    73.9599     8.4024     0.0247     2.5094     0.0774     0.2093    51.7524
 2976.5000   -43.3388     6.3756     6.2611     7.3521    74.7328     8.4009    -0.0023     2.5018     0.0864     0.2129    52.3636
 2977.0000   -43.1860     5.9407     5.9219     6.8546    75.6669     8.3994    -0.0189     2.4965     0.0913     0.2159    53.8825
 2977.5000   -43.0332     5.4621     5.6011     6.3967    77.0240     8.3979    -0.0220     2.4950     0.0934     0.2187    54.7963
 2978.0000   -42.7291     5.0980     5.4091     6.1823    78.0308     8.3961     0.0036     2.4965     0.0928     0.2226    53.7433
 2978.5000   -42.5763     4.9343     5.2968     6.1031    78.7112     8.4101     0.0276     2.4972     0.0919     0.2273    51.9339
 2979.0000   -42.5748     4.8993     5.1152     6.1021    79.2413     8.4082     0.0396     2.4949     0.0919     0.2290    51.6359
 2979.5000   -42.7246     4.8648     4.8718     6.0172    79.6961     8.4223     0.0336     2.4866     0.0928     0.2302    53.3076
 2980.0000   -42.8744     4.5696     4.5760     5.8925    80.2262     8.4204     0.0050     2.4813     0.1001     0.2352    57.5497
 2980.5000   -43.3267     3.7359     4.1228     5.8105    80.4555     8.4189     0.0049     2.4729     0.1049     0.2582    60.7327
 2981.0000   -43.9304     3.1186     3.6380     5.8097    80.9855     8.4329    -0.0011     2.4567     0.1061     0.2949    62.5542
 2981.5000   -44.5340     2.6953     3.1223     5.8089    81.8163     8.4311     0.0014     2.4246     0.1140     0.3330    65.7373
 2982.0000   -45.1376     2.4624     2.6051     5.6885    82.8727     8.4447     0.0528     2.3826     0.1315     0.3542    77.3923
 2982.5000   -45.2874     2.3616     2.3810     5.0202    84.2857     8.4433     0.1552     2.3705     0.1543     0.3487    85.2653
 2983.0000   -44.6808     2.4110     2.4864     3.6232    89.6471     8.4418     0.2273     2.3411     0.1669     0.3117    92.6843
 2983.5000   -43.9220     2.4614     2.7016     2.4567    97.3951     8.4402     0.2454     2.3757     0.1853     0.2891   100.2547
 2984.0000   -43.3120     2.4954     2.9202     2.0654   101.6094     8.4384     0.0904     2.4759     0.1871     0.2507    99.2017
 2984.5000   -43.0121     2.5300     3.2742     2.1232   100.4853     8.4370     0.0438     2.5383     0.1110     0.2381    92.3999
 2985.0000   -43.4745     2.6927     3.7873     2.8016    94.5492     8.4355     0.0377     2.5617     0.0679     0.2339    75.4619
 2985.5000   -43.9299     3.1583     4.5042     4.2469    86.6582     8.4340     0.0347     2.5677     0.0507     0.2315    62.4574
 2986.0000   -44.3692     3.7303     5.1382     6.4826    80.4965     8.4325     0.0542     2.5669     0.0489     0.2236    57.9249
 2986.5000   -44.6702     4.4058     5.4685     6.8043    78.4701     8.4310     0.0692     2.5661     0.0498     0.2146    57.4755
 2987.0000   -44.9713     5.0612     5.7797     6.8508    78.2474     8.4296     0.0797     2.5623     0.0498     0.2152    59.7524
 2987.5000   -45.2975     5.5000     6.0245     6.8022    79.0791     8.4281     0.0601     2.5518     0.0501     0.2370    61.4226
 2988.0000   -45.6016     5.7730     6.1502     6.8013    79.3836     8.4266     0.0391     2.5450     0.0568     0.2433    62.0338
 2988.5000   -46.0254     5.9760     6.2351     6.7067    79.9136     8.4251     0.0405     2.5419     0.0646     0.2400    62.1911
