~VERSION INFORMATION
 VERS.                2.0:   CWLS LOG ASCII STANDARD - VERSION 2.0
 WRAP.                 NO:   ONE LINE PER DEPTH STEP
~WELL INFORMATION
#MNEM.UNIT      DATA TYPE    INFORMATION
#----------   ------------   ------------------------------
 STRT.F           16.0000:   START DEPTH
 STOP.F         1254.0000:   STOP DEPTH
 STEP.F            0.5000:   STEP LENGTH
 NULL.          -999.2500:   NO VALUE
 COMP. FENIX & SCISSON INC:   COMPANY
 WELL. NAVAL PET RESERVE 3   75-S-14 #75-14:   WELL
 FLD .             TEAPOT:   FIELD
 LOC .      S14 T38N R78W:   LOCATION
 CNTY.            NATRONA:   COUNTY
 STAT.            WYOMING:   STATE
 CTRY. UNITED STATES OF AMERICA:   COUNTRY
 SRVC.              Welex:   SERVICE COMPANY
 DATE.        17-FEB-1977:   LOGDATE
 API .       490251027400:   API NUMBER
~CURVE INFORMATION
#MNEM.UNIT       API CODE    CURVE DESCRIPTION
#----------   ------------   ------------------------------
 DEPT.F                  :   
 SGRD.OHMM   07 220 05 00:   SHALLOW RESISTIVITY
 ILM .OHMM   07 120 44 00:   INDUCTION LOG MEDIUM
 SPR .MV     07 010 01 00:   SPONTANEOUS POTENTIAL
 ILD .OHMM   07 120 46 00:   INDUCTION LOG DEEP
 CALD.IN     45 280 60 00:   CALIPER
 GRD .GAPI   45 310 01 00:   GAMMA RAY FROM DENSITY LOG
 DPHI.DEC    45 890 12 00:   DENSITY POROSITY SANDSTONE
 RHOB.G/C3   45 350 01 00:   BULK DENSITY
 CORR.G/C3   45 356 01 00:   DENSITY CORRECTION
~PARAMETER INFORMATION
#MNEM.UNIT          VALUE    DESCRIPTION
#----------   ------------   ------------------------------
 PD  .                 GL:   PERMANENT DATUM
 EPD .F              5336:   ELEVATION PERMANENT DATUM
 LMF .                 GL:   LOG MEASURED FROM
 DMF .                 GL:   DRILLING MEASURED FROM
 EKB .F              5341:   KELLING BUSHING
 EGL .F              5336:   GROUND LEVEL
 DATE.          2-17-1977:   RUN DATE
 RUN .                  1:   RUN NUMBER
 DD  .F              1260:   DEPTH DRILLER
 DL  .F              1258:   DEPTH LOGGER
 BLI .F              1256:   BOTTOM LOG INTERVAL
 TLI .F                30:   TOP LOG INTERVAL
 CS  .IN            8.625:   CASING SIZE
 CBD .F                42:   CASING BOTTOM DRILLER
 CBL .F                42:   CASING BOTTOM LOGGER
 BS  .IN            7.875:   BIT SIZE
 BSD .F              1260:   BIT SIZE AT DEPTH
 DFT .          KCL WATER:   DRILLING FLUID TYPE
 DFD .                9.5:   DRILLING FLUID DENSITY
 DFV .                 34:   DRILLING FLUID VISCOSITY
 MSS .          FLOW LINE:   MUD SAMPLE SOURCE
 RMS .OHMM            .30:   RESISTIVITY MUD SAMPLE
 MST .F                43:   MUD SAMPLE TEMPERATURE
 RMF .OHMM            .28:   RESISTIVITY MUD FILTRATE SAMPLE
 MFST.F                43:   MUD FILTRATE SAMPLE TEMPERATURE
 RMC .OHMM            .40:   RESISTIVITY MUD CAKE
 MCST.F                43:   MUD CAKE SAMPLE TEMPERATURE
 MFSS.           MEASURED:   MUD FILTRATE SAMPLE SOURCE
 MCSS.           MEASURED:   MUD CAKE SAMPLE SOURCE
 RMB .OHMM            .13:   RESISTIVITY MUD AT BHT
 BHT .F               101:   BOTTOM HOLE TEMPERATURE
 TCS .HRS               5:   TIME CURCULATED STOPPED
 MRT .F               101:   MAXIMUM RECORDED TEMPERATURE
 LUN .               8611:   LOGGING UNIT NUMBER
 LUL .           GILLETTE:   LOGGING UNIT LOCATION
 ENGI.             LAWSON:   RECORDING ENGINEER
 WITN.         STUEBINGER:   WITNESSED BY
 CLNT.            A2DTECH:   CLIENT CODE
 ORIG.       2", 5" PRINT:   ORIGIN OF DATA
 UWI .       490251027400:   UNIQUE WELL ID
 DICO. A2D Technologies, Inc.:   DIGITIZING COMPANY
~OTHER INFORMATION
~A   DEPT     SGRD        ILM        SPR        ILD       CALD         GRD      DPHI       RHOB       CORR   
# ...
  125.5000  -999.2500    10.0424    -9.3073     5.9603     8.2458   108.6815     0.1374     2.4278     0.0708
  126.0000  -999.2500    10.3827    -9.3301     6.0223     8.2345   111.1792     0.1286     2.4395     0.0748
  126.5000  -999.2500    10.6668    -9.3074     6.1030     8.2243   114.2092     0.1269     2.4447     0.0833
  127.0000  -999.2500    10.3379    -9.3319     6.0471     8.2136   119.0854     0.1305     2.4382     0.0883
  127.5000  -999.2500    10.0206    -9.3580     6.0329     8.2029   123.1070     0.1341     2.4313     0.0847
  128.0000  -999.2500     9.7132    -9.3839     5.9935     8.1920   121.5139     0.1321     2.4392     0.0866
  128.5000  -999.2500     9.4151    -9.4095     5.9543     8.1821   118.8117     0.1266     2.4490     0.0882
  129.0000  -999.2500     9.1262    -9.4320     5.9154     8.2046   116.1373     0.1273     2.4435     0.0882
  129.5000  -999.2500     8.8998    -9.4608     5.8767     8.2293   114.4644     0.1291     2.4379     0.0882
  130.0000  -999.2500     8.8998    -9.7560     5.8382     8.2625   118.0898     0.1291     2.4358     0.0882
  130.5000  -999.2500     9.4327   -11.0349     5.8286     8.2612   117.4029     0.1244     2.4454     0.0882
  131.0000  -999.2500     9.8547   -12.2740     5.8836     8.2609   116.5212     0.1190     2.4548     0.0882
  131.5000  -999.2500    10.2964   -13.5109     6.0252     8.2611   115.5215     0.1236     2.4599     0.0882
  132.0000  -999.2500    10.7587   -14.5821     6.1702     8.2610   118.9783     0.1305     2.4403     0.0882
  132.5000  -999.2500    10.9987   -14.8761     6.3318     8.2529   123.2812     0.1374     2.4216     0.0847
  133.0000  -999.2500    10.5344   -14.8712     6.3318     8.2190   127.6200     0.1443     2.4037     0.0802
  133.5000  -999.2500    10.2538   -14.6900     6.3107     8.1873   131.8376     0.1443     2.4085     0.0766
  134.0000  -999.2500     9.9803   -14.3689     6.1896     8.1760   131.7536     0.1385     2.4170     0.0769
  134.5000  -999.2500     9.7144   -14.0620     6.0708     8.1882   131.3161     0.1345     2.4255     0.0779
  135.0000  -999.2500     9.4555   -14.4998     5.9543     8.1947   130.8964     0.1327     2.4292     0.0790
  135.5000  -999.2500     9.2041   -15.9296     5.8400     8.1998   130.4766     0.1355     2.4221     0.0801
  136.0000  -999.2500     8.9586   -17.3793     5.7279     8.2223   130.0413     0.1382     2.4145     0.0812
  136.5000  -999.2500     8.8998   -17.8720     5.6180     8.2202   130.2253     0.1403     2.4129     0.0821
  137.0000  -999.2500     8.7910   -18.1377     5.5101     8.2169   133.1996     0.1379     2.4185     0.0812
  137.5000  -999.2500     8.6817   -18.3988     5.4043     8.2135   136.2179     0.1385     2.4187     0.0801
  138.0000  -999.2500     8.5737   -18.6627     5.3007     8.2100   139.2005     0.1441     2.4072     0.0764
  138.5000  -999.2500     8.4670   -18.9272     5.1989     8.2066   138.2656     0.1487     2.3960     0.0724
  139.0000  -999.2500     8.3617   -19.1953     5.1715     8.2031   138.8145     0.1527     2.3833     0.0701
  139.5000  -999.2500     8.2577   -19.4575     5.1241     8.2012   141.4660     0.1503     2.3910     0.0701
  140.0000  -999.2500     8.1549   -19.4176     5.1018     8.2012   144.1216     0.1477     2.4029     0.0701
  140.5000  -999.2500     8.0535   -18.1149     5.0737     8.2038   146.8430     0.1459     2.4008     0.0701
  141.0000  -999.2500     7.9533   -16.8471     5.0458     8.2087   147.4778     0.1489     2.3945     0.0701
  141.5000  -999.2500     7.8543   -15.5803     5.0181     8.2137   147.5155     0.1519     2.3880     0.0714
  142.0000  -999.2500     7.7525   -14.3140     4.9905     8.2190   146.2071     0.1517     2.3950     0.0733
  142.5000  -999.2500     7.7525   -13.0477     4.9630     8.2164   143.6565     0.1480     2.4068     0.0753
  143.0000  -999.2500     7.7525   -11.7804     4.9357     8.1837   141.1275     0.1460     2.4030     0.0772
  143.5000  -999.2500     7.7116   -10.5126     4.9086     8.1486   138.5879     0.1491     2.3944     0.0792
  144.0000  -999.2500     7.6718    -9.2561     4.8816     8.1142   136.0591     0.1503     2.3940     0.0811
  144.5000  -999.2500     7.6322    -8.4775     4.8547     8.0795   134.1392     0.1419     2.4147     0.0820
  145.0000  -999.2500     7.5929    -8.5006     4.8280     8.0620   134.5816     0.1383     2.4142     0.0816
  145.5000  -999.2500     7.5537    -8.3940     4.8015     8.1086   134.8726     0.1408     2.4117     0.0811
  146.0000  -999.2500     7.5148    -6.3572     4.7751     8.1594   130.4748     0.1435     2.4092     0.0807
  146.5000  -999.2500     7.4760    -4.3375     4.7169     8.1948   130.1465     0.1416     2.4102     0.0803
  147.0000  -999.2500     7.4375    -2.3275     4.6737     8.1540   130.6589     0.1362     2.4253     0.0822
  147.5000  -999.2500     7.4039    -0.3311     4.6309     8.1153   128.3682     0.1308     2.4399     0.0854
  148.0000  -999.2500     7.4420  -999.2500     4.6825     8.0765   126.0511     0.1254     2.4546     0.0866
  148.5000  -999.2500     7.6863  -999.2500     4.7386     8.0372   123.7504     0.1187     2.4693     0.0872
  149.0000  -999.2500     7.9388  -999.2500     4.7952     8.0221   121.4320     0.1109     2.4839     0.0879
  149.5000  -999.2500     8.1995  -999.2500     4.8526     8.0330   120.3178     0.1071     2.4997     0.0899
  150.0000  -999.2500     8.4688  -999.2500     4.8938     8.0860   121.4734     0.1145     2.4847     0.0939
  150.5000    97.5439     8.7375  -999.2500     4.8786     8.1374   124.8931     0.1258     2.4618     0.0978
  151.0000   106.9038     8.4113  -999.2500     4.7568     8.1890   128.2049     0.1329     2.4385     0.1016
  151.5000   117.1619     7.9857  -999.2500     4.6381     8.2396   131.5150     0.1359     2.4244     0.1016
  152.0000   126.0727     7.5816  -999.2500     4.5222     8.2144   134.2358     0.1391     2.4171     0.0990
  152.5000   128.2989     7.1980  -999.2500     4.4093     8.1689   133.6504     0.1423     2.4099     0.0962
  153.0000   108.3255     6.8338  -999.2500     4.2992     8.1233   133.5728     0.1457     2.4028     0.0941
  153.5000    94.3186     6.4881  -999.2500     4.1918     8.0819   134.7969     0.1497     2.3891     0.0942
  154.0000    87.9019     6.1598  -999.2500     4.0871     8.0821   135.9497     0.1581     2.3725     0.0941
  154.5000   100.6515     5.8286  -999.2500     3.9851     8.0955   136.2029     0.1668     2.3558     0.0867
  155.0000   115.7252     5.8286  -999.2500     3.8856     8.1259   135.5493     0.1755     2.3386     0.0784
  155.5000   125.8369     5.8522  -999.2500     3.7886     8.1432   136.0981     0.1844     2.3341     0.0704
  156.0000   102.8130     5.9843  -999.2500     3.7133     8.1623   134.6704     0.1785     2.3483     0.0707
  156.5000   127.0323     6.1193  -999.2500     3.7476     8.1813   132.7956     0.1706     2.3651     0.0714
  157.0000   107.6647     6.2574  -999.2500     3.8750     8.2000   130.9109     0.1628     2.3820     0.0721
  157.5000    95.7098     6.3986  -999.2500     4.0020     8.2177   129.0300     0.1571     2.3879     0.0694
  158.0000   139.6999     6.5430  -999.2500     4.1331     8.2402   127.1507     0.1594     2.3803     0.0663
  158.5000    99.1596     6.6906  -999.2500     4.2685     8.2258   125.2022     0.1621     2.3752     0.0638
  159.0000   121.4079     6.8416  -999.2500     4.4083     8.1781   125.5035     0.1603     2.3787     0.0628
  159.5000   102.8771     6.9960  -999.2500     4.5528     8.1301   127.0496     0.1550     2.3887     0.0618
  160.0000   107.6809     7.1538  -999.2500     4.7019     8.1211   131.0366     0.1499     2.3987     0.0609
  160.5000   116.1283     7.3152  -999.2500     4.8489     8.1474   135.1537     0.1535     2.3980     0.0604
  161.0000   119.1941     7.4762  -999.2500     4.8255     8.1885   138.5607     0.1498     2.3929     0.0620
  161.5000   125.4798     7.4697  -999.2500     4.8031     8.2011   141.0405     0.1454     2.4050     0.0635
