~VERSION INFORMATION
 VERS.                2.0:   CWLS LOG ASCII STANDARD - VERSION 2.0
 WRAP.                 NO:   ONE LINE PER DEPTH STEP
~WELL INFORMATION
#MNEM.UNIT      DATA TYPE    INFORMATION
#----------   ------------   ------------------------------
 STRT.F           37.5000:   START DEPTH
 STOP.F          525.5000:   STOP DEPTH
 STEP.F            0.5000:   STEP LENGTH
 NULL.          -999.2500:   NO VALUE
 COMP. LAWRENCE/ALLISON INC:   COMPANY
 WELL.    74-11 SX #10-10:   WELL
 FLD .             TEAPOT:   FIELD
 LOC .      S10 T38N R78W:   LOCATION
 CNTY.            NATRONA:   COUNTY
 STAT.            WYOMING:   STATE
 CTRY. UNITED STATES OF AMERICA:   COUNTRY
 SRVC.            Unknown:   SERVICE COMPANY
 DATE.        08-AUG-1984:   LOGDATE
 API .       490251097800:   API NUMBER
~CURVE INFORMATION
#MNEM.UNIT       API CODE    CURVE DESCRIPTION
#----------   ------------   ------------------------------
 DEPT.F                  :   
 CNC .DEC    42 890 03 00:   NEUTRON POROSITY SANDSTONE
 AC  .US/F   60 520 00 00:   ACCOUSTIC
 GRD .GAPI   45 310 01 00:   GAMMA RAY FROM DENSITY LOG
 CALD.IN     45 280 60 00:   CALIPER FROM DENSITY LOG
 CORR.G/C3   45 356 01 00:   DENSITY CORRECTION
 DPHI.DEC    45 890 12 00:   DENSITY POROSITY SANDSTONE
 DEN .G/C3   45 350 01 00:   COMPENSATED BULK DENSTIY
 RILD.OHMM   07 120 46 00:   RESISTIVITY INDUCTION LOG DEEP
 RILM.OHMM   07 120 44 00:   RESISTIVITY INDUCTION LOG MEDIUM
 RFOC.OHMM   07 220 04 00:   RESISTIVITY FOCUSED LOG
 SPR .MV     07 010 01 00:   SPONTANEOUS POTENTIAL FROM RES.
~PARAMETER INFORMATION
#MNEM.UNIT          VALUE    DESCRIPTION
#----------   ------------   ------------------------------
 PD  .                 GL:   PERMANENT DATUM
 EPD .F              5180:   ELEVATION PERMANENT DATUM
 LMF .                 GL:   LOG MEASURED FROM
 DMF .                 GL:   DRILLING MEASURED FROM
 EGL .F              5180:   GROUND LEVEL
 DATE.             8-8-84:   RUN DATE
 RUN .                  1:   RUN NUMBER
 DD  .F               525:   DEPTH DRILLER
 DL  .F               526:   DEPTH LOGGER
 BLI .F               525:   BOTTOM LOG INTERVAL
 TLI .F                42:   TOP LOG INTERVAL
 CS  .IN            9.625:   CASING SIZE
 CBD .F                42:   CASING BOTTOM DRILLER
 CBL .F                42:   CASING BOTTOM LOGGER
 BS  .IN            7.875:   BIT SIZE
 BSD .F               525:   BIT SIZE AT DEPTH
 DFT .          KCL WATER:   DRILLING FLUID TYPE
 MSS .           FLOWLINE:   MUD SAMPLE SOURCE
 RMS .OHMM           .141:   RESISTIVITY MUD SAMPLE
 MST .F                78:   MUD SAMPLE TEMPERATURE
 RMF .OHMM            .12:   RESISTIVITY MUD FILTRATE SAMPLE
 MFST.F                78:   MUD FILTRATE SAMPLE TEMPERATURE
 RMC .OHMM             .2:   RESISTIVITY MUD CAKE
 MCST.F                78:   MUD CAKE SAMPLE TEMPERATURE
 MFSS.               MEAS:   MUD FILTRATE SAMPLE SOURCE
 MCSS.               MEAS:   MUD CAKE SAMPLE SOURCE
 RMB .OHMM            .13:   RESISTIVITY MUD AT BHT
 BHT .F                89:   BOTTOM HOLE TEMPERATURE
 MRT .F                89:   MAXIMUM RECORDED TEMPERATURE
 LUN .               6307:   LOGGING UNIT NUMBER
 LUL .               GLTE:   LOGGING UNIT LOCATION
 ENGI.            JOHNSON:   RECORDING ENGINEER
 WITN.              FIVAS:   WITNESSED BY
 CLNT.            A2DTECH:   CLIENT CODE
 ORIG.           5" PRINT:   ORIGIN OF DATA
 UWI .       490251097800:   UNIQUE WELL ID
 DICO. A2D Technologies, Inc.:   DIGITIZING COMPANY
~OTHER INFORMATION
~A   DEPT      CNC         AC        GRD       CALD       CORR       DPHI        DEN       RILD       RILM       RFOC        SPR   
# ...
  220.5000     0.3568   111.2890   119.7860     8.0480     0.0110     0.1890     2.3930     5.9420     4.0830     7.3100   -65.2410
  221.0000     0.3539   113.7630   117.2840     8.0480     0.0550     0.1900     2.3600     5.6600     4.4740     6.1190   -65.2770
  221.5000     0.3486   116.2370   114.3030     8.0490     0.0570     0.1720     2.3710     5.3340     4.7920     5.6370   -64.8620
  222.0000     0.3334   117.2270   111.9190     8.0500     0.0490     0.1550     2.4010     5.6740     5.0940     6.5410   -64.4580
  222.5000     0.3296   113.7180   110.4620     8.0510     0.0410     0.1370     2.4300     6.0770     5.2740     7.9380   -64.0550
  223.0000     0.3426   110.7940   112.0840     8.0520     0.0400     0.1340     2.4560     6.4790     5.4450     9.7960   -63.7220
  223.5000     0.3485   107.8700   113.7220     8.0530     0.0220     0.1350     2.4580     7.2550     5.6160     9.6740   -63.5070
  224.0000     0.3177   105.8910   115.3910     8.0530     0.0050     0.1360     2.4550     8.0070     5.7930     9.4170   -63.2950
  224.5000     0.2889   105.6020   113.9750     8.0540    -0.0010     0.1350     2.4520     8.6110     5.9710     9.1840   -63.0820
  225.0000     0.2947   105.2400   112.2690     8.0550     0.0190     0.1290     2.4580     9.0340     6.1490     9.3340   -62.9970
  225.5000     0.3203   104.8790   110.5590     8.0560     0.0510     0.1240     2.4670     9.2690     6.2950     9.5030   -62.9960
  226.0000     0.3656   104.5170   108.8560     8.0570     0.0610     0.1200     2.4750     8.8590     6.1210     9.6720   -63.0190
  226.5000     0.3795   104.1560   106.1400     8.0570     0.0420     0.1190     2.4850     8.3080     5.7620     9.8860   -63.5480
  227.0000     0.3894   103.8660   103.5520     8.0480     0.0310     0.1240     2.4790     7.6650     5.3850     9.8560   -64.0880
  227.5000     0.3940   103.8660   102.3700     8.0390     0.0350     0.1300     2.4640     7.0210     5.0090     9.7960   -64.6270
  228.0000     0.3704   103.6640   105.4640     8.0560     0.0380     0.1480     2.4450     6.4130     4.6330     8.7980   -65.1640
  228.5000     0.3443   106.4980   111.3020     8.0750     0.0440     0.1680     2.4190     6.0100     4.3150     7.7370   -65.7020
  229.0000     0.3412   109.8380   117.0590     8.0300     0.0580     0.1630     2.3990     5.6070     4.5720     6.6760   -65.9220
  229.5000     0.3666   113.1780   120.6820     8.0250     0.0710     0.1490     2.4140     5.4220     4.7890     5.5850   -65.7410
  230.0000     0.3634   113.1780   115.5420     8.0360     0.0730     0.1350     2.4370     5.8270     4.9660     6.8790   -65.5670
  230.5000     0.3357   111.5590   111.6850     8.0480     0.0600     0.1220     2.4600     6.1510     5.1420     8.2790   -65.3940
  231.0000     0.3265   107.3080   111.4780     8.0580     0.0560     0.1160     2.4810     6.5300     5.3400     9.1000   -65.2240
  231.5000     0.3419   106.5290   110.7270     8.0570     0.0600     0.1110     2.4920     7.1340     5.6220     9.1560   -64.8690
  232.0000     0.3441   105.5560   107.9050     8.0570     0.0810     0.1060     2.5040     7.7370     5.9050     9.1840   -64.4750
  232.5000     0.3347   104.5830   102.2270     8.0570     0.0860     0.1020     2.5060     8.3410     6.1870     9.1840   -64.0780
  233.0000     0.3241   103.6090   100.8590     8.0560     0.0640     0.1090     2.5040     8.9450     6.4700     9.3550   -63.6810
  233.5000     0.3098   102.6360   101.6250     8.0560     0.0470     0.1080     2.5020     9.5480     6.7530     9.5220   -63.2840
  234.0000     0.3265   102.0260   102.4680     8.0560     0.0410     0.1040     2.5060     9.9780     7.0060     9.6890   -62.8870
  234.5000     0.3281   101.6580   105.8840     8.0550     0.0370     0.1020     2.5100    10.3170     7.0760     9.8560   -62.4910
  235.0000     0.3178   101.2900   108.0990     8.0550     0.0350     0.1050     2.5080    10.4480     7.1750    10.0240   -62.1290
  235.5000     0.3038   100.9220   110.2990     8.0550     0.0350     0.1110     2.5020    10.6420     7.2280    10.1910   -61.8620
  236.0000     0.2966   100.6280   110.6310     8.0540     0.0420     0.1170     2.4940    10.7730     7.2190    10.3580   -61.6000
  236.5000     0.2929   100.3850   108.1820     8.0540     0.0540     0.1120     2.4900    10.8910     7.2050    10.6420   -61.5190
  237.0000     0.2882   100.2230   105.6000     8.0530     0.0700     0.1060     2.4990    11.0100     7.1910    10.5990   -61.9380
  237.5000     0.2835   100.8300   103.0050     8.0530     0.1020     0.1020     2.5070    11.1280     7.1770    10.5370   -62.3420
  238.0000     0.2958   100.8300   101.4180     8.0530     0.1030     0.1080     2.5030    11.2460     7.1620    10.4740   -62.7440
  238.5000     0.3024   100.7290   100.2230     8.0520     0.0380     0.1140     2.4940    11.3350     7.1620    10.4110   -63.1460
  239.0000     0.3091   100.4760    98.9800     8.0520     0.0270     0.1190     2.4860    11.0320     7.2460    10.3490   -63.5470
  239.5000     0.2815   100.2230   100.4240     8.0520     0.0400     0.1200     2.4840    10.8400     7.4090    10.2860   -63.9480
  240.0000     0.2966    99.9700   105.2280     8.0510     0.0560     0.1130     2.4920    11.5620     7.5710    10.2570   -64.3480
  240.5000     0.3092    99.7170   110.6420     8.0510     0.0730     0.1070     2.5010    12.1070     7.7330    10.6610   -64.5580
  241.0000     0.3235    99.4640   106.5370     8.0510     0.0770     0.1020     2.5090    11.9650     7.8950    10.9630   -64.4390
  241.5000     0.3266    99.2110   102.3930     8.0500     0.0620     0.0980     2.5180    11.8860     7.9990    11.2650   -64.3250
  242.0000     0.2940    99.0080    98.8800     8.0500     0.0440     0.0970     2.5230    11.9330     7.9240    11.4270   -64.2100
  242.5000     0.2977    99.3120   100.5200     8.0500     0.0420     0.1020     2.5140    11.9960     7.7910    11.1250   -64.0950
  243.0000     0.2999    99.6150   100.6560     8.0490     0.0550     0.1130     2.5020    12.0580     7.7230    10.8830   -63.9800
  243.5000     0.3020    99.6150   100.5250     8.0490     0.0580     0.1170     2.4910    12.1200     7.8440    10.6410   -63.8640
  244.0000     0.3041    99.2110   100.6110     8.0490     0.0440     0.1210     2.4790    12.2190     7.9990    10.3520   -63.7490
  244.5000     0.3257    97.9280   101.5540     8.0480     0.0310     0.1260     2.4680    11.7320     7.7950    10.7970   -63.6330
  245.0000     0.3406    96.8600   102.4820     8.0480     0.0200     0.1260     2.4680    10.5390     7.2980    11.3490   -63.5180
  245.5000     0.3556    95.7920   104.9650     8.0470     0.0080     0.1260     2.4700     8.7710     6.8000    11.9020   -63.4020
  246.0000     0.4102    95.2630   109.7980     8.0470    -0.0030     0.1320     2.4620     8.0160     5.8680    12.0750   -63.2880
  246.5000     0.3983    96.8320   116.3100     8.0470     0.0120     0.1570     2.4360     7.2830     4.8470    12.3320   -63.1790
  247.0000     0.3924   101.2350   128.6450     8.0460     0.0450     0.1910     2.3800     6.5490     4.5120     9.7390   -63.1120
  247.5000     0.3258   105.6300   126.1720     8.0460     0.0770     0.2300     2.3240     6.0120     4.3150     7.2870   -63.0420
  248.0000     0.3016   111.1250   119.4000     8.0460     0.0610     0.2160     2.2940     6.1450     4.6810     5.0010   -62.8660
  248.5000     0.2940   116.6190   108.3700     8.0450     0.0030     0.1890     2.3290     6.6040     5.0010     5.9590   -62.2840
  249.0000     0.2864   116.0120   100.8490     8.0450     0.0200     0.1620     2.3970     7.2580     5.6420     8.2290   -61.7080
  249.5000     0.2757   106.7000    98.3130     8.0450     0.0610     0.1350     2.4600     7.8530     6.2390    11.4900   -61.1350
  250.0000     0.2828   102.1350    97.2310     8.0440     0.0560     0.1160     2.4860     9.0880     6.7770    12.9130   -60.6110
  250.5000     0.2921    97.5700    96.0640     8.0440     0.0450     0.1150     2.4870    10.2190     7.6350    12.7620   -60.3750
