~VERSION INFORMATION
 VERS.                2.0:   CWLS LOG ASCII STANDARD - VERSION 2.0
 WRAP.                 NO:   ONE LINE PER DEPTH STEP
~WELL INFORMATION
#MNEM.UNIT      DATA TYPE    INFORMATION
#----------   ------------   ------------------------------
 STRT.F            8.5000:   START DEPTH
 STOP.F          642.0000:   STOP DEPTH
 STEP.F            0.5000:   STEP LENGTH
 NULL.          -999.2500:   NO VALUE
 COMP. FENIX & SCISSON INC:   COMPANY
 WELL. 26-36 S11 W1 #26-36 SX11:   WELL
 FLD .             TEAPOT:   FIELD
 LOC .      S11 T38N R78W:   LOCATION
 CNTY.            NATRONA:   COUNTY
 STAT.            WYOMING:   STATE
 CTRY. UNITED STATES OF AMERICA:   COUNTRY
 SRVC.      Dresser Atlas:   SERVICE COMPANY
 DATE.        16-JUL-1980:   LOGDATE
 API .       490251083500:   API NUMBER
~CURVE INFORMATION
#MNEM.UNIT       API CODE    CURVE DESCRIPTION
#----------   ------------   ------------------------------
 DEPT.F                  :   
 NPHI.DEC    42 890 03 00:   NEUTRON POROSITY SANDSTONE
 RHOB.G/C3   45 350 01 00:   BULK DENSITY
 CORR.G/C3   45 356 01 00:   DENSITY CORRECTION
 GRD .GAPI   45 310 01 00:   GAMMA RAY FROM DENSITY LOG
 CALD.IN     45 280 60 00:   CALIPER
 SPR .MV     07 010 01 00:   SPONTANEOUS POTENTIAL
 SFL .OHMM   07 220 01 00:   SHALLOW FOCUSED LOG RESISTIVITY
 ILD .OHMM   07 120 46 00:   INDUCTION LOG DEEP
 ILM .OHMM   07 120 44 00:   INDUCTION LOG MEDIUM
 DPHI.DEC    45 890 12 00:   DENSITY POROSITY SANDSTONE
~PARAMETER INFORMATION
#MNEM.UNIT          VALUE    DESCRIPTION
#----------   ------------   ------------------------------
 PD  .                 GL:   PERMANENT DATUM
 EPD .F              5184:   ELEVATION PERMANENT DATUM
 LMF .                 KB:   LOG MEASURED FROM
 DAPD.F                 5:   FEET ABOVE PERMANENT DATUM
 DMF .                 KB:   DRILLING MEASURED FROM
 EKB .F              5189:   KELLING BUSHING
 EGL .F              5184:   GROUND LEVEL
 DATE.            7-16-80:   RUN DATE
 RUN .                  1:   RUN NUMBER
 DD  .F               630:   DEPTH DRILLER
 DL  .F               637:   DEPTH LOGGER
 BLI .F               635:   BOTTOM LOG INTERVAL
 TLI .F                 8:   TOP LOG INTERVAL
 BS  .IN            7.875:   BIT SIZE
 BSD .F               630:   BIT SIZE AT DEPTH
 DFT .           CHEM GEL:   DRILLING FLUID TYPE
 DFD .                9.2:   DRILLING FLUID DENSITY
 DFV .                 65:   DRILLING FLUID VISCOSITY
 DFPH.                 10:   DRILLING FLUID PH
 DFL .                  8:   DRILLING FLUID LOSS
 MSS .           FLOWLINE:   MUD SAMPLE SOURCE
 RMS .OHMM            .61:   RESISTIVITY MUD SAMPLE
 MST .F                60:   MUD SAMPLE TEMPERATURE
 RMC .OHMM            .62:   RESISTIVITY MUD CAKE
 MCST.F                58:   MUD CAKE SAMPLE TEMPERATURE
 MFSS.               MEAS:   MUD FILTRATE SAMPLE SOURCE
 MCSS.               MEAS:   MUD CAKE SAMPLE SOURCE
 RMB .OHMM            .41:   RESISTIVITY MUD AT BHT
 BHT .F                90:   BOTTOM HOLE TEMPERATURE
 TCS .HRS               5:   TIME CURCULATED STOPPED
 MRT .F                90:   MAXIMUM RECORDED TEMPERATURE
 LUN .               6109:   LOGGING UNIT NUMBER
 LUL .              GLTTE:   LOGGING UNIT LOCATION
 ENGI.            GARONER:   RECORDING ENGINEER
 WITN.              AMEND:   WITNESSED BY
 CLNT.            A2DTECH:   CLIENT CODE
 ORIG.           5" PRINT:   ORIGIN OF DATA
 UWI .       490251083500:   UNIQUE WELL ID
 DICO. A2D Technologies, Inc.:   DIGITIZING COMPANY
~OTHER INFORMATION
~A    DEPT    NPHI       RHOB       CORR        GRD       CALD        SPR        SFL          ILD      ILM       DPHI   
# ...
  377.0000     0.2975     2.5036     0.0574    84.6840     7.8500   -38.7548    10.1052     6.9536     7.1939     0.1059
  377.5000     0.2970     2.5104     0.0598    85.4943     7.8500   -38.7550    10.6779     7.1215     7.5360     0.1092
  378.0000     0.2945     2.5059     0.0621    85.5023     7.8500   -38.7551    10.6779     7.2932     7.8023     0.1148
  378.5000     0.2852     2.4968     0.0644    85.5572     7.8499   -38.7557    10.6779     7.3822     7.8020     0.1136
  379.0000     0.2797     2.4886     0.0656    86.0916     7.8501   -38.7555    10.6779     7.3809     7.8018     0.1154
  379.5000     0.2760     2.4885     0.0681    86.6265     7.8740   -38.7551    10.5432     7.1710     7.6755     0.1160
  380.0000     0.2883     2.4866     0.0716    87.1093     7.9009   -38.7578    10.3114     7.0426     7.5455     0.1157
  380.5000     0.3032     2.4866     0.0752    87.1051     7.9271   -38.7538    10.0846     6.9180     7.4178     0.1155
  381.0000     0.3105     2.4845     0.0787    87.9446     7.9025   -38.7475     9.8629     6.7941     7.2922     0.1121
  381.5000     0.3158     2.4888     0.0823    88.8868     7.8717   -38.5919     9.6460     6.6725     7.1687     0.1072
  382.0000     0.3063     2.4949     0.0855    89.8322     7.8483   -38.4402     9.5585     6.5530     7.0471     0.1084
  382.5000     0.3002     2.5008     0.0855    90.2979     7.8759   -38.2815     9.5585     6.4357     6.9277     0.0975
  383.0000     0.2984     2.5017     0.0914    89.7872     7.8865   -38.1229     9.3776     6.3205     6.8102     0.0988
  383.5000     0.2992     2.5157     0.0994    89.2118     7.8978   -37.9715     9.2097     6.2073     6.6948     0.1008
  384.0000     0.3013     2.5145     0.1074    88.6047     7.9088   -37.8126     9.0436     6.1155     6.5813     0.1052
  384.5000     0.3030     2.5104     0.1115    88.6825     7.9156   -37.6395     9.0408     6.0569     6.4698     0.1039
  385.0000     0.3012     2.5065     0.1015    89.3284     7.9267   -37.6252     9.0501     6.0254     6.3685     0.1054
  385.5000     0.2990     2.5064     0.0877    89.9150     7.9378   -37.9241     9.0534     5.6754     6.0020     0.1088
  386.0000     0.2968     2.5042     0.0736    88.9167     7.9489   -38.2072     9.0555     5.3685     5.6804     0.1136
  386.5000     0.2946     2.4998     0.0696    87.5147     7.9600   -38.4858     9.0564     5.0783     5.3762     0.1239
  387.0000     0.2939     2.4871     0.0672    87.0126     7.9700   -38.7460     8.6088     4.8037     5.0882     0.1293
  387.5000     0.2962     2.4726     0.0596    87.9877     7.9700   -38.7516     7.6391     4.5682     4.6533     0.1331
  388.0000     0.3101     2.4643     0.0649    87.5884     7.9672   -38.7587     6.4984     4.5682     4.7400     0.1366
  388.5000     0.3282     2.4489     0.0715    87.2922     7.9571   -38.7015     5.5384     4.5682     4.7400     0.1387
  389.0000     0.3369     2.4149     0.0672    87.8430     7.9485   -38.6267     4.7400     4.6809     5.0546     0.1193
  389.5000     0.3314     2.4049     0.0606    88.6120     7.9357   -38.5522     6.1200     4.9648     5.3374     0.0998
  390.0000     0.3220     2.4718     0.0998    89.2917     7.9226   -38.4775     8.8259     5.2659     5.6370     0.0916
  390.5000     0.3126     2.5117     0.0886    88.6311     7.9096   -38.4029     9.9179     5.5852     5.9532     0.1143
  391.0000     0.2991     2.5264     0.0985    87.8766     7.8965   -38.3283     9.8486     5.9240     6.2871     0.1211
  391.5000     0.2914     2.4995     0.1075    87.9551     7.8900   -38.2540     9.7307     6.2832     6.6401     0.1149
  392.0000     0.2896     2.4777     0.1040    88.8587     7.8900   -38.1796     9.6142     6.6657     7.0128     0.1063
  392.5000     0.2927     2.4784     0.1012    89.5079     7.8900   -38.1053     9.5064     6.9312     7.4061     0.1008
  393.0000     0.2965     2.5016     0.1084    89.6436     7.8900   -38.0306     9.3905     7.0750     7.6848     0.0906
  393.5000     0.3018     2.5036     0.1133    90.9655     7.8900   -37.9563     9.6900     7.2485     7.7319     0.0821
  394.0000     0.3102     2.5189     0.1133    91.9087     7.8900   -37.8811    10.0040     7.2460     7.7853     0.0901
  394.5000     0.3022     2.5363     0.1129    90.2120     7.8900   -37.8067    10.3285     7.2486     7.8021     0.1009
  395.0000     0.2983     2.5395     0.1110    88.3253     7.8900   -37.7340    10.4850     7.2461     7.8310     0.1089
  395.5000     0.2914     2.5195     0.1072    86.4402     7.8900   -37.6541    10.4792     7.2464     7.8850     0.1113
  396.0000     0.2878     2.5036     0.1002    85.2914     7.8900   -37.5848    10.6731     7.2715     7.9475     0.1108
  396.5000     0.2854     2.4953     0.0898    86.0977     7.8900   -37.5651    10.8483     7.3764     8.1391     0.1019
  397.0000     0.2835     2.4945     0.0794    86.8913     7.8900   -37.8544    11.0511     7.4829     8.3693     0.0945
  397.5000     0.2848     2.5026     0.0690    86.9970     7.8900   -38.1023    11.2578     7.5908     8.6058     0.0931
  398.0000     0.2889     2.5117     0.0586    87.8623     7.8900   -38.3669    11.4684     7.7003     8.8488     0.0939
  398.5000     0.2929     2.5208     0.0597    88.1921     7.8871   -38.6318    11.7102     7.8114     9.0982     0.0994
  399.0000     0.2950     2.5233     0.0596    87.2113     7.8815   -38.8832    11.4664     7.9241     9.3544     0.1055
  399.5000     0.2998     2.5128     0.0596    87.0205     7.8758   -39.1435    11.1935     8.0384     9.7423     0.1123
  400.0000     0.2993     2.5010     0.0524    86.2911     7.8701   -39.1544    11.0794     8.1544     9.7317     0.1081
  400.5000     0.2989     2.4903     0.0441    85.5367     7.8644   -39.1612    11.6470     8.2720     9.4940     0.1060
  401.0000     0.2987     2.4984     0.0493    85.9857     7.8587   -39.1570    12.8424     8.3914     9.4209     0.1068
  401.5000     0.2948     2.5046     0.0573    86.9448     7.8530   -39.1576    12.6228     8.5125     9.3837     0.1078
  402.0000     0.2926     2.5014     0.0653    87.9064     7.8473   -39.1590    12.1275     8.5564     9.3837     0.1124
  402.5000     0.2904     2.5005     0.0653    88.8663     7.8415   -39.1578    11.6517     8.5564     9.3837     0.1064
  403.0000     0.2926     2.4968     0.0627    88.6307     7.8358   -39.1562    11.4961     8.2869     9.3837     0.0980
  403.5000     0.2962     2.4946     0.0602    88.2564     7.8303   -39.1626    11.4961     8.0382     9.3837     0.0988
  404.0000     0.2959     2.5087     0.0603    88.1045     7.8348   -39.1523    11.4961     7.7987     9.3837     0.0972
  404.5000     0.2872     2.5144     0.0639    87.9242     7.8399   -39.1351    11.4961     7.5661     9.0934     0.1017
  405.0000     0.2811     2.5161     0.0571    87.6254     7.8450   -38.8206    11.0101     7.3404     8.7481     0.1104
  405.5000     0.2755     2.5191     0.0488    87.3331     7.8495   -38.5477    10.3616     7.1217     8.3489     0.1079
  406.0000     0.2722     2.5071     0.0406    87.3453     7.8664   -38.2762     9.7513     6.9812     7.9680     0.1072
  406.5000     0.2918     2.4973     0.0357    88.6781     7.8818   -37.9723     9.1769     6.9875     7.6045     0.1286
  407.0000     0.2988     2.4977     0.0401    89.9809     7.8902   -37.9463     9.0436     6.6946     7.2468     0.1366
  407.5000     0.3076     2.4803     0.0418    90.9902     7.8860   -38.0377     8.8782     6.3338     7.2468     0.1394
  408.0000     0.3132     2.4642     0.0324    91.6282     7.8812   -38.1968     9.3287     5.9921     7.0711     0.1277
  408.5000     0.3103     2.4529     0.0242    92.1107     7.8763   -38.3453     9.7292     5.6689     6.6369     0.1227
  409.0000     0.3093     2.4478     0.0257    92.1009     7.8715   -38.3491    10.3623     5.3629     6.2293     0.1300
  409.5000     0.3116     2.4747     0.0348    92.0986     7.8667   -38.3553    10.0506     5.0736     5.8468     0.1445
  410.0000     0.3234     2.4664     0.0437    92.0139     7.8619   -38.3526     8.3382     4.9168     5.4877     0.1663
