~VERSION INFORMATION
 VERS.                2.0:   CWLS LOG ASCII STANDARD - VERSION 2.0
 WRAP.                 NO:   ONE LINE PER DEPTH STEP
~WELL INFORMATION
#MNEM.UNIT      DATA TYPE    INFORMATION
#----------   ------------   ------------------------------
 STRT.F          600.0000:   START DEPTH
 STOP.F         2218.0000:   STOP DEPTH
 STEP.F            0.5000:   STEP LENGTH
 NULL.          -999.2500:   NO VALUE
 COMP. US DEPTMNT OF ENRGY:   COMPANY
 WELL.   37 STX 10 #37-10:   WELL
 FLD .             TEAPOT:   FIELD
 LOC .      S10 T38N R78W:   LOCATION
 CNTY.            NATRONA:   COUNTY
 STAT.            WYOMING:   STATE
 CTRY. UNITED STATES OF AMERICA:   COUNTRY
 SRVC.            Unknown:   SERVICE COMPANY
 DATE.        15-MAY-1991:   LOGDATE
 API .       490251094200:   API NUMBER
~CURVE INFORMATION
#MNEM.UNIT       API CODE    CURVE DESCRIPTION
#----------   ------------   ------------------------------
 DEPT.F                  :   
 TGAS.UNITS  91 830 01 00:   TOTAL GAS FROM HOTWIRE
 ROP .MIN/FT 91 810 01 00:   RATE OF DRILLING PENETRATION
~PARAMETER INFORMATION
#MNEM.UNIT          VALUE    DESCRIPTION
#----------   ------------   ------------------------------
 EKB .F              5231:   KELLING BUSHING
 EGL .F              5221:   GROUND LEVEL
 DATE.            5-15-91:   RUN DATE
 DD  .F              2218:   DEPTH DRILLER
 BLI .F              2218:   BOTTOM LOG INTERVAL
 TLI .F               960:   TOP LOG INTERVAL
 ENGI.              TOWER:   RECORDING ENGINEER
 WITN.               HUSK:   WITNESSED BY
 CLNT.            A2DTECH:   CLIENT CODE
 ORIG.           5" PRINT:   ORIGIN OF DATA
 UWI .       490251094200:   UNIQUE WELL ID
 DICO. A2D Technologies, Inc.:   DIGITIZING COMPANY
~OTHER INFORMATION
~A   DEPT     TGAS          ROP 
# ...
  964.5000    45.2068     0.5231
  965.0000    44.8249     0.5592
  965.5000    44.4429     0.5840
  966.0000    44.1244     0.6060
  966.5000    43.9780     0.6214
  967.0000    43.8317     0.6211
  967.5000    43.6854     0.6208
  968.0000    43.5390     0.5877
  968.5000    43.3927     0.5764
  969.0000    43.2464     0.5762
  969.5000    43.1000     0.5759
  970.0000    42.9537     0.5647
  970.5000    42.8074     0.5534
  971.0000    42.6611     0.5532
  971.5000    42.5147     0.5639
  972.0000    42.3684     0.5417
  972.5000    42.2221     0.5414
  973.0000    42.0757     0.5294
  973.5000    41.9294     0.4853
  974.0000    41.7831     0.4638
  974.5000    41.6368     0.4752
  975.0000    41.4904     0.4852
  975.5000    41.3441     0.4849
  976.0000    41.1978     0.4846
  976.5000    41.0514     0.4844
  977.0000    40.9051     0.4841
  977.5000    40.7588     0.4857
  978.0000    40.6125     0.4946
  978.5000    40.4661     0.4942
  979.0000    40.3198     0.4940
  979.5000    40.1735     0.4988
  980.0000    40.0152     0.5140
  980.5000    40.1721     0.5371
  981.0000    40.3428     0.5658
  981.5000    40.5135     0.5945
  982.0000    40.6842     0.6232
  982.5000    40.8550     0.6313
  983.0000    41.0257     0.6334
  983.5000    41.1964     0.6355
  984.0000    41.3672     0.6375
  984.5000    41.5379     0.6396
  985.0000    41.7086     0.6417
  985.5000    41.8793     0.6437
  986.0000    42.0501     0.6458
  986.5000    42.2208     0.6479
  987.0000    42.3915     0.6499
  987.5000    42.5623     0.6520
  988.0000    42.7330     0.6541
  988.5000    42.7888     0.6562
  989.0000    42.7182     0.6582
  989.5000    42.6477     0.6603
  990.0000    42.5771     0.6678
  990.5000    42.5066     0.6706
  991.0000    42.4361     0.6541
  991.5000    42.3655     0.6309
  992.0000    42.2950     0.5993
  992.5000    42.2244     0.5736
  993.0000    42.1539     0.5572
  993.5000    42.0833     0.5673
  994.0000    42.0128     0.5665
  994.5000    41.9422     0.5766
  995.0000    41.8717     0.5758
  995.5000    41.8012     0.5750
  996.0000    41.7306     0.5742
  996.5000    41.6601     0.5843
  997.0000    41.5895     0.5835
  997.5000    41.5190     0.5941
  998.0000    41.4484     0.6044
  998.5000    41.3779     0.6139
  999.0000    41.3074     0.6130
  999.5000    41.2368     0.6091
 1000.0000    41.1663     0.5874
 1000.5000    41.0957     0.5733
 1001.0000    41.1948     0.5592
 1001.5000    41.4025     0.5451
 1002.0000    41.6103     0.5510
 1002.5000    41.8180     0.5900
 1003.0000    42.0258     0.6300
 1003.5000    42.2335     0.6533
 1004.0000    42.4413     0.6650
 1004.5000    42.6490     0.6709
 1005.0000    42.8568     0.6714
 1005.5000    43.0645     0.6656
 1006.0000    43.2723     0.6616
 1006.5000    43.4801     0.6759
 1007.0000    43.6878     0.7131
 1007.5000    43.8956     0.7509
 1008.0000    44.1033     0.7926
 1008.5000    44.3111     0.8378
 1009.0000    44.5188     0.8749
 1009.5000    44.7266     0.9089
 1010.0000    44.9343     0.9430
 1010.5000    45.1421     0.9395
 1011.0000    45.3498     0.8964
 1011.5000    45.5576     0.8642
 1012.0000    45.7653     0.8538
 1012.5000    45.9731     0.8543
 1013.0000    46.1809     0.8658
 1013.5000    46.3886     0.8663
 1014.0000  -999.2500     0.8668
 1014.5000  -999.2500     0.8783
 1015.0000  -999.2500     0.8790
 1015.5000  -999.2500     0.8903
 1016.0000  -999.2500     0.8894
 1016.5000  -999.2500     0.8666
 1017.0000  -999.2500     0.8349
 1017.5000  -999.2500     0.8146
 1018.0000  -999.2500     0.8056
 1018.5000  -999.2500     0.8062
 1019.0000  -999.2500     0.8068
 1019.5000  -999.2500     0.8048
 1020.0000  -999.2500     0.7979
 1020.5000  -999.2500     0.8023
 1021.0000  -999.2500     0.8067
 1021.5000  -999.2500     0.8111
 1022.0000  -999.2500     0.8155
 1022.5000  -999.2500     0.7504
 1023.0000  -999.2500     0.7172
 1023.5000  -999.2500     0.6948
 1024.0000  -999.2500     0.6943
 1024.5000  -999.2500     0.6937
 1025.0000  -999.2500     0.6932
 1025.5000  -999.2500     0.6927
 1026.0000  -999.2500     0.6920
 1026.5000  -999.2500     0.6807
 1027.0000  -999.2500     0.6802
 1027.5000  -999.2500     0.6928
 1028.0000  -999.2500     0.7147
 1028.5000  -999.2500     0.7384
 1029.0000  -999.2500     0.7737
 1029.5000  -999.2500     0.8132
 1030.0000  -999.2500     0.8324
 1030.5000  -999.2500     0.8370
 1031.0000  -999.2500     0.8320
 1031.5000  -999.2500     0.8463
 1032.0000  -999.2500     0.8723
 1032.5000  -999.2500     0.9054
 1033.0000  -999.2500     0.9340
 1033.5000  -999.2500     0.9559
 1034.0000  -999.2500     0.9672
 1034.5000  -999.2500     0.9611
 1035.0000  -999.2500     0.9493
 1035.5000  -999.2500     0.9375
 1036.0000    38.0948     0.9192
 1036.5000    38.3415     0.8962
 1037.0000    38.5882     0.8804
 1037.5000    38.8350     0.8536
 1038.0000    39.0817     0.8193
 1038.5000    39.3284     0.7851
 1039.0000    39.5752     0.7339
 1039.5000    39.8219     0.6664
 1040.0000    40.0284     0.5895
 1040.5000    39.9607     0.6003
 1041.0000    39.9025     0.6220
 1041.5000    39.8442     0.6439
 1042.0000    39.7860     0.6767
 1042.5000    39.7277     0.6878
 1043.0000    39.6695     0.6979
 1043.5000    39.6112     0.6949
 1044.0000    39.5530     0.6740
 1044.5000    39.4947     0.6627
 1045.0000    39.4365     0.6537
 1045.5000    39.3782     0.6535
 1046.0000    39.3200     0.6534
 1046.5000    39.2639     0.6499
 1047.0000    39.2114     0.6422
 1047.5000    39.1590     0.6421
 1048.0000    39.1065     0.6376
 1048.5000    39.0541     0.6262
 1049.0000    39.0016     0.6198
 1049.5000    38.9492     0.6197
 1050.0000    38.8967     0.6252
 1050.5000    38.8442     0.6424
 1051.0000    38.7918     0.6584
 1051.5000    38.7393     0.6828
 1052.0000    38.6869     0.7164
 1052.5000    38.6344     0.7427
 1053.0000    38.5820     0.7497
 1053.5000    38.5295     0.7656
 1054.0000    38.4770     0.7796
 1054.5000    38.4246     0.7821
 1055.0000    38.3721     0.7819
 1055.5000    38.3197     0.7818
 1056.0000    38.2672     0.7707
 1056.5000    38.2148     0.7488
 1057.0000    38.1623     0.7159
 1057.5000    38.1098     0.6721
 1058.0000    38.0574     0.6282
 1058.5000    38.0049     0.6059
 1059.0000    37.9525     0.5945
 1059.5000    37.9000     0.5832
 1060.0000    37.8561     0.5714
 1060.5000    37.9114     0.5733
 1061.0000    37.9590     0.5751
 1061.5000    38.0065     0.5770
 1062.0000    38.0540     0.5789
 1062.5000    38.1015     0.5807
 1063.0000    38.1490     0.5826
 1063.5000    38.1965     0.5844
 1064.0000    38.2440     0.5863
 1064.5000    38.2915     0.5882
 1065.0000    38.3390     0.5900
 1065.5000    38.3865     0.5919
 1066.0000    38.4340     0.5937
 1066.5000    38.4816     0.5956
 1067.0000    38.5291     0.5975
 1067.5000    38.6047     0.5993
 1068.0000    38.7047     0.6012
 1068.5000    38.8048     0.6030
 1069.0000    38.9048     0.6049
 1069.5000    39.0049     0.6067
 1070.0000    39.1049     0.6086
 1070.5000    39.2050     0.6051
 1071.0000    39.3050     0.5934
 1071.5000    39.4050     0.5817
 1072.0000    39.5051     0.5641
 1072.5000    39.6051     0.5536
 1073.0000    39.7052     0.5466
 1073.5000    39.8052     0.5492
 1074.0000    39.9053     0.5679
 1074.5000    40.0053     0.5905
 1075.0000    40.1053     0.6300
 1075.5000    40.2054     0.7057
 1076.0000    40.3054     0.7934
 1076.5000    40.4055     0.7931
 1077.0000    40.5055     0.6829
 1077.5000    40.6056     0.5618
 1078.0000    40.7056     0.4403
 1078.5000    40.8056     0.3959
 1079.0000    40.9057     0.3852
 1079.5000    41.0057     0.4001
 1080.0000    41.1058     0.4403
 1080.5000    41.1599     0.5129
 1081.0000    41.2141     0.5855
 1081.5000    41.2682     0.6582
 1082.0000    41.3223     0.7308
 1082.5000    41.3765     0.7459
 1083.0000    41.4306     0.7126
 1083.5000    41.4848     0.6904
 1084.0000    41.5389     0.6571
 1084.5000    41.5930     0.6568
 1085.0000    41.6472     0.6676
 1085.5000    41.7013     0.6893
