~VERSION INFORMATION
 VERS.                2.0:   CWLS LOG ASCII STANDARD - VERSION 2.0
 WRAP.                 NO:   ONE LINE PER DEPTH STEP
~WELL INFORMATION
#MNEM.UNIT      DATA TYPE    INFORMATION
#----------   ------------   ------------------------------
 STRT.M         1049.9000:   START DEPTH
 STOP.M         2123.5000:   STOP DEPTH
 STEP.M            0.1000:   STEP LENGTH
 NULL.          -999.2500:   NO VALUE
 COMP. BROWN JOHN E&C INC:   COMPANY
 WELL. NAVAL PETROLEUM RESERVE 3 STX- #34-3:   WELL
 FLD .            WILDCAT:   FIELD
 LOC .       S3 T38N R78W:   LOCATION
 CNTY.            NATRONA:   COUNTY
 STAT.            WYOMING:   STATE
 CTRY. UNITED STATES OF AMERICA:   COUNTRY
 SRVC.            Unknown:   SERVICE COMPANY
 DATE.        04-SEP-1991:   LOGDATE
 API .       490251090400:   API NUMBER
~CURVE INFORMATION
#MNEM.UNIT       API CODE    CURVE DESCRIPTION
#----------   ------------   ------------------------------
 DEPT.M                  :   
 ROP .MIN/FT 91 810 01 00:   RAT OF DRILLING PENETRATION
 TGAS.UNITS  91 830 01 00:   TOTAL GAS FROM HOTWIRE
~PARAMETER INFORMATION
#MNEM.UNIT          VALUE    DESCRIPTION
#----------   ------------   ------------------------------
 EKB .F              5189:   KELLING BUSHING
 EGL .F              5179:   GROUND LEVEL
 DATE.             9-4-91:   RUN DATE
 DD  .F              2123:   DEPTH DRILLER
 CS  .IN            9.625:   CASING SIZE
 BS  .IN             8.75:   BIT SIZE
 BSD .F              2123:   BIT SIZE AT DEPTH
 ENGI.              TOWER:   RECORDING ENGINEER
 WITN.               HUSK:   WITNESSED BY
 CLNT.            A2DTECH:   CLIENT CODE
 ORIG.           5" PRINT:   ORIGIN OF DATA
 UWI .       490251090400:   UNIQUE WELL ID
 DICO. A2D Technologies, Inc.:   DIGITIZING COMPANY
~OTHER INFORMATION
~A  DEPT       ROP         TGAS 
# ...
 1317.2000     0.4653     6.3770
 1317.3000     0.4496     6.5854
 1317.4000     0.4339     6.7329
 1317.5000     0.4206     6.9107
 1317.6000     0.4094     7.0200
 1317.7000     0.3981     7.0523
 1317.8000     0.3868     7.2387
 1317.9000     0.3756     7.4078
 1318.0000     0.3638     7.5858
 1318.1000     0.3518     7.6736
 1318.2000     0.3398     7.7271
 1318.3000     0.3288     7.8921
 1318.4000     0.3382     7.8946
 1318.5000     0.3468     8.0464
 1318.6000     0.3555     8.2242
 1318.7000     0.3642     8.3293
 1318.8000     0.3728     8.3314
 1318.9000     0.3815     8.3336
 1319.0000     0.3902     8.3357
 1319.1000     0.3988     8.4707
 1319.2000     0.4075     8.5543
 1319.3000     0.4152     8.5564
 1319.4000     0.4217     8.5586
 1319.5000     0.4281     8.5610
 1319.6000     0.4346     8.5629
 1319.7000     0.4410     8.5650
 1319.8000     0.4449     8.6443
 1319.9000     0.4469     8.7836
 1320.0000     0.4490     8.7857
 1320.1000     0.4510     8.7879
 1320.2000     0.4530     8.7900
 1320.3000     0.4550     8.7921
 1320.4000     0.4571     8.8543
 1320.5000     0.4591     9.0107
 1320.6000     0.4611     9.0131
 1320.7000     0.4633     9.0150
 1320.8000     0.4651     9.0171
 1320.9000     0.4672     9.0193
 1321.0000     0.4692     9.0643
 1321.1000     0.4712     9.2379
 1321.2000     0.4731     9.2404
 1321.3000     0.4729     9.2421
 1321.4000     0.4727     9.2443
 1321.5000     0.4725     9.2464
 1321.6000     0.4723     9.2744
 1321.7000     0.4721     9.4652
 1321.8000     0.4719     9.4671
 1321.9000     0.4717     9.4693
 1322.0000     0.4715     9.4714
 1322.1000     0.4713     9.4736
 1322.2000     0.4711     9.4757
 1322.3000     0.4709     9.4782
 1322.4000     0.4707     9.4800
 1322.5000     0.4706     9.4821
 1322.6000     0.4704     9.4843
 1322.7000     0.4727     9.4563
 1322.8000     0.4769     9.2744
 1322.9000     0.4812     9.2764
 1323.0000     0.4854     9.2786
 1323.1000     0.4896     9.2807
 1323.2000     0.4955     9.2829
 1323.3000     0.5020     9.2850
 1323.4000     0.5084     9.2875
 1323.5000     0.5149     9.1393
 1323.6000     0.5220     9.0771
 1323.7000     0.5298     9.0063
 1323.8000     0.5384     8.8667
 1323.9000     0.5471     8.8693
 1324.0000     0.5558     8.8714
 1324.1000     0.5641     8.7407
 1324.2000     0.5684     8.6614
 1324.3000     0.5726     8.6079
 1324.4000     0.5768     8.4343
 1324.5000     0.5811     8.2395
 1324.6000     0.5848     8.0872
 1324.7000     0.5868     8.0293
 1324.8000     0.5888     7.9543
 1324.9000     0.5909     7.8193
 1325.0000     0.5929     7.8214
 1325.1000     0.5949     7.8236
 1325.2000     0.5969     7.8257
 1325.3000     0.5989     7.8279
 1325.4000     0.6010     7.7701
 1325.5000     0.6030     7.6176
 1325.6000     0.6038     7.6202
 1325.7000     0.6036     7.6221
 1325.8000     0.6034     7.6243
 1325.9000     0.6032     7.6264
 1326.0000     0.6030     7.6286
 1326.1000     0.6028     7.6307
 1326.2000     0.6026     7.6333
 1326.3000     0.6024     7.4937
 1326.4000     0.6022     7.4229
 1326.5000     0.6020     7.3607
 1326.6000     0.6018     7.2125
 1326.7000     0.6016     7.2152
 1326.8000     0.6015     7.2171
 1326.9000     0.6013     7.0949
 1327.0000     0.6011     7.0071
 1327.1000     0.6009     7.0093
 1327.2000     0.6007     7.0028
 1327.3000     0.6005     6.7997
 1327.4000     0.6003     6.6558
 1327.5000     0.6001     6.4821
 1327.6000     0.5999     6.3771
 1327.7000     0.5997     6.3494
 1327.8000     0.5995     6.1672
 1327.9000     0.5993     6.1693
 1328.0000     0.5991     6.0429
 1328.1000     0.5990     5.8693
 1328.2000     0.5988     5.6956
 1328.3000     0.5986     5.5348
 1328.4000     0.5984     5.5375
 1328.5000     0.5982     5.5393
 1328.6000     0.5980     5.4300
 1328.7000     0.5978     5.3293
 1328.8000     0.5976     5.3314
 1328.9000     0.5974     5.3336
 1329.0000     0.5972     5.1643
 1329.1000     0.5970     4.9908
 1329.2000     0.5968     4.8172
 1329.3000     0.5966     4.6993
 1329.4000     0.5964     4.6843
 1329.5000     0.5963     4.4895
 1329.6000     0.5961     4.3372
 1329.7000     0.5959     4.2793
 1329.8000     0.5957     4.1272
 1329.9000     0.5955     3.8550
 1330.0000     0.5953     3.8571
 1330.1000     0.5951     3.6836
 1330.2000     0.5949     3.5100
 1330.3000     0.5947     3.4350
 1330.4000     0.5972     3.3771
 1330.5000     0.6015     3.2036
 1330.6000     0.6057     3.0131
 1330.7000     0.6100     3.0150
 1330.8000     0.6142     2.8971
 1330.9000     0.6219     2.8050
 1331.0000     0.6306     2.8071
 1331.1000     0.6392     2.8050
 1331.2000     0.6479     2.5976
 1331.3000     0.6570     2.5993
 1331.4000     0.6631     2.6014
 1331.5000     0.6696     2.5393
 1331.6000     0.6760     2.3911
 1331.7000     0.6825     2.3937
 1331.8000     0.6889     2.3957
 1331.9000     0.6954     2.3979
 1332.0000     0.7018     2.4000
 1332.1000     0.7083     2.3549
 1332.2000     0.7147     2.1899
 1332.3000     0.7193     2.1925
 1332.4000     0.7191     2.1943
 1332.5000     0.7190     2.1964
 1332.6000     0.7188     2.1986
 1332.7000     0.7186     2.2007
 1332.8000     0.7184     2.2030
 1332.9000     0.7182     2.2050
 1333.0000     0.7180     2.2071
 1333.1000     0.7178     2.2093
 1333.2000     0.7176     2.2114
 1333.3000     0.7161     2.2136
 1333.4000     0.7137     2.2160
 1333.5000     0.7113     2.2179
 1333.6000     0.7088     2.2200
 1333.7000     0.7064     2.1493
 1333.8000     0.7023     2.0096
 1333.9000     0.6977     2.0122
 1334.0000     0.6931     2.0143
 1334.1000     0.6885     2.0164
 1334.2000     0.6835     2.0186
 1334.3000     0.6771     2.0207
 1334.4000     0.6703     2.0229
 1334.5000     0.6635     2.0253
 1334.6000     0.6566     2.0271
 1334.7000     0.6502     2.0293
 1334.8000     0.6478     2.0314
 1334.9000     0.6454     2.0336
 1335.0000     0.6430     2.0357
 1335.1000     0.6406     2.0379
 1335.2000     0.6370     2.0400
 1335.3000     0.6302     2.0421
 1335.4000     0.6234     2.0443
 1335.5000     0.6165     2.0464
 1335.6000     0.6097     2.0488
 1335.7000     0.6048     2.0507
 1335.8000     0.6024     2.0529
 1335.9000     0.5999     2.0550
 1336.0000     0.5975     2.0571
 1336.1000     0.5951     2.0593
 1336.2000     0.5940     2.0618
 1336.3000     0.5939     2.0636
 1336.4000     0.5937     2.0657
 1336.5000     0.5935     2.0679
 1336.6000     0.5933     2.0700
 1336.7000     0.5931     2.0723
 1336.8000     0.5929     2.0743
 1336.9000     0.5927     2.0764
 1337.0000     0.5925     2.0786
 1337.1000     0.5923     2.0807
 1337.2000     0.5942     2.0829
 1337.3000     0.5962     2.0854
 1337.4000     0.5982     2.0871
 1337.5000     0.6002     2.0893
 1337.6000     0.6023     2.0914
 1337.7000     0.6043     2.0936
 1337.8000     0.6063     2.0958
 1337.9000     0.6083     2.0979
 1338.0000     0.6104     2.1000
 1338.1000     0.6135     2.1021
 1338.2000     0.6200     2.1043
 1338.3000     0.6264     2.1064
 1338.4000     0.6329     2.1089
 1338.5000     0.6393     1.9607
 1338.6000     0.6458     1.8986
 1338.7000     0.6522     1.9007
 1338.8000     0.6587     1.9029
 1338.9000     0.6651     1.9051
 1339.0000     0.6716     1.9071
 1339.1000     0.6754     1.9093
 1339.2000     0.6774     1.9114
 1339.3000     0.6795     1.8578
 1339.4000     0.6815     1.7012
 1339.5000     0.6835     1.7038
 1339.6000     0.6872     1.7057
 1339.7000     0.6914     1.7079
 1339.8000     0.6957     1.6329
 1339.9000     0.6999     1.4979
 1340.0000     0.7045     1.5000
 1340.1000     0.7063     1.5021
 1340.2000     0.7084     1.5043
 1340.3000     0.7104     1.5064
 1340.4000     0.7124     1.5086
 1340.5000     0.7148     1.5107
 1340.6000     0.7213     1.5131
 1340.7000     0.7277     1.5150
 1340.8000     0.7342     1.5171
 1340.9000     0.7406     1.5193
 1341.0000     0.7465     1.5214
 1341.1000     0.7507     1.5236
 1341.2000     0.7550     1.5261
 1341.3000     0.7592     1.5279
 1341.4000     0.7634     1.5300
