~VERSION INFORMATION
 VERS.                2.0:   CWLS LOG ASCII STANDARD - VERSION 2.0
 WRAP.                 NO:   ONE LINE PER DEPTH STEP
~WELL INFORMATION
#MNEM.UNIT      DATA TYPE    INFORMATION
#----------   ------------   ------------------------------
 STRT.F           11.5000:   START DEPTH
 STOP.F          697.0000:   STOP DEPTH
 STEP.F            0.5000:   STEP LENGTH
 NULL.          -999.2500:   NO VALUE
 COMP. FENIX & SCISSON INC:   COMPANY
 WELL.    NPR3 SX-2 #12-2:   WELL
 FLD .             TEAPOT:   FIELD
 LOC .       S2 T38N R78W:   LOCATION
 CNTY.            NATRONA:   COUNTY
 STAT.            WYOMING:   STATE
 CTRY. UNITED STATES OF AMERICA:   COUNTRY
 SRVC.           BIRDWELL:   SERVICE COMPANY
 DATE.        13-JAN-1978:   LOGDATE
 API .       490251055000:   API NUMBER
~CURVE INFORMATION
#MNEM.UNIT       API CODE    CURVE DESCRIPTION
#----------   ------------   ------------------------------
 DEPT.F                  :   
 CALD.IN     45 280 60 00:   CALIPER FROM DENSITY LOG
 CORR.G/C3   45 356 01 00:   DENSITY CORRECTION
 RHOB.G/C3   45 350 01 00:   BULK DENSITY
 GRD .GAPI   45 310 01 00:   GAMMA RAY FROM DENSITY LOG
 DPHI.DEC    45 890 12 00:   DENSITY POROSITY SANDSTONE
 ILD .OHMM   05 120 46 00:   INDUCTION LOG DEEP
 SN  .OHMM   05 040 16 00:   SHORT NORMAL 16"
 SPR .MV     05 010 01 00:   SPONTANEOUS POTENTIAL FROM RES.
~PARAMETER INFORMATION
#MNEM.UNIT          VALUE    DESCRIPTION
#----------   ------------   ------------------------------
 PD  .                 GL:   PERMANENT DATUM
 EPD .F              5094:   ELEVATION PERMANENT DATUM
 LMF .                 KB:   LOG MEASURED FROM
 DAPD.F                 4:   FEET ABOVE PERMANENT DATUM
 DMF .                 KB:   DRILLING MEASURED FROM
 EKB .F              5098:   KELLING BUSHING
 EGL .F              5094:   GROUND LEVEL
 DATE.        13-JAN-1978:   RUN DATE
 RUN .                  1:   RUN NUMBER
 DD  .F               695:   DEPTH DRILLER
 DL  .F               697:   DEPTH LOGGER
 BLI .F               692:   BOTTOM LOG INTERVAL
 TLI .F                30:   TOP LOG INTERVAL
 CS  .IN            8.625:   CASING SIZE
 CBD .F                35:   CASING BOTTOM DRILLER
 CBL .F                35:   CASING BOTTOM LOGGER
 BS  .IN            7.875:   BIT SIZE
 BSD .F               695:   BIT SIZE AT DEPTH
 DFT .                KCL:   DRILLING FLUID TYPE
 DFD .                8.6:   DRILLING FLUID DENSITY
 DFV .                 32:   DRILLING FLUID VISCOSITY
 DFPH.                9.5:   DRILLING FLUID PH
 DFL .                 12:   DRILLING FLUID LOSS
 MSS .           FLOWLINE:   MUD SAMPLE SOURCE
 RMS .OHMM            0.3:   RESISTIVITY MUD SAMPLE
 MST .F                59:   MUD SAMPLE TEMPERATURE
 RMF .OHMM           0.24:   RESISTIVITY MUD FILTRATE SAMPLE
 MFST.F                70:   MUD FILTRATE SAMPLE TEMPERATURE
 RMC .OHMM           0.56:   RESISTIVITY MUD CAKE
 MCST.F                63:   MUD CAKE SAMPLE TEMPERATURE
 MFSS.               MEAS:   MUD FILTRATE SAMPLE SOURCE
 MCSS.               MEAS:   MUD CAKE SAMPLE SOURCE
 RMB .OHMM           0.26:   RESISTIVITY MUD AT BHT
 BHT .F                72:   BOTTOM HOLE TEMPERATURE
 TCS .HRS               2:   TIME CURCULATED STOPPED
 MRT .F                72:   MAXIMUM RECORDED TEMPERATURE
 LUN .               2958:   LOGGING UNIT NUMBER
 LUL .             CASPER:   LOGGING UNIT LOCATION
 ENGI.           MARTINEZ:   RECORDING ENGINEER
 WITN.       MR. MCGINLEY:   WITNESSED BY
 CLNT.            A2DTECH:   CLIENT CODE
 ORIG.           5" PRINT:   ORIGIN OF DATA
 UWI .       490251055000:   UNIQUE WELL ID
 DICO. A2D Technologies, Inc.:   DIGITIZING COMPANY
~OTHER INFORMATION
~A   DEPT     CALD       CORR       RHOB         GRD      DPHI        ILD         SN        SPR   
# ...
  416.5000     8.6191     0.3368     2.4673   111.8606     0.0961    10.3222     9.8469   -24.1677
  417.0000     8.6337     0.3548     2.4770   111.1141     0.0872    10.2494     9.7758   -24.0217
  417.5000     8.6330     0.3713     2.5010   111.4190     0.0761    10.2480     9.7057   -24.0261
  418.0000     8.6324     0.3443     2.5115   112.1742     0.0896    10.2466     9.6361   -24.1816
  418.5000     8.6318     0.3187     2.4889   112.9310     0.0971    10.2511     9.5670   -24.1861
  419.0000     8.6162     0.3067     2.4807   113.3954     0.0956    10.2438     9.4984   -24.1905
  419.5000     8.6156     0.3036     2.4912   113.3684     0.0893    10.2421     9.4958   -24.1950
  420.0000     8.6150     0.3051     2.4964   111.8928     0.0878    10.2407     9.4932   -24.1994
  420.5000     8.5994     0.3066     2.5069   109.3447     0.0800    10.2393     9.5566   -24.2039
  421.0000     8.5988     0.3005     2.5226   104.8446     0.0695    10.0973     9.6204   -24.2085
  421.5000     8.5831     0.2930     2.5338   103.1974     0.0605     9.8205     9.6846   -24.3649
  422.0000     8.5825     0.2825     2.5488   103.3520     0.0476     9.6176     9.8170   -24.3693
  422.5000     8.5669     0.2674     2.5743   105.3083     0.0332     9.6163     9.9512   -24.5248
  423.0000     8.5663     0.2494     2.5983   107.7152     0.0301     9.6818    10.0866   -24.6803
  423.5000     8.5657     0.2238     2.5758   108.3202     0.0614     9.6137    10.1539   -24.6848
  424.0000     8.5650     0.1769     2.5438   108.7751     0.0881     9.4151    10.1511   -24.7392
  424.5000     8.5644     0.0845     2.5072   111.1819     0.1029     9.0886    10.0783   -24.8447
  425.0000     8.5638     0.0501     2.4835   117.4927     0.1044     8.7635    10.0756   -24.8491
  425.5000     8.5632     0.0300     2.4865   123.2028     0.1029     8.3672    10.0729   -24.8535
  426.0000     8.5626     0.0315     2.4820   122.0061     0.1047     8.1379     9.9316   -24.8580
  426.5000     8.5620     0.0374     2.4587   115.9450     0.1074     7.9697     9.6577   -25.0136
  427.0000     8.5614     0.0404     2.4602   110.3885     0.1065     7.8050     9.4565   -25.0181
  427.5000     8.5458     0.0374     2.4654   106.8468     0.1038     7.6968     9.2596   -25.1745
  428.0000     8.5452     0.0298     2.4692   103.5564     0.1014     7.6427     9.1932   -25.1790
  428.5000     8.5446     0.0313     2.4699   104.4618     0.0999     7.5890     9.2545   -25.3345
  429.0000     8.5440     0.0388     2.4691   107.9197     0.0966     7.6937     9.3884   -25.3389
  429.5000     8.5434     0.0448     2.4774   111.0772     0.0933     7.9083     9.5093   -25.1912
  430.0000     8.5429     0.0523     2.4864   110.4811     0.0999     8.0174     9.4405   -25.1967
  430.5000     8.5573     0.0552     2.4878   108.2333     0.1062     8.0163     9.2438   -25.0490
  431.0000     8.5567     0.0582     2.4736   106.8863     0.1086     7.8327     8.9268   -25.0546
  431.5000     8.5560     0.0582     2.4631   104.9388     0.1053     7.4269     8.6207   -25.0590
  432.0000     8.5704     0.0536     2.4608   102.0904     0.0927     7.2233     8.4998   -25.0634
  432.5000     8.5698     0.0566     2.4676   103.8966     0.0882     7.1232     8.3806   -25.0680
  433.0000     8.5692     0.0596     2.4844   107.2044     0.0852     7.1719     8.3783   -25.0725
  433.5000     8.5722     0.0486     2.5000   106.7584     0.0843     7.3209     8.4348   -25.0779
  434.0000     8.5832     0.0427     2.5036   104.2102     0.0838     7.6830     8.6090   -25.0823
  434.5000     8.5825     0.0385     2.5072   102.8578     0.0811     8.2890     8.8484   -25.0868
  435.0000     8.5819     0.0399     2.5094   102.4024     0.0793     8.9429     9.0965   -25.2417
  435.5000     8.5813     0.0414     2.5109   102.4219     0.0775     9.5158     9.4194   -25.2462
  436.0000     8.5657     0.0447     2.5109   103.9288     0.0763     9.7140     9.7406   -25.0997
  436.5000     8.5651     0.0474     2.5109   106.0353     0.0778     9.5023     9.8737   -25.2556
  437.0000     8.5645     0.0488     2.5109   109.0428     0.0817     9.1045     9.8711   -25.2600
  437.5000     8.5789     0.0503     2.5101   110.0982     0.0820     8.6328     9.8684   -25.2644
  438.0000     8.5633     0.0503     2.5079   110.8534     0.0811     8.2238     9.7300   -25.4199
  438.5000     8.5627     0.0487     2.5003   111.1582     0.0859     7.7802     9.5688   -25.4371
  439.0000     8.5620     0.0427     2.4763   111.4629     0.1006     7.4116     9.3938   -25.5801
  439.5000     8.5614     0.0367     2.4456   111.0169     0.1099     7.1588     9.1346   -25.5854
  440.0000     8.5608     0.0532     2.4553   108.4688     0.1114     7.0595     8.7605   -25.5899
  440.5000     8.5603     0.0666     2.4740   105.3200     0.1048     7.0585     8.4600   -25.5943
  441.0000     8.5597     0.0711     2.4905   103.8230     0.0931     7.1065     8.2267   -25.5987
  441.5000     8.5591     0.0695     2.5011   104.1277     0.0862     7.2045     8.1677   -25.4510
  442.0000     8.5584     0.0697     2.4993   104.1341     0.0835     7.7193     8.4656   -25.4566
  442.5000     8.5730     0.0807     2.4957   101.5317     0.0851     8.5176     9.0288   -25.1589
  443.0000     8.5723     0.0980     2.5002    98.7187     0.0893     9.2694     9.8383   -24.7102
  443.5000     8.5717     0.0995     2.4994    98.1394     0.0962     9.9654    10.2529   -24.2614
  444.0000     8.5711     0.0874     2.4852    98.7456     0.1091    10.3862    10.5387   -23.9637
  444.5000     8.5555     0.0799     2.4627   101.0023     0.1217    10.5297    10.6090   -23.5150
  445.0000     8.5549     0.0829     2.4439   103.7094     0.1328    10.6010    10.6054   -23.3434
  445.5000     8.5392     0.0904     2.4252   104.4646     0.1466    10.5996    10.6026   -23.0707
  446.0000     8.5236     0.1053     2.4027   101.4660     0.1556    10.6720    10.6741   -22.9241
  446.5000     8.5229     0.1428     2.3794    98.3173     0.1448    10.5967    10.7453   -22.9297
  447.0000     8.5223     0.1939     2.3644    98.0203     0.1346    10.5953    10.7417   -22.9341
  447.5000     8.5217     0.2314     2.4049    98.7766     0.1418    10.5938    10.8134   -22.9385
  448.0000     8.5363     0.2584     2.3906    98.9301     0.1319    10.5194    10.8855   -22.9430
  448.5000     8.5356     0.3244     2.4258    95.6323     0.1273    10.4395    10.8825   -22.9474
  449.0000     8.5199     0.3619     2.4183    93.3845     0.1460    10.3006    10.8931   -23.0146
  449.5000     8.5193     0.3814     2.4011    94.5902     0.1296    10.2279    10.9523   -23.2460
  450.0000     8.5187     0.4655     2.4618    96.0961     0.1152    10.2265    10.9033   -23.4448
  450.5000     8.5019     0.4638     2.4444    96.7202     0.1242    10.2252    10.9916   -23.6436
  451.0000     8.4985     0.4531     2.4604    97.9450     0.1055    10.3661    11.0799   -23.8671
  451.5000     8.4950     0.4474     2.4518    99.1135     0.1110    10.5094    11.1682   -23.5650
  452.0000     8.4915     0.4473     2.4377    97.6164     0.1251    10.7279    11.2565   -23.2628
  452.5000     8.4881     0.4278     2.4602    95.3686     0.1397    10.9513    11.3447   -23.1118
  453.0000     8.4851     0.4428     2.4055    92.5202     0.1193    11.0258    11.4088   -23.1118
  453.5000     8.4845     0.4517     2.4527    89.0712     0.1172    11.0243    11.4223   -23.1118
  454.0000     8.4689     0.4472     2.4624    88.4739     0.1145    10.9468    11.4866   -23.2628
  454.5000     8.4683     0.4382     2.4646    92.5335     0.1094    10.5613    11.4063   -23.2709
  455.0000     8.4676     0.4321     2.4714    96.8923     0.1124     9.9729    11.1710   -23.4139
  455.5000     8.4519     0.4246     2.4773   105.2993     0.1190     9.2345    10.9406   -23.5650
  456.0000     8.4514     0.4095     2.4601   113.7180     0.1189     8.4638    10.6410   -23.8671
  456.5000     8.4508     0.3990     2.4503   114.8213     0.1009     7.8967    10.3496   -24.0181
