~VERSION INFORMATION
 VERS.                2.0:   CWLS LOG ASCII STANDARD - VERSION 2.0
 WRAP.                 NO:   ONE LINE PER DEPTH STEP
~WELL INFORMATION
#MNEM.UNIT      DATA TYPE    INFORMATION
#----------   ------------   ------------------------------
 STRT.F           20.5000:   START DEPTH
 STOP.F          544.0000:   STOP DEPTH
 STEP.F            0.5000:   STEP LENGTH
 NULL.          -999.2500:   NO VALUE
 COMP. LAWRENCE/ALLISON INC:   COMPANY
 WELL.    45-65 SX #10-10:   WELL
 FLD .             TEAPOT:   FIELD
 LOC .      S10 T38N R78W:   LOCATION
 CNTY.            NATRONA:   COUNTY
 STAT.            WYOMING:   STATE
 CTRY. UNITED STATES OF AMERICA:   COUNTRY
 SRVC.            Unknown:   SERVICE COMPANY
 DATE.        01-SEP-1984:   LOGDATE
 API .       490251098400:   API NUMBER
~CURVE INFORMATION
#MNEM.UNIT       API CODE    CURVE DESCRIPTION
#----------   ------------   ------------------------------
 DEPT.F                  :   
 GRD .GAPI   45 310 01 00:   GAMMA RAY FROM DENSITY LOG
 CALD.IN     45 280 60 00:   CALIPER
 DEN .G/C3   45 350 01 00:   COMPENSATED BULK DENSTIY
 CORR.G/C3   45 356 01 00:   DENSITY CORRECTION
 CNC .DEC    42 890 03 00:   NEUTRON POROSITY SANDSTONE
 PORD.DEC    45 890 12 00:   POROSITY DENSITY SANDSTONE
 AC  .US/F   60 520 00 00:   ACOUSTIC SONIC
 SPR .MV     07 010 01 00:   SPONTANEOUS POTENTIAL
 RILD.OHMM   07 120 46 00:   INDUCTION LOG DEEP RESISTIVITY
 RILM.OHMM   07 120 44 00:   INDUCTION LOG MEDIUM RESISTIVITY
 RFOC.OHMM   07 220 04 00:   RESISTIVITY FOCUSED LOG
~PARAMETER INFORMATION
#MNEM.UNIT          VALUE    DESCRIPTION
#----------   ------------   ------------------------------
 PD  .                 GL:   PERMANENT DATUM
 EPD .F              5208:   ELEVATION PERMANENT DATUM
 LMF .                 KB:   LOG MEASURED FROM
 DAPD.F                12:   FEET ABOVE PERMANENT DATUM
 DMF .                 KB:   DRILLING MEASURED FROM
 EKB .F              5220:   KELLING BUSHING
 EGL .F              5208:   GROUND LEVEL
 DATE.        1-SEPT-1984:   RUN DATE
 RUN .                  1:   RUN NUMBER
 DD  .F               550:   DEPTH DRILLER
 DL  .F               544:   DEPTH LOGGER
 BLI .F               544:   BOTTOM LOG INTERVAL
 TLI .F                30:   TOP LOG INTERVAL
 CBL .F                44:   CASING BOTTOM LOGGER
 BS  .IN            7.875:   BIT SIZE
 BSD .F               550:   BIT SIZE AT DEPTH
 DFT .          KCL WATER:   DRILLING FLUID TYPE
 MSS .               TANK:   MUD SAMPLE SOURCE
 RMS .OHMM           .236:   RESISTIVITY MUD SAMPLE
 MST .F                75:   MUD SAMPLE TEMPERATURE
 TCS .HRS               3:   TIME CURCULATED STOPPED
 MRT .F               100:   MAXIMUM RECORDED TEMPERATURE
 LUN .               4082:   LOGGING UNIT NUMBER
 LUL .               ROOS:   LOGGING UNIT LOCATION
 ENGI.             MILLER:   RECORDING ENGINEER
 WITN.            JOHNSON:   WITNESSED BY
 CLNT.            A2DTECH:   CLIENT CODE
 ORIG.       2", 5" PRINT:   ORIGIN OF DATA
 UWI .       490251098400:   UNIQUE WELL ID
 DICO. A2D Technologies, Inc.:   DIGITIZING COMPANY
~OTHER INFORMATION
~A   DEPT      GRD       CALD        DEN       CORR          CNC     PORD         AC        SPR       RILD       RILM       RFOC   
# ...
  325.5000    85.9907     8.1372     2.4467     0.0549     0.2083     0.1400    94.7633   -47.7890    17.2034    16.0076    18.2207
  326.0000    86.4248     8.1372     2.4464     0.0460     0.2076     0.1417    94.9954   -47.7142    17.0764    15.9424    18.2373
  326.5000    85.0918     8.1372     2.4439     0.0486     0.2112     0.1396    95.4945   -47.6393    16.9503    15.8776    18.2538
  327.0000    81.8165     8.1372     2.4382     0.0463     0.2048     0.1390    95.5700   -47.5642    16.8251    15.7986    18.2704
  327.5000    77.7950     8.1372     2.4324     0.0393     0.2024     0.1448    95.6451   -47.4895    16.7181    15.6290    18.2873
  328.0000    74.4505     8.1372     2.4303     0.0322     0.2032     0.1443    95.7211   -47.4240    16.4531    15.4607    18.3036
  328.5000    74.3173     8.1372     2.4356     0.0392     0.1992     0.1487    95.7942   -47.4255    16.1760    15.2945    18.3276
  329.0000    78.5342     8.1372     2.4410     0.0485     0.2019     0.1402    95.6815   -47.4251    15.9035    15.1300    17.9877
  329.5000    83.7171     8.1372     2.4464     0.0517     0.2045     0.1400    95.4964   -47.4224    15.6356    14.9676    17.3958
  330.0000    86.9606     8.1372     2.4442     0.0551     0.2068     0.1419    95.0460   -47.4395    15.3723    14.8068    16.8234
  330.5000    84.3685     8.1372     2.4410     0.0578     0.2039     0.1415    94.6066   -47.9731    15.1103    14.6522    16.2633
  331.0000    80.1829     8.1372     2.4377     0.0404     0.2046     0.1438    94.2062   -48.5341    14.9799    14.4986    16.4483
  331.5000    76.7909     8.1372     2.4343     0.0195     0.2038     0.1458    93.8011   -49.0962    14.8165    14.3468    16.6286
  332.0000    75.9998     8.1372     2.4346     0.0000     0.2040     0.1467    94.1574   -49.4339    14.6548    14.1965    16.8109
  332.5000    76.5379     8.1372     2.4415     0.0047     0.1970     0.1417    94.5760   -49.6248    14.4949    14.0478    17.0319
  333.0000    80.2722     8.1372     2.4484     0.0133     0.1916     0.1389    94.7671   -49.8076    14.3366    13.9007    16.7447
  333.5000    84.3128     8.1372     2.4505     0.0219     0.1916     0.1394    94.7931   -49.9897    14.1799    13.7548    16.2917
  334.0000    85.2621     8.1372     2.4553     0.0353     0.1903     0.1384    94.4138   -50.1743    14.0259    13.6096    15.8493
  334.5000    84.1261     8.1372     2.4653     0.0499     0.1882     0.1226    93.8017   -50.1828    13.9115    13.5299    15.3844
  335.0000    83.8634     8.1372     2.4727     0.0623     0.1882     0.1250    93.1939   -49.8145    14.1293    13.7022    15.3883
  335.5000    85.1117     8.1372     2.4696     0.0564     0.1883     0.1262    93.0969   -49.4438    14.3063    13.8682    15.5645
  336.0000    86.2224     8.1372     2.4645     0.0494     0.1891     0.1267    93.1782   -49.0765    14.4862    14.0350    15.7333
  336.5000    83.8370     8.1372     2.4641     0.0423     0.1949     0.1284    93.5118   -48.7741    14.6678    14.2038    15.9024
  337.0000    81.2854     8.1372     2.4644     0.0351     0.1965     0.1287    93.8455   -48.6395    14.8351    14.3747    16.0733
  337.5000    79.1708     8.1372     2.4591     0.0393     0.1979     0.1289    94.3207   -48.5096    14.8929    14.5648    16.2633
  338.0000    77.0732     8.1372     2.4537     0.0459     0.1979     0.1355    94.8574   -48.5029    14.9460    14.3455    16.3623
  338.5000    74.9921     8.1372     2.4550     0.0385     0.1920     0.1274    95.4135   -49.2277    14.9994    14.0429    16.7181
  339.0000    73.4177     8.1372     2.4640     0.0292     0.2012     0.1280    95.6127   -49.4383    15.0529    14.1678    16.8788
  339.5000    75.5913     8.1372     2.4723     0.0247     0.1982     0.1303    95.6842   -49.6857    15.1103    14.1651    16.5795
  340.0000    78.1695     8.1372     2.4718     0.0481     0.2080     0.1237    95.5295   -49.9379    14.8938    13.9765    16.3635
  340.5000    80.6760     8.1372     2.4707     0.0720     0.1982     0.1177    95.2789   -50.1854    14.6028    13.7927    16.2633
  341.0000    81.1862     8.1372     2.4792     0.0866     0.1946     0.1197    95.1941   -50.4930    14.3175    13.6114    16.4135
  341.5000    78.5520     8.1372     2.4945     0.0791     0.1992     0.1210    95.1951   -51.0193    14.0379    13.4324    16.1236
  342.0000    75.6542     8.1372     2.5098     0.0720     0.1942     0.0946    95.1938   -51.5459    13.7639    13.2557    15.6185
  342.5000    73.0017     8.1372     2.5224     0.0700     0.1910     0.1026    95.0971   -51.9932    13.4952    13.0815    15.1239
  343.0000    73.5190     8.1371     2.5114     0.0750     0.1920     0.0982    95.0082   -52.0424    13.2318    12.9094    14.8440
  343.5000    76.3887     8.1396     2.4973     0.0719     0.1909     0.1077    95.2093   -52.1043    12.9735    12.7397    14.6326
  344.0000    79.1790     8.1424     2.4892     0.0584     0.1992     0.1126    95.5277   -52.1649    12.7202    12.5722    14.4641
  344.5000    81.5356     8.1453     2.5013     0.0600     0.1952     0.0967    95.6943   -52.4102    12.5728    12.4069    14.2976
  345.0000    82.4251     8.1481     2.5153     0.0883     0.1920     0.0986    95.6943   -52.7619    12.5728    12.2437    14.1685
  345.5000    82.0769     8.1510     2.5212     0.1155     0.1950     0.0959    95.6943   -52.8420    12.5728    12.1189    14.1650
  346.0000    82.3018     8.1539     2.5226     0.1340     0.1924     0.1002    95.7245   -52.9363    13.1206    12.1189    14.1699
  346.5000    83.9139     8.1567     2.5131     0.0986     0.2013     0.1255    95.7871   -53.6121    14.4802    13.1670    14.5665
  347.0000    85.7061     8.1559     2.4871     0.0692     0.2054     0.1198    96.0160   -54.3789    15.9806    14.5279    14.9721
  347.5000    82.6380     8.1545     2.4387     0.0535     0.2079     0.1118    96.7443   -55.1479    17.6364    16.0374    17.5662
  348.0000    75.6368     8.1531     2.3915     0.0681     0.2161     0.1684    99.3657   -55.9165    19.4639    17.7025    20.4490
  348.5000    65.7353     8.1518     2.3482     0.0838     0.2282     0.2026   103.7367   -56.7002    21.4807    19.5399    23.8048
  349.0000    59.4100     8.1504     2.3278     0.0784     0.2373     0.2071   108.1078   -57.3091    23.7065    21.5679    27.7113
  349.5000    56.3112     8.1491     2.3294     0.0722     0.2309     0.2075   111.9975   -58.1094    26.1630    23.8099    31.8347
  350.0000    54.6707     8.1477     2.3327     0.0677     0.2381     0.2068   113.4765   -58.9160    27.9935    25.5094    31.8349
  350.5000    56.5423     8.1463     2.3374     0.0728     0.2084     0.1976   112.4265   -59.8749    29.2886    25.7687    31.0230
  351.0000    62.9407     8.1450     2.3468     0.0775     0.2097     0.1903   109.6055   -61.8878    29.0345    25.7479    30.4216
  351.5000    69.2430     8.1436     2.3715     0.0731     0.2097     0.1999   106.6641   -63.8939    28.5415    25.7520    29.8361
  352.0000    71.2597     8.1423     2.3957     0.0587     0.2080     0.1647   102.7057   -65.3799    28.0569    25.7520    29.3816
  352.5000    70.5498     8.1409     2.4014     0.0446     0.2058     0.1818    98.3916   -67.2267    27.5805    25.7520    29.0440
  353.0000    69.9678     8.1395     2.3777     0.0304     0.2059     0.1902    97.4925   -69.0375    27.1123    25.7520    28.6355
  353.5000    70.5371     8.1382     2.3542     0.0240     0.2068     0.1828    97.5924   -70.8563    26.7164    25.3629    27.7663
  354.0000    71.1135     8.1366     2.3424     0.0323     0.2138     0.1996   100.6600   -72.6741    26.4956    24.6563    26.9235
  354.5000    71.3804     8.1341     2.3564     0.0700     0.2241     0.1864   102.9957   -73.4623    26.2633    23.9694    26.1927
  355.0000    71.2875     8.1318     2.3656     0.0873     0.2172     0.1872   105.1289   -74.3653    26.0330    23.2755    25.9898
  355.5000    71.1921     8.1294     2.3656     0.0686     0.2194     0.1884   106.3842   -75.2162    25.7520    23.4555    26.4333
