~VERSION INFORMATION
 VERS.                2.0:   CWLS LOG ASCII STANDARD - VERSION 2.0
 WRAP.                 NO:   ONE LINE PER DEPTH STEP
~WELL INFORMATION
#MNEM.UNIT      DATA TYPE    INFORMATION
#----------   ------------   ------------------------------
 STRT.F           12.5000:   START DEPTH
 STOP.F          688.0000:   STOP DEPTH
 STEP.F            0.5000:   STEP LENGTH
 NULL.          -999.2500:   NO VALUE
 COMP. FENIX & SCISSON INC:   COMPANY
 WELL. 26-66 SX 11 WO #26-11:   WELL
 FLD .             TEAPOT:   FIELD
 LOC .      S11 T38N R78W:   LOCATION
 CNTY.            NATRONA:   COUNTY
 STAT.            WYOMING:   STATE
 CTRY. UNITED STATES OF AMERICA:   COUNTRY
 SRVC.      Dresser Atlas:   SERVICE COMPANY
 DATE.        28-AUG-1980:   LOGDATE
 API .       490251084700:   API NUMBER
~CURVE INFORMATION
#MNEM.UNIT       API CODE    CURVE DESCRIPTION
#----------   ------------   ------------------------------
 DEPT.F                  :   
 SFL .OHMM   07 220 01 00:   SHALLOW FOCUSED LOG RESISTIVITY
 ILD .OHMM   07 120 46 00:   INDUCTION LOG DEEP
 ILM .OHMM   07 120 44 00:   INDUCTION LOG MEDIUM
 SPR .MV     07 010 01 00:   SPONTANEOUS POTENTIAL
 CORR.G/C3   45 356 01 00:   DENSITY CORRECTION
 RHOB.G/C3   45 350 01 00:   BULK DENSITY
 DPOR.DEC    45 890 12 00:   DENSITY POROSITY SANDSTONE
 NPOR.DEC    42 890 03 00:   NEUTRON POROSITY SANDSTONE
 GRD .GAPI   45 310 01 00:   GAMMA RAY FROM DENSITY LOG
~PARAMETER INFORMATION
#MNEM.UNIT          VALUE    DESCRIPTION
#----------   ------------   ------------------------------
 PD  .                 GL:   PERMANENT DATUM
 EPD .F              5194:   ELEVATION PERMANENT DATUM
 LMF .                 KB:   LOG MEASURED FROM
 DAPD.F                 5:   FEET ABOVE PERMANENT DATUM
 DMF .                 KB:   DRILLING MEASURED FROM
 EKB .F              5199:   KELLING BUSHING
 EGL .F              5194:   GROUND LEVEL
 DATE.          8-28-1980:   RUN DATE
 RUN .                  1:   RUN NUMBER
 DD  .F               700:   DEPTH DRILLER
 DL  .F               689:   DEPTH LOGGER
 BLI .F               688:   BOTTOM LOG INTERVAL
 TLI .F                14:   TOP LOG INTERVAL
 BS  .IN             8.75:   BIT SIZE
 BSD .F               700:   BIT SIZE AT DEPTH
 DFT .                KCL:   DRILLING FLUID TYPE
 DFD .                8.8:   DRILLING FLUID DENSITY
 DFV .                 55:   DRILLING FLUID VISCOSITY
 DFPH.                 11:   DRILLING FLUID PH
 DFL .                  8:   DRILLING FLUID LOSS
 MSS .           FLOWLINE:   MUD SAMPLE SOURCE
 RMS .OHMM            .72:   RESISTIVITY MUD SAMPLE
 MST .F                66:   MUD SAMPLE TEMPERATURE
 RMF .OHMM            .21:   RESISTIVITY MUD FILTRATE SAMPLE
 MFST.F                66:   MUD FILTRATE SAMPLE TEMPERATURE
 RMC .OHMM           1.24:   RESISTIVITY MUD CAKE
 MCST.F                66:   MUD CAKE SAMPLE TEMPERATURE
 MFSS.               MEAS:   MUD FILTRATE SAMPLE SOURCE
 MCSS.               MEAS:   MUD CAKE SAMPLE SOURCE
 BHT .F               100:   BOTTOM HOLE TEMPERATURE
 TCS .HRS               2:   TIME CURCULATED STOPPED
 MRT .F               100:   MAXIMUM RECORDED TEMPERATURE
 LUN .               6240:   LOGGING UNIT NUMBER
 LUL .               RYTN:   LOGGING UNIT LOCATION
 ENGI.           J. GETTY:   RECORDING ENGINEER
 WITN.              FIVAS:   WITNESSED BY
 CLNT.            A2DTECH:   CLIENT CODE
 ORIG.      1" 2.5" PRINT:   ORIGIN OF DATA
 UWI .       490251084700:   UNIQUE WELL ID
 DICO. A2D Technologies, Inc.:   DIGITIZING COMPANY
~OTHER INFORMATION
~A   DEPT      SFL        ILD        ILM        SPR       CORR       RHOB       DPOR         NPOR      GRD   
# ...
  377.5000     8.2983     5.6508     6.2019   -72.0079     0.0127     2.4085     0.1594     0.3136   133.2905
  378.0000     8.3707     5.3872     5.8665   -72.3147     0.0142     2.3925     0.1706     0.3311   130.1314
  378.5000     7.5420     5.1358     5.5493   -72.6276     0.0235     2.3761     0.1809     0.3486   126.9989
  379.0000     6.6398     4.9820     5.3654   -72.7397     0.0329     2.3737     0.1809     0.3615   125.0890
  379.5000     5.8455     4.9820     5.2669   -72.7137     0.0421     2.3913     0.1710     0.3516   125.7865
  380.0000     5.1463     4.9820     5.1702   -72.1496     0.0516     2.4364     0.1506     0.3351   128.2727
  380.5000     4.5307     4.9820     5.0752   -71.6559     0.0609     2.4795     0.1190     0.3056   131.4653
  381.0000     5.2669     4.9820     5.2452   -71.1441     0.0680     2.5063     0.1041     0.2916   129.9658
  381.5000     6.7954     5.2159     5.7426   -70.7056     0.0687     2.5092     0.1004     0.2885   126.1610
  382.0000     7.8450     5.4607     6.2872   -70.7042     0.0623     2.5071     0.1004     0.2953   123.7536
  382.5000     7.6299     5.7170     6.8246   -70.6951     0.0503     2.4864     0.1094     0.2993   126.0803
  383.0000     7.7089     5.9805     7.1271   -70.6965     0.0380     2.4592     0.1268     0.3218   130.6852
  383.5000     7.9302     6.2476     7.4157   -70.7003     0.0317     2.4420     0.1410     0.3234   129.4634
  384.0000     8.1580     6.5265     7.7157   -70.6928     0.0333     2.4551     0.1353     0.3139   127.2799
  384.5000     8.3707     6.8180     7.8123   -70.6864     0.0444     2.4845     0.1184     0.3086   125.6211
  385.0000     8.1036     7.1224     7.8624   -70.4377     0.0517     2.4942     0.1076     0.3028   129.0669
  385.5000     8.1082     7.3684     7.9129   -70.1840     0.0487     2.4897     0.1116     0.3138   131.5805
  386.0000     8.2647     7.4280     7.9637   -69.9188     0.0565     2.5062     0.1058     0.3417   130.4928
  386.5000     8.4242     7.4879     8.0147   -69.6537     0.0656     2.5289     0.0869     0.3385   129.5177
  387.0000     8.5867     7.5485     8.0660   -69.5418     0.0606     2.5168     0.0935     0.3329   129.9059
  387.5000     8.7524     7.6096     8.1176   -69.8326     0.0440     2.4864     0.1106     0.3011   131.4091
  388.0000     9.0147     7.6713     8.1695   -70.1244     0.0283     2.4664     0.1275     0.2725   132.9025
  388.5000     8.9580     7.7334     8.2217   -70.3061     0.0202     2.4771     0.1223     0.2882   132.8848
  389.0000     8.8343     7.7947     8.2741   -70.3119     0.0384     2.4921     0.1139     0.2972   130.9708
  389.5000     8.7124     7.8545     8.3270   -70.3269     0.0545     2.5131     0.1003     0.2972   128.9631
  390.0000     8.5272     7.9145     8.3687   -70.3481     0.0746     2.5355     0.0861     0.3107   127.8482
  390.5000     8.6189     7.9751     8.3589   -70.3653     0.0765     2.6223     0.0470     0.3086   128.6013
  391.0000     8.8240     8.0363     8.3497   -70.3825     0.0724     2.6120     0.0382     0.3052   131.1573
  391.5000     9.0340     8.0979     8.3405   -70.4010     0.0636     2.5745     0.0546     0.3019   130.4303
  392.0000     9.2491     8.1601     8.3311   -70.4192     0.0562     2.5376     0.0793     0.2988   130.0447
  392.5000     9.4692     8.2170     8.3216   -70.4372     0.0483     2.5157     0.0972     0.2900   129.5264
  393.0000     9.2963     8.1576     8.3122   -70.4551     0.0535     2.5225     0.0972     0.3020   130.3766
  393.5000     8.9858     8.1036     8.3028   -70.4731     0.0643     2.5452     0.0841     0.2997   131.2368
  394.0000     8.8223     8.0499     8.2935   -70.4910     0.0696     2.5322     0.0781     0.2963   131.3958
  394.5000     8.7750     7.9965     8.2842   -70.5090     0.0584     2.4999     0.0990     0.2906   129.5867
  395.0000     8.7279     7.9436     8.2749   -70.5269     0.0330     2.4683     0.1179     0.2772   128.2380
  395.5000     8.6809     7.8909     8.2655   -70.5449     0.0098     2.4478     0.1326     0.2789   128.9229
  396.0000     8.6340     7.8387     8.2566   -70.5628     0.0051     2.4388     0.1387     0.2821   130.5979
  396.5000     8.5873     7.7867     8.2479   -70.5809     0.0034     2.4399     0.1434     0.2876   133.4181
  397.0000     8.5305     7.7521     8.2377   -70.5990     0.0061     2.4438     0.1401     0.2923   132.1629
  397.5000     8.6630     7.7239     8.2264   -70.6168     0.0084     2.4490     0.1371     0.2980   130.1738
  398.0000     8.8525     7.6958     8.2187   -70.6346     0.0073     2.4529     0.1355     0.2991   128.7897
  398.5000     8.8455     7.6679     7.9969   -70.6540     0.0151     2.4638     0.1297     0.2996   125.4355
  399.0000     8.8521     7.6400     7.7359   -70.6721     0.0339     2.4735     0.1233     0.3094   120.8575
  399.5000     8.8516     7.3858     7.4834   -70.6858     0.0512     2.4788     0.1207     0.3168   122.5965
  400.0000     8.8510     7.0178     7.2392   -70.7489     0.0514     2.4776     0.1171     0.3141   132.8597
  400.5000     8.3104     6.6682     7.0029   -70.8606     0.0437     2.4706     0.1179     0.2970   135.0841
  401.0000     7.6967     6.3360     6.7743   -70.9598     0.0365     2.4543     0.1265     0.3010   134.9311
  401.5000     7.1282     6.0203     6.5532   -71.0420     0.0292     2.4385     0.1351     0.3199   133.0514
  402.0000     6.6759     5.7202     6.0693   -71.3940     0.0222     2.4213     0.1436     0.3358   131.9898
  402.5000     6.5458     5.4353     5.4306   -71.9756     0.0147     2.3985     0.1522     0.3451   130.8647
  403.0000     6.4183     4.8921     4.8591   -72.5462     0.0117     2.3674     0.1758     0.3445   129.5735
  403.5000     6.2933     4.3231     4.3478   -73.1012     0.0081     2.3410     0.1994     0.3439   128.9750
  404.0000     6.1707     3.8207     3.8903   -73.6583     0.0039     2.2885     0.2183     0.3787   130.0810
  404.5000     5.6917     3.3768     3.4809   -74.2290     0.0071     2.2253     0.2590     0.4142   131.0849
  405.0000     4.9207     2.9845     3.1146   -74.1728     0.0088     2.1553     0.2996     0.4497   132.2564
  405.5000     4.2540     2.6374     2.7868   -73.8669     0.0314     2.1524     0.3108     0.4710   132.7812
  406.0000     3.6777     2.2855     2.5097   -73.5615     0.0663     2.1680     0.3088     0.4495   128.3436
  406.5000     3.1795     2.2901     2.5097   -73.2624     0.0546     2.1967     0.2900     0.4279   120.6466
  407.0000     3.0772     2.2865     2.5566   -72.9611     0.0224     2.2337     0.2661     0.4107   117.1597
  407.5000     3.6248     2.2877     2.7343   -72.7215     0.0317     2.2748     0.2398     0.3943   120.0478
  408.0000     4.4762     2.3296     2.9148   -72.6375     0.0746     2.3156     0.2080     0.3762   127.2053
  408.5000     5.5887     2.5240     3.0772   -72.5449     0.0614     2.3525     0.1997     0.3552   134.2293
  409.0000     5.2762     2.8464     3.5576   -72.4613     0.0360     2.3806     0.1792     0.3331   138.0944
  409.5000     4.8906     3.2108     4.0349   -72.3923     0.0031     2.4146     0.1586     0.3103   140.0770
  410.0000     5.7767     3.6225     4.5763   -72.0890     0.0208     2.4561     0.1357     0.2823   140.1385
  410.5000     7.5699     4.0872     5.1903   -71.5899     0.0688     2.4758     0.1211     0.2858   138.8651
  411.0000     9.7084     4.6114     5.6568   -71.1094     0.0482     2.4609     0.1269     0.2952   138.5753
  411.5000     9.0768     5.2022     5.8630   -70.6248     0.0363     2.4357     0.1365     0.2910   141.7135
  412.0000     8.2643     5.6814     6.0767   -70.1221     0.0226     2.4405     0.1442     0.2773   148.1350
  412.5000     7.7726     6.0616     6.2982   -69.8667     0.0088     2.4537     0.1335     0.2717   146.0125
  413.0000     7.6299     6.1166     6.3392   -69.8792     0.0158     2.4610     0.1299     0.3012   142.8645
  413.5000     7.7291     5.9776     6.3392   -69.8564     0.0225     2.4549     0.1335     0.3369   139.3250
