~VERSION INFORMATION
 VERS.                2.0:   CWLS LOG ASCII STANDARD - VERSION 2.0
 WRAP.                 NO:   ONE LINE PER DEPTH STEP
~WELL INFORMATION
#MNEM.UNIT      DATA TYPE    INFORMATION
#----------   ------------   ------------------------------
 STRT.F            0.0000:   START DEPTH
 STOP.F         2230.0000:   STOP DEPTH
 STEP.F            0.5000:   STEP LENGTH
 NULL.          -999.2500:   NO VALUE
 COMP. LAWRENCE/ALLISON INC:   COMPANY
 WELL. NPR 3 SH X 34 #48-34:   WELL
 FLD .            WILDCAT:   FIELD
 LOC .      S34 T39N R78W:   LOCATION
 CNTY.            NATRONA:   COUNTY
 STAT.            WYOMING:   STATE
 CTRY. UNITED STATES OF AMERICA:   COUNTRY
 SRVC.            Unknown:   SERVICE COMPANY
 DATE.        02-SEP-1991:   LOGDATE
 API .       490251110600:   API NUMBER
~CURVE INFORMATION
#MNEM.UNIT       API CODE    CURVE DESCRIPTION
#----------   ------------   ------------------------------
 DEPT.F                  :   
 ROP .MIN/FT 91 810 01 00:   RAT OF DRILLING PENETRATION
 TGAS.UNITS  91 830 01 00:   TOTAL GAS FROM HOTWIRE
 C1  .VF     91 831 01 00:   METHANE
 C2  .VF     91 832 01 00:   ETHANE
 C3  .VF     91 833 01 00:   PROPANE
 C4  .VF     91 834 01 00:   BUTANE
 TT  .US/F   81 520 00 00:   TRANSIT TIME
 GR  .GAPI   81 310 01 00:   GAMMA RAY FROM CEMENT BOND LOG
~PARAMETER INFORMATION
#MNEM.UNIT          VALUE    DESCRIPTION
#----------   ------------   ------------------------------
 EKB .F              5145:   KELLING BUSHING
 EGL .F              5135:   GROUND LEVEL
 DATE.          09-2-1991:   RUN DATE
 RUN .                  1:   RUN NUMBER
 BLI .F              2400:   BOTTOM LOG INTERVAL
 TLI .F              2200:   TOP LOG INTERVAL
 ENGI.           C. TOWER:   RECORDING ENGINEER
 WITN.            R. HUSK:   WITNESSED BY
 CLNT.            A2DTECH:   CLIENT CODE
 ORIG.           5" PRINT:   ORIGIN OF DATA
 UWI .       490251110600:   UNIQUE WELL ID
 DICO. A2D Technologies, Inc.:   DIGITIZING COMPANY
~OTHER INFORMATION
~A    DEPT     ROP       TGAS         C1         C2         C3         C4          TT         GR  
# ...
 2146.5000     0.5444    99.7500    31.9512     8.5227     7.7215     3.8511  -999.2500  -999.2500
 2147.0000     0.5450    99.7500    31.9512     8.5227     7.7215     3.8607  -999.2500  -999.2500
 2147.5000     0.5445    99.7500    31.9512     8.5227     7.7215     3.8702  -999.2500  -999.2500
 2148.0000     0.5439    99.7500    31.9512     8.5227     7.7215     3.8798  -999.2500  -999.2500
 2148.5000     0.5432    99.7500    31.9512     8.5227     7.7215     3.8894  -999.2500  -999.2500
 2149.0000     0.5425    99.7500    31.9512     8.5227     7.7215     3.8989  -999.2500  -999.2500
 2149.5000     0.5418    99.7500    31.9512     8.5227     7.7215     3.9085  -999.2500  -999.2500
 2150.0000     0.5411    99.7500    31.9512     8.5227     7.7215     3.9181  -999.2500  -999.2500
 2150.5000     0.5404    99.7500    31.9512     8.5227     7.7215     3.9276  -999.2500  -999.2500
 2151.0000     0.5397    99.7500    31.9512     8.5227     7.7215     3.9372  -999.2500  -999.2500
 2151.5000     0.5390    99.7500    31.9512     8.5227     7.7215     3.9468  -999.2500  -999.2500
 2152.0000     0.5384    99.7500    31.9512     8.5227     7.7215     3.9564  -999.2500  -999.2500
 2152.5000     0.5377    99.7500    31.9512     8.5227     7.7215     3.9659  -999.2500  -999.2500
 2153.0000     0.5370    99.7500    31.9512     8.5227     7.7215     3.9755  -999.2500  -999.2500
 2153.5000     0.5363    99.7500    31.9512     8.5227     7.7215     3.9851  -999.2500  -999.2500
 2154.0000     0.5356    99.7500    31.9512     8.5227     7.7215     3.9946  -999.2500  -999.2500
 2154.5000     0.5349    99.7500    31.9512     8.5227     7.7215     4.0042  -999.2500  -999.2500
 2155.0000     0.5342    99.7500    31.9512     8.5227     7.7215     4.0138  -999.2500  -999.2500
 2155.5000     0.5336    99.7500    31.9512     8.5227     7.7215     4.0233  -999.2500  -999.2500
 2156.0000     0.5329    99.7500    31.9511     8.5227     7.7215     4.0329  -999.2500  -999.2500
 2156.5000     0.5322    99.7500    31.9393     8.5229     7.7215     4.0425  -999.2500  -999.2500
 2157.0000     0.5315    99.7500    31.9158     8.5141     7.7215     4.0521  -999.2500  -999.2500
 2157.5000     0.5308    99.7500    31.8922     8.5020     7.7215     4.0616  -999.2500  -999.2500
 2158.0000     0.5301    99.7500    31.8686     8.4898     7.7215     4.0712  -999.2500  -999.2500
 2158.5000     0.5294    99.7500    31.8450     8.4776     7.7216     4.0874  -999.2500  -999.2500
 2159.0000     0.5287    99.7500    31.8214     8.4654     7.7273     4.1064  -999.2500  -999.2500
 2159.5000     0.5281    99.7500    31.7978     8.4532     7.7338     4.1254  -999.2500  -999.2500
 2160.0000     0.5274    99.7500    31.7742     8.4410     7.7402     4.1444  -999.2500  -999.2500
 2160.5000     0.5267    99.7500    31.7506     8.4288     7.7467     4.1634  -999.2500  -999.2500
 2161.0000     0.5260    99.7500    31.7270     8.4165     7.7531     4.1824  -999.2500  -999.2500
 2161.5000     0.5253    99.7500    31.7034     8.4043     7.7596     4.2014  -999.2500  -999.2500
 2162.0000     0.5246    99.7500    31.6798     8.3921     7.7660     4.2204  -999.2500  -999.2500
 2162.5000     0.5239    99.7500    31.6562     8.3799     7.7725     4.2395  -999.2500  -999.2500
 2163.0000     0.5232    99.7500    31.6326     8.3677     7.7789     4.2585  -999.2500  -999.2500
 2163.5000     0.5226    99.7500    31.6090     8.3555     7.7854     4.2775  -999.2500  -999.2500
 2164.0000     0.5219    99.7500    31.5854     8.3433     7.7919     4.2965  -999.2500  -999.2500
 2164.5000     0.5212    99.7500    31.5618     8.3311     7.7983     4.3155  -999.2500  -999.2500
 2165.0000     0.5205    99.7500    31.5382     8.3188     7.8047     4.3345  -999.2500  -999.2500
 2165.5000     0.5202    99.7500    31.5146     8.3064     7.8112     4.3535  -999.2500  -999.2500
 2166.0000     0.5205    99.7500    31.4909     8.2966     7.8177     4.3725  -999.2500  -999.2500
 2166.5000     0.5209    99.7500    31.4672     8.3234     7.8241     4.3915  -999.2500  -999.2500
 2167.0000     0.5212    99.7500    31.4634     8.3499     7.8306     4.4106  -999.2500  -999.2500
 2167.5000     0.5215    99.7500    31.4634     8.3762     7.8370     4.4296  -999.2500  -999.2500
 2168.0000     0.5219    99.7500    31.4634     8.4024     7.8435     4.4486  -999.2500  -999.2500
 2168.5000     0.5222    99.7500    31.4634     8.4286     7.8499     4.4676  -999.2500  -999.2500
 2169.0000     0.5226    99.7500    31.4634     8.4549     7.8564     4.4866  -999.2500  -999.2500
 2169.5000     0.5229    99.7500    31.4634     8.4810     7.8628     4.5056  -999.2500  -999.2500
 2170.0000     0.5232    99.7500    31.4634     8.5068     7.8693     4.5246  -999.2500  -999.2500
 2170.5000     0.5236    99.7500    31.4634     8.5174     7.8757     4.5436  -999.2500  -999.2500
 2171.0000     0.5239    99.7500    31.4634     8.5044     7.8822     4.5634  -999.2500  -999.2500
 2171.5000     0.5243    99.7500    31.4634     8.4915     7.8886     4.5586  -999.2500  -999.2500
 2172.0000     0.5246    99.7500    31.4634     8.4786     7.8951     4.5461  -999.2500  -999.2500
 2172.5000     0.5250    99.7500    31.4634     8.4656     7.9015     4.5333  -999.2500  -999.2500
 2173.0000     0.5253    99.7500    31.4634     8.4526     7.9080     4.5205  -999.2500  -999.2500
 2173.5000     0.5257    99.7500    31.4634     8.4397     7.9144     4.5078  -999.2500  -999.2500
 2174.0000     0.5260    99.7500    31.4634     8.4267     7.9209     4.4951  -999.2500  -999.2500
 2174.5000     0.5263    99.7500    31.4634     8.4137     7.9274     4.4824  -999.2500  -999.2500
 2175.0000     0.5267    99.7500    31.4634     8.4008     7.9338     4.4696  -999.2500  -999.2500
 2175.5000     0.5270    99.7500    31.4634     8.3878     7.9402     4.4569  -999.2500  -999.2500
 2176.0000     0.5274    99.7500    31.4634     8.3749     7.9467     4.4442  -999.2500  -999.2500
 2176.5000     0.5277    99.7500    31.4634     8.3619     7.9531     4.4315  -999.2500  -999.2500
 2177.0000     0.5281    99.7500    31.4634     8.3490     7.9596     4.4187  -999.2500  -999.2500
 2177.5000     0.5284    99.7500    31.4634     8.3360     7.9661     4.4060  -999.2500  -999.2500
 2178.0000     0.5287    99.7500    31.4634     8.3230     7.9723     4.3933  -999.2500  -999.2500
 2178.5000     0.5291    99.7500    31.4634     8.3102     7.9971     4.3806  -999.2500  -999.2500
 2179.0000     0.5294    99.7500    31.4634     8.2971     8.0306     4.3678  -999.2500  -999.2500
 2179.5000     0.5298    99.7500    31.4634     8.2611     8.0643     4.3552  -999.2500  -999.2500
 2180.0000     0.5301    99.7500    31.4634     8.2215     8.0979     4.3425  -999.2500  -999.2500
 2180.5000     0.5304    99.7500    31.4634     8.1820     8.1316     4.3295  -999.2500  -999.2500
 2181.0000     0.5308    99.7500    31.4634     8.1424     8.1653     4.3094  -999.2500  -999.2500
 2181.5000     0.5311    99.7500    31.4634     8.1029     8.1987     4.2680  -999.2500  -999.2500
 2182.0000     0.5315    99.7500    31.4634     8.0683  -999.2500     4.2278  -999.2500  -999.2500
 2182.5000     0.5318    99.7500    31.4634     8.0680  -999.2500     4.1435  -999.2500  -999.2500
 2183.0000     0.5322    99.7510    31.4627     8.0682  -999.2500     4.0404  -999.2500  -999.2500
 2183.5000     0.5325    99.7393    31.4007     8.0193  -999.2500     3.9107  -999.2500  -999.2500
 2184.0000     0.5326    99.6709    31.2976     8.0682  -999.2500    15.0055  -999.2500  -999.2500
 2184.5000     0.5326   101.0499    30.3233     8.0682  -999.2500    77.6663  -999.2500  -999.2500
 2185.0000     0.5326    99.8816    46.6102     8.0682  -999.2500  -999.2500  -999.2500  -999.2500
 2185.5000     0.5326   139.8875   127.8842   379.5454  -999.2500  -999.2500  -999.2500  -999.2500
 2186.0000     0.5326  -999.2500   196.9534   394.0909  -999.2500  -999.2500  -999.2500  -999.2500
 2186.5000     0.5326  -999.2500   296.8984   406.8182  -999.2500  -999.2500  -999.2500  -999.2500
