~VERSION INFORMATION
 VERS.                2.0:   CWLS LOG ASCII STANDARD - VERSION 2.0
 WRAP.                 NO:   ONE LINE PER DEPTH STEP
~WELL INFORMATION
#MNEM.UNIT      DATA TYPE    INFORMATION
#----------   ------------   ------------------------------
 STRT.F           70.0000:   START DEPTH
 STOP.F          884.0000:   STOP DEPTH
 STEP.F            0.5000:   STEP LENGTH
 NULL.          -999.2500:   NO VALUE
 COMP. U S NAVY/INTEX OIL CO:   COMPANY
 WELL.   NPR#3 "S" #16-35:   WELL
 FLD .             TEAPOT:   FIELD
 LOC .      S35 T39N R78W:   LOCATION
 CNTY.            NATRONA:   COUNTY
 STAT.            WYOMING:   STATE
 CTRY. UNITED STATES OF AMERICA:   COUNTRY
 SRVC.         Lane Wells:   SERVICE COMPANY
 DATE.        21-MAR-1960:   LOGDATE
 API .       490250651800:   API NUMBER
~CURVE INFORMATION
#MNEM.UNIT       API CODE    CURVE DESCRIPTION
#----------   ------------   ------------------------------
 DEPT.F                  :   
 SPR .MV     05 010 01 00:   SPONTANEOUS POTENTIAL FROM RES.
 ASN .OHMM   05 040 16 00:   AMPLIFIED SHORT NORMAL 16"
 ILD .OHMM   05 120 46 00:   INDUCTION LOG DEEP
 CILD.MMHO   05 110 46 00:   CONDUCTIVITY INDUCTION LOG DEEP
 GR  .GAPI   30 310 01 00:   GAMMA RAY
~PARAMETER INFORMATION
#MNEM.UNIT          VALUE    DESCRIPTION
#----------   ------------   ------------------------------
 PD  .                 GL:   PERMANENT DATUM
 EPD .F              5091:   ELEVATION PERMANENT DATUM
 LMF .                 KB:   LOG MEASURED FROM
 DAPD.F                 5:   FEET ABOVE PERMANENT DATUM
 DMF .                 KB:   DRILLING MEASURED FROM
 EKB .F              5096:   KELLING BUSHING
 EGL .F              5091:   GROUND LEVEL
 DATE.          3-21-1960:   RUN DATE
 RUN .                  1:   RUN NUMBER
 DD  .F               913:   DEPTH DRILLER
 DL  .F               885:   DEPTH LOGGER
 BLI .F               883:   BOTTOM LOG INTERVAL
 TLI .F                70:   TOP LOG INTERVAL
 CS  .IN            8.625:   CASING SIZE
 CBD .F                12:   CASING BOTTOM DRILLER
 BS  .IN            7.875:   BIT SIZE
 BSD .F               913:   BIT SIZE AT DEPTH
 DFT .   GEL-OIL EMULSION:   DRILLING FLUID TYPE
 DFD .                9.9:   DRILLING FLUID DENSITY
 DFV .                 40:   DRILLING FLUID VISCOSITY
 MSS .           FLOWLINE:   MUD SAMPLE SOURCE
 RMS .OHMM              3:   RESISTIVITY MUD SAMPLE
 MST .F                64:   MUD SAMPLE TEMPERATURE
 RMF .OHMM            2.2:   RESISTIVITY MUD FILTRATE SAMPLE
 MFST.F                64:   MUD FILTRATE SAMPLE TEMPERATURE
 RMC .OHMM              4:   RESISTIVITY MUD CAKE
 MCST.F                64:   MUD CAKE SAMPLE TEMPERATURE
 MFSS.                MUD:   MUD FILTRATE SAMPLE SOURCE
 MCSS.              PRESS:   MUD CAKE SAMPLE SOURCE
 RMB .OHMM            2.7:   RESISTIVITY MUD AT BHT
 BHT .F                70:   BOTTOM HOLE TEMPERATURE
 MRT .F                70:   MAXIMUM RECORDED TEMPERATURE
 LUN .             L-4474:   LOGGING UNIT NUMBER
 LUL .             CASPER:   LOGGING UNIT LOCATION
 ENGI.             NELSON:   RECORDING ENGINEER
 WITN.          JORGENSEN:   WITNESSED BY
 CLNT.            A2DTECH:   CLIENT CODE
 ORIG.      2" & 5" PRINT:   ORIGIN OF DATA
 UWI .       490250651800:   UNIQUE WELL ID
 DICO. A2D Technologies, Inc.:   DIGITIZING COMPANY
~OTHER INFORMATION
~A   DEPT      SPR          ASN      ILD        CILD        GR   
# ...
  680.0000   -22.4060     6.9974     5.1568   214.2561  -999.2500
  680.5000   -22.2406     6.9945     5.1308   212.9640  -999.2500
  681.0000   -22.0744     6.7943     5.1206   214.9393  -999.2500
  681.5000   -21.9223     6.5925     5.1045   216.9145  -999.2500
  682.0000   -21.7431     6.4244     5.0874   219.1981  -999.2500
  682.5000   -21.7787     6.2406     5.0796   223.3656  -999.2500
  683.0000   -21.9672     6.0642     4.9956   228.3038  -999.2500
  683.5000   -22.1136     5.8864     4.8066   233.2420  -999.2500
  684.0000   -22.2945     5.6115     4.6262   239.0749  -999.2500
  684.5000   -22.3686     5.3524     4.4403   248.5398  -999.2500
  685.0000   -22.0877     5.0875     4.2579   258.0047  -999.2500
  685.5000   -21.8652     4.8293     4.0706   267.4696  -999.2500
  686.0000   -22.0559     4.8703     3.9123   276.5566  -999.2500
  686.5000   -22.5052     5.0688     3.9419   275.8719  -999.2500
  687.0000   -22.9364     5.2401     3.9881   275.2135  -999.2500
  687.5000   -23.3535     5.5594     4.0319   274.7642  -999.2500
  688.0000   -23.8275     6.0970     4.0906   267.5943  -999.2500
  688.5000   -23.9369     6.4145     4.2868   253.5582  -999.2500
  689.0000   -23.6550     6.4316     4.4894   240.1544  -999.2500
  689.5000   -23.4381     6.5089     4.6902   230.0371  -999.2500
  690.0000   -23.1876     6.6156     4.8955   223.1236  -999.2500
  690.5000   -22.9543     6.7500     5.0607   219.2832  -999.2500
  691.0000   -22.7124     6.8703     5.1072   216.8141  -999.2500
  691.5000   -22.4740     7.0058     5.1450   214.3450  -999.2500
  692.0000   -22.2350     7.0981     5.1815   211.8759  -999.2500
  692.5000   -21.9963     7.1402     5.2191   209.4068    33.6732
  693.0000   -21.7552     7.1937     5.2562   206.9377    35.8843
  693.5000   -21.5441     7.1999     5.2930   204.8585    36.4272
  694.0000   -21.6389     7.2063     5.3309   205.4303    35.9102
  694.5000   -21.7755     7.2078     5.3667   205.9241    35.2797
  695.0000   -21.8761     7.2171     5.4070   206.4179    35.4603
  695.5000   -21.9197     7.1836     5.4181   206.9117    37.4788
  696.0000   -21.9587     7.1249     5.3976   207.4056    37.6846
  696.5000   -21.9960     7.0764     5.3812   207.8944    42.6128
  697.0000   -22.0344     7.0225     5.3626   208.3922    49.5039
  697.5000   -22.0721     6.9851     5.3452   208.8902    71.2005
  698.0000   -22.1098     6.9602     5.3270   209.3867    36.8767
  698.5000   -22.1474     6.9339     5.3094   209.8822    73.0653
  699.0000   -22.1850     6.9079     5.2913   210.4947    71.3617
  699.5000   -22.2227     6.8740     5.2740   211.4265    73.4417
  700.0000   -22.2604     6.8260     5.2546   212.3568    74.7938
  700.5000   -22.2981     6.7881     5.2363   213.2847    37.4519
  701.0000   -22.3359     6.7954     5.2185   214.2093    40.4458
  701.5000   -22.3736     6.8059     5.1986   215.1304    37.5595
  702.0000   -22.4113     6.8162     5.1799   216.0438    48.8622
  702.5000   -22.4490     6.8207     5.1603   216.9642    57.6665
  703.0000   -22.4867     6.7467     5.1410   218.9885    52.0709
  703.5000   -22.5246     6.6296     5.1219   221.7453    63.8345
  704.0000   -22.5622     6.4529     5.1002   224.4854    55.6797
  704.5000   -22.6003     6.2473     5.0885   227.3986    59.9798
  705.0000   -22.6375     6.0143     5.0289   229.9528    64.1919
  705.5000   -22.6768     5.5742     4.6961   240.0354    54.0089
  706.0000   -22.7121     5.0651     4.3258   253.9269    75.3827
  706.5000   -22.7556     5.2301     4.1507   261.8743    68.8410
  707.0000   -22.7512     5.1940     4.1689   266.7772    74.6847
  707.5000   -22.7022     5.0442     4.1048   271.6801    72.9778
  708.0000   -22.6484     4.8789     4.0684   276.5829    62.1252
  708.5000   -22.6145     5.0619     4.0111   281.4858    80.8712
  709.0000   -22.4772     5.4684     3.9961   285.5189    77.5499
  709.5000   -22.2744     5.7110     4.0336   285.5189    83.1883
  710.0000   -22.1030     5.7199     4.0652   279.8854    69.8646
  710.5000   -21.9276     5.7441     4.1005   273.5350    59.4129
  711.0000   -21.9998     5.5938     4.1320   267.1846    53.2455
  711.5000   -22.2030     5.3505     4.1679   264.6368    73.3859
  712.0000   -21.8557     5.1277     4.1969   267.3101    57.6933
  712.5000   -21.5341     4.8737     4.2406   273.9404    65.3814
  713.0000   -21.6659     4.7586     4.2123   282.2196    68.3584
  713.5000   -21.7932     4.8176     4.0322   290.4859    35.8755
  714.0000   -21.9360     4.9255     3.9115   294.0161    52.5948
  714.5000   -22.0413     4.9342     3.9633   292.7963    26.4471
  715.0000   -22.0129     4.8534     4.0177   291.5484   103.4132
  715.5000   -21.9741     5.0972     4.0761   290.2949   106.8862
  716.0000   -21.9394     5.6427     4.1276   289.1038   106.8862
  716.5000   -21.8930     5.9292     4.1905   277.1285    77.7445
  717.0000   -21.9122     6.1271     4.2313   264.9569    80.7385
  717.5000   -22.3225     6.2080     4.3485   252.7853    78.7867
  718.0000   -22.5794     6.2875     4.4973   245.9825    95.5823
  718.5000   -22.5039     6.3212     4.6446   242.8073    91.5613
  719.0000   -22.3844     6.3114     4.6791   239.6321    79.8452
  719.5000   -22.2719     6.2779     4.5890   237.1226    74.4890
  720.0000   -22.1518     5.9749     4.5197   240.2858    71.8852
  720.5000   -22.0444     5.6733     4.4424   242.9007    71.1312
  721.0000   -21.9128     5.3463     4.3656   250.0104    74.1547
  721.5000   -21.9417     5.1873     4.2941   264.0094    85.9046
  722.0000   -22.1070     5.2444     4.1891   264.0094    85.7073
  722.5000   -22.2441     5.2141     4.2115   264.0094    71.3688
  723.0000   -22.4138     5.5067     4.2680   264.0094    75.6971
  723.5000   -22.6931     6.1254     4.3085   264.0094    75.9895
  724.0000   -23.0250     6.7069     4.4306   253.9866    70.7194
  724.5000   -23.3347     6.9876     4.6777   244.2924    81.8256
  725.0000   -23.6807     7.1593     4.9229   229.4051    79.6780
  725.5000   -23.8741     7.3280     5.1729   215.2049    90.6570
  726.0000   -23.8965     7.5115     5.4092   203.0660    87.1644
  726.5000   -23.9412     7.6114     5.5083   197.8257    80.6176
  727.0000   -23.9955     7.6337     5.5968   193.2497    80.9327
  727.5000   -23.9557     7.6663     5.6655   189.3986    80.4889
  728.0000   -23.4720     7.6959     5.7373   186.6203    74.9353
  728.5000   -22.9388     7.7331     5.8073   183.3491    72.4341
  729.0000   -22.9345     7.7751     5.8800   183.0374    80.0670
  729.5000   -23.3490     7.8184     5.9489   182.6586    75.4562
  730.0000   -23.6800     7.8585     6.0234   182.2797    81.5251
  730.5000   -23.8739     7.9070     6.0486   181.9008    79.0316
  731.0000   -23.6886     7.9257     6.0360   181.5220    73.7661
  731.5000   -23.3597     7.8393     6.0301   181.1431    89.4342
  732.0000   -23.0363     7.7656     6.0209   180.7643    83.5385
  732.5000   -23.0315     7.6783     6.0139   180.3854    79.0117
  733.0000   -23.1817     7.6231     6.0056   180.0065    77.2530
  733.5000   -23.3047     7.7250     5.9988   179.6277    79.4430
  734.0000   -23.4411     7.9639     5.9894   179.2488    75.8344
  734.5000   -23.5707     8.2065     5.9840   178.8700    76.4953
  735.0000   -23.7788     8.2852     5.9709   178.4911    78.3792
  735.5000   -24.0054     7.8711     5.9744   178.1122    83.6765
  736.0000   -23.8626     7.3089     5.8621   185.2535    70.0358
  736.5000   -23.9998     6.7900     5.5411   196.8298    73.1205
  737.0000   -24.3252     6.2160     5.2246   208.4061    75.9192
  737.5000   -24.6098     6.1399     4.9169   219.9823    69.4719
  738.0000   -24.8643     6.5042     4.9211   222.2214    77.3079
  738.5000   -24.5585     7.3520     5.0003   221.4805    76.7606
  739.0000   -24.1688     8.3108     5.0152   219.6744    90.7710
  739.5000   -23.8589     9.1240     5.3443   206.1767    95.2543
  740.0000   -23.8331     9.5438     5.8726   189.2192    85.1690
  740.5000   -23.8422     9.7253     6.3197   172.2231    73.4826
