~VERSION INFORMATION
 VERS.                2.0:   CWLS LOG ASCII STANDARD - VERSION 2.0
 WRAP.                 NO:   ONE LINE PER DEPTH STEP
~WELL INFORMATION
#MNEM.UNIT      DATA TYPE    INFORMATION
#----------   ------------   ------------------------------
 STRT.F           16.0000:   START DEPTH
 STOP.F          634.0000:   STOP DEPTH
 STEP.F            0.5000:   STEP LENGTH
 NULL.          -999.2500:   NO VALUE
 COMP. LAWRENCE/ALLISON INC:   COMPANY
 WELL.    14-15 SX #11-11:   WELL
 FLD .             TEAPOT:   FIELD
 LOC .      S11 T38N R78W:   LOCATION
 CNTY.            NATRONA:   COUNTY
 STAT.            WYOMING:   STATE
 CTRY. UNITED STATES OF AMERICA:   COUNTRY
 SRVC.      Dresser Atlas:   SERVICE COMPANY
 DATE.        06-JAN-1985:   LOGDATE
 API .       490251101700:   API NUMBER
~CURVE INFORMATION
#MNEM.UNIT       API CODE    CURVE DESCRIPTION
#----------   ------------   ------------------------------
 DEPT.F                  :   
 SPR .MV     11 010 01 00:   SPONTANEOUS POTENTIAL FROM RES.
 RD  .OHMM   11 220 10 00:   RESISTIVITY DEEP
 RS  .OHMM   11 220 09 00:   RESISTIVITY SHALLOW
 RMLL.OHMM   20 270 04 00:   RESISTIVITY MICROLATEROLOG
 AC  .US/F   60 520 00 00:   ACCOUSTIC SONIC
 CNC .DEC    42 890 03 00:   COMPENSATED NEUTRON POROSITY SANDSTONE
 PORD.DEC    45 890 12 00:   POROSITY DENSITY SANDSTONE
 GRD .GAPI   45 310 01 00:   GAMMA RAY FROM DENSITY LOG
 CALD.IN     45 280 60 00:   CALIPER FROM DENSITY
 CORR.G/C3   45 356 01 00:   DENSITY CORRECTION
 DEN .G/C3   45 350 01 00:   COMPENSATED BULK DENSTIY
~PARAMETER INFORMATION
#MNEM.UNIT          VALUE    DESCRIPTION
#----------   ------------   ------------------------------
 PD  .                 GL:   PERMANENT DATUM
 EPD .F            5196.8:   ELEVATION PERMANENT DATUM
 LMF .                 KB:   LOG MEASURED FROM
 DMF .                 KB:   DRILLING MEASURED FROM
 EKB .F            5196.8:   KELLING BUSHING
 EGL .F            5196.8:   GROUND LEVEL
 DATE.        06-JAN-1985:   RUN DATE
 RUN .                  1:   RUN NUMBER
 DD  .F               650:   DEPTH DRILLER
 DL  .F               636:   DEPTH LOGGER
 BLI .F               634:   BOTTOM LOG INTERVAL
 CS  .IN            8.625:   CASING SIZE
 CBD .F                20:   CASING BOTTOM DRILLER
 CBL .F                22:   CASING BOTTOM LOGGER
 BS  .IN             6.25:   BIT SIZE
 BSD .F               650:   BIT SIZE AT DEPTH
 DFT .        KCL POLYMER:   DRILLING FLUID TYPE
 RMS .OHMM           .105:   RESISTIVITY MUD SAMPLE
 MST .F                72:   MUD SAMPLE TEMPERATURE
 RMF .OHMM            .08:   RESISTIVITY MUD FILTRATE SAMPLE
 MFST.F                72:   MUD FILTRATE SAMPLE TEMPERATURE
 RMC .OHMM            .13:   RESISTIVITY MUD CAKE
 MCST.F                72:   MUD CAKE SAMPLE TEMPERATURE
 MFSS.               CALC:   MUD FILTRATE SAMPLE SOURCE
 MCSS.               CALC:   MUD CAKE SAMPLE SOURCE
 TCS .HRS               3:   TIME CURCULATED STOPPED
 LUN .               6307:   LOGGING UNIT NUMBER
 LUL .               GLTE:   LOGGING UNIT LOCATION
 ENGI.               MACK:   RECORDING ENGINEER
 WITN.               PAGE:   WITNESSED BY
 CLNT.            A2DTECH:   CLIENT CODE
 ORIG.           5" PRINT:   ORIGIN OF DATA
 UWI .       490251101700:   UNIQUE WELL ID
 DICO. A2D Technologies, Inc.:   DIGITIZING COMPANY
 R1  . POROSITY WITH SANDSTONE:   REMARKS 1
~OTHER INFORMATION
~A   DEPT      SPR         RD         RS       RMLL         AC        CNC       PORD        GRD       CALD       CORR        DEN   
# ...
  321.0000   -75.1788     8.6602     6.7003  9912.8291   110.7719     0.3272     0.0988   114.1100     6.6407     0.1506     2.5184
  321.5000   -75.1849     8.8405     6.7987  9915.3564   112.3531     0.3493     0.1000   108.0700     6.6404     0.1426     2.5169
  322.0000   -75.1909     9.0232     6.8919  7211.9497   113.1072     0.3511     0.1024   108.2733     6.6249     0.1327     2.5147
  322.5000   -75.0459     9.1473     7.0278  1721.0768   113.1846     0.3499     0.1067   112.3168     6.6094     0.1418     2.5110
  323.0000   -75.0519     8.9559     7.0747  1120.1997   112.9613     0.3466     0.1136   123.6248     6.5939     0.1691     2.4959
  323.5000   -75.0579     8.4116     6.6162   714.1262   112.6627     0.3418     0.1188   129.6006     6.5936     0.1707     2.4816
  324.0000   -75.0640     7.4224     5.9191   458.4159   112.1387     0.3494     0.1191   129.3055     6.5781     0.1693     2.4794
  324.5000   -75.0700     6.8753     5.3442   515.4308   111.7650     0.3591     0.1128   120.9922     6.5778     0.1482     2.4878
  325.0000   -75.0760     6.5476     5.1663  1879.2096   111.1657     0.3612     0.1092   109.0481     6.5775     0.1347     2.4970
  325.5000   -74.9295     6.4557     5.1351  5158.9863   109.8145     0.3600     0.1053   109.6608     6.5771     0.1303     2.5039
  326.0000   -74.6334     6.5441     5.1757  4778.8989   108.6138     0.3564     0.1011   113.6017     6.5616     0.1319     2.5123
  326.5000   -74.4884     6.7731     5.2466  2155.4819   107.0371     0.3350     0.1020   118.6016     6.5613     0.1365     2.5146
  327.0000   -74.3434     7.2073     5.5201  9878.6992   105.6107     0.3103     0.1075   122.3913     6.5610     0.1472     2.5071
  327.5000   -73.8977     7.7765     5.8263  9899.6064   104.4851     0.3034     0.1202   123.0020     6.5607     0.1578     2.4784
  328.0000   -73.9038     8.2179     6.1654  9920.5137   103.6603     0.3042     0.1199   118.9267     6.5757     0.1806     2.4822
  328.5000   -73.4566     8.5647     6.5611  9941.4199   103.1362     0.3012     0.1066   113.7904     6.5906     0.2214     2.5027
  329.0000   -73.3101     8.7424     6.8861  9962.3271   102.9129     0.2972     0.1018   110.4696     6.6055     0.2275     2.5127
  329.5000   -72.8630     9.1113     7.2775  9983.2344   102.9151     0.2969     0.0988   109.1156     6.6051     0.2261     2.5196
  330.0000   -72.5684     9.8309     7.7654 10004.1416   102.9174     0.3066     0.0937   107.9128     6.6048     0.1854     2.5250
  330.5000   -72.1212    10.4612     8.0931 10025.0488   101.1903     0.3066     0.0925   108.0715     6.6045     0.1478     2.5272
  331.0000   -71.9762    10.8274     8.4933 10047.9922    99.3128     0.3145     0.0923   108.9867     6.6042     0.1585     2.5273
  331.5000   -71.6786    11.1289     8.7298  7668.2368    98.9391     0.3208     0.0926   110.8097     6.6039     0.1782     2.5274
  332.0000   -71.5336    11.2812     8.7888 10040.4160   100.2306     0.3091     0.0930   116.1122     6.6188     0.1647     2.5274
  332.5000   -71.5411    11.2781     8.7250 10038.2812   102.8083     0.3028     0.0954   117.4812     6.6185     0.1572     2.5259
  333.0000   -71.5472    11.1196     8.7226 10036.3154   105.1243     0.2907     0.1060   116.8836     6.6182     0.1679     2.5208
  333.5000   -71.5532    10.8872     8.6000 10034.3496   105.6584     0.2832     0.1120   112.8063     6.6331     0.1725     2.4974
  334.0000   -71.7103    10.4400     8.5382 10032.3838   106.1053     0.2914     0.1123   114.7099     6.6328     0.1590     2.4937
  334.5000   -72.0184    10.0791     8.4769 10030.4180   106.6974     0.3210     0.1091   120.2768     6.6325     0.1500     2.4975
  335.0000   -72.3266     9.6665     8.3578 10028.4531   107.3764     0.3234     0.1094   120.2219     6.6322     0.1365     2.4983
  335.5000   -72.7858     9.5992     8.2404 10026.4873   108.2057     0.3144     0.1112   119.4929     6.6319     0.1412     2.4984
  336.0000   -72.9429     9.4643     8.0685 10024.5215   108.9598     0.3035     0.1121   123.2844     6.6316     0.1548     2.4985
  336.5000   -73.4021     9.3314     7.9001 10022.5557   109.8643     0.3108     0.1128   124.1977     6.6313     0.1730     2.4948
  337.0000   -73.8613     9.2643     7.7891 10020.5898   111.2951     0.3174     0.1200   121.3326     6.6310     0.1852     2.4895
  337.5000   -74.1694     9.1289     7.6266 10018.6240   112.8763     0.3329     0.1243   117.1041     6.6307     0.1913     2.4714
  338.0000   -74.4776     9.0058     7.4159 10016.6582   113.7808     0.3507     0.1207   114.5379     6.6304     0.1944     2.4813
  338.5000   -74.6347     8.8730     7.2110 10014.6924   111.6025     0.3543     0.1201   115.1524     6.6453     0.1975     2.4791
  339.0000   -74.6407     8.6873     6.8199 10012.7266   109.0484     0.3519     0.1301   117.8830     6.6450     0.2142     2.4641
  339.5000   -74.6467     8.3093     6.3172 10010.7607   106.8702     0.3435     0.1476   125.1522     6.6447     0.2294     2.4346
  340.0000   -74.6528     7.0802     5.7311 10008.7949   105.2183     0.3360     0.1440   126.8239     6.6444     0.1737     2.4324
  340.5000   -74.5076     6.4341     5.2355 10006.8291   104.0927     0.3282     0.1236   123.8056     6.6441     0.1405     2.4643
  341.0000   -74.3625     6.3124     5.1263 10004.8633   102.9671     0.3213     0.1196   118.6694     6.6438     0.1693     2.4833
  341.5000   -74.0665     6.9941     5.6474 10002.8975   101.6911     0.3025     0.1257   117.1622     6.6435     0.2237     2.4689
  342.0000   -73.9216     7.9345     6.5765 10000.9316   101.9941     0.2891     0.1299   117.3228     6.6432     0.2146     2.4637
  342.5000   -73.4745     9.0925     7.2451  9998.9658   103.8009     0.2855     0.1257   118.8432     6.6429     0.1437     2.4774
  343.0000   -73.0273     9.8682     7.7096  9997.0000   104.7188     0.2954     0.1137   121.4225     6.6426     0.1244     2.4873
  343.5000   -72.8822    10.3862     8.0350  9995.0342   104.1813     0.3015     0.1080   127.4814     6.6422     0.1306     2.4995
  344.0000   -72.2841    10.3826     8.1455  9993.0684   103.6572     0.3046     0.1026   128.8505     6.6419     0.1458     2.5102
  344.5000   -71.6859    10.1660     8.2570  9991.1025   103.5090     0.3088     0.0963   127.1938     6.6416     0.1488     2.5223
  345.0000   -71.2388    10.0232     8.3122  9989.1367   103.5865     0.3204     0.0860   119.4857     6.6413     0.1410     2.5360
  345.5000   -70.9427     9.8824     8.3677  9987.1709   103.5887     0.3215     0.0834   115.8624     6.6410     0.1354     2.5429
  346.0000   -70.4955     9.8797     8.4822  9985.2051   103.5910     0.3155     0.0858   116.4891     6.6407     0.1352     2.5407
  346.5000   -70.5016     9.8769     8.5389  9983.2393   103.5990     0.3104     0.0879   121.3560     6.6404     0.1305     2.5378
  347.0000   -70.2055     9.8742     8.7154  9981.2744   103.8296     0.3198     0.0880   123.1750     6.6401     0.1221     2.5386
  347.5000   -70.0604     9.9409     8.7130  9979.3086   104.0489     0.3330     0.0886   124.8990     6.6398     0.1267     2.5356
  348.0000   -70.0665    10.0073     8.7718  3919.7183   103.9479     0.3297     0.0949   125.5821     6.6395     0.1329     2.5243
  348.5000   -70.0725    10.0741     8.8304   724.0410   103.4523     0.3099     0.0959   121.6581     6.6392     0.1571     2.5229
  349.0000   -70.3807    10.0010     8.8273   133.7523   103.2284     0.3012     0.0941   117.2783     6.6389     0.1753     2.5245
  349.5000   -70.5378     9.8606     8.8863    49.0185   103.2312     0.2985     0.0908   116.9813     6.6386     0.1558     2.5283
  350.0000   -70.5438     9.7902     8.8843    29.7716   104.7372     0.2955     0.0794   121.6609     6.6400     0.1438     2.5458
  350.5000   -70.7073     9.7888     8.8837    18.5894   105.6407     0.2988     0.0721   125.1148     6.6500     0.1499     2.5614
  351.0000   -70.8557     9.7873     8.8216    11.5260   105.6422     0.2991     0.0670   128.0552     6.6529     0.1575     2.5731
