~VERSION INFORMATION
 VERS.                2.0:   CWLS LOG ASCII STANDARD - VERSION 2.0
 WRAP.                 NO:   ONE LINE PER DEPTH STEP
~WELL INFORMATION
#MNEM.UNIT      DATA TYPE    INFORMATION
#----------   ------------   ------------------------------
 STRT.F            8.0000:   START DEPTH
 STOP.F          551.0000:   STOP DEPTH
 STEP.F            0.5000:   STEP LENGTH
 NULL.          -999.2500:   NO VALUE
 COMP.   FLUOR DANIEL INC:   COMPANY
 WELL. NAVAL PETROLEUM RESERVE 3 S-10 #31-10:   WELL
 FLD .        TEAPOT DOME:   FIELD
 LOC .      S10 T38N R78W:   LOCATION
 CNTY.            NATRONA:   COUNTY
 STAT.            WYOMING:   STATE
 CTRY. UNITED STATES OF AMERICA:   COUNTRY
 SRVC.       Schlumberger:   SERVICE COMPANY
 DATE.        21-JUN-1970:   LOGDATE
 API .       490251039400:   API NUMBER
~CURVE INFORMATION
#MNEM.UNIT       API CODE    CURVE DESCRIPTION
#----------   ------------   ------------------------------
 DEPT.F                  :   
 SPR .MV     05 010 01 00:   SPONTANEOUS POTENTIAL FROM RES.
 ASN .OHMM   05 041 16 00:   AMPLIFIED SHORT NORMAL 16"
 ILD .OHMM   05 120 46 00:   INDUCTION LOG DEEP
 CILD.MMHO   05 110 46 00:   CONDUCTIVITY INDUCTION LOG DEEP
 CALD.IN     45 280 60 00:   CALIPER FROM DENSITY LOG
 CORR.G/C3   45 356 01 00:   DENSITY CORRECTION
 RHOB.G/C3   45 350 01 00:   BULK DENSITY
 DPHI.DEC    45 890 12 00:   DENSITY POROSITY SANDSTONE
~PARAMETER INFORMATION
#MNEM.UNIT          VALUE    DESCRIPTION
#----------   ------------   ------------------------------
 PD  .                 GL:   PERMANENT DATUM
 EPD .F              5256:   ELEVATION PERMANENT DATUM
 LMF .                 KB:   LOG MEASURED FROM
 DAPD.F                10:   FEET ABOVE PERMANENT DATUM
 DMF .                 KB:   DRILLING MEASURED FROM
 EKB .F              5266:   KELLING BUSHING
 EGL .F              5256:   GROUND LEVEL
 DATE.        27-JUN-1970:   RUN DATE
 RUN .                  1:   RUN NUMBER
 DD  .F               553:   DEPTH DRILLER
 DL  .F               552:   DEPTH LOGGER
 BLI .F               551:   BOTTOM LOG INTERVAL
 TLI .F                44:   TOP LOG INTERVAL
 CS  .IN             9.75:   CASING SIZE
 BS  .IN                9:   BIT SIZE
 BSD .F               553:   BIT SIZE AT DEPTH
 DFT .        FRESHGELMUD:   DRILLING FLUID TYPE
 DFD .                9.2:   DRILLING FLUID DENSITY
 BHT .F               100:   BOTTOM HOLE TEMPERATURE
 TCS .HRS               1:   TIME CURCULATED STOPPED
 MRT .F               100:   MAXIMUM RECORDED TEMPERATURE
 ENGI.             TUSNES:   RECORDING ENGINEER
 WITN.                HAZ:   WITNESSED BY
 CLNT.            A2DTECH:   CLIENT CODE
 ORIG.           5" PRINT:   ORIGIN OF DATA
 UWI .       490251039400:   UNIQUE WELL ID
 DICO. A2D Technologies, Inc.:   DIGITIZING COMPANY
~OTHER INFORMATION
~A    DEPT     SPR        ASN        ILD       CILD         CALD     CORR       RHOB       DPHI   
# ...
  494.0000   -33.4845    17.0916    16.6172    62.4037     8.5608     0.0241     2.3833     0.1473
  494.5000   -33.6444    16.8593    16.3063    62.4037     8.5471     0.0144     2.3578     0.1686
  495.0000   -33.6491    16.7817    16.1471    63.1741     8.5481    -0.0013     2.3503     0.1818
  495.5000   -33.6537    16.7042    15.9159    63.9445     8.5492    -0.0035     2.3451     0.1893
  496.0000   -33.6584    16.5492    15.8364    64.7149     8.5502     0.0101     2.3352     0.1945
  496.5000   -33.3533    16.5491    15.7565    65.4854     8.5513     0.0274     2.3513     0.1734
  497.0000   -33.0474    16.4715    15.7542    65.4854     8.5523     0.0425     2.4009     0.1505
  497.5000   -32.8955    16.4714    15.9063    65.4854     8.5533     0.0523     2.4044     0.1391
  498.0000   -32.5896    16.4712    15.9040    66.2558     8.5544     0.0476     2.4020     0.1373
  498.5000   -32.4389    16.4711    15.9794    66.2558     8.5554     0.0393     2.3878     0.1502
  499.0000   -32.2882    16.4709    15.9766    65.4854     8.5415     0.0307     2.3331     0.1719
  499.5000   -32.1386    16.4707    16.0520    65.4854     8.5425     0.0270     2.3728     0.1638
  500.0000   -32.1429    16.4706    16.0490    64.7149     8.5435     0.0230     2.3938     0.1499
  500.5000   -31.9246    16.2193    16.0463    62.4037     8.5268     0.0191     2.3681     0.1497
  501.0000   -31.6837    16.0984    16.0432    62.4037     8.5101     0.0152     2.3376     0.1523
  501.5000   -31.8420    16.0981    16.0401    62.4037     8.5010     0.0114     2.3264     0.1821
  502.0000   -31.8451    16.0204    15.9599    63.1741     8.5172     0.0069     2.3196     0.1986
  502.5000   -31.8482    15.7879    15.8797    63.9445     8.5331     0.0032     2.3249     0.1908
  503.0000   -31.8513    15.6328    15.7988    65.4854     8.5490     0.0032     2.3429     0.1851
  503.5000   -31.8543    15.4777    15.7186    67.0262     8.5649     0.0100     2.3571     0.1842
  504.0000   -31.7014    15.3226    15.6383    67.7966     8.5808     0.0003     2.3782     0.1634
  504.5000   -31.7052    15.2449    15.5581    68.5670     8.5817     0.0020     2.3879     0.1618
  505.0000   -31.7083    15.2446    15.5551    68.5670     8.5830     0.0036     2.3834     0.1625
  505.5000   -31.5553    15.2443    15.4749    67.7966     8.5985     0.0053     2.3977     0.1621
  506.0000   -31.4038    15.2440    15.4718    67.0262     8.5844     0.0069     2.4179     0.1420
  506.5000   -31.2516    15.3210    15.5467    65.4854     8.5853     0.0065     2.4165     0.1345
  507.0000   -30.9441    15.3981    15.6200    64.7149     8.6012     0.0043     2.3947     0.1481
  507.5000   -30.6367    15.3978    15.6169    63.9445     8.5870     0.0051     2.3692     0.1622
  508.0000   -30.4845    15.3975    15.6918    63.9445     8.5882     0.0171     2.3445     0.1580
  508.5000   -30.1770    15.3972    15.6880    63.1741     8.5738     0.0179     2.4055     0.1490
  509.0000   -30.0248    15.3969    15.7629    63.9445     8.5749     0.0149     2.4067     0.1478
  509.5000   -29.8726    15.3844    15.6047    64.7149     8.5758     0.0165     2.3917     0.1586
  510.0000   -29.6998    15.1640    15.4473    66.2558     8.5615     0.0353     2.4143     0.1628
  510.5000   -29.5414    14.9315    15.2899    67.0516     8.5626     0.0113     2.3888     0.1399
  511.0000   -29.2607    14.7764    15.0554    68.5670     8.5482     0.0046     2.3708     0.1508
  511.5000   -28.9540    14.4665    14.7437    69.4144     8.5494     0.0054     2.3918     0.1517
  512.0000   -28.8010    14.3114    14.5863    70.2105     8.5503     0.0144     2.4345     0.1372
  512.5000   -28.6496    14.1563    14.3518    71.6487     8.5662     0.0250     2.4218     0.1270
  513.0000   -28.4974    14.0786    14.2716    72.4191     8.5670     0.0219     2.4015     0.1378
  513.5000   -28.3444    14.0009    14.1142    72.4191     8.5679     0.0159     2.4286     0.1276
  514.0000   -28.1922    13.9232    13.9568    73.1895     8.5688    -0.0048     2.3993     0.1583
  514.5000   -28.1708    13.8455    13.7994    73.1895     8.5698    -0.0109     2.3828     0.1565
  515.0000   -28.1067    13.7678    13.7191    73.9599     8.5706    -0.0049     2.3948     0.1525
  515.5000   -28.0464    13.6901    13.7159    74.7304     8.5715     0.0012     2.4083     0.1519
  516.0000   -28.0502    13.6898    13.6357    74.7304     8.5724     0.0042     2.3776     0.1491
  516.5000   -28.2086    13.6895    13.6321    74.7304     8.5583     0.0088     2.4061     0.1363
  517.0000   -28.3670    13.6117    13.6291    74.7304     8.5442     0.0118     2.4339     0.1268
  517.5000   -28.5253    13.6114    13.5488    74.7304     8.5451     0.0118     2.4436     0.1230
  518.0000   -28.5284    13.6111    13.5458    74.7304     8.5459     0.0126     2.4174     0.1423
  518.5000   -28.3754    13.6108    13.5427    74.7304     8.5318     0.0074     2.3919     0.1477
  519.0000   -28.2232    13.5331    13.4630    74.7304     8.5327    -0.0001     2.4039     0.1429
  519.5000   -28.0710    13.5328    13.4594    74.7304     8.5184     0.0022     2.4287     0.1330
  520.0000   -27.9188    13.5325    13.4564    74.7304     8.5195     0.0075     2.4392     0.1281
  520.5000   -27.7666    13.5373    13.4533    74.7304     8.5204    -0.0007     2.4359     0.1257
  521.0000   -27.6144    13.6093    13.3731    74.7304     8.5215     0.0016     2.4255     0.1230
  521.5000   -27.6182    13.6089    13.3700    74.7304     8.5224     0.0114     2.4512     0.1194
  522.0000   -27.4653    13.6086    13.3670    75.5008     8.5232     0.0189     2.4647     0.1161
  522.5000   -27.1578    13.6857    13.2868    75.5008     8.5242     0.0174     2.4662     0.1155
  523.0000   -26.8511    13.6854    13.2837    75.5008     8.5251     0.0104     2.4565     0.1152
  523.5000   -26.5436    13.6851    13.2807    75.5008     8.5107     0.0025     2.4595     0.1149
  524.0000   -26.3913    13.6848    13.2776    75.5008     8.5117     0.0183     2.4610     0.1158
  524.5000   -26.0839    13.6071    13.2745    76.2712     8.5127     0.0236     2.4452     0.1224
  525.0000   -25.9317    13.6068    13.1943    76.2712     8.5136     0.0214     2.4250     0.1287
  525.5000   -25.9348    13.5291    13.1141    76.2712     8.4994     0.0117     2.4182     0.1320
  526.0000   -25.9379    13.4514    13.1110    76.2712     8.5004     0.0027     2.4453     0.1302
  526.5000   -25.9410    13.3737    13.1080    76.2712     8.5013     0.0118     2.4565     0.1200
  527.0000   -25.9441    13.2959    13.1049    76.2712     8.4872     0.0178     2.4603     0.1158
  527.5000   -26.1031    13.2182    13.0247    77.0416     8.4881     0.0051     2.4595     0.1179
  528.0000   -26.2615    13.1405    13.0174    77.8120     8.4737    -0.0009     2.4580     0.1191
  528.5000   -26.2645    13.0628    12.9413    77.8120     8.4748     0.0104     2.4550     0.1191
  529.0000   -26.2676    13.0625    12.9383    78.5824     8.4757     0.0149     2.4430     0.1188
  529.5000   -26.2707    13.0622    12.8579    78.5824     8.4766     0.0180     2.4558     0.1191
  530.0000   -26.2738    12.9845    12.7772    79.3529     8.4625     0.0188     2.4851     0.1152
  530.5000   -26.2768    12.9068    12.7741    79.3529     8.4634     0.0068     2.4783     0.1046
  531.0000   -26.2799    12.9065    12.6939    79.3529     8.4643     0.0038     2.4632     0.1161
  531.5000   -25.9716    12.9062    12.6908    80.1233     8.4652     0.0091     2.4827     0.1082
  532.0000   -25.8194    12.9059    12.6106    80.1233     8.4510     0.0115     2.5069     0.0980
  532.5000   -25.6672    12.9056    12.6076    80.1233     8.4519     0.0065     2.4881     0.1004
  533.0000   -25.5158    12.9827    12.6045    79.3529     8.4528    -0.0032     2.4589     0.1148
  533.5000   -25.3628    12.9823    12.5243    80.1233     8.4387    -0.0102     2.4326     0.1242
  534.0000   -25.2114    12.9820    12.5212    79.3529     8.4396     0.0078     2.4844     0.1269
