~VERSION INFORMATION
 VERS.                2.0:   CWLS LOG ASCII STANDARD - VERSION 2.0
 WRAP.                 NO:   ONE LINE PER DEPTH STEP
~WELL INFORMATION
#MNEM.UNIT      DATA TYPE    INFORMATION
#----------   ------------   ------------------------------
 STRT.F           24.5000:   START DEPTH
 STOP.F          750.0000:   STOP DEPTH
 STEP.F            0.5000:   STEP LENGTH
 NULL.          -999.2500:   NO VALUE
 COMP. FENIX & SCISSON INC:   COMPANY
 WELL.    NPR 3 SX #35-11:   WELL
 FLD .          N.P.R. #3:   FIELD
 LOC .      S11 T38N R78W:   LOCATION
 CNTY.            NATRONA:   COUNTY
 STAT.            WYOMING:   STATE
 CTRY. UNITED STATES OF AMERICA:   COUNTRY
 SRVC.            Unknown:   SERVICE COMPANY
 DATE.        23-FEB-1978:   LOGDATE
 API .       490251027200:   API NUMBER
~CURVE INFORMATION
#MNEM.UNIT       API CODE    CURVE DESCRIPTION
#----------   ------------   ------------------------------
 DEPT.F                  :   
 ILM .OHMM   07 120 44 00:   INDUCTION LOG MEDIUM
 ILD .OHMM   07 120 46 00:   INDUCTION LOG DEEP
 LL8 .OHMM   07 220 08 00:   LATEROLOG-8 RES.
 SPR .MV     07 010 01 00:   SPONTANEOUS POTENTIAL
 CALD.IN     45 280 60 00:   CALIPER FROM DENSITY LOG
 CORR.G/C3   45 356 01 00:   DENSITY CORRECTION
 DPHI.DEC    45 890 12 00:   DENSITY POROSITY SANDSTONE
 GRD .GAPI   45 310 01 00:   GAMMA RAY FROM DENSITY LOG
 RHOB.G/C3   45 350 01 00:   BULK DENSITY
 IL  .OHMM   05 120 40 00:   INDUCTION RESISTIVITY
 SN  .OHMM   05 040 16 00:   SHORT NORMAL 16"
 SPR1.MV     05 010 01 00:   SPONTANEOUS POTENTIAL INDUCTION ELECTRICAL LOG
~PARAMETER INFORMATION
#MNEM.UNIT          VALUE    DESCRIPTION
#----------   ------------   ------------------------------
 PD  .                 GL:   PERMANENT DATUM
 EPD .F              5204:   ELEVATION PERMANENT DATUM
 LMF .                 KB:   LOG MEASURED FROM
 DAPD.F                 4:   FEET ABOVE PERMANENT DATUM
 DMF .                 KB:   DRILLING MEASURED FROM
 EKB .F              5208:   KELLING BUSHING
 EGL .F              5204:   GROUND LEVEL
 DATE.        23-FEB-1978:   RUN DATE
 RUN .                  1:   RUN NUMBER
 DD  .F               755:   DEPTH DRILLER
 DL  .F               751:   DEPTH LOGGER
 BLI .F               745:   BOTTOM LOG INTERVAL
 TLI .F                45:   TOP LOG INTERVAL
 CS  .IN            8.625:   CASING SIZE
 CBD .F                40:   CASING BOTTOM DRILLER
 CBL .F                40:   CASING BOTTOM LOGGER
 BS  .IN            7.875:   BIT SIZE
 BSD .F               755:   BIT SIZE AT DEPTH
 DFT .         LIGNO SULF:   DRILLING FLUID TYPE
 DFD .                8.7:   DRILLING FLUID DENSITY
 DFV .                 33:   DRILLING FLUID VISCOSITY
 DFPH.                 10:   DRILLING FLUID PH
 DFL .                  4:   DRILLING FLUID LOSS
 MSS .           FLOWLINE:   MUD SAMPLE SOURCE
 RMS .OHMM            2.0:   RESISTIVITY MUD SAMPLE
 MST .F                60:   MUD SAMPLE TEMPERATURE
 RMF .OHMM            1.9:   RESISTIVITY MUD FILTRATE SAMPLE
 MFST.F                62:   MUD FILTRATE SAMPLE TEMPERATURE
 RMC .OHMM            3.5:   RESISTIVITY MUD CAKE
 MCST.F                60:   MUD CAKE SAMPLE TEMPERATURE
 MFSS.               MEAS:   MUD FILTRATE SAMPLE SOURCE
 RMB .OHMM           1.69:   RESISTIVITY MUD AT BHT
 BHT .F                71:   BOTTOM HOLE TEMPERATURE
 TCS .HRS               3:   TIME CURCULATED STOPPED
 MRT .F                71:   MAXIMUM RECORDED TEMPERATURE
 CLNT.            A2DTECH:   CLIENT CODE
 ORIG.           5" PRINT:   ORIGIN OF DATA
 UWI .       490251027200:   UNIQUE WELL ID
 DICO. A2D Technologies, Inc.:   DIGITIZING COMPANY
~OTHER INFORMATION
~A   DEPT      ILM        ILD        LL8        SPR       CALD       CORR       DPHI         GRD      RHOB         IL         SN       SPR1   
# ...
  556.5000    11.0961    10.9423    11.1403   -28.9991     8.2492     0.0278     0.0991   107.7514     2.4855     9.5935    11.4820   -41.8683
  557.0000    11.9853    11.1322    11.4668   -28.5324     8.2371     0.0249     0.1026   106.3537     2.4803     9.8670    11.8112   -42.3025
  557.5000    12.7674    11.6771    12.4815   -27.9172     8.2096     0.0220     0.1014   100.5079     2.4849    10.4340    12.8457   -42.8864
  558.0000    13.8866    12.4810    14.2670   -27.7478     8.2119     0.0259     0.1086    93.9843     2.4805    11.3442    14.2656   -43.3206
  558.5000    15.4213    13.5358    14.4813   -27.5784     8.2141     0.0456     0.1052    75.1096     2.4776    12.5933    15.0890   -43.6051
  559.0000    17.4858    14.4140    14.9517   -27.5575     8.2164     0.0465     0.1103    68.4372     2.4671    13.7873    16.5251   -43.1411
  559.5000    19.9646    15.1696    24.3975   -28.7254     8.2186     0.0421     0.1178    59.0863     2.4537    14.8863    18.7391   -42.9765
  560.0000    23.4361    17.4089    32.7443   -30.6361     8.2209     0.0399     0.1171    53.8960     2.4492    15.7418    20.0985   -43.4107
  560.5000    24.6216    18.6493    34.2671   -31.8040     8.2077     0.0332     0.1023    57.6463     2.4794    16.4169    20.9646   -44.4437
  561.0000    25.5107    19.9970    27.5311   -33.2690     8.1956     0.0432     0.1131    64.3668     2.4687    16.8850    21.4160   -45.3270
  561.5000    26.4320    21.0025    23.3257   -33.9911     8.1824     0.0540     0.1374    73.0219     2.4163    17.1270    21.8748   -46.2103
  562.0000    26.2703    22.0444    22.1353   -34.1241     8.1554     0.0464     0.1609    76.7662     2.3529    17.1329    21.2852   -46.9439
  562.5000    25.2197    23.1545    22.8538   -33.8008     8.1398     0.0601     0.2036    76.1950     2.3267    17.0189    21.1442   -47.2284
  563.0000    24.0437    23.0023    23.8672   -32.5913     8.0832     0.0549     0.2117    76.3939     2.3139    16.7916    21.0063   -47.2135
  563.5000    23.0821    22.8550    23.7140   -31.6789     8.0275     0.0445     0.2159    77.6503     2.3015    16.4513    20.8693   -47.0488
  564.0000    22.3132    22.2462    22.5105   -31.5094     7.9996     0.0363     0.2026    79.4406     2.3108    16.2288    20.3068   -46.8842
  564.5000    21.7200    21.3723    21.0260   -31.0428     8.0022     0.0326     0.1917    81.0933     2.3281    16.0120    19.8954   -46.7196
  565.0000    21.5867    20.9592    20.5569   -30.7248     8.0343     0.0342     0.1882    83.0159     2.3380    16.0176    19.3571   -46.5550
  565.5000    21.4546    20.6905    21.1146   -30.5553     8.0515     0.0359     0.1916    82.7322     2.3404    15.9110    18.9649   -45.9413
  566.0000    21.4722    20.7092    21.2561   -29.9401     8.0686     0.0307     0.1948    78.5896     2.3360    15.8079    18.5788   -45.0282
  566.5000    21.3408    20.5852    20.7736   -29.7707     8.0858     0.0324     0.1936    75.7863     2.3338    15.7026    18.3314   -44.2648
  567.0000    20.9181    20.4620    20.2120   -29.4527     8.1030     0.0513     0.1848    75.3639     2.3392    15.2793    18.0836   -44.3996
  567.5000    20.6459    20.4805    20.0659   -29.2832     8.1201     0.0401     0.1772    74.7928     2.3558    15.0538    17.9325   -44.6841
  568.0000    20.6629    20.2178    20.3934   -29.2624     8.1224     0.0523     0.1865    74.0728     2.3454    14.7672    17.7247   -44.8189
  568.5000    20.6794    19.9588    20.2453   -29.6873     8.1247     0.0373     0.1883    74.8409     2.3425    14.5620    17.2469   -44.6543
  569.0000    20.4108    19.7029    19.9484   -29.8202     8.1418     0.0314     0.1750    77.5435     2.3576    14.3618    17.0156   -44.1903
  569.5000    19.8682    19.7206    19.7088   -29.9480     8.1739     0.0248     0.1587    79.5021     2.3818    14.1797    16.7242   -43.4268
  570.0000    19.3400    19.2010    19.3697   -29.7733     8.1911     0.0166     0.1535    79.8238     2.3985    14.1847    16.3331   -43.1125
  570.5000    18.9569    18.5664    19.3854   -29.6039     8.1933     0.0190     0.1552    81.0384     2.3918    14.0915    16.1140   -43.2473
  571.0000    18.9721    18.4550    19.4024   -28.9886     8.2105     0.0258     0.1612    82.6994     2.3836    14.1946    16.0073   -43.3821
  571.5000    19.2524    18.4720    19.4259   -28.3734     8.1829     0.0342     0.1642    80.9377     2.3777    14.1013    15.9028   -43.3672
  572.0000    19.8098    18.7455    19.6569   -28.0554     8.0809     0.0457     0.1662    75.4558     2.3755    14.1062    15.9112   -43.2026
  572.5000    20.3833    19.0231    19.9563   -27.7374     8.0235     0.0472     0.1632    72.3549     2.3809    14.1111    15.9170   -43.1877
  573.0000    21.1194    19.7087    20.4234   -27.8651     8.0458     0.0534     0.1574    71.1885     2.3878    14.1160    15.9237   -43.1728
  573.5000    21.7309    20.4189    20.6887   -28.1749     8.1340     0.0513     0.1468    70.9089     2.3969    14.2194    15.9311   -43.1579
  574.0000    22.5156    21.0093    21.5107   -28.2744     8.1639     0.0649     0.1338    72.1295     2.4121    14.2243    16.0491   -43.5921
  574.5000    23.6546    21.3205    23.0495   -28.2526     8.1512     0.0559     0.1184    73.3440     2.4468    14.2293    16.0550   -44.1760
  575.0000    23.8650    21.6362    23.7972   -28.2318     8.1833     0.0454     0.1169    73.0645     2.4605    14.3332    16.0617   -44.9096
  575.5000    23.0456    21.6557    23.4611   -28.2110     8.2303     0.0378     0.1246    72.9397     2.4290    14.3382    16.0693   -45.7929
  576.0000    21.6684    21.6752    22.8268   -28.4881     8.2176     0.0300     0.1619    77.3871     2.3824    14.3434    16.0760   -46.3768
  576.5000    20.6581    21.3973    22.1074   -28.4666     8.2049     0.0415     0.1655    81.0346     2.3794    14.3484    16.0827   -46.0624
  577.0000    19.6948    21.1182    21.1580   -28.2972     8.1923     0.0360     0.1649    81.6429     2.3728    14.3534    16.0886   -45.8978
  577.5000    19.3008    20.8522    20.0566   -28.2770     8.2095     0.0234     0.1738    82.4110     2.3699    14.2579    15.9834   -45.8829
  578.0000    19.4545    20.0245    19.7307   -28.2556     8.2118     0.0168     0.1801    83.1791     2.3594    14.1642    15.9903   -45.8680
  578.5000    19.6056    19.9002    20.0524   -28.2348     8.2140     0.0170     0.1834    79.4830     2.3520    14.0711    15.8858   -46.3022
  579.0000    19.6212    19.7811    19.8774   -28.2140     8.2163     0.0254     0.1858    80.1023     2.3483    13.9787    15.8935   -46.5867
  579.5000    19.6369    19.8033    19.3761   -28.0446     8.2037     0.0300     0.1767    80.7156     2.3522    13.8577    15.6803   -46.7215
  580.0000    19.6526    19.8212    19.2593   -27.8653     8.2203     0.0489     0.1489    80.0016     2.3922    13.7582    15.5764   -46.8563
  580.5000    19.6683    20.1147    19.2775   -27.4086     8.1188     0.0400     0.1353    79.1328     2.4134    13.7057    15.4748   -46.8413
  581.0000    19.5440    20.2722    19.6208   -27.3878     8.0609     0.0258     0.1292    78.8532     2.4278    13.7110    15.3227   -46.8264
  581.5000    18.7662    20.1509    18.6541   -27.3670     8.0482     0.0267     0.1214    81.1155     2.4409    13.6197    15.1677   -46.8114
  582.0000    17.7675    18.5661    17.2899   -27.3462     8.1405     0.0367     0.1433    86.0503     2.4322    13.6256    14.9658   -46.7940
  582.5000    16.8219    17.7065    16.3651   -27.3254     8.1874     0.0355     0.1420    89.0505     2.4179    13.5349    14.7650   -46.6317
  583.0000    16.0376    17.2399    15.9288   -27.3046     8.1599     0.0406     0.1507    89.8186     2.3981    13.5408    14.6672   -46.6130
  583.5000    15.8261    16.8981    15.8326   -27.2838     8.1617     0.0226     0.1706    88.8010     2.3715    13.5456    14.5715   -46.4521
  584.0000    16.0632    16.6815    15.9584   -27.2629     8.1489     0.0174     0.1721    87.3370     2.3643    13.5496    14.4765   -46.4321
