~VERSION INFORMATION
 VERS.                2.0:   CWLS LOG ASCII STANDARD - VERSION 2.0
 WRAP.                 NO:   ONE LINE PER DEPTH STEP
~WELL INFORMATION
#MNEM.UNIT      DATA TYPE    INFORMATION
#----------   ------------   ------------------------------
 STRT.F            4.0000:   START DEPTH
 STOP.F         1997.5000:   STOP DEPTH
 STEP.F            0.5000:   STEP LENGTH
 NULL.          -999.2500:   NO VALUE
 COMP. LAWRENCE/ALLISON INC:   COMPANY
 WELL. NPR 3 66 SX #32-11:   WELL
 FLD .             TEAPOT:   FIELD
 LOC .      S11 T38N R78W:   LOCATION
 CNTY.            NATRONA:   COUNTY
 STAT.            WYOMING:   STATE
 CTRY. UNITED STATES OF AMERICA:   COUNTRY
 SRVC.      NL McCullough:   SERVICE COMPANY
 DATE.        16-SEP-1988:   LOGDATE
 API .       490251108600:   API NUMBER
~CURVE INFORMATION
#MNEM.UNIT       API CODE    CURVE DESCRIPTION
#----------   ------------   ------------------------------
 DEPT.F                  :   
 ROP .MIN/FT 91 810 01 00:   RATE OF DRILLING PENETRATION
 GR  .GAPI   81 310 01 00:   GAMMA RAY FROM CEMENT BOND LOG
 TGAS.UNITS  91 830 01 00:   TOTAL GAS FROM HOTWIRE
~PARAMETER INFORMATION
#MNEM.UNIT          VALUE    DESCRIPTION
#----------   ------------   ------------------------------
 PD  .                 GL:   PERMANENT DATUM
 EPD .F              5170:   ELEVATION PERMANENT DATUM
 LMF .                 KB:   LOG MEASURED FROM
 DMF .                 KB:   DRILLING MEASURED FROM
 EKB .F              5170:   KELLING BUSHING
 EGL .F              5170:   GROUND LEVEL
 DATE.        16-SEP-1988:   RUN DATE
 RUN .                  1:   RUN NUMBER
 DD  .F               837:   DEPTH DRILLER
 DL  .F               737:   DEPTH LOGGER
 BLI .F               733:   BOTTOM LOG INTERVAL
 CS  .IN              5.5:   CASING SIZE
 CBD .F               836:   CASING BOTTOM DRILLER
 BSD .F               837:   BIT SIZE AT DEPTH
 DFT .              WATER:   DRILLING FLUID TYPE
 TCS .HRS             1.5:   TIME CURCULATED STOPPED
 ENGI.          BANGERTER:   RECORDING ENGINEER
 WITN.               LOWE:   WITNESSED BY
 CLNT.            A2DTECH:   CLIENT CODE
 ORIG.           5" PRINT:   ORIGIN OF DATA
 UWI .       490251108600:   UNIQUE WELL ID
 DICO. A2D Technologies, Inc.:   DIGITIZING COMPANY
~OTHER INFORMATION
~A    DEPT     ROP          GR      TGAS   
# ...
 1278.0000     0.2991  -999.2500    28.3828
 1278.5000     0.2992  -999.2500    26.2606
 1279.0000     0.2993  -999.2500    16.8543
 1279.5000     0.2994  -999.2500    15.7874
 1280.0000     0.2995  -999.2500    14.7205
 1280.5000     0.2996  -999.2500    14.7513
 1281.0000     0.2997  -999.2500    14.7855
 1281.5000     0.2998  -999.2500    14.8196
 1282.0000     0.2999  -999.2500    14.8538
 1282.5000     0.3000  -999.2500    14.8879
 1283.0000     0.3001  -999.2500    14.9221
 1283.5000     0.3002  -999.2500    14.9563
 1284.0000     0.3003  -999.2500    14.9904
 1284.5000     0.3004  -999.2500    15.0246
 1285.0000     0.3006  -999.2500    15.0587
 1285.5000     0.3007  -999.2500    15.0929
 1286.0000     0.3008  -999.2500    15.1270
 1286.5000     0.3009  -999.2500    15.1612
 1287.0000     0.3010  -999.2500    15.1953
 1287.5000     0.3011  -999.2500    15.2295
 1288.0000     0.3012  -999.2500    15.2636
 1288.5000     0.3013  -999.2500    15.2978
 1289.0000     0.3014  -999.2500    15.3319
 1289.5000     0.3015  -999.2500    15.3661
 1290.0000     0.3016  -999.2500    15.4002
 1290.5000     0.3017  -999.2500    15.4344
 1291.0000     0.3018  -999.2500    15.4685
 1291.5000     0.3019  -999.2500    15.5027
 1292.0000     0.3020  -999.2500    15.5368
 1292.5000     0.3021  -999.2500    15.5710
 1293.0000     0.3022  -999.2500    15.6051
 1293.5000     0.3023  -999.2500    15.6393
 1294.0000     0.3024  -999.2500    15.6734
 1294.5000     0.3025  -999.2500    15.7076
 1295.0000     0.3026  -999.2500    15.7417
 1295.5000     0.3027  -999.2500    15.7759
 1296.0000     0.3028  -999.2500    16.2062
 1296.5000     0.3029  -999.2500    19.3973
 1297.0000     0.3030  -999.2500    22.7968
 1297.5000     0.3031  -999.2500    25.8310
 1298.0000     0.3032  -999.2500    23.3088
 1298.5000     0.3033  -999.2500    18.1159
 1299.0000     0.3034  -999.2500    16.6521
 1299.5000     0.3035  -999.2500    16.2261
 1300.0000     0.3036  -999.2500    15.5404
 1300.5000     0.3034  -999.2500    15.4778
 1301.0000     0.3032  -999.2500    15.4153
 1301.5000     0.3030  -999.2500    15.3527
 1302.0000     0.3028  -999.2500    15.2902
 1302.5000     0.3026  -999.2500    15.2277
 1303.0000     0.3024  -999.2500    15.1651
 1303.5000     0.3022  -999.2500    15.1026
 1304.0000     0.3020  -999.2500    15.0400
 1304.5000     0.3018  -999.2500    14.9775
 1305.0000     0.3016  -999.2500    14.9149
 1305.5000     0.3014  -999.2500    14.8524
 1306.0000     0.3012  -999.2500    14.7899
 1306.5000     0.3010  -999.2500    14.7273
 1307.0000     0.3008  -999.2500    14.6648
 1307.5000     0.3006  -999.2500    14.6022
 1308.0000     0.3004  -999.2500    14.5397
 1308.5000     0.3002  -999.2500    14.4772
 1309.0000     0.3000  -999.2500    14.4146
 1309.5000     0.2998  -999.2500    14.3521
 1310.0000     0.2996  -999.2500    14.2895
 1310.5000     0.2994  -999.2500    14.2270
 1311.0000     0.2992  -999.2500    14.1645
 1311.5000     0.2990  -999.2500    14.1019
 1312.0000     0.2988  -999.2500    14.0394
 1312.5000     0.2986  -999.2500    13.9768
 1313.0000     0.2984  -999.2500    13.9143
 1313.5000     0.2982  -999.2500    13.8518
 1314.0000     0.2980  -999.2500    13.7892
 1314.5000     0.2978  -999.2500    13.7267
 1315.0000     0.2975  -999.2500    13.6641
 1315.5000     0.2973  -999.2500    13.6016
 1316.0000     0.2971  -999.2500    13.5390
 1316.5000     0.2969  -999.2500    15.2833
 1317.0000     0.2967  -999.2500    20.0343
 1317.5000     0.2965  -999.2500    25.3730
 1318.0000     0.2963  -999.2500    26.2328
 1318.5000     0.2961  -999.2500    21.7852
 1319.0000     0.2959  -999.2500    16.3844
 1319.5000     0.2957  -999.2500    14.3399
 1320.0000     0.2955  -999.2500    14.3088
 1320.5000     0.2953  -999.2500    14.2992
 1321.0000     0.2951  -999.2500    14.2990
 1321.5000     0.2949  -999.2500    14.2989
 1322.0000     0.2947  -999.2500    14.2988
 1322.5000     0.2945  -999.2500    14.2987
 1323.0000     0.2943  -999.2500    14.2985
 1323.5000     0.2941  -999.2500    14.2984
 1324.0000     0.2939  -999.2500    14.2983
 1324.5000     0.2937  -999.2500    14.2982
 1325.0000     0.2935  -999.2500    14.2980
 1325.5000     0.2933  -999.2500    14.2979
 1326.0000     0.2931  -999.2500    14.2978
 1326.5000     0.2929  -999.2500    14.2977
 1327.0000     0.2927  -999.2500    14.2975
 1327.5000     0.2925  -999.2500    14.2974
 1328.0000     0.2923  -999.2500    14.2973
 1328.5000     0.2921  -999.2500    14.2972
 1329.0000     0.2919  -999.2500    14.2970
 1329.5000     0.2917  -999.2500    14.2969
 1330.0000     0.2915  -999.2500    14.2968
 1330.5000     0.2913  -999.2500    14.2967
 1331.0000     0.2911  -999.2500    14.2965
 1331.5000     0.2909  -999.2500    14.2964
 1332.0000     0.2907  -999.2500    14.2963
 1332.5000     0.2905  -999.2500    14.2962
 1333.0000     0.2903  -999.2500    14.2960
 1333.5000     0.2901  -999.2500    14.2959
 1334.0000     0.2899  -999.2500    14.2958
 1334.5000     0.2897  -999.2500    14.2957
 1335.0000     0.2895  -999.2500    14.2955
 1335.5000     0.2893  -999.2500    14.2954
 1336.0000     0.2891  -999.2500    14.2953
 1336.5000     0.2889  -999.2500    14.2952
 1337.0000     0.2887  -999.2500    15.2625
 1337.5000     0.2885  -999.2500    20.3703
 1338.0000     0.2883  -999.2500    24.9952
 1338.5000     0.2880  -999.2500    21.7503
 1339.0000     0.2878  -999.2500    18.3111
 1339.5000     0.2876  -999.2500    18.2800
 1340.0000     0.2874  -999.2500    18.2488
 1340.5000     0.2872  -999.2500    18.2177
 1341.0000     0.2870  -999.2500    18.1866
 1341.5000     0.2868  -999.2500    18.1555
 1342.0000     0.2866  -999.2500    18.1244
 1342.5000     0.2864  -999.2500    18.0933
 1343.0000     0.2862  -999.2500    18.0622
 1343.5000     0.2860  -999.2500    18.0311
 1344.0000     0.2858  -999.2500    18.0000
 1344.5000     0.2856  -999.2500    17.9689
 1345.0000     0.2854  -999.2500    17.9378
 1345.5000     0.2852  -999.2500    17.9067
 1346.0000     0.2850  -999.2500    17.8756
 1346.5000     0.2848  -999.2500    17.8445
 1347.0000     0.2846  -999.2500    17.8134
 1347.5000     0.2844  -999.2500    17.7823
 1348.0000     0.2842  -999.2500    17.7512
 1348.5000     0.2840  -999.2500    17.7200
 1349.0000     0.2838  -999.2500    17.6889
 1349.5000     0.2836  -999.2500    17.6578
 1350.0000     0.2834  -999.2500    17.6267
 1350.5000     0.2833  -999.2500    17.4401
 1351.0000     0.2832  -999.2500    17.2535
 1351.5000     0.2831  -999.2500    17.0668
 1352.0000     0.2830  -999.2500    16.8802
 1352.5000     0.2829  -999.2500    16.6935
 1353.0000     0.2828  -999.2500    16.5069
 1353.5000     0.2827  -999.2500    16.3203
 1354.0000     0.2826  -999.2500    16.1336
 1354.5000     0.2825  -999.2500    15.9470
 1355.0000     0.2824  -999.2500    15.7604
 1355.5000     0.2823  -999.2500    15.5737
 1356.0000     0.2822  -999.2500    15.3871
 1356.5000     0.2821  -999.2500    17.9626
 1357.0000     0.2820  -999.2500    22.7284
 1357.5000     0.2819  -999.2500    25.1785
 1358.0000     0.2818  -999.2500    21.7532
 1358.5000     0.2817  -999.2500    16.6517
 1359.0000     0.2816  -999.2500    15.1797
 1359.5000     0.2815  -999.2500    15.1590
 1360.0000     0.2814  -999.2500    15.0663
 1360.5000     0.2813  -999.2500    14.9464
 1361.0000     0.2812  -999.2500    14.8265
 1361.5000     0.2811  -999.2500    14.7066
 1362.0000     0.2809  -999.2500    14.5867
 1362.5000     0.2808  -999.2500    14.4668
 1363.0000     0.2807  -999.2500    14.3469
 1363.5000     0.2806  -999.2500    14.2271
 1364.0000     0.2805  -999.2500    14.1072
 1364.5000     0.2804  -999.2500    13.9873
 1365.0000     0.2803  -999.2500    13.8674
 1365.5000     0.2802  -999.2500    13.7475
 1366.0000     0.2801  -999.2500    13.6276
 1366.5000     0.2800  -999.2500    13.5077
 1367.0000     0.2799  -999.2500    13.3878
 1367.5000     0.2798  -999.2500    13.2679
 1368.0000     0.2797  -999.2500    13.1480
 1368.5000     0.2796  -999.2500    13.0281
