~VERSION INFORMATION
 VERS.                2.0:   CWLS LOG ASCII STANDARD - VERSION 2.0
 WRAP.                 NO:   ONE LINE PER DEPTH STEP
~WELL INFORMATION
#MNEM.UNIT      DATA TYPE    INFORMATION
#----------   ------------   ------------------------------
 STRT.F           95.0000:   START DEPTH
 STOP.F          914.0000:   STOP DEPTH
 STEP.F            0.5000:   STEP LENGTH
 NULL.          -999.2500:   NO VALUE
 COMP. LAWRENCE/ALLISON INC:   COMPANY
 WELL. NPR ##3 31-61 SX 2:   WELL
 FLD .             TEAPOT:   FIELD
 LOC .       S2 T38N R78W:   LOCATION
 CNTY.            NATRONA:   COUNTY
 STAT.            WYOMING:   STATE
 CTRY. UNITED STATES OF AMERICA:   COUNTRY
 SRVC.      Dresser Atlas:   SERVICE COMPANY
 DATE.        30-JAN-1986:   LOGDATE
 API .       490251106800:   API NUMBER
~CURVE INFORMATION
#MNEM.UNIT       API CODE    CURVE DESCRIPTION
#----------   ------------   ------------------------------
 DEPT.F                  :   
 RILD.OHMM   07 120 46 00:   INDUCTION LOG DEEP RESISTIVITY
 RILM.OHMM   07 120 44 00:   INDUCTION LOG MEDIUM RESISTIVITY
 CALD.IN     45 280 60 00:   CALIPER FROM DENSITY
 GRD .GAPI   45 310 01 00:   GAMMA RAY FROM DENSITY LOG
 CORR.G/C3   45 356 01 00:   DENSITY CORRECTION
 PORD.DEC    45 890 10 00:   POROSITY DENSITY LIMESTONE
 DEN .G/C3   45 350 01 00:   COMPENSATED BULK DENSITY
~PARAMETER INFORMATION
#MNEM.UNIT          VALUE    DESCRIPTION
#----------   ------------   ------------------------------
 PD  .                 GL:   PERMANENT DATUM
 EPD .F              5126:   ELEVATION PERMANENT DATUM
 LMF .                 GL:   LOG MEASURED FROM
 DMF .                 GL:   DRILLING MEASURED FROM
 EGL .F              5126:   GROUND LEVEL
 DATE.        30-JAN-1986:   RUN DATE
 RUN .                  1:   RUN NUMBER
 DD  .F               925:   DEPTH DRILLER
 DL  .F               918:   DEPTH LOGGER
 BLI .F               910:   BOTTOM LOG INTERVAL
 CS  .IN            8.625:   CASING SIZE
 CBD .F               127:   CASING BOTTOM DRILLER
 CBL .F               127:   CASING BOTTOM LOGGER
 BS  .IN             6.25:   BIT SIZE
 BSD .F               925:   BIT SIZE AT DEPTH
 DFT .                AIR:   DRILLING FLUID TYPE
 LUN .            HL-6264:   LOGGING UNIT NUMBER
 LUL .           GILLETTE:   LOGGING UNIT LOCATION
 ENGI.     P. M. FAHLSING:   RECORDING ENGINEER
 WITN.        LINOA FIVAS:   WITNESSED BY
 CLNT.            A2DTECH:   CLIENT CODE
 ORIG.           5" PRINT:   ORIGIN OF DATA
 UWI .       490251106800:   UNIQUE WELL ID
 DICO. A2D Technologies, Inc.:   DIGITIZING COMPANY
~OTHER INFORMATION
~A   DEPT     RILD       RILM       CALD         GRD      CORR       PORD        DEN   
# ...
  777.5000    12.8219    11.8718     6.6323    96.5687     0.0621     0.1692     2.3974
  778.0000    12.8192    11.8677     6.6325   100.2053     0.0770     0.1638     2.4049
  778.5000    12.7281    11.7817     6.6326    97.7997     0.0906     0.1569     2.4139
  779.0000    12.6370    11.6963     6.6328    95.0898     0.0995     0.1561     2.4184
  779.5000    12.5471    11.6115     6.6179    93.8881     0.0949     0.1586     2.4041
  780.0000    12.4579    11.5273     6.6181    95.7121     0.0889     0.1812     2.3792
  780.5000    12.2839    11.4437     6.6182    96.9296     0.0873     0.1839     2.3717
  781.0000    12.1123    11.3608     6.6184    98.1471     0.0963     0.1794     2.3746
  781.5000    11.9431    11.2784     6.6034    99.6667     0.1037     0.1716     2.3912
  782.0000    11.7763    11.2745     6.6036    98.4673     0.1097     0.1637     2.4047
  782.5000    11.6118    11.1928     6.6038    96.6637     0.1111     0.1571     2.4167
  783.0000    11.4496    11.1889     6.6039    95.4643     0.1020     0.1523     2.4295
  783.5000    11.3682    11.1851     6.6041    93.3585     0.0960     0.1420     2.4407
  784.0000    11.2873    11.1040     6.6042    92.4589     0.0974     0.1360     2.4505
  784.5000    11.2850    11.0235     6.5893    93.3766     0.1079     0.1366     2.4543
  785.0000    11.2047    11.0197     6.5895    93.6855     0.1244     0.1405     2.4452
  785.5000    11.2024    11.0159     6.5896    93.3902     0.1213     0.1412     2.4436
  786.0000    11.1228    10.9361     6.5898    94.0080     0.1227     0.1394     2.4474
  786.5000    11.0437    10.9323     6.5899    95.2255     0.1362     0.1361     2.4541
  787.0000    11.0414    10.8530     6.5901    97.0472     0.1482     0.1297     2.4594
  787.5000    11.0391    10.8493     6.5902    98.8689     0.1496     0.1291     2.4646
  788.0000    11.0368    10.7706     6.5904    96.4611     0.1360     0.1294     2.4661
  788.5000    11.0345    10.6926     6.5905    94.9596     0.1224     0.1310     2.4600
  789.0000    10.9561    10.6151     6.6057    94.6620     0.1194     0.1334     2.4577
  789.5000    10.9538    10.6114     6.6059    94.9777     0.1253     0.1343     2.4570
  790.0000    10.9515    10.5345     6.6060    95.8930     0.1328     0.1334     2.4599
  790.5000    10.9493    10.6050     6.6212    98.6211     0.1297     0.1289     2.4644
  791.0000    10.9470    10.6004     6.6214   101.9534     0.1221     0.1244     2.4689
  791.5000    10.9448    10.5968     6.6215   104.3794     0.1251     0.1217     2.4742
  792.0000    10.9425    10.5931     6.6217   104.6883     0.1295     0.1205     2.4779
  792.5000    10.9402    10.5894     6.6218   101.9806     0.1295     0.1208     2.4764
  793.0000    10.8624    10.5858     6.6220   100.4791     0.1219     0.1281     2.4658
  793.5000    10.8602    10.5821     6.6221   100.7902     0.1113     0.1371     2.4537
  794.0000    10.8579    10.5785     6.6223   102.0077     0.1007     0.1411     2.4461
  794.5000    10.8557    10.5748     6.6224   102.3189     0.0931     0.1362     2.4459
  795.0000    10.8534    10.5712     6.6075   102.6301     0.0931     0.1248     2.4581
  795.5000    10.8512    10.5675     6.6077   103.8476     0.0945     0.1170     2.4724
  796.0000    10.8489    10.5639     6.6078   104.7630     0.1065     0.1112     2.4897
  796.5000    10.8467    10.5603     6.6080   105.9805     0.1275     0.1097     2.4958
  797.0000    10.8314    10.5566     6.6081   105.6874     0.1425     0.1149     2.4859
  797.5000    10.8423    10.5530     6.6083   102.3732     0.1424     0.1188     2.4813
  798.0000    10.8395    10.5493     6.6084    99.9653     0.1363     0.1203     2.4790
  798.5000    10.8372    10.5457     6.6086    99.6700     0.1303     0.1200     2.4783
  799.0000    10.8350    10.5420     6.6087   101.1919     0.1257     0.1197     2.4790
  799.5000    10.8328    10.5384     6.6089   102.1073     0.1256     0.1213     2.4797
  800.0000    10.8433    10.5348     6.6241   102.4162     0.1331     0.1208     2.4819
  800.5000    10.8265    10.4574     6.6043   101.5257     0.1285     0.1153     2.4857
  801.0000    10.8228    10.3109     6.5845    99.4230     0.1240     0.1123     2.4894
  801.5000    10.8190    10.3073     6.5798    96.4139     0.1209     0.1141     2.4842
  802.0000    10.7406    10.2326     6.5952    96.1208     0.1239     0.1189     2.4759
  802.5000    10.7369    10.2243     6.6105    98.2508     0.1298     0.1226     2.4706
  803.0000    10.6591    10.1548     6.6108   102.4924     0.1373     0.1244     2.4698
  803.5000    10.5818    10.1513     6.6111   104.9215     0.1463     0.1232     2.4721
  804.0000    10.5051    10.0777     6.6114   105.8399     0.1447     0.1208     2.4743
  804.5000    10.4289    10.0742     6.6104   106.4562     0.1372     0.1199     2.4766
  805.0000    10.3533    10.0707     6.5970   106.7704     0.1311     0.1199     2.4781
  805.5000    10.2783    10.0673     6.5822   107.0846     0.1266     0.1193     2.4796
  806.0000    10.2747    10.0638     6.5826   106.4894     0.1250     0.1175     2.4811
  806.5000    10.2002    10.0603     6.5829   107.1088     0.1265     0.1157     2.4826
  807.0000    10.1263    10.0568     6.5832   108.0272     0.1309     0.1152     2.4848
  807.5000    10.1228    10.1234     6.5835   109.8520     0.1354     0.1143     2.4856
  808.0000    10.1905    10.1190     6.5838   110.4653     0.1369     0.1140     2.4856
  808.5000    10.1861    10.1868     6.5841   108.9698     0.1308     0.1140     2.4856
  809.0000    10.2534    10.2532     6.5844   106.8671     0.1263     0.1155     2.4848
  809.5000    10.2499    10.2496     6.5847   104.7644     0.1262     0.1180     2.4803
  810.0000    10.3893    10.3174     6.5850   102.9607     0.1337     0.1204     2.4773
  810.5000    10.4580    10.4577     6.5853   102.0665     0.1427     0.1210     2.4735
  811.0000    10.6740    10.6738     6.5856   102.9879     0.1351     0.1253     2.4675
  811.5000    10.8945    10.8942     6.5859   104.5106     0.1245     0.1295     2.4599
  812.0000    11.2747    11.1966     6.5862   106.6375     0.1215     0.1310     2.4577
  812.5000    11.6682    11.5874     6.5865   107.5529     0.1244     0.1307     2.4607
  813.0000    12.3291    12.2437     6.5868   105.4532     0.1274     0.1261     2.4667
  813.5000    13.2093    13.0272     6.5871   102.7462     0.1138     0.1256     2.4644
  814.0000    14.3498    14.0543     6.5874   100.6435     0.1063     0.1348     2.4433
  814.5000    15.6973    15.3740     6.5877    97.0302     0.1062     0.1546     2.4117
  815.0000    17.5320    17.4105     6.5880    91.3021     0.1137     0.1699     2.3823
  815.5000    20.1315    19.0454     6.5883    85.5740     0.1242     0.1875     2.3605
  816.0000    22.1750    20.9786     6.5886    83.1692     0.1369     0.1930     2.3537
  816.5000    23.7580    22.1669     6.5889    82.5740     0.1502     0.1930     2.3589
  817.0000    23.7498    22.7840     6.5892    81.9849     0.1616     0.1879     2.3778
  817.5000    22.9330    22.1516     6.5895    81.0906     0.1661     0.1682     2.4207
  818.0000    21.9914    21.2420     6.5748    80.1934     0.1645     0.1169     2.4658
  818.5000    21.0884    19.9507     6.5600    82.6254     0.1495     0.1177     2.4907
  819.0000    20.0828    18.7378     6.5452    88.0755     0.1238     0.1441     2.4380
  819.5000    19.1252    17.9685     6.5456    93.5257     0.1178     0.1672     2.3996
  820.0000    18.2133    17.4712     6.5459    97.1631     0.1328     0.1864     2.3679
  820.5000    17.2250    17.2247     6.5612    96.8671     0.1222     0.1895     2.3619
  821.0000    16.6326    16.8645     6.5615    93.5619     0.0981     0.1949     2.3536
  821.5000    16.2847    16.6266     6.5769    92.0604     0.0890     0.2006     2.3423
  822.0000    16.2791    16.3921     6.5772    91.4653     0.0935     0.2066     2.3325
  822.5000    16.2735    16.2732     6.5775    92.6918     0.1040     0.2077     2.3317
