~VERSION INFORMATION
 VERS.                2.0:   CWLS LOG ASCII STANDARD - VERSION 2.0
 WRAP.                 NO:   ONE LINE PER DEPTH STEP
~WELL INFORMATION
#MNEM.UNIT      DATA TYPE    INFORMATION
#----------   ------------   ------------------------------
 STRT.F            0.0000:   START DEPTH
 STOP.F         1002.0000:   STOP DEPTH
 STEP.F            0.5000:   STEP LENGTH
 NULL.          -999.2500:   NO VALUE
 COMP. U S NAVY-INTEX OIL:   COMPANY
 WELL.     NPR ##3 28-S-2:   WELL
 FLD .             TEAPOT:   FIELD
 LOC .       S2 T38N R78W:   LOCATION
 CNTY.            NATRONA:   COUNTY
 STAT.            WYOMING:   STATE
 CTRY. UNITED STATES OF AMERICA:   COUNTRY
 SRVC.      NL McCullough:   SERVICE COMPANY
 DATE.        13-JUN-1963:   LOGDATE
 API .       490250639400:   API NUMBER
~CURVE INFORMATION
#MNEM.UNIT       API CODE    CURVE DESCRIPTION
#----------   ------------   ------------------------------
 DEPT.F                  :   
 ASN .OHMM   05 041 16 00:   AMPLIFIED SHORT NORMAL 16"
 ILD .OHMM   05 120 46 00:   INDUCTION LOG DEEP
 CILD.MMHO   05 110 46 00:   CONDUCTIVITY INDUCTION LOG DEEP
 SPR .MV     05 010 01 00:   SPONTANEOUS POTENTIAL FROM RES.
 GR  .GAPI   30 310 01 00:   GAMMA RAY
~PARAMETER INFORMATION
#MNEM.UNIT          VALUE    DESCRIPTION
#----------   ------------   ------------------------------
 PD  .                 GL:   PERMANENT DATUM
 EPD .F              5147:   ELEVATION PERMANENT DATUM
 LMF .                 KB:   LOG MEASURED FROM
 DAPD.F                 5:   FEET ABOVE PERMANENT DATUM
 DMF .                 KB:   DRILLING MEASURED FROM
 EKB .F              5152:   KELLING BUSHING
 EGL .F              5147:   GROUND LEVEL
 DATE.        13-SEP-1963:   RUN DATE
 RUN .                  1:   RUN NUMBER
 BLI .F               600:   BOTTOM LOG INTERVAL
 CS  .IN                7:   CASING SIZE
 DFT .                OIL:   DRILLING FLUID TYPE
 ENGI.            JACKSON:   RECORDING ENGINEER
 WITN.             HUDSON:   WITNESSED BY
 CLNT.            A2DTECH:   CLIENT CODE
 ORIG.           5" PRINT:   ORIGIN OF DATA
 UWI .       490250639400:   UNIQUE WELL ID
 DICO. A2D Technologies, Inc.:   DIGITIZING COMPANY
~OTHER INFORMATION
~A    DEPT     ASN        ILD       CILD        SPR          GR  
# ...
  122.0000  -999.2500     6.3204   150.8851   -37.7340    92.5556
  122.5000  -999.2500     6.3212   150.1107   -37.7355    91.0807
  123.0000  -999.2500     6.3219   149.3363   -37.7370    90.9419
  123.5000  -999.2500     6.3975   149.3138   -37.7385    92.4465
  124.0000  -999.2500     6.4731   147.7875   -37.5901    91.7157
  124.5000  -999.2500     6.5487   146.2612   -37.4424    89.1959
  125.0000  -999.2500     6.6243   144.7350   -37.4440    92.0398
  125.5000  -999.2500     6.6999   143.2087   -37.4455    93.2435
  126.0000  -999.2500     6.7007   142.4343   -37.4470    90.5782
  126.5000  -999.2500     6.7014   143.1693   -37.4485    88.9512
  127.0000  -999.2500     6.5523   145.3968   -37.4500    90.9023
  127.5000  -999.2500     6.3286   146.8836   -37.4515    93.2965
  128.0000  -999.2500     6.2544   148.3649   -37.4529    93.9445
  128.5000  -999.2500     6.1802   150.5980   -37.4544    91.5372
  129.0000  -999.2500     6.1061   152.8255   -37.4559    83.7476
  129.5000  -999.2500     6.1071   155.0586   -37.3079    77.5702
  130.0000  -999.2500     6.1078   156.5455   -37.3094    78.1748
  130.5000  -999.2500     6.1834   155.7654   -37.3109    82.5669
  131.0000  -999.2500     6.1842   154.9911   -37.3124    83.1246
  131.5000  -999.2500     6.2598   154.2167   -37.3139    84.6259
  132.0000  -999.2500     6.3354   152.6904   -37.3154    87.4665
  132.5000  -999.2500     6.3361   151.1641   -37.3169    87.6253
  133.0000  -999.2500     6.4117   149.6378   -37.3184    89.4275
  133.5000  -999.2500     6.4124   148.1115   -37.3198    88.2503
  134.0000  -999.2500     6.4880   146.5853   -37.1718    90.4957
  134.5000  -999.2500     6.5636   145.0590   -37.1734    92.8866
  135.0000  -999.2500     6.7141   142.7808   -37.0253    91.1141
  135.5000  -999.2500     6.7897   141.2546   -37.0269    93.0652
  136.0000  -999.2500     6.9401   138.9764   -36.8788    91.7391
  136.5000  -999.2500     7.0906   135.9464   -36.8807    90.1154
  137.0000  -999.2500     7.1662   134.4201   -36.8822    89.5301
  137.5000  -999.2500     7.3916   132.1419   -36.8837    91.4812
  138.0000  -999.2500     7.4672   129.1119   -36.8852    85.0967
  138.5000  -999.2500     7.6176   126.8337   -36.8867    84.2171
  139.0000  -999.2500     7.6932   125.3074   -37.0376    84.3792
  139.5000  -999.2500     7.7688   125.2849   -37.0391    86.3269
  140.0000  -999.2500     7.6947   125.2624   -37.0406    89.6140
  140.5000  -999.2500     7.6955   125.9925   -37.1916    90.8177
  141.0000  -999.2500     7.6962   126.7211   -37.1931    88.1524
  141.5000  -999.2500     7.6219   128.2024   -37.3440    87.6999
  142.0000  -999.2500     7.3235   130.4355   -37.3455    83.1193
  142.5000  -999.2500     7.1743   133.4205   -37.4965    79.2635
  143.0000  -999.2500     7.0255   135.6536   -37.4980    77.9375
  143.5000  -999.2500     7.0263   137.1354   -37.4995    78.2753
  144.0000  -999.2500     7.0270   137.8646   -37.5009    80.6447
  144.5000  -999.2500     7.0278   138.5940   -37.3526    80.3570
  145.0000  -999.2500     6.9535   138.5710   -37.2046    82.7545
  145.5000  -999.2500     6.9544   139.3004   -37.0566    82.3213
  146.0000  -999.2500     6.9552   140.7820   -36.9086    88.2869
  146.5000  -999.2500     6.9559   141.5113   -36.7606    88.5978
  147.0000  -999.2500     7.0315   140.7366   -36.7625    94.2658
  147.5000  -999.2500     7.1071   139.2103   -36.7640    91.8981
  148.0000  -999.2500     7.0330   138.4359   -36.7655    89.6792
  148.5000  -999.2500     7.0338   138.4134   -36.7670    85.8234
  149.0000  -999.2500     7.0345   138.3909   -36.7684    84.4970
  149.5000  -999.2500     7.0352   138.3684   -36.7699    84.5106
  150.0000  -999.2500     7.1107   137.5940   -36.7714    80.2083
  150.5000  -999.2500     7.0788   137.5714   -36.7729    73.2040
  151.0000  -999.2500     7.0515   137.5452   -36.7744    70.8571
  151.5000  -999.2500     7.0359   137.5227   -36.8196    77.8751
  152.0000     2.2738     7.1108   136.7484   -36.8685    77.7260
  152.5000     2.2807     7.1108   135.2221   -36.9174    79.7023
  153.0000     2.2888     7.1108   133.6958   -36.9297    82.9528
  153.5000     2.4237     7.1856   132.1696   -36.9312    86.7043
  154.0000     2.6183     7.2605   129.1396   -36.9328    85.8092
  154.5000     3.3959     7.3353   127.6133   -36.9342    86.7139
  155.0000     4.3827     7.4850   126.8389   -36.9357    83.2441
  155.5000     6.2216     7.6347   127.5739   -36.9372    82.4222
  156.0000     8.5836     7.7096   128.2977   -36.9390    83.3269
  156.5000     8.8679     7.5599   129.0327   -36.9405    78.4226
  157.0000     8.7337     7.4102   131.2602   -36.9420    77.5471
  157.5000     8.5396     7.3353   134.2452   -36.9435    82.9190
  158.0000     8.3008     7.1108   137.9821   -36.9450    88.5857
  158.5000     8.1366     6.9611   140.9671   -36.9465    89.6392
  159.0000     8.0174     6.8114   143.9521   -36.9479    92.7761
  159.5000     7.9280     6.6617   145.4334   -36.9494    95.7641
  160.0000     7.8535     6.5868   146.9203   -36.9509    96.6659
  160.5000     7.8090     6.5120   146.8922   -36.9524    95.9337
  161.0000     7.7943     6.5120   147.6272   -36.9539    94.9069
  161.5000     7.7946     6.4371   149.1028   -36.9554    92.9842
  162.0000     7.7949     6.4371   149.8322   -36.9569    94.4842
  162.5000     7.7977     6.4371   152.0653   -36.9584    93.7520
  163.0000     7.7955     6.3623   153.5522   -36.9599    92.4246
  163.5000     7.7808     6.3623   154.2816   -36.9613    86.6329
  164.0000     7.7364     6.3623   154.2535   -36.9628    80.6923
  164.5000     7.6619     6.2874   153.4791   -36.9643    80.1060
  165.0000     7.5875     6.2874   152.7047   -36.9658    85.1804
  165.5000     7.5578     6.2874   151.9303   -36.9673    86.6773
  166.0000     7.6180     6.4371   149.6522   -36.8189    87.2874
  166.5000     7.7229     6.5120   146.6222   -36.8208    93.6981
  167.0000     7.9026     6.6617   143.5921   -36.8223    92.9659
  167.5000     8.0822     6.8114   141.3140   -36.8238    88.3647
  168.0000     8.1573     6.9611   139.0359   -36.8253    90.3111
  168.5000     8.1875     7.1108   137.5096   -36.8268    88.0908
  169.0000     8.2027     7.1856   137.4871   -36.8282    84.8288
  169.5000     8.2329     7.3353   135.9608   -36.8297    90.4955
  170.0000     8.2780     7.4102   135.1865   -36.9807    94.6740
  170.5000     8.3381     7.4102   135.1640   -36.9822    94.9805
  171.0000     8.3982     7.4102   135.1415   -36.9837    92.3138
  171.5000     8.4135     7.4102   135.8746   -36.9852    94.5608
  172.0000     8.3831     7.3353   136.6040   -36.9866    97.8465
  172.5000     8.3244     7.3353   138.0852   -36.9881    99.7899
  173.0000     8.2926     7.2605   141.0646   -36.9896    94.8940
  173.5000     8.2204     7.2605   144.8015   -36.9911    92.3761
  174.0000     8.1758     7.1108   147.7865   -36.8431    92.5368
  174.5000     7.9968     6.8114   149.2734   -36.8446    91.5070
  175.0000     7.9222     6.7365   149.9972   -36.8461    87.5010
  175.5000     7.9675     6.6617   149.2228   -36.6981    86.0248
  176.0000     8.0126     6.6617   146.9447   -36.6996    87.0783
  176.5000     7.9979     6.6617   143.9146   -36.5516    89.3223
  177.0000     7.9683     6.7365   141.6365   -36.5531    88.1407
  177.5000     7.9836     6.8114   138.6065   -36.5546    90.0901
  178.0000     8.1334     7.0359   135.5765   -36.5561    85.7865
  178.5000     8.3280     7.2605   132.5464   -36.5576    80.4382
  179.0000     8.5375     7.4102   127.2608   -36.5591    85.6614
  179.5000     8.7023     7.6347   122.7270   -36.5605    92.9649
  180.0000     8.8670     7.7844   120.4489   -36.5620    94.9113
  180.5000     9.0168     7.9341   119.6745   -36.5635    91.7982
  181.0000     9.1516     8.0090   119.6520   -36.5650    91.2599
  181.5000     9.2715     8.0838   120.3814   -36.5665    91.6964
  182.0000     9.3465     8.0090   121.1164   -36.5680    91.3869
  182.5000     9.2556     8.0090   122.5920   -36.5695    93.1849
