~VERSION INFORMATION
 VERS.                2.0:   CWLS LOG ASCII STANDARD - VERSION 2.0
 WRAP.                 NO:   ONE LINE PER DEPTH STEP
~WELL INFORMATION
#MNEM.UNIT      DATA TYPE    INFORMATION
#----------   ------------   ------------------------------
 STRT.F          672.0000:   START DEPTH
 STOP.F         2343.5000:   STOP DEPTH
 STEP.F            0.5000:   STEP LENGTH
 NULL.          -999.2500:   NO VALUE
 COMP. FENIX & SCISSON INC:   COMPANY
 WELL.   23 SHX-33 #23-33:   WELL
 FLD .             TEAPOT:   FIELD
 LOC .      S33 T39N R78W:   LOCATION
 CNTY.            NATRONA:   COUNTY
 STAT.            WYOMING:   STATE
 CTRY. UNITED STATES OF AMERICA:   COUNTRY
 SRVC.            Unknown:   SERVICE COMPANY
 DATE.        01-MAY-1978:   LOGDATE
 API .       490251062700:   API NUMBER
~CURVE INFORMATION
#MNEM.UNIT       API CODE    CURVE DESCRIPTION
#----------   ------------   ------------------------------
 DEPT.F                  :   
 IL  .OHMM   05 120 00 00:   INDUCTION LOG
 CIL .MMHO   05 110 00 00:   CONDUCTIVITY INDUCTION LOG
 CALD.IN     45 280 60 00:   CALIPER FROM DENSITY LOG
 GRD .GAPI   45 310 01 00:   GAMMA RAY FROM DENSITY LOG
 DPHI.DEC    45 890 12 00:   DENSITY POROSITY SANDSTONE
 RHOB.G/C3   45 350 01 00:   BULK DENSITY
 CORR.G/C3   45 356 01 00:   DENSITY CORRECTION
~PARAMETER INFORMATION
#MNEM.UNIT          VALUE    DESCRIPTION
#----------   ------------   ------------------------------
 PD  .                 GL:   PERMANENT DATUM
 EPD .F              5163:   ELEVATION PERMANENT DATUM
 LMF .                 KB:   LOG MEASURED FROM
 DAPD.F                10:   FEET ABOVE PERMANENT DATUM
 DMF .                 KB:   DRILLING MEASURED FROM
 EKB .F              5173:   KELLING BUSHING
 EGL .F              5163:   GROUND LEVEL
 DATE.           5-1-1978:   RUN DATE
 RUN .                  1:   RUN NUMBER
 DD  .F              2331:   DEPTH DRILLER
 DL  .F              2260:   DEPTH LOGGER
 BLI .F              2250:   BOTTOM LOG INTERVAL
 TLI .F               690:   TOP LOG INTERVAL
 CS  .IN            9.625:   CASING SIZE
 CBD .F               683:   CASING BOTTOM DRILLER
 CBL .F               690:   CASING BOTTOM LOGGER
 BS  .IN             8.75:   BIT SIZE
 BSD .F              2331:   BIT SIZE AT DEPTH
 DFT .                OIL:   DRILLING FLUID TYPE
 BHT .F               104:   BOTTOM HOLE TEMPERATURE
 TCS .HRS               5:   TIME CURCULATED STOPPED
 MRT .F               104:   MAXIMUM RECORDED TEMPERATURE
 LUN .               2958:   LOGGING UNIT NUMBER
 LUL .               CASP:   LOGGING UNIT LOCATION
 ENGI.             MILLER:   RECORDING ENGINEER
 WITN.           MCGINLEY:   WITNESSED BY
 CLNT.            A2DTECH:   CLIENT CODE
 ORIG.       2", 5" PRINT:   ORIGIN OF DATA
 UWI .       490251062700:   UNIQUE WELL ID
 DICO. A2D Technologies, Inc.:   DIGITIZING COMPANY
~OTHER INFORMATION
~A   DEPT       IL        CIL       CALD         GRD      DPHI       RHOB       CORR   
# ...
 1718.5000     8.0401   115.9317     9.5088    87.8764    -0.0470     2.6050     0.1046
 1719.0000     7.9703   118.0404     9.5449    87.0698    -0.0505     2.6198     0.1028
 1719.5000     7.9004   120.1491     9.6067    85.3210    -0.0468     2.6341     0.0996
 1720.0000     7.8305   121.7269     9.6672    83.1732    -0.0460     2.6290     0.0933
 1720.5000     7.7607   121.7184     9.7193    83.0868    -0.0508     2.6200     0.0910
 1721.0000     7.6963   121.7186     9.7597    89.2659    -0.0562     2.6177     0.0909
 1721.5000     7.6662   121.7172     9.8005    98.0753    -0.0611     2.6225     0.0909
 1722.0000     7.6557   121.7172     9.8428   104.2684    -0.0581     2.6393     0.0856
 1722.5000     7.6564   121.7172     9.8878   101.8677    -0.0476     2.6461     0.0746
 1723.0000     7.6565   121.7172     9.9327    99.9378    -0.0401     2.6291     0.0634
 1723.5000     7.6572   121.7172     9.9819   101.7635    -0.0414     2.6147     0.0582
 1724.0000     7.6596   121.7172    10.0206   104.7565    -0.0436     2.6124     0.0556
 1724.5000     7.5904   121.7172    10.0149   106.4367    -0.0351     2.6146     0.0530
 1725.0000     7.5430   121.7172     9.9995   104.7670    -0.0329     2.6130     0.0503
 1725.5000     7.4960   121.7172    10.0438   103.3328    -0.0341     2.6032     0.0477
 1726.0000     7.4496   121.7172    10.0981   103.1074    -0.0361     2.5997     0.0492
 1726.5000     7.4133   121.7172    10.1319   104.4087    -0.0421     2.6008     0.0540
 1727.0000     7.4141   121.7172    10.0922   106.9014    -0.0502     2.6061     0.0588
 1727.5000     7.4139   121.7172    10.0648   108.0275    -0.0512     2.6155     0.0632
 1728.0000     7.4279   121.7172    10.1696   108.0807    -0.0505     2.6251     0.0617
 1728.5000     7.4477   121.7172    10.3463   107.9493    -0.0412     2.6293     0.0599
 1729.0000     7.4678   121.7172    10.5332   107.1072    -0.0420     2.6198     0.0576
 1729.5000     7.4879   121.7172    10.3074   104.6917    -0.0435     2.6117     0.0607
 1730.0000     7.5080   121.7172    10.0821   102.0459    -0.0450     2.6126     0.0669
 1730.5000     7.5281   121.7172    10.0092    99.8275    -0.0464     2.6144     0.0671
 1731.0000     7.5482   121.7172     9.9597    99.9714    -0.0480     2.6161     0.0671
 1731.5000     7.5683   121.9140     9.9322   101.3843    -0.0538     2.6179     0.0690
 1732.0000     7.5883   122.4366     9.9985   102.7587    -0.0609     2.6195     0.0785
 1732.5000     7.6086   122.9592    10.0622   103.4974    -0.0654     2.6353     0.0879
 1733.0000     7.6161   123.4818    10.1161   103.0958    -0.0594     2.6542     0.0886
 1733.5000     7.6158   124.0043    10.0599   101.8400    -0.0526     2.6542     0.0808
 1734.0000     7.5955   124.5269    10.0037   100.1048    -0.0457     2.6403     0.0772
 1734.5000     7.5484   125.0495     9.9482    98.3762    -0.0429     2.6248     0.0809
 1735.0000     7.5017   125.5721     9.8928    96.6325    -0.0454     2.6138     0.0852
 1735.5000     7.4548   126.0946     9.8374    94.1405    -0.0478     2.6182     0.0895
 1736.0000     7.4080   126.6172     9.7820    90.2954    -0.0503     2.6230     0.0937
 1736.5000     7.3614   126.2207     9.7267    86.4276    -0.0528     2.6278     0.0979
 1737.0000     7.3146   125.4530     9.6708    85.0053    -0.0581     2.6322     0.1020
 1737.5000     7.2859   124.6852     9.6116    85.7508    -0.0654     2.6290     0.1081
 1738.0000     7.2080   123.9044     9.5795    87.7192    -0.0585     2.6377     0.1064
 1738.5000     7.2019   124.3923     9.6048    91.0403    -0.0476     2.6544     0.0852
 1739.0000     7.1942   125.2458     9.6278    93.7072    -0.0392     2.6351     0.0642
 1739.5000     7.1866   126.0993     9.6523    94.6948    -0.0432     2.6193     0.0589
 1740.0000     7.1789   126.6162     9.6754    93.6491    -0.0460     2.6020     0.0591
 1740.5000     7.1719   125.9178     9.6975    90.1475    -0.0361     2.6214     0.0591
 1741.0000     7.1801   125.2195     9.6800    86.6922    -0.0365     2.6168     0.0592
 1741.5000     7.2207   124.5211     9.6642    84.2315    -0.0353     2.6102     0.0630
 1742.0000     7.2601   123.8228     9.6491    92.7313    -0.0325     2.6038     0.0732
 1742.5000     7.2997   123.9803     9.6766    93.0197    -0.0325     2.5974     0.0817
 1743.0000     7.3391   124.2560     9.7369    90.3740    -0.0315     2.5954     0.0839
 1743.5000     7.3748   124.5337     9.7908    87.8302    -0.0257     2.6038     0.0863
 1744.0000     7.3737   124.8108     9.8455    85.7735    -0.0199     2.5912     0.0882
 1744.5000     7.3835   125.0877     9.9001    85.1950    -0.0158     2.5726     0.0986
 1745.0000     7.3966   125.3647     9.9556    85.2068    -0.0212     2.5788     0.1094
 1745.5000     7.4099   125.6407     9.9972    85.2072    -0.0082     2.5866     0.1203
 1746.0000     7.4232   125.8788     9.8391    85.2079    -0.0126     2.5761     0.1312
 1746.5000     7.4364   126.0877     9.9306    85.1976    -0.0147     2.5591     0.1421
 1747.0000     7.4493   126.2967    10.0249    86.1178    -0.0134     2.5501     0.1470
 1747.5000     7.4351   126.5057    10.0826    89.3138    -0.0392     2.5564     0.1487
 1748.0000     7.3886   126.7147     9.9778    96.4270    -0.0603     2.5859     0.1462
 1748.5000     7.3425   126.9237     9.8759   103.5844    -0.0531     2.6441     0.1400
 1749.0000     7.2962   127.1327     9.8631   107.3818    -0.0445     2.6175     0.0948
 1749.5000     7.2498   127.3416     9.8820   109.5800    -0.0359     2.5908     0.0853
 1750.0000     7.2045   127.5506     9.8946   106.5856    -0.0341     2.5889     0.0922
 1750.5000     7.1721   127.7778     9.9584   103.6724    -0.0486     2.6153     0.0994
 1751.0000     7.2157   126.9293    10.0182   101.2035    -0.0586     2.5986     0.1037
 1751.5000     7.2772   126.0000    10.0796    99.0663    -0.0338     2.6336     0.0947
 1752.0000     7.3466   123.3965    10.1431    97.6751    -0.0326     2.6460     0.0862
 1752.5000     7.4167   120.6195    10.2067   101.7730    -0.0433     2.5979     0.0842
 1753.0000     7.4866   120.2550    10.2703   105.9763    -0.0525     2.6058     0.0904
 1753.5000     7.5566   119.8571    10.3340   110.2120    -0.0574     2.6200     0.0967
 1754.0000     7.6266   119.4171    10.3981   110.3415    -0.0441     2.6340     0.0846
 1754.5000     7.6962   118.9416    10.4581   109.8630    -0.0318     2.6421     0.0663
 1755.0000     7.7452   118.4661    10.3919   109.8695    -0.0269     2.6025     0.0573
 1755.5000     7.7629   117.9906    10.3402   109.8710    -0.0419     2.5963     0.0574
 1756.0000     7.7810   117.5152    10.4010   109.3831    -0.0369     2.5899     0.0583
 1756.5000     7.7990   117.0397    10.4585   105.4160    -0.0342     2.6169     0.0597
 1757.0000     7.8170   116.5642    10.4863   102.7736    -0.0435     2.6028     0.0636
 1757.5000     7.8351   116.0888    10.4514   105.2386    -0.0532     2.6126     0.0710
 1758.0000     7.8534   115.6566    10.4177   107.0275    -0.0567     2.6249     0.0782
 1758.5000     7.8558   115.3706    10.3992   108.5074    -0.0557     2.6326     0.0855
 1759.0000     7.8521   115.1085    10.4567   108.4671    -0.0545     2.6374     0.0931
 1759.5000     7.8482   114.8464    10.5163   108.9872    -0.0533     2.6405     0.0979
 1760.0000     7.8443   114.5843    10.5109   109.8364    -0.0520     2.6319     0.1040
 1760.5000     7.8405   114.3222    10.4270   110.0781    -0.0512     2.6339     0.1099
 1761.0000     7.8366   114.0601    10.3052   102.9177    -0.0519     2.6356     0.1163
 1761.5000     7.8328   113.7962    10.1860    99.3357    -0.0529     2.6298     0.1188
 1762.0000     7.8289   113.6371    10.0666   104.3601    -0.0536     2.6256     0.1187
 1762.5000     7.8250   113.6357     9.9472   109.8162    -0.0510     2.6296     0.1153
 1763.0000     7.8211   113.6364     9.8278   108.3886    -0.0480     2.6333     0.1119
 1763.5000     7.8174   113.6364     9.7085   105.1571    -0.0494     2.6338     0.1085
