~VERSION INFORMATION
 VERS.                2.0:   CWLS LOG ASCII STANDARD - VERSION 2.0
 WRAP.                 NO:   ONE LINE PER DEPTH STEP
~WELL INFORMATION
#MNEM.UNIT      DATA TYPE    INFORMATION
#----------   ------------   ------------------------------
 STRT.F           85.5000:   START DEPTH
 STOP.F         1080.5000:   STOP DEPTH
 STEP.F            0.5000:   STEP LENGTH
 NULL.          -999.2500:   NO VALUE
 COMP.         U.S.  NAVY:   COMPANY
 WELL.  N.P.R. #3 #67-S-2:   WELL
 FLD .             TEAPOT:   FIELD
 LOC .       S2 T38N R78W:   LOCATION
 CNTY.            NATRONA:   COUNTY
 STAT.            WYOMING:   STATE
 CTRY. UNITED STATES OF AMERICA:   COUNTRY
 SRVC.       Schlumberger:   SERVICE COMPANY
 DATE.        20-JUL-1964:   LOGDATE
 API .       490250639700:   API NUMBER
~CURVE INFORMATION
#MNEM.UNIT       API CODE    CURVE DESCRIPTION
#----------   ------------   ------------------------------
 DEPT.F                  :   
 GR  .GAPI   30 310 01 00:   GAMMA RAY
 DT  .US/F   60 520 33 00:   INTERVAL TRANSIT TIME
 SPR .MV     06 010 01 00:   SPONTANEOUS POTENTIAL
 CILD.MMHO   06 110 46 00:   CONDUCTIVITY INDUCTION LOG DEEP
 ASN .OHMM   06 041 16 00:   AMPLIFIED SHORT NORMAL 16"
 ILD .OHMM   06 120 46 00:   INDUCTION LOG DEEP
~PARAMETER INFORMATION
#MNEM.UNIT          VALUE    DESCRIPTION
#----------   ------------   ------------------------------
 PD  .                 GL:   PERMANENT DATUM
 EPD .F              5207:   ELEVATION PERMANENT DATUM
 LMF .                 KB:   LOG MEASURED FROM
 DAPD.F                 5:   FEET ABOVE PERMANENT DATUM
 DMF .                 KB:   DRILLING MEASURED FROM
 EKB .F              5212:   KELLING BUSHING
 EGL .F              5207:   GROUND LEVEL
 DATE.          7-20-1964:   RUN DATE
 RUN .                  1:   RUN NUMBER
 DD  .F              1080:   DEPTH DRILLER
 DL  .F              1081:   DEPTH LOGGER
 BLI .F              1080:   BOTTOM LOG INTERVAL
 TLI .F                86:   TOP LOG INTERVAL
 CS  .IN            8.625:   CASING SIZE
 CBD .F                10:   CASING BOTTOM DRILLER
 BS  .IN             6.75:   BIT SIZE
 BSD .F              1080:   BIT SIZE AT DEPTH
 DFT .            GEL-OIL:   DRILLING FLUID TYPE
 DFD .                9.5:   DRILLING FLUID DENSITY
 DFV .                 43:   DRILLING FLUID VISCOSITY
 MSS .           FLOWLINE:   MUD SAMPLE SOURCE
 RMS .OHMM           1.85:   RESISTIVITY MUD SAMPLE
 MST .F                83:   MUD SAMPLE TEMPERATURE
 RMF .OHMM           1.29:   RESISTIVITY MUD FILTRATE SAMPLE
 MFST.F                83:   MUD FILTRATE SAMPLE TEMPERATURE
 RMC .OHMM           2.49:   RESISTIVITY MUD CAKE
 MCST.F                83:   MUD CAKE SAMPLE TEMPERATURE
 MFSS.                 FP:   MUD FILTRATE SAMPLE SOURCE
 MCSS.                 FP:   MUD CAKE SAMPLE SOURCE
 TCS .HRS               2:   TIME CURCULATED STOPPED
 LUN .               4507:   LOGGING UNIT NUMBER
 LUL .               CSPR:   LOGGING UNIT LOCATION
 ENGI.             DANNER:   RECORDING ENGINEER
 WITN.          JORGENSEN:   WITNESSED BY
 CLNT.            A2DTECH:   CLIENT CODE
 ORIG.           2" PRINT:   ORIGIN OF DATA
 UWI .       490250639700:   UNIQUE WELL ID
 DICO. A2D Technologies, Inc.:   DIGITIZING COMPANY
~OTHER INFORMATION
~A   DEPT       GR         DT        SPR       CILD        ASN        ILD   
# ...
  657.5000    57.6010    97.4958   -22.9995   115.9291    10.0102     8.8233
  658.0000    58.5836    97.9840   -23.0621   114.5134    10.2426     8.9491
  658.5000    53.7043    97.9630   -23.1243   113.0976    10.4086     9.0742
  659.0000    57.3971    97.5492   -23.1211   111.6818    10.5362     9.2001
  659.5000    60.9448    97.1898   -23.0842   110.2661    10.6471     9.3252
  660.0000    56.7444    97.1401   -23.0476   109.0638    10.7564     9.4510
  660.5000    55.1386    97.0122   -23.0107   107.6952    10.8673     9.5763
  661.0000    57.3088    96.3738   -22.9740   106.5067    10.9764     9.7021
  661.5000    57.6043    95.7355   -22.9372   106.2763    11.0875     9.8103
  662.0000    59.4372    95.1720   -22.9005   106.5890    11.1966     9.7854
  662.5000    58.8955    94.8448   -22.8638   106.9023    11.3076     9.7456
  663.0000    65.7818    94.6794   -22.8270   107.2149    11.4035     9.7061
  663.5000    65.5338    94.5946   -22.7903   107.5282    11.2458     9.6664
  664.0000    67.9717    94.6713   -22.7535   107.8408    11.1034     9.6267
  664.5000    70.6687    94.9472   -22.7169   108.1542    10.9626     9.5872
  665.0000    66.5026    95.2390   -22.6800   108.4668    10.9416     9.5474
  665.5000    68.1644    95.5493   -22.6435   108.7801    11.0016     9.5080
  666.0000    71.2494    94.8930   -22.6063   109.0642    11.0605     9.4680
  666.5000    73.4243    94.8473   -22.5700   108.2333    11.1204     9.4289
  667.0000    70.2167    95.2399   -22.5326   107.4707    11.1796     9.4760
  667.5000    65.6684    94.6056   -22.4966   106.7086    11.2392     9.5867
  668.0000    62.4778    94.3103   -22.4590   105.9461    11.2986     9.6961
  668.5000    56.1138    94.4634   -22.4231   105.1831    11.3581     9.8069
  669.0000    46.9264    93.8275   -22.3854   104.4208    11.4176     9.9097
  669.5000    49.7111    92.8869   -22.3517   105.4261    11.4769     9.7470
  670.0000    54.1796    92.8938   -22.5174   107.8329    11.3879     9.5922
  670.5000    58.3280    93.1588   -22.6767   110.2398    11.1782     9.4387
  671.0000    59.6780    93.4231   -22.8335   112.6466    10.9690     9.2841
  671.5000    60.2051    93.9797   -22.9929   115.0534    10.7592     9.1304
  672.0000    61.2372    95.0554   -23.1448   117.4602    10.5501     8.9759
  672.5000    54.1359    96.1962   -23.0240   119.8670    10.3403     8.8220
  673.0000    59.3375    96.3628   -22.9041   121.1310    10.1311     8.6677
  673.5000    66.2932    96.5401   -22.7867   121.3513     9.9409     8.5160
  674.0000    69.9037    96.6920   -22.6670   121.5715     9.7711     8.4163
  674.5000    65.3177    96.6523   -22.5501   121.7917     9.7830     8.4162
  675.0000    66.4524    96.6126   -22.5741   122.0119     9.7948     8.4164
  675.5000    62.8924    96.5733   -22.5996   122.2322     9.8067     8.4162
  676.0000    68.1914    96.5349   -22.6236   122.4524     9.8184     8.4164
  676.5000    63.1246    96.4990   -22.6488   122.6726     9.8307     8.4161
  677.0000    67.8506    96.9400   -22.6730   122.8929     9.8304     8.4165
  677.5000    73.2769    97.3487   -22.6981   123.1131     9.7014     8.4161
  678.0000    74.8819    97.7572   -22.7225   123.3333     9.5689     8.4165
  678.5000    66.9198    98.1663   -22.7484   123.5536     9.4326     8.4160
  679.0000    62.5638    98.3832   -22.6602   123.7738     9.4444     8.4165
  679.5000    65.7262    98.3564   -22.5693   124.0040     9.4712     8.4160
  680.0000    69.2555    98.3271   -22.4778   127.7888     9.4972     8.1564
  680.5000    69.8780    98.2983   -22.3868   131.7530     9.4324     7.8834
  681.0000    69.3946    99.0991   -22.2953   135.7171     9.2536     7.6115
  681.5000    71.5767    99.2653   -22.2044   139.6813     9.0301     7.3208
  682.0000    62.7838    99.5473   -22.2548   143.9243     8.7476     7.2154
  682.5000    73.8573   100.3275   -22.4922   145.7669     8.4654     7.1017
  683.0000    75.3964   101.1077   -22.7481   147.7490     8.1830     6.9890
  683.5000    70.6380   101.8879   -22.5667   149.7311     7.9798     6.9225
  684.0000    66.9024   102.7027   -22.3509   150.3519     7.8790     6.8233
  684.5000    65.1355   102.4154   -22.3512   149.0305     7.7593     6.9041
  685.0000    64.6218   101.6073   -22.3509   147.7092     7.7834     6.9935
  685.5000    59.7551   100.4101   -22.3512   146.3878     7.9343     7.0824
  686.0000    67.2842    99.7307   -22.3510   144.9203     8.2754     7.1718
  686.5000    63.6355    99.0513   -22.3511   141.3944     8.6553     7.2608
  687.0000    59.6110    98.3718   -22.3509   137.4303     8.6535     7.3501
  687.5000    58.1867    97.8979   -22.3510   134.6613     8.6475     7.4392
  688.0000    54.1697    98.0703   -22.3508   133.8685     8.6423     7.5283
  688.5000    58.1607    98.4178   -22.3508   132.9681     8.6354     7.6175
  689.0000    60.2673    98.3762   -22.3508   133.4190     8.6701     7.7190
  689.5000    53.9465    97.9128   -22.3509   133.9406     8.7092     7.6872
  690.0000    66.1537    97.4494   -22.3509   134.4621     8.7493     7.6499
  690.5000    63.3697    97.3016   -22.3510   134.9837     8.7884     7.6128
  691.0000    56.8266    97.5298   -22.3510   135.5054     8.7688     7.5756
  691.5000    58.9367    97.7569   -22.3510   136.0269     8.6336     7.5384
  692.0000    61.8165    98.1469   -22.3510   136.5485     8.4762     7.5013
  692.5000    64.0303    98.5699   -22.3510   137.0701     8.4539     7.4641
  693.0000    67.5767    98.8989   -22.3510   137.5917     8.4278     7.4204
  693.5000    61.8816    98.8989   -22.3510   137.5896     8.3963     7.4653
  694.0000    54.7846    98.8989   -22.2895   136.4570     8.3767     7.5206
  694.5000    59.0516    99.2440   -22.0918   135.3244     8.4648     7.5753
  695.0000    63.3238    99.5224   -21.8943   134.1918     8.5738     7.6307
  695.5000    54.6140    99.0968   -21.6966   133.0592     8.6827     7.6854
  696.0000    61.2287    98.6712   -21.5829   131.9266     8.7917     7.7408
  696.5000    55.7309    98.2457   -21.6727   130.7940     8.9007     7.7955
  697.0000    52.2832    97.8001   -21.7629   130.1546     9.0337     7.8509
  697.5000    59.0554    97.8615   -21.8527   130.7746     9.0337     7.9180
  698.0000    60.5900    97.7980   -21.9429   131.3947     9.0337     7.8891
  698.5000    56.1135    97.6767   -22.0326   132.0148     8.9652     7.8509
  699.0000    53.2043    97.9269   -22.1229   132.6349     8.8760     7.8133
  699.5000    53.5145    98.3881   -22.2125   133.2549     8.7867     7.7752
  700.0000    63.4351    98.9348   -22.3028   133.8750     8.6753     7.7376
  700.5000    67.6959    98.7543   -22.3925   134.4951     8.7001     7.6995
  701.0000    59.6340    98.2997   -22.4827   134.9602     8.7333     7.6619
  701.5000    63.0690    98.1800   -22.5384   135.1936     8.7747     7.6239
  702.0000    66.6465    98.0714   -22.4959   135.3804     8.7848     7.5862
  702.5000    66.5720    98.0781   -22.4530   135.5671     8.7415     7.5482
  703.0000    76.9711    98.3646   -22.4105   135.7539     8.6974     7.5199
  703.5000    69.6660    98.6513   -22.3676   135.9406     8.6530     7.5069
  704.0000    63.9334    98.9379   -22.3251   136.1274     8.6089     7.4896
  704.5000    70.0420    99.2226   -22.2823   136.3141     8.5756     7.4723
  705.0000    71.0291    99.5081   -22.2397   136.5009     8.5758     7.4550
  705.5000    68.1130    99.4299   -22.1969   136.6876     8.5978     7.4377
  706.0000    60.8276    99.1802   -22.1544   136.8744     8.6156     7.4204
  706.5000    54.1739    98.6997   -22.1116   137.0611     8.6331     7.4030
  707.0000    52.9276    97.8677   -22.0691   137.2479     8.6553     7.3857
  707.5000    50.2207    97.7601   -22.0264   137.4346     8.6552     7.3684
  708.0000    55.1973    97.6544   -21.9838   137.6214     8.6029     7.3511
  708.5000    56.2157    97.8308   -21.9294   137.8081     8.5609     7.3338
  709.0000    67.7877    98.3303   -21.8465   137.9482     8.5191     7.3165
