~VERSION INFORMATION
 VERS.                2.0:   CWLS LOG ASCII STANDARD - VERSION 2.0
 WRAP.                 NO:   ONE LINE PER DEPTH STEP
~WELL INFORMATION
#MNEM.UNIT      DATA TYPE    INFORMATION
#----------   ------------   ------------------------------
 STRT.F            2.0000:   START DEPTH
 STOP.F          484.0000:   STOP DEPTH
 STEP.F            0.5000:   STEP LENGTH
 NULL.          -999.2500:   NO VALUE
 COMP. LAWRENCE/ALLISON INC:   COMPANY
 WELL. NPR 3 #68-52-1-SX-3:   WELL
 FLD .             NPR #3:   FIELD
 LOC .       S3 T38N R78W:   LOCATION
 CNTY.            NATRONA:   COUNTY
 STAT.            WYOMING:   STATE
 CTRY. UNITED STATES OF AMERICA:   COUNTRY
 SRVC.           Gearhart:   SERVICE COMPANY
 DATE.        14-JUN-1988:   LOGDATE
 API .       490251122200:   API NUMBER
~CURVE INFORMATION
#MNEM.UNIT       API CODE    CURVE DESCRIPTION
#----------   ------------   ------------------------------
 DEPT.F                  :   
 GRR .GAPI   07 310 01 00:   GAMMA RAY FROM RES. LOG.
 RILD.OHMM   07 120 46 00:   INDUCTION LOG DEEP RESISTIVITY
 RILM.OHMM   07 120 44 00:   INDUCTION LOG MEDIUM RESISTIVITY
~PARAMETER INFORMATION
#MNEM.UNIT          VALUE    DESCRIPTION
#----------   ------------   ------------------------------
 PD  .                 GL:   PERMANENT DATUM
 EPD .F              5168:   ELEVATION PERMANENT DATUM
 LMF .                 KB:   LOG MEASURED FROM
 DAPD.F                 5:   FEET ABOVE PERMANENT DATUM
 DMF .                 KB:   DRILLING MEASURED FROM
 EKB .F              5173:   KELLING BUSHING
 EGL .F              5168:   GROUND LEVEL
 DATE.          6-14-1988:   RUN DATE
 RUN .                  1:   RUN NUMBER
 DD  .F               490:   DEPTH DRILLER
 DL  .F               491:   DEPTH LOGGER
 BLI .F               484:   BOTTOM LOG INTERVAL
 TLI .F                40:   TOP LOG INTERVAL
 CS  .IN            8.625:   CASING SIZE
 CBD .F                40:   CASING BOTTOM DRILLER
 CBL .F                40:   CASING BOTTOM LOGGER
 BS  .IN            7.875:   BIT SIZE
 BSD .F               490:   BIT SIZE AT DEPTH
 DFT .                AIR:   DRILLING FLUID TYPE
 TLAB.HRS            2248:   TIME LOGGER AT BOTTOM
 MRT .F                75:   MAXIMUM RECORDED TEMPERATURE
 LUN .               7597:   LOGGING UNIT NUMBER
 LUL .           GILLETTE:   LOGGING UNIT LOCATION
 ENGI.              BENCK:   RECORDING ENGINEER
 WITN.             STRONG:   WITNESSED BY
 CLNT.            A2DTECH:   CLIENT CODE
 ORIG.           5" PRINT:   ORIGIN OF DATA
 UWI .       490251122200:   UNIQUE WELL ID
 DICO. A2D Technologies, Inc.:   DIGITIZING COMPANY
~OTHER INFORMATION
~A    DEPT      GRR      RILD       RILM   
# ...
  275.0000    70.4579    23.5793    19.2675
  275.5000    70.9656    23.8492    19.5724
  276.0000    70.8977    24.9916    19.8779
  276.5000    70.7317    26.4851    21.1564
  277.0000    68.7561    28.0712    23.2169
  277.5000    65.1433    29.7500    25.4780
  278.0000    60.7839    31.5293    27.9594
  278.5000    56.4718    33.1671    30.6825
  279.0000    52.8913    33.9342    32.6982
  279.5000    50.3335    35.1128    33.0029
  280.0000    52.1846    36.6124    33.0811
  280.5000    55.6317    37.2322    33.1580
  281.0000    59.1268    37.1408    33.2352
  281.5000    61.2513    36.9287    33.3105
  282.0000    60.2185    36.5335    32.8598
  282.5000    59.0855    36.1253    32.4264
  283.0000    58.9053    35.5450    31.9988
  283.5000    59.9088    36.0572    31.5767
  284.0000    63.5362    36.5479    31.1602
  284.5000    67.2389    36.2448    30.9282
  285.0000    68.6261    35.8857    31.5190
  285.5000    68.2997    35.5450    31.8133
  286.0000    68.0128    34.5474    32.0973
  286.5000    67.7719    33.3993    31.0833
  287.0000    69.1461    32.6982    29.9237
  287.5000    70.7241    32.2333    28.8073
  288.0000    72.3021    31.7957    27.7306
  288.5000    73.5905    31.3641    26.9161
  289.0000    73.9498    30.5454    26.1976
  289.5000    74.2747    29.5482    25.6916
  290.0000    74.0095    28.5835    25.6916
  290.5000    73.7356    27.6503    25.6916
  291.0000    73.4644    26.7476    24.8019
  291.5000    73.1923    25.8744    23.6952
  292.0000    72.9165    25.0296    22.3123
  292.5000    72.7113    24.1746    21.0100
  293.0000    73.4909    23.3306    19.7838
  293.5000    74.2708    22.5161    19.2385
  294.0000    75.0413    21.9438    18.7967
  294.5000    75.7739    21.6015    18.4671
  295.0000    77.4411    21.1054    18.2538
  295.5000    78.4952    20.5527    18.0601
  296.0000    78.4154    20.5726    18.0279
  296.5000    77.1291    20.6588    17.9915
  297.0000    77.1856    20.7560    17.9552
  297.5000    78.4522    20.9494    17.9190
  298.0000    79.4777    20.9715    17.8934
  298.5000    78.1574    21.0037    18.1663
  299.0000    76.8616    21.0356    18.3983
  299.5000    76.6840    21.0678    18.3437
  300.0000    77.3229    21.1000    18.2827
  300.5000    78.9541    21.1322    18.2284
  301.0000    80.7033    21.1645    18.2965
  301.5000    82.7860    21.1969    18.3720
  302.0000    84.9624    21.2293    18.4478
  302.5000    86.9038    21.2617    18.5240
  303.0000    85.4885    21.2942    18.6006
  303.5000    82.9929    21.3268    18.6768
  304.0000    80.4895    21.3416    18.7423
  304.5000    77.9217    21.0643    18.5891
  305.0000    77.5009    20.8605    18.4561
  305.5000    78.5969    20.6587    18.3241
  306.0000    79.9145    20.4589    18.1930
  306.5000    79.9670    20.3511    18.0601
  307.0000    79.9632    20.2197    17.8552
  307.5000    79.9456    20.0891    17.6482
  308.0000    80.9903    19.9593    17.4435
  308.5000    82.6045    19.8304    17.2416
  309.0000    84.2742    19.7024    17.4023
  309.5000    83.6729    19.5751    17.0106
  310.0000    81.9651    19.2716    16.7705
  310.5000    80.2286    19.4105    16.5324
  311.0000    78.4728    19.5810    16.3083
  311.5000    77.9418    19.7531    16.4941
  312.0000    78.1350    19.8153    16.6762
  312.5000    77.9505    19.6120    16.8602
  313.0000    77.1342    19.4713    17.0825
  313.5000    77.3751    19.3319    17.2416
  314.0000    79.5245    19.1936    17.2416
  314.5000    81.6989    19.0563    17.0287
  315.0000    83.9519    18.9200    16.8848
  315.5000    83.3958    18.7848    16.7436
  316.0000    82.0676    18.6507    16.6115
  316.5000    81.4638    18.4640    16.3260
  317.0000    82.3458    18.2791    16.0641
  317.5000    83.1415    18.0961    15.8076
  318.0000    82.1280    17.9149    15.5554
  318.5000    81.0228    17.7355    15.3052
  319.0000    79.9114    17.5580    15.1052
  319.5000    81.5656    17.3821    14.9929
  320.0000    83.6725    17.2083    14.8814
  320.5000    82.7694    17.0358    14.7707
  321.0000    81.7555    16.9248    14.6609
  321.5000    81.3935    16.6583    14.5532
  322.0000    81.9141    16.3831    14.3175
  322.5000    82.3723    16.1346    14.0856
  323.0000    82.2007    15.9983    13.8574
  323.5000    82.0394    15.8608    13.6733
  324.0000    80.7894    15.7772    13.6733
  324.5000    79.5686    15.6925    13.6733
  325.0000    79.5180    15.6082    13.6595
  325.5000    80.1268    15.5244    13.6253
  326.0000    81.3934    15.4411    13.5909
  326.5000    82.8558    15.2984    13.5567
  327.0000    82.0070    15.1435    13.5225
  327.5000    80.3869    14.9901    13.4882
  328.0000    78.6900    14.8383    13.4545
  328.5000    79.0318    14.6880    13.4220
  329.0000    79.5351    14.5393    13.1165
  329.5000    79.0981    14.3920    12.8298
  330.0000    76.6789    14.2463    12.5494
  330.5000    77.5784    14.1019    12.3471
  331.0000    80.1598    13.9588    12.3062
  331.5000    82.7493    13.8181    12.2680
  332.0000    83.0719    13.7409    12.2331
  332.5000    82.3865    13.6740    12.1418
  333.0000    81.9861    13.6070    12.0582
  333.5000    81.9323    13.5403    11.9751
  334.0000    83.0257    13.4740    11.8929
  334.5000    83.8391    13.4080    11.8107
  335.0000    84.6608    13.3423    11.7487
  335.5000    86.3161    13.2981    11.6275
  336.0000    86.9828    13.5747    11.5709
  336.5000    86.3684    13.8007    11.7639
  337.0000    84.8934    13.8353    11.9112
  337.5000    83.4050    13.8722    12.0603
  338.0000    83.2064    13.9093    12.2113
  338.5000    83.4989    13.9464    12.3642
  339.0000    84.1390    13.9838    12.4702
  339.5000    85.1627    14.0218    12.5188
  340.0000    84.7437    14.0587    12.5782
  340.5000    83.1144    13.8729    12.4926
  341.0000    82.0763    13.6854    12.3847
  341.5000    81.5774    13.5004    12.2753
  342.0000    82.3855    13.3179    11.9924
  342.5000    84.6415    13.1753    11.5983
  343.0000    86.3559    12.9023    11.2147
  343.5000    87.1598    12.6375    11.0365
  344.0000    87.9890    12.3781    10.8563
  344.5000    89.3545    12.2331    10.6790
  345.0000    91.5601    12.2999    10.5279
  345.5000    93.7317    12.4091    10.4526
  346.0000    93.2679    12.5152    10.3778
  346.5000    90.5083    12.7667    10.3521
  347.0000    89.7374    13.1905    10.7434
  347.5000    89.0356    13.7409    10.9182
  348.0000    88.3257    14.9970    11.2967
  348.5000    87.5900    16.5371    12.0710
  349.0000    85.6051    18.3247    14.0377
  349.5000    82.1150    20.3249    16.3248
  350.0000    76.3405    22.7509    19.2716
  350.5000    70.5210    25.9243    20.7406
  351.0000    65.7552    29.7871    23.0313
  351.5000    64.1935    31.8490    25.5751
  352.0000    64.5393    34.2743    28.3999
  352.5000    66.7124    34.5578    29.6207
  353.0000    68.6644    34.2256    30.4194
  353.5000    68.4175    33.8558    31.2396
  354.0000    66.6927    33.4899    31.8009
  354.5000    64.9658    33.1281    31.5750
  355.0000    63.7313    32.7701    31.3409
  355.5000    63.8053    32.3964    30.7016
  356.0000    67.1035    31.5930    29.2330
  356.5000    71.3044    30.7631    27.8267
  357.0000    73.0880    29.9529    26.4881
  357.5000    74.4199    29.1689    25.8290
  358.0000    74.4967    28.6012    25.4208
  358.5000    73.0963    28.2859    25.2157
  359.0000    71.7504    27.9740    25.0125
  359.5000    71.1814    27.6656    24.8114
  360.0000    70.5852    27.3606    24.6103
  360.5000    69.9475    27.0590    24.1974
  361.0000    70.9334    26.7606    23.6406
  361.5000    72.4099    26.4656    23.0966
  362.0000    72.9252    26.1721    22.7126
  362.5000    72.6850    25.6085    22.3730
  363.0000    72.4335    25.0523    22.0385
  363.5000    72.2605    24.5097    21.7090
  364.0000    72.3240    24.1437    21.3844
  364.5000    72.9827    23.8882    21.0647
  365.0000    75.0589    23.6353    20.7560
  365.5000    77.2326    23.3851    20.5331
