~VERSION INFORMATION
 VERS.                2.0:   CWLS LOG ASCII STANDARD - VERSION 2.0
 WRAP.                 NO:   ONE LINE PER DEPTH STEP
~WELL INFORMATION
#MNEM.UNIT      DATA TYPE    INFORMATION
#----------   ------------   ------------------------------
 STRT.F           42.0000:   START DEPTH
 STOP.F          612.0000:   STOP DEPTH
 STEP.F            0.5000:   STEP LENGTH
 NULL.          -999.2500:   NO VALUE
 COMP. FENIX AND SCISSON INCORPORATED:   COMPANY
 WELL. RES 3 TEAPOT DOM #25SX11-11:   WELL
 FLD .             TEAPOT:   FIELD
 LOC .      S11 T38N R78W:   LOCATION
 CNTY.            NATRONA:   COUNTY
 STAT.            WYOMING:   STATE
 CTRY. UNITED STATES OF AMERICA:   COUNTRY
 SRVC.            Unknown:   SERVICE COMPANY
 DATE.        16-FEB-1978:   LOGDATE
 API .       490251058000:   API NUMBER
~CURVE INFORMATION
#MNEM.UNIT       API CODE    CURVE DESCRIPTION
#----------   ------------   ------------------------------
 DEPT.F                  :   
 ILD .OHMM   05 120 46 00:   INDUCTION LOG DEEP
 SN  .OHMM   05 040 16 00:   SHORT NORMAL 16"
 SPR .MV     05 010 01 00:   SPONTANEOUS POTENTIAL FROM RES.
 CALD.IN     45 280 60 00:   CALIPER FROM DENSITY LOG
 CORR.G/C3   45 356 01 00:   DENSITY CORRECTION
 DPHI.DEC    45 890 12 00:   DENSITY POROSITY SANDSTONE
 GRD .GAPI   45 310 01 00:   GAMMA RAY FROM DENSITY LOG
 RHOB.G/C3   45 350 01 00:   BULK DENSITY
~PARAMETER INFORMATION
#MNEM.UNIT          VALUE    DESCRIPTION
#----------   ------------   ------------------------------
 PD  .                 GL:   PERMANENT DATUM
 EPD .F              5167:   ELEVATION PERMANENT DATUM
 LMF .                 KB:   LOG MEASURED FROM
 DAPD.F                 3:   FEET ABOVE PERMANENT DATUM
 DMF .                 KB:   DRILLING MEASURED FROM
 EKB .F              5170:   KELLING BUSHING
 EGL .F              5167:   GROUND LEVEL
 DATE.        16-FEB-1978:   RUN DATE
 RUN .                  1:   RUN NUMBER
 DD  .F               610:   DEPTH DRILLER
 DL  .F               615:   DEPTH LOGGER
 BLI .F               610:   BOTTOM LOG INTERVAL
 TLI .F                40:   TOP LOG INTERVAL
 CS  .IN            8.625:   CASING SIZE
 CBD .F                40:   CASING BOTTOM DRILLER
 CBL .F                40:   CASING BOTTOM LOGGER
 BS  .IN            7.875:   BIT SIZE
 BSD .F               610:   BIT SIZE AT DEPTH
 DFT .        LIGNO/ SULF:   DRILLING FLUID TYPE
 DFD .                8.7:   DRILLING FLUID DENSITY
 DFV .                 30:   DRILLING FLUID VISCOSITY
 DFPH.                 10:   DRILLING FLUID PH
 DFL .                4.6:   DRILLING FLUID LOSS
 MSS .           FLOWLINE:   MUD SAMPLE SOURCE
 RMS .OHMM            1.7:   RESISTIVITY MUD SAMPLE
 MST .F                69:   MUD SAMPLE TEMPERATURE
 RMF .OHMM            1.5:   RESISTIVITY MUD FILTRATE SAMPLE
 MFST.F                70:   MUD FILTRATE SAMPLE TEMPERATURE
 RMC .OHMM            2.5:   RESISTIVITY MUD CAKE
 MCST.F                70:   MUD CAKE SAMPLE TEMPERATURE
 MFSS.               MEAS:   MUD FILTRATE SAMPLE SOURCE
 RMB .OHMM            1.6:   RESISTIVITY MUD AT BHT
 BHT .F                70:   BOTTOM HOLE TEMPERATURE
 TCS .HRS               3:   TIME CURCULATED STOPPED
 MRT .F                70:   MAXIMUM RECORDED TEMPERATURE
 LUN .               2958:   LOGGING UNIT NUMBER
 LUL .             CASPER:   LOGGING UNIT LOCATION
 ENGI.            POINTER:   RECORDING ENGINEER
 WITN.           MCGINLEY:   WITNESSED BY
 CLNT.            A2DTECH:   CLIENT CODE
 ORIG.           5" PRINT:   ORIGIN OF DATA
 UWI .       490251058000:   UNIQUE WELL ID
 DICO. A2D Technologies, Inc.:   DIGITIZING COMPANY
~OTHER INFORMATION
~A   DEPT      ILD         SN         SPR      CALD       CORR       DPHI        GRD       RHOB   
# ...
  244.5000     8.3743     8.9899    -8.6706     7.8885     0.0281     0.1098    96.4595     2.4762
  245.0000     8.6007     9.0478    -9.4409     7.8731     0.0295     0.1054    94.3435     2.4769
  245.5000     8.8319     9.2321   -10.0572     7.8577     0.0339     0.1009    93.7358     2.4783
  246.0000     9.0716     9.4215    -9.4613     7.8423     0.0338     0.1018    93.7314     2.4805
  246.5000     9.2533     9.5494    -8.8655     7.8269     0.0337     0.1042    93.5762     2.4872
  247.0000     9.3757     9.8119    -8.7182     7.7964     0.0306     0.1051    92.6658     2.5029
  247.5000     9.5611    10.0829    -8.8884     7.7810     0.0275     0.1058    91.6056     2.4999
  248.0000     9.6895    10.2185    -9.3531     7.7490     0.0274     0.0917    90.9979     2.4871
  248.5000     9.8108    10.4267    -9.2118     7.7199     0.0273     0.0923    90.3902     2.5005
  249.0000     9.9380    10.6406    -9.0680     7.7045     0.0270     0.0968    90.2350     2.5087
  249.5000    10.0669    10.7837    -8.9288     7.7042     0.0255     0.1016    89.9290     2.5004
  250.0000     9.9161    10.8530    -8.9394     7.6888     0.0254     0.1026    90.0754     2.4989
  250.5000    10.2624    10.9243    -8.8010     7.6130     0.0239     0.1014    90.3727     2.4973
  251.0000    10.5473    10.7664    -8.5111     7.4767     0.0253     0.1035    90.9706     2.4920
  251.5000    10.8401    10.8465    -8.8305     7.5398     0.0222     0.1125    90.6523     2.4732
  252.0000    10.9873    11.3679   -10.0557     7.8235     0.0266     0.1119    89.7369     2.4747
  252.5000    11.1354    11.5223    -9.7658     7.8686     0.0265     0.1101    88.0692     2.4784
  253.0000    11.1310    11.6773    -9.3244     7.8682     0.0279     0.1086    84.7425     2.4784
  253.5000    11.1265    11.7524    -9.3379     7.8528     0.0278     0.1080    84.7339     2.4791
  254.0000    11.1221    11.6632    -9.3539     7.8223     0.0277     0.1104    84.7254     2.4753
  254.5000    11.1176    11.6568    -9.3670     7.8221     0.0276     0.1140    84.7169     2.4670
  255.0000    11.1906    11.6492    -9.3801     7.8369     0.0275     0.1131    84.7084     2.4692
  255.5000    11.1076    11.4824    -9.3932     7.8357     0.0290     0.1095    84.8507     2.4754
  256.0000    10.9499    11.4762    -9.8609     7.8322     0.0273     0.1083    85.5942     2.4774
  256.5000    10.7945    11.3907   -10.6439     7.8014     0.0273     0.1123    87.0940     2.4736
  257.0000    10.5677    11.2276   -10.3449     7.4987     0.0272     0.1120    90.7054     2.4698
  257.5000    10.4903    11.1438    -9.7487     7.4225     0.0301     0.1096    91.9056     2.4780
  258.0000    10.2689    11.1365    -9.1557     7.4824     0.0330     0.1066    89.7834     2.4815
  258.5000    10.1231    11.0535    -8.7143     7.6026     0.0344     0.1033    88.5682     2.4734
  259.0000     9.9795    11.1246    -8.5788     7.7095     0.0391     0.0998    87.4937     2.4704
  259.5000     9.9755    11.1186    -8.5923     7.7373     0.0522     0.0928    87.0408     2.4839
  260.0000     9.9715    10.8082    -8.3024     7.7366     0.0611     0.0873    86.2781     2.4996
  260.5000    10.0370    10.8004    -8.1640     7.7512     0.0610     0.0919    83.8563     2.5101
  261.0000    10.1028    10.7219    -8.1804     7.7353     0.0669     0.0967    82.6412     2.5191
  261.5000    10.1692    10.7909    -8.0387     7.6743     0.0788     0.0895    83.5376     2.5258
  262.0000    10.2360    11.0122    -8.3581     7.6133     0.0847     0.0880    85.7916     2.5258
  262.5000    10.2308    11.1603    -8.5227     7.6903     0.0828     0.0902    88.1963     2.5207
  263.0000    10.2267    11.0756    -8.7121     7.7781     0.0575     0.1021    88.4895     2.4949
  263.5000    10.2226    10.7664    -9.1583     7.8078     0.0365     0.1109    89.6855     2.4791
  264.0000    10.1477    10.7604    -9.3196     7.8373     0.0304     0.1152    91.1852     2.4738
  264.5000    10.1427    10.7535    -8.7267     7.8519     0.0303     0.1199    91.7822     2.4692
  265.0000    10.1386    10.5994    -8.5883     7.8664     0.0302     0.1217    91.9245     2.4662
  265.5000    10.0644    10.4476    -8.7562     7.8657     0.0301     0.1217    91.4614     2.4609
  266.0000     9.9908    10.2980    -9.0909     7.8651     0.0330     0.1205    91.0004     2.4579
  266.5000     9.9176    10.1505    -9.6948     7.8644     0.0359     0.1187    90.8410     2.4586
  267.0000     9.7769     9.7914   -10.0109     7.8638     0.0359     0.1172    90.9833     2.4615
  267.5000     9.5713     9.6571   -10.0240     7.8632     0.0373     0.1173    87.6544     2.4653
  268.0000     9.3693     9.5852    -9.7341     7.8625     0.0387     0.1190    87.3443     2.4682
  268.5000     9.2364     9.5801    -9.4439     7.8619     0.0386     0.1184    87.6395     2.4682
  269.0000     9.0423     9.5749    -8.8513     7.8613     0.0370     0.1160    87.9305     2.4674
  269.5000     8.9761     9.7038    -8.4131     7.8543     0.0369     0.1142    87.9220     2.4628
  270.0000     8.8487     9.6939    -8.2714     7.8449     0.0383     0.1163    87.9135     2.4598
  270.5000     8.8451     9.4273    -8.1330     7.8594     0.0412     0.1172    87.7539     2.4620
  271.0000     8.7795     9.2279    -8.7555     7.8587     0.0427     0.1163    87.5927     2.4695
  271.5000     8.7760     9.2218    -8.9561     7.8733     0.0440     0.1142    87.1317     2.4702
  272.0000     8.7725     9.2824    -8.4787     7.8878     0.0469     0.1166    84.4083     2.4709
  272.5000     8.7690     9.2119    -8.4950     7.8871     0.0499     0.1166    85.1539     2.4656
  273.0000     8.7654     9.0800    -8.9627     7.9016     0.0527     0.1155    87.7095     2.4580
  273.5000     8.8230     9.0752    -9.1273     7.9009     0.0527     0.1128    90.7176     2.4619
  274.0000     8.7575     9.0703    -9.1404     7.9003     0.0526     0.1110    91.3223     2.4715
  274.5000     8.6934     9.0015    -9.6081     7.8845     0.0510     0.1119    91.4547     2.4768
  275.0000     8.6899     8.9967    -9.6212     7.8385     0.0524     0.1149    90.8407     2.4752
  275.5000     8.6865     8.9919    -9.6348     7.8229     0.0521     0.1155    90.6814     2.4707
  276.0000     8.7444     8.8631    -9.6507     7.8071     0.0507     0.1146    90.9745     2.4729
  276.5000     8.6795     8.7362    -9.6638     7.8065     0.0521     0.1134    91.5693     2.4758
  277.0000     8.6683     8.7315    -9.6769     7.8059     0.0460     0.1125    90.6558     2.4774
  277.5000     8.5520     8.7267    -9.5353     7.8204     0.0355     0.1146    87.1782     2.4795
  278.0000     8.5486     8.6007    -9.7032     7.8196     0.0339     0.1182    88.6275     2.4690
  278.5000     8.4860     8.5366    -9.8678     7.8190     0.0338     0.1194    92.2873     2.4674
  279.0000     8.4826     8.5927    -9.5811     7.7882     0.0337     0.1158    92.5826     2.4569
  279.5000     8.4205     8.5275    -9.2912     7.7121     0.0336     0.1194    92.4211     2.4606
  280.0000     8.3010     8.5229    -9.1495     7.7719     0.0305     0.1252    91.9601     2.4545
  280.5000     8.1824     8.4593    -8.8596     7.8468     0.0320     0.1219    91.1974     2.4507
  281.0000     8.0105     8.1652    -8.8760     7.8915     0.0289     0.1207    90.7364     2.4492
  281.5000     7.6804     7.8823    -9.0530     7.9060     0.0288     0.1231    90.8987     2.4589
  282.0000     7.4153     7.6622    -9.2086     7.9052     0.0270     0.1240    93.4322     2.4566
  282.5000     7.3610     7.5002    -9.2217     7.9084     0.0241     0.1228    93.4237     2.4521
  283.0000     7.2565     7.3416    -8.7802     7.9041     0.0225     0.1243    92.3593     2.4536
  283.5000     7.1951     7.3376    -8.4903     7.9034     0.0209     0.1276    90.2413     2.4558
  284.0000     7.1500     7.4872    -8.3519     7.8877     0.0253     0.1303    92.4931     2.4542
  284.5000     7.1471     7.5879    -8.0620     7.8720     0.0282     0.1303    93.8421     2.4488
