~VERSION INFORMATION
 VERS.                2.0:   CWLS LOG ASCII STANDARD - VERSION 2.0
 WRAP.                 NO:   ONE LINE PER DEPTH STEP
~WELL INFORMATION
#MNEM.UNIT      DATA TYPE    INFORMATION
#----------   ------------   ------------------------------
 STRT.F            4.0000:   START DEPTH
 STOP.F          564.0000:   STOP DEPTH
 STEP.F            0.1000:   STEP LENGTH
 NULL.          -999.2500:   NO VALUE
 COMP.       F D SERV INC:   COMPANY
 WELL. NAVAL PETROLEUM RESERVE 3 SX-3 #88-4-3:   WELL
 FLD .             TEAPOT:   FIELD
 LOC .       S3 T38N R78W:   LOCATION
 CNTY.            NATRONA:   COUNTY
 STAT.            WYOMING:   STATE
 CTRY. UNITED STATES OF AMERICA:   COUNTRY
 SRVC.      Western Atlas:   SERVICE COMPANY
 DATE.        15-OCT-1992:   LOGDATE
 API .       490252255000:   API NUMBER
~CURVE INFORMATION
#MNEM.UNIT       API CODE    CURVE DESCRIPTION
#----------   ------------   ------------------------------
 DEPT.F                  :   
 GRR .GAPI   07 310 01 00:   GAMMA RAY
 RILD.OHMM   07 120 46 00:   INDUCTION LOG DEEP RESISTIVITY
 RILM.OHMM   07 120 44 00:   INDUCTION LOG MEDIUM RESISTIVITY
~PARAMETER INFORMATION
#MNEM.UNIT          VALUE    DESCRIPTION
#----------   ------------   ------------------------------
 PD  .                 GL:   PERMANENT DATUM
 EPD .F              5129:   ELEVATION PERMANENT DATUM
 LMF .                 KB:   LOG MEASURED FROM
 DAPD.F                10:   FEET ABOVE PERMANENT DATUM
 DMF .                 KB:   DRILLING MEASURED FROM
 EKB .F              5139:   KELLING BUSHING
 EGL .F              5129:   GROUND LEVEL
 DATE.        15-OCT-1992:   RUN DATE
 RUN .                  1:   RUN NUMBER
 DD  .F               570:   DEPTH DRILLER
 DL  .F               570:   DEPTH LOGGER
 BLI .F               564:   BOTTOM LOG INTERVAL
 TLI .F               564:   TOP LOG INTERVAL
 CS  .IN            8.625:   CASING SIZE
 CBL .F                94:   CASING BOTTOM LOGGER
 BS  .IN            7.875:   BIT SIZE
 BSD .F               570:   BIT SIZE AT DEPTH
 DFT .           AIR FOAM:   DRILLING FLUID TYPE
 TCS .HRS               4:   TIME CURCULATED STOPPED
 MRT .F                72:   MAXIMUM RECORDED TEMPERATURE
 LUN .            HL-6345:   LOGGING UNIT NUMBER
 LUL .          FT.MORGAN:   LOGGING UNIT LOCATION
 ENGI.             BURLEY:   RECORDING ENGINEER
 WITN.        DARY STRONG:   WITNESSED BY
 CLNT.            A2DTECH:   CLIENT CODE
 ORIG.           5" PRINT:   ORIGIN OF DATA
 UWI .       490252255000:   UNIQUE WELL ID
 DICO. A2D Technologies, Inc.:   DIGITIZING COMPANY
~OTHER INFORMATION
~A    DEPT      GRR      RILD       RILM   
# ...
  131.4000   108.5156    11.7482    11.6473
  131.5000   107.1328    11.8160    11.7183
  131.6000   106.9570    11.8353    11.7175
  131.7000   106.9809    11.8971    11.7680
  131.8000   107.2590    11.8957    11.8362
  131.9000   107.2596    11.9568    11.9047
  132.0000   107.6050    12.0745    11.9636
  132.1000   108.1060    12.1456    11.9626
  132.2000   108.6785    12.1444    12.0280
  132.3000   109.3881    12.1492    12.0453
  132.4000   109.6686    12.2275    12.0444
  132.5000   109.6692    12.2264    12.0676
  132.6000   109.6698    12.2740    12.1375
  132.7000   109.5509    12.3447    12.2121
  132.8000   109.1634    12.4158    12.2785
  132.9000   108.3763    12.4820    12.2965
  133.0000   106.9655    12.4806    12.3343
  133.1000   105.4389    12.5433    12.3813
  133.2000   104.1909    12.5662    12.3805
  133.3000   103.3077    12.5650    12.3795
  133.4000   102.4910    12.5834    12.4465
  133.5000   101.5068    12.6512    12.4651
  133.6000   100.6533    12.6497    12.5031
  133.7000   100.2224    12.7126    12.5511
  133.8000   100.0529    12.7859    12.5502
  133.9000   100.1682    12.8251    12.5493
  134.0000   100.4832    12.8238    12.6168
  134.1000   100.9706    12.8225    12.6360
  134.2000   101.2584    12.8211    12.6351
  134.3000   101.4723    12.8841    12.6342
  134.4000   101.8859    12.9091    12.6333
  134.5000   102.1624    12.9079    12.6324
  134.6000   102.2248    12.8880    12.6316
  134.7000   102.4644    12.8150    12.6307
  134.8000   102.4651    12.8135    12.6685
  134.9000   102.6765    12.8125    12.7179
  135.0000   102.7669    12.8112    12.7170
  135.1000   102.7675    12.7772    12.7160
  135.2000   102.7087    12.7014    12.7152
  135.3000   102.4679    12.6287    12.7143
  135.4000   102.4687    12.6273    12.7134
  135.5000   102.4692    12.5650    12.7125
  135.6000   102.3118    12.5366    12.7116
  135.7000   102.0622    12.5354    12.7106
  135.8000   101.7556    12.5341    12.6421
  135.9000   101.2686    12.5329    12.6200
  136.0000   101.2693    12.5315    12.5815
  136.1000   101.0636    12.5305    12.5300
  136.2000   100.9696    12.4838    12.5210
  136.3000   101.0753    12.4403    12.4405
  136.4000   101.3261    12.4391    12.4397
  136.5000   101.5809    12.4378    12.3875
  136.6000   102.1751    12.4364    12.3510
  136.7000   102.3793    12.3764    12.3501
  136.8000   102.9366    12.3031    12.3492
  136.9000   103.4825    12.2595    12.3483
  137.0000   103.8898    12.2583    12.3475
  137.1000   104.8896    12.2566    12.3466
  137.2000   105.7878    12.1698    12.3458
  137.3000   106.3921    12.1689    12.3232
  137.4000   106.9927    12.1677    12.2577
  137.5000   107.5940    12.1381    12.2567
  137.6000   108.2458    12.0801    12.1917
  137.7000   108.4974    12.0789    12.1198
  137.8000   108.9969    12.0777    12.0483
  137.9000   109.2991    12.0765    11.9980
  138.0000   109.4015    12.0336    11.9972
  138.1000   109.4999    11.9623    11.9962
  138.2000   109.7035    11.9045    11.9955
  138.3000   109.7041    11.9033    11.9946
  138.4000   109.4577    11.9022    11.9594
  138.5000   109.2080    11.9010    11.9091
  138.6000   108.8124    11.8594    11.9082
  138.7000   108.1216    11.8154    11.9073
  138.8000   107.1213    11.8142    11.9066
  138.9000   106.0987    11.8130    11.9057
  139.0000   104.8763    11.8119    11.8710
  139.1000   103.4317    11.8107    11.8208
  139.2000   102.0744    11.8096    11.8140
  139.3000   100.7308    11.8084    11.7363
  139.4000    99.4001    11.8072    11.7356
  139.5000    98.8842    11.8060    11.7348
  139.6000    98.6426    11.8049    11.7009
  139.7000    98.7764    11.7511    11.6511
  139.8000    98.8860    11.7200    11.6502
  139.9000    99.0679    11.7188    11.6493
  140.0000    99.5689    11.7177    11.5888
  140.1000   100.0909    11.7165    11.5663
  140.2000   100.0914    11.6500    11.5332
  140.3000   100.2813    11.5809    11.4838
  140.4000   100.5322    11.5496    11.4778
  140.5000   100.6947    11.5485    11.4017
  140.6000   100.6953    11.5473    11.4596
  140.7000   100.6960    11.5462    11.4806
  140.8000   100.9339    11.5451    11.5117
  140.9000   100.9979    11.5439    11.5598
  141.0000   100.9985    11.5797    11.5590
  141.1000   101.0849    11.6230    11.5581
  141.2000   101.3005    11.6315    11.6164
  141.3000   101.3011    11.7026    11.6380
  141.4000   101.7716    11.7015    11.6372
  141.5000   102.2727    11.7510    11.6363
  141.6000   102.6398    11.7817    11.6390
  141.7000   103.0574    11.7806    11.6897
  141.8000   103.8415    11.7885    11.7404
  141.9000   104.9137    11.8612    11.7911
  142.0000   105.3795    11.9248    11.8419
  142.1000   105.6985    11.9935    11.8790
  142.2000   105.9493    12.0626    11.8825
  142.3000   106.0381    12.1092    11.9609
  142.4000   105.7885    12.1080    12.0206
  142.5000   105.5188    12.1067    12.0902
  142.6000   105.0590    12.1709    12.1603
  142.7000   104.3795    12.1897    12.2122
  142.8000   103.3712    12.2254    12.2113
  142.9000   102.1095    12.2733    12.2103
  143.0000   100.8233    12.2720    12.2096
  143.1000    99.5370    12.2707    12.1621
  143.2000    98.3965    12.2046    12.0904
  143.3000    97.4731    12.1825    12.0190
  143.4000    96.7759    12.1454    11.9518
  143.5000    96.5023    12.0949    11.9508
  143.6000    96.9552    12.0937    11.9501
  143.7000    97.4562    12.0924    11.9040
  143.8000    98.0824    12.0913    11.8648
  143.9000    98.8337    12.0409    11.8640
  144.0000    99.6091    12.0043    11.8632
  144.1000   100.7165    12.0031    11.8622
  144.2000   101.6120    11.9954    11.8030
  144.3000   102.4403    11.9166    11.7777
  144.4000   103.1915    11.9156    11.7463
  144.5000   104.0150    11.8666    11.6770
  144.6000   104.9949    11.8298    11.6110
  144.7000   105.8329    11.8090    11.6101
  144.8000   106.0547    11.7447    11.6094
  144.9000   106.8181    11.7434    11.5652
  145.0000   107.6992    11.6821    11.5266
  145.1000   108.3807    11.6590    11.5097
  145.2000   108.9011    11.5933    11.4418
  145.3000   109.7462    11.4756    11.3634
  145.4000   110.6225    11.4125    11.3073
  145.5000   111.6240    11.4112    11.2824
  145.6000   112.6256    11.3523    11.2816
  145.7000   113.6272    11.2851    11.2654
  145.8000   114.6118    11.2182    11.1989
  145.9000   115.4641    11.1517    11.1219
  146.0000   115.6812    11.0897    11.0673
  146.1000   115.9320    11.0885    11.0426
  146.2000   115.9519    11.0318    11.0142
  146.3000   115.7022    10.9665    10.9638
  146.4000   115.4382    10.9015    10.9612
  146.5000   114.8662    10.8369    10.8855
  146.6000   114.4385    10.7760    10.8849
  146.7000   113.9386    10.7748    10.8443
  146.8000   113.5519    10.7204    10.7804
  146.9000   113.3648    10.6569    10.7308
  147.0000   113.3534    10.5938    10.7286
  147.1000   113.0654    10.5310    10.6541
  147.2000   113.2776    10.4713    10.6535
  147.3000   113.3672    10.4701    10.6142
  147.4000   113.3678    10.4178    10.5775
  147.5000   113.3684    10.3949    10.5632
  147.6000   113.3690    10.3409    10.5009
  147.7000   113.3697    10.2478    10.4277
  147.8000   113.3702    10.2447    10.3774
  147.9000   113.3708    10.1739    10.3534
  148.0000   113.3714    10.1731    10.3527
  148.1000   113.3720    10.1721    10.3390
  148.2000   113.3654    10.1711    10.2789
  148.3000   113.0726    10.1566    10.2780
  148.4000   112.4523    10.0979    10.2287
  148.5000   112.0150    10.0967    10.1684
  148.6000   111.6595    10.0475    10.1084
  148.7000   111.2150    10.0242    10.0611
  148.8000   110.9654     9.9987    10.0604
  148.9000   110.6702     9.9521    10.0596
  149.0000   110.6707     9.9502    10.0590
  149.1000   110.5173     9.8803    10.0227
  149.2000   110.4746     9.8795     9.9872
  149.3000   110.7254     9.8785     9.9865
  149.4000   110.9762     9.8776     9.9858
  149.5000   111.2753     9.8766     9.9850
