~VERSION INFORMATION
 VERS.                2.0:   CWLS LOG ASCII STANDARD - VERSION 2.0
 WRAP.                 NO:   ONE LINE PER DEPTH STEP
~WELL INFORMATION
#MNEM.UNIT      DATA TYPE    INFORMATION
#----------   ------------   ------------------------------
 STRT.F           14.0000:   START DEPTH
 STOP.F          549.0000:   STOP DEPTH
 STEP.F            0.5000:   STEP LENGTH
 NULL.          -999.2500:   NO VALUE
 COMP.   LAWRENCE-ALLISON:   COMPANY
 WELL.    NPR 3 #58-64SX3:   WELL
 FLD .           NPR NO 3:   FIELD
 LOC .       S3 T38N R78W:   LOCATION
 CNTY.            NATRONA:   COUNTY
 STAT.            WYOMING:   STATE
 CTRY. UNITED STATES OF AMERICA:   COUNTRY
 SRVC.      Dresser Atlas:   SERVICE COMPANY
 DATE.        05-DEC-1984:   LOGDATE
 API .       490251099700:   API NUMBER
~CURVE INFORMATION
#MNEM.UNIT       API CODE    CURVE DESCRIPTION
#----------   ------------   ------------------------------
 DEPT.F                  :   
 RFOC.OHMM   07 220 04 00:   RESISTIVITY FOCUSED LOG
 RILD.OHMM   07 120 46 00:   INDUCTION LOG DEEP RESISTIVITY
 RILM.OHMM   07 120 44 00:   INDUCTION LOG MEDIUM RESISTIVITY
 SPR .MV     07 010 01 00:   SPONTANEOUS POTENTIAL
 DT  .US/F   60 520 00 00:   INTERVAL TRANSIT TIME
 CALD.IN     45 280 60 00:   CALIPER FROM DENSITY LOG
 CORR.G/C3   45 356 01 00:   DENSITY CORRECTION
 CNC .DEC    42 890 03 00:   NEUTRON POROSITY SANDSTONE
 DEN .G/C3   45 350 01 00:   COMPENSATED BULK DENSTIY
 GRD .GAPI   45 310 01 00:   GAMMA RAY FROM DENSITY LOG
 PORD.DEC    45 890 12 00:   POROSITY DENSITY SANDSTONE
~PARAMETER INFORMATION
#MNEM.UNIT          VALUE    DESCRIPTION
#----------   ------------   ------------------------------
 PD  .                 GL:   PERMANENT DATUM
 EPD .F              5188:   ELEVATION PERMANENT DATUM
 LMF .                 KB:   LOG MEASURED FROM
 DMF .                 KB:   DRILLING MEASURED FROM
 EGL .F              5188:   GROUND LEVEL
 DATE.        05-DEC-1984:   RUN DATE
 RUN .                  1:   RUN NUMBER
 DD  .F               556:   DEPTH DRILLER
 DL  .F               551:   DEPTH LOGGER
 BLI .F               548:   BOTTOM LOG INTERVAL
 CS  .IN            8.625:   CASING SIZE
 CBD .F                20:   CASING BOTTOM DRILLER
 CBL .F                20:   CASING BOTTOM LOGGER
 BS  .IN            7.875:   BIT SIZE
 BSD .F               556:   BIT SIZE AT DEPTH
 DFT .          KCL WATER:   DRILLING FLUID TYPE
 MSS .           FLOWLINE:   MUD SAMPLE SOURCE
 RMS .OHMM            .36:   RESISTIVITY MUD SAMPLE
 MST .F                70:   MUD SAMPLE TEMPERATURE
 RMF .OHMM            .26:   RESISTIVITY MUD FILTRATE SAMPLE
 MFST.F                70:   MUD FILTRATE SAMPLE TEMPERATURE
 RMC .OHMM            .46:   RESISTIVITY MUD CAKE
 MCST.F                70:   MUD CAKE SAMPLE TEMPERATURE
 MFSS.               CALC:   MUD FILTRATE SAMPLE SOURCE
 MCSS.               CALC:   MUD CAKE SAMPLE SOURCE
 RMB .OHMM            .29:   RESISTIVITY MUD AT BHT
 BHT .F                85:   BOTTOM HOLE TEMPERATURE
 TCS .HRS               3:   TIME CURCULATED STOPPED
 MRT .F               100:   MAXIMUM RECORDED TEMPERATURE
 LUN .               6274:   LOGGING UNIT NUMBER
 LUL .               GLTE:   LOGGING UNIT LOCATION
 ENGI.             PAUTIO:   RECORDING ENGINEER
 WITN.       GROONS/LUERS:   WITNESSED BY
 CLNT.            A2DTECH:   CLIENT CODE
 ORIG.           5" PRINT:   ORIGIN OF DATA
 UWI .       490251099700:   UNIQUE WELL ID
 DICO. A2D Technologies, Inc.:   DIGITIZING COMPANY
~OTHER INFORMATION
~A   DEPT     RFOC       RILD       RILM        SPR         DT       CALD       CORR          CNC      DEN         GRD      PORD   
# ...
  197.0000     6.9652     7.1864     7.2509   -69.4280   105.9746     8.0620     0.0406     0.2788     2.4964   119.8253     0.1064
  197.5000     7.2712     7.3945     7.4062   -69.1385   104.6508     8.0610     0.0389     0.2864     2.5051   118.2699     0.1000
  198.0000     7.5353     7.5545     7.5649   -68.8489   104.2729     8.0599     0.0354     0.2951     2.5090   118.2577     0.0990
  198.5000     7.7539     7.7152     7.6162   -68.8671   104.1174     8.0434     0.0286     0.2936     2.5089   117.6282     0.0994
  199.0000     7.8613     7.8236     7.7216   -68.5776   104.3619     8.0578     0.0162     0.2878     2.5065   117.6160     0.0985
  199.5000     7.8528     7.9330     7.7159   -68.5969   104.6016     8.0567     0.0144     0.2847     2.5048   118.8383     0.1004
  200.0000     7.7321     7.8688     7.8231   -68.4615   105.0804     8.0710     0.0191     0.2892     2.5008   120.0638     0.1033
  200.5000     7.6686     7.9206     7.7013   -68.0165   106.1186     8.0857     0.0254     0.2956     2.5016   120.6692     0.1056
  201.0000     7.7180     7.9708     7.6371   -67.8792   106.6164     8.0850     0.0366     0.2979     2.5039   120.0428     0.1037
  201.5000     7.7105     7.9607     7.5733   -67.8999   107.0939     8.0688     0.0509     0.3027     2.5071   116.3301     0.1011
  202.0000     7.7033     7.9527     7.5652   -67.7585   107.4921     8.0680     0.0588     0.3036     2.5071   114.1564     0.1003
  202.5000     7.5844     7.8868     7.5020   -67.4673   107.8902     8.0672     0.0636     0.2798     2.5046   113.8426     0.1010
  203.0000     7.5772     7.8213     7.3257   -67.4880   108.2128     8.0818     0.0700     0.2697     2.5022   112.5969     0.1007
  203.5000     7.5135     7.8044     7.0939   -67.3465   108.2986     8.0656     0.0762     0.2745     2.4998   111.9706     0.1042
  204.0000     7.5065     7.6904     6.7987   -67.2133   108.5431     8.0648     0.0539     0.2787     2.4958   113.8134     0.1103
  204.5000     7.4449     7.4067     6.6929   -67.2299   108.7877     8.0640     0.0236     0.2860     2.4942   120.2858     0.1116
  205.0000     7.4379     6.9278     6.6370   -66.9387   109.2703     8.0633     0.0188     0.2845     2.4942   124.2891     0.1116
  205.5000     7.4310     6.5274     6.5817   -66.8014   109.8323     8.0625     0.0267     0.2816     2.4952   123.0454     0.1116
  206.0000     7.2631     6.1053     6.2927   -66.4923   111.0293     8.0772     0.0362     0.2937     2.4965   121.1845     0.1110
  206.5000     6.8943     5.4653     5.8860   -66.0653   112.7024     8.0921     0.0442     0.2966     2.4886   122.4100     0.1108
  207.0000     6.4967     5.0747     5.3471   -66.3936   115.1692     8.0912     0.0410     0.2981     2.4846   124.8701     0.1117
  207.5000     5.8166     4.9234     4.8931   -66.7179   118.8264     8.0904     0.0377     0.3007     2.4806   127.9475     0.1137
  208.0000     4.7703     4.8470     4.5435   -67.0421   120.0217     8.0896     0.0361     0.3101     2.4297   128.8643     0.1267
  208.5000     4.6286     4.8372     4.5029   -67.0586   119.1568     8.0889     0.0377     0.3248     2.3955   124.7562     0.1675
  209.0000     4.9906     4.9446     4.8066   -67.0752   117.3111     8.0570     0.0408     0.3270     2.3756   120.8192     0.1816
  209.5000     5.7514     5.2758     5.2099   -66.7840   112.8333     8.0563     0.0457     0.3204     2.3883   119.2670     0.1794
  210.0000     6.3652     5.9365     5.8220   -66.6467   108.3333     8.0710     0.0571     0.3077     2.4439   118.9493     0.1730
  210.5000     6.9423     6.5357     6.4621   -66.5092   106.0056     8.0859     0.0407     0.2931     2.4741   119.2511     0.1317
  211.0000     7.3535     7.3623     7.0981   -66.5259   105.6952     8.0849     0.0216     0.2884     2.4788   119.8571     0.1216
  211.5000     7.5647     7.7981     7.5192   -66.3886   106.0192     8.0842     0.0120     0.2900     2.4820   120.7762     0.1181
  212.0000     7.6689     7.9071     7.6216   -66.2513   106.1844     8.0834     0.0215     0.2964     2.4869   124.7772     0.1152
  212.5000     7.6618     7.9572     7.6672   -65.9643   106.1909     8.0827     0.0406     0.3022     2.4949   128.4718     0.1095
  213.0000     7.6546     8.0075     7.6032   -65.9808   106.0370     8.0974     0.0438     0.2923     2.4970   129.6975     0.1102
  213.5000     7.6475     8.0582     7.6528   -65.8394   105.7276     8.1121     0.0326     0.2863     2.4938   131.8488     0.1118
  214.0000     7.6404     8.1092     7.5869   -65.7021   105.2579     8.1113     0.0262     0.2891     2.4938   130.5761     0.1154
  214.5000     7.6333     8.2787     7.5787   -65.2612   104.9452     8.1105     0.0341     0.2972     2.4937   128.9414     0.1146
  215.0000     7.6261     8.5807     7.5705   -65.1239   105.0327     8.1096     0.0452     0.2900     2.4945   127.1897     0.1116
  215.5000     7.7393     8.6331     7.7866   -65.1404   105.0391     8.1243     0.0563     0.2829     2.4977   126.2547     0.1094
  216.0000     8.0685     8.5612     8.0104   -64.8492   105.1249     8.1235     0.0467     0.2830     2.5000   123.7765     0.1098
  216.5000     8.5464     8.4284     8.3637   -64.7000   105.2901     8.1382     0.0417     0.2853     2.4976   122.2242     0.1098
  217.0000     8.6662     8.2975     8.6069   -64.5747   105.4540     8.1376     0.0339     0.2996     2.4960   121.5979     0.1098
  217.5000     8.5931     8.2216     8.6509   -64.4374   105.3717     8.1522     0.0371     0.3048     2.4960   121.8975     0.1092
  218.0000     8.5226     7.9815     8.5140   -64.6119   105.1407     8.1669     0.0418     0.3048     2.4976   121.5798     0.1073
  218.5000     8.3911     7.8004     8.3815   -64.6284   104.8381     8.1661     0.0466     0.2978     2.5040   120.9534     0.1055
  219.0000     8.2616     7.7357     8.3115   -64.7988   104.5271     8.1654     0.0497     0.2947     2.5155   120.3271     0.0982
  219.5000     8.1341     7.6157     8.0635   -64.8153   103.7399     8.1646     0.0402     0.2820     2.5309   119.0689     0.0919
  220.0000     8.1265     7.5526     8.0549   -64.8319   105.2543     8.1638     0.0306     0.2737     2.5269   117.5312     0.0839
  220.5000     8.1190     7.5450     7.9898   -65.0023   106.0544     8.1614     0.0242     0.2933     2.5062   122.7668     0.0948
  221.0000     8.1114     7.5928     8.0397   -65.3265   106.5370     8.1467     0.0210     0.3043     2.5022   129.5478     0.1013
  221.5000     8.1633     7.6427     8.1471   -65.6508   106.7816     8.1616     0.0321     0.3365     2.5053   132.0079     0.1045
  222.0000     8.2155     7.7456     8.1980   -65.6677   106.7880     8.1570     0.0384     0.3406     2.5085   129.5297     0.0993
  222.5000     8.1462     7.7946     8.1891   -65.9956   106.7135     8.1444     0.0416     0.3251     2.5037   127.0515     0.0984
  223.0000     7.9041     7.7300     8.0593   -66.0121   106.6406     8.1437     0.0399     0.3121     2.5005   127.0424     0.1019
  223.5000     7.7255     7.6101     7.8718   -66.1784   106.6487     8.1429     0.0365     0.3080     2.4997   127.0334     0.1033
  224.0000     7.6062     7.5188     7.6414   -66.1991   106.4964     8.1422     0.0367     0.3090     2.4989   127.0243     0.1050
  224.5000     7.4883     7.3730     7.5225   -66.2156   106.5028     8.1259     0.0367     0.3103     2.4988   127.6327     0.1071
  225.0000     7.2657     7.2522     7.2449   -66.3860   106.5873     8.1252     0.0398     0.3138     2.4996   128.8580     0.1053
  225.5000     6.9475     7.1360     6.9268   -66.4025   107.0151     8.1244     0.0493     0.3183     2.5046   131.1430     0.1027
  226.0000     6.8905     6.9781     6.7694   -66.4191   108.5524     8.1236     0.0461     0.3187     2.4984   141.1856     0.0980
  226.5000     6.7841     6.8262     6.6640   -66.4356   111.7651     8.1229     0.0445     0.3141     2.4717   136.8533     0.1104
  227.0000     6.5825     6.7203     6.5126   -66.4523   112.5652     8.1221     0.0461     0.3060     2.4606   134.0664     0.1207
