~VERSION INFORMATION
 VERS.                2.0:   CWLS LOG ASCII STANDARD - VERSION 2.0
 WRAP.                 NO:   ONE LINE PER DEPTH STEP
~WELL INFORMATION
#MNEM.UNIT      DATA TYPE    INFORMATION
#----------   ------------   ------------------------------
 STRT.F            0.0000:   START DEPTH
 STOP.F          547.0000:   STOP DEPTH
 STEP.F            0.1000:   STEP LENGTH
 NULL.          -999.2500:   NO VALUE
 COMP.       F D SERV INC:   COMPANY
 WELL.    87-5 SX 3 #87-3:   WELL
 FLD .             TEAPOT:   FIELD
 LOC .       S3 T38N R78W:   LOCATION
 CNTY.            NATRONA:   COUNTY
 STAT.            WYOMING:   STATE
 CTRY. UNITED STATES OF AMERICA:   COUNTRY
 SRVC.     Atlas Wireline:   SERVICE COMPANY
 DATE.        31-OCT-1992:   LOGDATE
 API .       490252254800:   API NUMBER
~CURVE INFORMATION
#MNEM.UNIT       API CODE    CURVE DESCRIPTION
#----------   ------------   ------------------------------
 DEPT.F                  :   
 GRR .GAPI   07 310 01 00:   GAMMA RAY
 RILD.OHMM   07 120 46 00:   INDUCTION LOG DEEP RESISTIVITY
 RILM.OHMM   07 120 44 00:   INDUCTION LOG MEDIUM RESISTIVITY
~PARAMETER INFORMATION
#MNEM.UNIT          VALUE    DESCRIPTION
#----------   ------------   ------------------------------
 PD  .                 GL:   PERMANENT DATUM
 EPD .F              5119:   ELEVATION PERMANENT DATUM
 LMF .                 KB:   LOG MEASURED FROM
 DAPD.F                10:   FEET ABOVE PERMANENT DATUM
 DMF .                 KB:   DRILLING MEASURED FROM
 EKB .F              5129:   KELLING BUSHING
 EDF .F              5128:   DRILLING FLOOR
 EGL .F              5119:   GROUND LEVEL
 DATE.        31-OCT-1992:   RUN DATE
 RUN .                  1:   RUN NUMBER
 DD  .F               568:   DEPTH DRILLER
 DL  .F               555:   DEPTH LOGGER
 BLI .F               547:   BOTTOM LOG INTERVAL
 TLI .F                71:   TOP LOG INTERVAL
 CS  .IN            8.625:   CASING SIZE
 CBD .F                70:   CASING BOTTOM DRILLER
 CBL .F                71:   CASING BOTTOM LOGGER
 BS  .IN            7.875:   BIT SIZE
 BSD .F               568:   BIT SIZE AT DEPTH
 DFT .           AIR FOAM:   DRILLING FLUID TYPE
 TCS .HRS               2:   TIME CURCULATED STOPPED
 MRT .F                64:   MAXIMUM RECORDED TEMPERATURE
 LUN .            HL-6274:   LOGGING UNIT NUMBER
 LUL .             CASPER:   LOGGING UNIT LOCATION
 ENGI.        P.RASHUSSEN:   RECORDING ENGINEER
 WITN.     BRUCE ANDERSON:   WITNESSED BY
 CLNT.            A2DTECH:   CLIENT CODE
 ORIG.           5" PRINT:   ORIGIN OF DATA
 UWI .       490252254800:   UNIQUE WELL ID
 DICO. A2D Technologies, Inc.:   DIGITIZING COMPANY
~OTHER INFORMATION
~A    DEPT      GRR      RILD       RILM   
# ...
  527.8000   145.3718     8.7181     8.6846
  527.9000   145.9965     8.7181     8.7431
  528.0000   145.9666     8.7181     8.7431
  528.1000  -999.2500     8.7181     8.7763
  528.2000  -999.2500     8.7181     8.8044
  528.3000  -999.2500     8.7181     8.8044
  528.4000  -999.2500     8.7181     8.8044
  528.5000  -999.2500     8.8084     8.8044
  528.6000  -999.2500     8.8761     8.8485
  528.7000  -999.2500     8.9279     8.9346
  528.8000  -999.2500     8.9801     9.0394
  528.9000  -999.2500     9.0326     9.1312
  529.0000  -999.2500     9.0909     9.1880
  529.1000  -999.2500     9.1385     9.3102
  529.2000  -999.2500     9.1920     9.3574
  529.3000  -999.2500     9.2186     9.4121
  529.4000  -999.2500     9.2351     9.4932
  529.5000  -999.2500     9.2890     9.5891
  529.6000  -999.2500     9.3482     9.6452
  529.7000  -999.2500     9.3980     9.7086
  529.8000  -999.2500     9.4529     9.7583
  529.9000  -999.2500     9.4795     9.8543
  530.0000  -999.2500     9.4795     9.9141
  530.1000  -999.2500     9.4863     9.9304
  530.2000  -999.2500     9.5459     9.9884
  530.3000  -999.2500     9.6496    10.0535
  530.4000  -999.2500     9.7213    10.1056
  530.5000  -999.2500     9.7478    10.1646
  530.6000  -999.2500     9.7669    10.2534
  530.7000  -999.2500     9.8239    10.3559
  530.8000  -999.2500     9.8848    10.4164
  530.9000  -999.2500     9.9391    10.4837
  531.0000  -999.2500     9.9973    10.5386
  531.1000  -999.2500    10.0237    10.6435
  531.2000  -999.2500    10.0441    10.7368
  531.3000  -999.2500    10.1028    10.7996
  531.4000  -999.2500    10.1646    10.8627
  531.5000  -999.2500    10.2213    10.9323
  531.6000  -999.2500    10.2811    10.9901
  531.7000  -999.2500    10.3074    11.0543
  531.8000  -999.2500    10.3074    11.0860
  531.9000  -999.2500    10.3174    11.0860
  532.0000  -999.2500    10.3796    11.0933
  532.1000  -999.2500    10.4384    11.1637
  532.2000  -999.2500    10.4994    11.1637
  532.3000  -999.2500    10.5608    11.2104
  532.4000  -999.2500    10.5992    11.2419
  532.5000  -999.2500    10.5992    11.2629
  532.6000  -999.2500    10.5992    11.3207
  532.7000  -999.2500    10.5992    11.3207
  532.8000  -999.2500    10.6479    11.3818
  532.9000  -999.2500    10.6734    11.4000
  533.0000  -999.2500    10.6978    11.4000
  533.1000  -999.2500    10.7481    11.4000
  533.2000  -999.2500    10.7481    11.4000
  533.3000  -999.2500    10.8108    11.4000
  533.4000  -999.2500    10.8234    11.4622
  533.5000  -999.2500    10.8234    11.4799
  533.6000  -999.2500    10.8234    11.5159
  533.7000  -999.2500    10.8234    11.5603
  533.8000  -999.2500    10.8234    11.5698
  533.9000  -999.2500    10.8234    11.6414
  534.0000  -999.2500    10.8234    11.6414
  534.1000  -999.2500    10.8234    11.6414
  534.2000  -999.2500    10.8234    11.6414
  534.3000  -999.2500    10.8234    11.6414
  534.4000  -999.2500    10.8234    11.6414
  534.5000  -999.2500    10.8234    11.6414
  534.6000  -999.2500    10.8234    11.6414
  534.7000  -999.2500    10.8633    11.6414
  534.8000  -999.2500    10.8992    11.6414
  534.9000  -999.2500    10.8992    11.6657
  535.0000  -999.2500    10.8992    11.7229
  535.1000  -999.2500    10.8992    11.7229
  535.2000  -999.2500    10.8992    11.7229
  535.3000  -999.2500    10.8992    11.7229
  535.4000  -999.2500    10.8992    11.7229
  535.5000  -999.2500    10.8992    11.7229
  535.6000  -999.2500    10.8992    11.7229
  535.7000  -999.2500    10.8992    11.7229
  535.8000  -999.2500    10.8992    11.7229
  535.9000  -999.2500    10.8992    11.7229
  536.0000  -999.2500    10.8992    11.7229
  536.1000  -999.2500    10.8992    11.7488
  536.2000  -999.2500    10.8992    11.8051
  536.3000  -999.2500    10.8992    11.8051
  536.4000  -999.2500    10.8992    11.8051
  536.5000  -999.2500    10.8992    11.8051
  536.6000  -999.2500    10.8992    11.8455
  536.7000  -999.2500    10.8992    11.8878
  536.8000  -999.2500    10.8992    11.8878
  536.9000  -999.2500    10.8992    11.8878
  537.0000  -999.2500    10.8992    11.8878
  537.1000  -999.2500    10.8992    11.8878
  537.2000  -999.2500    10.8992    11.8878
  537.3000  -999.2500    10.8992    11.8878
  537.4000  -999.2500    10.8992    11.8878
  537.5000  -999.2500    10.8992    11.8878
  537.6000  -999.2500    10.8992    11.8878
  537.7000  -999.2500    10.8992    11.8878
  537.8000  -999.2500    10.8992    11.8878
  537.9000  -999.2500    10.8992    11.8878
  538.0000  -999.2500    10.8992    11.8878
  538.1000  -999.2500    10.8992    11.8878
  538.2000  -999.2500    10.8413    11.8878
  538.3000  -999.2500    10.8234    11.8878
  538.4000  -999.2500    10.8234    11.8878
  538.5000  -999.2500    10.8234    11.8591
  538.6000  -999.2500    10.8234    11.8051
  538.7000  -999.2500    10.8234    11.8051
  538.8000  -999.2500    10.8234    11.8051
  538.9000  -999.2500    10.8234    11.7488
  539.0000  -999.2500    10.8234    11.7229
  539.1000  -999.2500    10.8022    11.6940
  539.2000  -999.2500    10.7481    11.6414
  539.3000  -999.2500    10.7481    11.6394
  539.4000  -999.2500    10.6892    11.5603
  539.5000  -999.2500    10.6734    11.5046
  539.6000  -999.2500    10.6734    11.4799
  539.7000  -999.2500    10.6516    11.4509
  539.8000  -999.2500    10.5992    11.4000
  539.9000  -999.2500    10.5992    11.4000
  540.0000  -999.2500    10.5992    11.4000
  540.1000  -999.2500    10.5992    11.3444
  540.2000  -999.2500    10.5645    11.3207
  540.3000  -999.2500    10.5255    11.2915
  540.4000  -999.2500    10.5151    11.2419
  540.5000  -999.2500    10.4523    11.2356
  540.6000  -999.2500    10.3933    11.0860
  540.7000  -999.2500    10.3796    11.0860
  540.8000  -999.2500    10.3448    11.0860
  540.9000  -999.2500    10.1079    11.0568
  541.0000  -999.2500     9.2446    10.9763
  541.1000  -999.2500  -999.2500    10.8526
  541.2000  -999.2500  -999.2500    10.7806
  541.3000  -999.2500  -999.2500    10.7268
  541.4000  -999.2500  -999.2500    10.6237
  541.5000  -999.2500  -999.2500    10.5288
  541.6000  -999.2500  -999.2500    10.4515
  541.7000  -999.2500  -999.2500    10.3343
  541.8000  -999.2500  -999.2500    10.2664
  541.9000  -999.2500  -999.2500    10.2146
  542.0000  -999.2500  -999.2500    10.1949
  542.1000  -999.2500  -999.2500    10.1949
  542.2000  -999.2500  -999.2500    10.1787
  542.3000  -999.2500  -999.2500    10.1240
  542.4000  -999.2500  -999.2500    10.1240
  542.5000  -999.2500  -999.2500    10.0723
  542.6000  -999.2500  -999.2500    10.0138
  542.7000  -999.2500  -999.2500     9.9836
  542.8000  -999.2500  -999.2500     9.9671
  542.9000  -999.2500  -999.2500     9.9091
  543.0000  -999.2500  -999.2500     9.8451
  543.1000  -999.2500  -999.2500     9.7943
  543.2000  -999.2500  -999.2500     9.7374
  543.3000  -999.2500  -999.2500     9.6808
  543.4000  -999.2500  -999.2500     9.6246
  543.5000  -999.2500  -999.2500     9.5633
  543.6000  -999.2500  -999.2500     9.4412
  543.7000  -999.2500  -999.2500     9.3919
  543.8000  -999.2500  -999.2500     9.3374
  543.9000  -999.2500  -999.2500     9.2831
  544.0000  -999.2500  -999.2500     9.2292
  544.1000  -999.2500  -999.2500     9.1755
  544.2000  -999.2500  -999.2500     9.1172
  544.3000  -999.2500  -999.2500     9.0692
  544.4000  -999.2500  -999.2500     8.9794
  544.5000  -999.2500  -999.2500     8.9017
  544.6000  -999.2500  -999.2500     8.8180
  544.7000  -999.2500  -999.2500     8.6707
  544.8000  -999.2500  -999.2500     8.5619
  544.9000  -999.2500  -999.2500     8.4260
  545.0000  -999.2500  -999.2500     8.1779
  545.1000  -999.2500  -999.2500     7.8274
  545.2000  -999.2500  -999.2500     7.4672
  545.3000  -999.2500  -999.2500     7.2049
  545.4000  -999.2500  -999.2500     6.8954
  545.5000  -999.2500  -999.2500     6.7124
  545.6000  -999.2500  -999.2500     6.4927
  545.7000  -999.2500  -999.2500     6.2886
  545.8000  -999.2500  -999.2500     6.0849
  545.9000  -999.2500  -999.2500     5.8454
