~VERSION INFORMATION
 VERS.                2.0:   CWLS LOG ASCII STANDARD - VERSION 2.0
 WRAP.                 NO:   ONE LINE PER DEPTH STEP
~WELL INFORMATION
#MNEM.UNIT      DATA TYPE    INFORMATION
#----------   ------------   ------------------------------
 STRT.F          103.0000:   START DEPTH
 STOP.F          898.0000:   STOP DEPTH
 STEP.F            0.5000:   STEP LENGTH
 NULL.          -999.2500:   NO VALUE
 COMP. LAWRENCE/ALLISON INC:   COMPANY
 WELL. NPR 3 32-66 SX #2-2:   WELL
 FLD .             TEAPOT:   FIELD
 LOC .       S2 T38N R78W:   LOCATION
 CNTY.            NATRONA:   COUNTY
 STAT.            WYOMING:   STATE
 CTRY. UNITED STATES OF AMERICA:   COUNTRY
 SRVC.      Dresser Atlas:   SERVICE COMPANY
 DATE.        30-JAN-1986:   LOGDATE
 API .       490251106900:   API NUMBER
~CURVE INFORMATION
#MNEM.UNIT       API CODE    CURVE DESCRIPTION
#----------   ------------   ------------------------------
 DEPT.F                  :   
 RILD.OHMM   07 120 46 00:   INDUCTION LOG DEEP RESISTIVITY
 RILM.OHMM   07 120 44 00:   INDUCTION LOG MEDIUM RESISTIVITY
 CALD.IN     45 280 60 00:   CALIPER FROM DENSITY
 GRD .GAPI   45 310 01 00:   GAMMA RAY FROM DENSITY LOG
 CORR.G/C3   45 356 01 00:   DENSITY CORRECTION
 PORD.DEC    45 890 10 00:   POROSITY DENSITY LIMESTONE
 DEN .G/C3   45 350 01 00:   COMPENSATED BULK DENSITY
~PARAMETER INFORMATION
#MNEM.UNIT          VALUE    DESCRIPTION
#----------   ------------   ------------------------------
 PD  .                 GL:   PERMANENT DATUM
 EPD .F              5136:   ELEVATION PERMANENT DATUM
 LMF .                 GL:   LOG MEASURED FROM
 DMF .                 GL:   DRILLING MEASURED FROM
 EGL .F              5136:   GROUND LEVEL
 DATE.        30-JAN-1986:   RUN DATE
 RUN .                  1:   RUN NUMBER
 DD  .F               885:   DEPTH DRILLER
 DL  .F               902:   DEPTH LOGGER
 BLI .F               894:   BOTTOM LOG INTERVAL
 CS  .IN            8.625:   CASING SIZE
 CBD .F               130:   CASING BOTTOM DRILLER
 CBL .F               126:   CASING BOTTOM LOGGER
 BS  .IN             6.25:   BIT SIZE
 BSD .F               885:   BIT SIZE AT DEPTH
 DFT .                AIR:   DRILLING FLUID TYPE
 LUN .            HL-6264:   LOGGING UNIT NUMBER
 LUL .           GILLETTE:   LOGGING UNIT LOCATION
 ENGI.     P. M. FAHLSING:   RECORDING ENGINEER
 WITN.        LINDA FIVAS:   WITNESSED BY
 CLNT.            A2DTECH:   CLIENT CODE
 ORIG.           5" PRINT:   ORIGIN OF DATA
 UWI .       490251106900:   UNIQUE WELL ID
 DICO. A2D Technologies, Inc.:   DIGITIZING COMPANY
 R1  . POROSITY WITH LIMESTONE:   REMARKS 1
~OTHER INFORMATION
~A   DEPT     RILD       RILM       CALD        GRD       CORR       PORD        DEN   
# ...
  603.5000     5.9506     5.9912     7.2268   148.3483     0.0937     0.1212     2.4757
  604.0000     5.6758     5.4804     7.2265   150.1501     0.1058     0.1136     2.4976
  604.5000     5.1208     5.2622     7.2111   153.1532     0.1088     0.1055     2.5059
  605.0000     4.6201     4.8066     7.1958   156.7568     0.0876     0.1022     2.5074
  605.5000     4.3152     4.3627     7.1955   159.1592     0.0831     0.1070     2.4991
  606.0000     4.0866     4.1657     7.1952   161.2613     0.0876     0.1243     2.4393
  606.5000     3.9789     4.0289     7.1949   162.7628     0.1117     0.1638     2.3674
  607.0000     3.9270     3.9783     7.2247   161.5616     0.1328     0.1958     2.3334
  607.5000     3.9038     3.9275     7.2244   154.3544     0.1312     0.2072     2.3303
  608.0000     3.9906     3.9311     7.2392   144.7448     0.1206     0.1988     2.3553
  608.5000     4.1929     4.0452     7.2539   141.7417     0.0904     0.1727     2.3976
  609.0000     4.4055     4.2500     7.2536   141.4414     0.0964     0.1469     2.4415
  609.5000     4.5969     4.4962     7.2684   142.6426     0.0949     0.1246     2.4747
  610.0000     4.7966     4.6588     7.2701   146.5465     0.0979     0.1131     2.4868
  610.5000     5.0748     4.9287     7.2828   151.9721     0.1069     0.1125     2.4899
  611.0000     5.4065     5.2142     7.2825   153.1532     0.1114     0.1143     2.4883
  611.5000     5.6806     5.5932     7.2822   151.8916     0.1114     0.1161     2.4853
  612.0000     5.9686     5.9583     7.2819   148.5688     0.1023     0.1167     2.4838
  612.5000     6.2712     6.2599     7.2816   147.7477     0.0932     0.1101     2.4943
  613.0000     6.5613     6.6225     7.2813   149.5495     0.0962     0.1017     2.5079
  613.5000     6.8897     6.9098     7.2810   149.8499     0.1037     0.0917     2.5185
  614.0000     7.1350     7.1103     7.2807   149.8499     0.1112     0.0926     2.5230
  614.5000     7.2797     7.1663     7.2955   149.8499     0.1097     0.0938     2.5245
  615.0000     7.2331     7.1217     7.3103   150.1501     0.1051     0.0969     2.5183
  615.5000     7.0456     7.0806     7.3099   150.7507     0.0976     0.1029     2.5082
  616.0000     6.9075     7.0854     7.3096   151.9520     0.1051     0.1098     2.4969
  616.5000     6.7721     6.8923     7.3093   153.1532     0.1066     0.1132     2.4912
  617.0000     6.6394     6.7589     7.3240   154.6546     0.1003     0.1144     2.4912
  617.5000     6.4643     6.6740     7.3389   157.9580     0.0818     0.1162     2.4828
  618.0000     6.2939     6.4991     7.3385   158.5586     0.0672     0.1240     2.4715
  618.5000     6.1279     6.3273     7.3382   154.9550     0.0566     0.1253     2.4699
  619.0000     5.7633     6.0334     7.3379   152.5526     0.0505     0.1259     2.4699
  619.5000     5.4204     5.5190     7.3376   152.5526     0.0581     0.1256     2.4714
  620.0000     5.0979     5.1188     7.3373   154.9550     0.0641     0.1256     2.4729
  620.5000     4.8279     4.1624     7.3370   158.8589     0.0656     0.1259     2.4721
  621.0000     4.6359     4.0235     7.3367   160.3604     0.0625     0.1277     2.4699
  621.5000     4.4516     4.1700     7.3364   159.1592     0.0655     0.1428     2.4577
  622.0000     4.4560     4.3508     7.3361   152.5526     0.1017     0.1594     2.3972
  622.5000     4.5540     4.5082     7.3208   149.8499     0.1590     0.1724     2.3836
  623.0000     4.7190     4.7038     7.3356   149.5495     0.1529     0.1763     2.3866
  623.5000     4.8901     4.9078     7.3352   151.9520     0.1288     0.1647     2.4123
  624.0000     5.1380     5.1563     7.3349   154.6546     0.0940     0.1348     2.4615
  624.5000     5.4738     5.4549     7.3496   157.0571     0.0744     0.1166     2.4879
  625.0000     5.6842     5.8110     7.3645   157.0571     0.0713     0.1151     2.4864
  625.5000     5.9687     6.1477     7.3641   154.9348     0.0803     0.1317     2.4637
  626.0000     6.3549     6.4589     7.4090   153.4535     0.1226     0.1851     2.4001
  626.5000     6.7194     6.6541     7.4841   159.7898     0.1860     0.2056     2.3320
  627.0000     6.8636     6.7977     7.3632   160.3604     0.1603     0.1947     2.3509
  627.5000     6.9180     6.8441     7.3328   160.2602     0.1255     0.1643     2.3988
  628.0000     6.9248     6.8503     7.3325   154.6546     0.0983     0.1272     2.4780
  628.5000     6.9316     6.8564     7.3322   153.7538     0.0802     0.1094     2.5022
  629.0000     6.9866     6.8627     7.3319   153.7538     0.0741     0.1061     2.5014
  629.5000     6.9935     6.8689     7.3316   153.1532     0.0756     0.1052     2.5014
  630.0000     7.0490     6.9230     7.3464   152.5526     0.0861     0.1040     2.5029
  630.5000     7.0559     6.9293     7.3461   153.1532     0.0921     0.1019     2.5074
  631.0000     7.0628     6.9356     7.3458   155.8559     0.0921     0.0989     2.5119
  631.5000     7.0697     6.9419     7.3455   163.3634     0.0940     0.0965     2.5164
  632.0000     7.0261     6.8987     7.3452   167.5676     0.1226     0.0931     2.5225
  632.5000     6.9845     6.9066     7.3599   167.8679     0.1312     0.0910     2.5255
  633.0000     6.9431     6.9129     7.3596   167.5676     0.1312     0.0898     2.5315
  633.5000     6.9019     6.9192     7.3744   168.1682     0.1282     0.0914     2.5338
  634.0000     6.9104     6.9255     7.3892   167.5676     0.0859     0.0989     2.4975
  634.5000     6.9652     6.9318     7.3724   157.9580     0.1100     0.1327     2.4513
  635.0000     6.9222     6.9381     7.3584   155.2552     0.1462     0.1526     2.4172
  635.5000     6.8829     6.9444     7.3581   159.7598     0.1492     0.1586     2.4150
  636.0000     6.6552     6.8078     7.3578   161.5616     0.0691     0.1427     2.4513
  636.5000     6.4261     6.4468     7.3575   162.7628     0.0646     0.1243     2.4875
  637.0000     5.9831     6.1049     7.3572   165.1652     0.0736     0.1071     2.5049
  637.5000     5.4498     5.6494     7.3569   171.4715     0.0826     0.1008     2.5117
  638.0000     5.1314     4.7461     7.3868   176.5766     0.0947     0.1026     2.5102
  638.5000     4.8960     4.3527     7.4165   175.9760     0.0796     0.1186     2.5011
  639.0000     4.8000     4.2734     7.4464   173.8739     0.0765     0.1575     2.4565
  639.5000     4.6411     4.4587     7.4762   167.5676     0.1067     0.2000     2.3611
  640.0000     4.6458     4.5882     7.5061   155.8559     0.2108     0.2247     2.2847
  640.5000     4.6827     4.6242     7.5057   159.2094     0.2409     0.2336     2.2816
  641.0000     4.9201     4.7256     7.4452   162.8027     0.2243     0.2283     2.3120
  641.5000     5.2054     4.9306     7.3846   162.0421     0.1526     0.1878     2.3751
  642.0000     5.3569     5.2162     7.3843   159.7598     0.1065     0.1467     2.4468
  642.5000     5.2519     5.2561     7.3690   160.3604     0.1113     0.0966     2.5032
  643.0000     5.1489     5.0479     7.3536   162.4625     0.1231     0.0936     2.5206
  643.5000     5.1172     4.8805     7.3533   165.7658     0.1185     0.1017     2.5092
  644.0000     5.1234     4.6862     7.3530   164.5646     0.1034     0.1226     2.4434
  644.5000     5.1641     4.6904     7.3527   161.5616     0.0958     0.1672     2.3980
  645.0000     5.1692     4.7933     7.3524   158.8589     0.0927     0.1702     2.3890
  645.5000     5.1742     5.0012     7.3521   157.3574     0.0822     0.1648     2.4026
  646.0000     5.3248     5.1821     7.3518   160.3604     0.0519     0.1536     2.4441
  646.5000     5.7122     5.4444     7.3515   161.7225     0.0368     0.1335     2.4646
  647.0000     6.0855     5.7999     7.3512   163.4826     0.0368     0.1286     2.4676
  647.5000     6.3940     6.1358     7.3509   164.5646     0.0443     0.1265     2.4662
  648.0000     6.5867     6.4174     7.3657   163.3634     0.0594     0.1280     2.4645
  648.5000     6.7234     6.5865     7.3653   157.6577     0.0729     0.1302     2.4614
