~VERSION INFORMATION
 VERS.                2.0:   CWLS LOG ASCII STANDARD - VERSION 2.0
 WRAP.                 NO:   ONE LINE PER DEPTH STEP
~WELL INFORMATION
#MNEM.UNIT      DATA TYPE    INFORMATION
#----------   ------------   ------------------------------
 STRT.F           38.0000:   START DEPTH
 STOP.F          818.0000:   STOP DEPTH
 STEP.F            0.5000:   STEP LENGTH
 NULL.          -999.2500:   NO VALUE
 COMP. FENIX & SCISSON INC:   COMPANY
 WELL. NAVAL PETROLEUM RESERVE 3 SX-1 #32-14:   WELL
 FLD .             TEAPOT:   FIELD
 LOC .      S14 T38N R78W:   LOCATION
 CNTY.            NATRONA:   COUNTY
 STAT.            WYOMING:   STATE
 CTRY. UNITED STATES OF AMERICA:   COUNTRY
 SRVC.            Unknown:   SERVICE COMPANY
 DATE.        03-MAY-1978:   LOGDATE
 API .       490251061900:   API NUMBER
~CURVE INFORMATION
#MNEM.UNIT       API CODE    CURVE DESCRIPTION
#----------   ------------   ------------------------------
 DEPT.F                  :   
 SPR .MV     05 010 01 00:   SPONTANEOUS POTENTIAL FROM RES.
 ILD .OHMM   05 120 46 00:   INDUCTION LOG DEEP
 SN  .OHMM   05 040 16 00:   SHORT NORMAL 16"
 CALD.IN     45 280 60 00:   CALIPER
 GRD .GAPI   45 310 01 00:   GAMMA RAY FROM DENSITY LOG
 RHOB.G/C3   45 350 01 00:   BULK DENSITY
 DPHI.DEC    45 890 12 00:   DENSITY POROSITY SANDSTONE
 CORR.G/C3   45 356 01 00:   DENSITY CORRECTION
~PARAMETER INFORMATION
#MNEM.UNIT          VALUE    DESCRIPTION
#----------   ------------   ------------------------------
 PD  .                 GL:   PERMANENT DATUM
 EPD .F              5209:   ELEVATION PERMANENT DATUM
 LMF .                 KB:   LOG MEASURED FROM
 DAPD.F                 4:   FEET ABOVE PERMANENT DATUM
 DMF .                 KB:   DRILLING MEASURED FROM
 EKB .F              5213:   KELLING BUSHING
 EGL .F              5209:   GROUND LEVEL
 DATE.           5-3-1978:   RUN DATE
 RUN .                  1:   RUN NUMBER
 DD  .F               806:   DEPTH DRILLER
 DL  .F               824:   DEPTH LOGGER
 BLI .F               818:   BOTTOM LOG INTERVAL
 TLI .F                50:   TOP LOG INTERVAL
 CS  .IN            8.625:   CASING SIZE
 CBD .F                40:   CASING BOTTOM DRILLER
 BS  .IN            7.875:   BIT SIZE
 BSD .F               806:   BIT SIZE AT DEPTH
 DFT .                KCL:   DRILLING FLUID TYPE
 DFD .                8.6:   DRILLING FLUID DENSITY
 DFV .                 34:   DRILLING FLUID VISCOSITY
 DFPH.                  9:   DRILLING FLUID PH
 DFL .               16.4:   DRILLING FLUID LOSS
 MSS .           FLOWLINE:   MUD SAMPLE SOURCE
 RMS .OHMM            .75:   RESISTIVITY MUD SAMPLE
 MST .F                52:   MUD SAMPLE TEMPERATURE
 RMF .OHMM            .65:   RESISTIVITY MUD FILTRATE SAMPLE
 MFST.F                60:   MUD FILTRATE SAMPLE TEMPERATURE
 RMC .OHMM            1.2:   RESISTIVITY MUD CAKE
 MCST.F                62:   MUD CAKE SAMPLE TEMPERATURE
 MFSS.               MEAS:   MUD FILTRATE SAMPLE SOURCE
 RMB .OHMM            .54:   RESISTIVITY MUD AT BHT
 BHT .F                72:   BOTTOM HOLE TEMPERATURE
 TCS .HRS               1:   TIME CURCULATED STOPPED
 MRT .F                72:   MAXIMUM RECORDED TEMPERATURE
 LUN .               2958:   LOGGING UNIT NUMBER
 LUL .               CASP:   LOGGING UNIT LOCATION
 ENGI.             MILLER:   RECORDING ENGINEER
 WITN.           MCGINLEY:   WITNESSED BY
 CLNT.            A2DTECH:   CLIENT CODE
 ORIG.           5" PRINT:   ORIGIN OF DATA
 UWI .       490251061900:   UNIQUE WELL ID
 DICO. A2D Technologies, Inc.:   DIGITIZING COMPANY
~OTHER INFORMATION
~A   DEPT      SPR        ILD         SN         CALD      GRD       RHOB       DPHI       CORR   
# ...
  564.5000   -35.1604     7.0370     7.2731     8.2907   119.8051     2.4714     0.1339     0.0068
  565.0000   -35.1666     7.0441     7.2688     8.2957   119.8052     2.4769     0.1356     0.0077
  565.5000   -35.1319     7.0510     7.2646     8.3008   117.9446     2.4757     0.1375     0.0089
  566.0000   -34.2349     7.0580     7.2604     8.3058   110.8868     2.4735     0.1341     0.0113
  566.5000   -33.3999     7.0650     7.2561     8.3109   105.9996     2.4747     0.1284     0.0136
  567.0000   -32.7406     7.0720     7.2519     8.3160   106.8226     2.4834     0.1203     0.0146
  567.5000   -32.6652     7.0791     7.2477     8.3207   108.6502     2.4920     0.1241     0.0105
  568.0000   -32.5822     7.0861     7.2435     8.3208   109.6279     2.4979     0.1283     0.0058
  568.5000   -32.5012     7.0960     7.2393     8.3207   109.8370     2.4891     0.1287     0.0025
  569.0000   -32.4214     7.0824     7.2351     8.3208   109.8159     2.4856     0.1301     0.0029
  569.5000   -32.4412     7.0570     7.2306     8.2736   110.9266     2.4782     0.1395     0.0033
  570.0000   -32.9116     7.0317     7.2101     8.1834   113.0693     2.4659     0.1395     0.0036
  570.5000   -33.3779     7.0066     7.1623     8.1201   115.2215     2.4692     0.1364     0.0040
  571.0000   -33.8441     6.9813     7.1148     8.1631   117.4368     2.4731     0.1327     0.0043
  571.5000   -34.3115     6.9573     7.0872     8.2006   117.8563     2.4769     0.1332     0.0047
  572.0000   -34.7511     6.9106     7.0447     8.2373   113.2833     2.4762     0.1359     0.0050
  572.5000   -34.7586     6.8649     7.0024     8.3576   108.8329     2.4737     0.1375     0.0053
  573.0000   -34.7303     6.8200     6.9605     8.3793   109.0634     2.4713     0.1376     0.0057
  573.5000   -34.7046     6.7769     6.9187     8.3741   109.6921     2.4689     0.1390     0.0060
  574.0000   -34.6794     6.6293     6.8773     8.3683   110.3367     2.4655     0.1423     0.0063
  574.5000   -34.6542     6.4934     6.8396     8.3628   110.8939     2.4592     0.1456     0.0081
  575.0000   -34.6290     6.3615     6.5965     8.3573   109.6128     2.4591     0.1474     0.0104
  575.5000   -34.6042     6.1105     6.3806     8.3519   108.1977     2.4581     0.1502     0.0125
  576.0000   -34.5795     5.7440     6.1716     8.3468   109.3861     2.4496     0.1534     0.0135
  576.5000   -34.5340     5.6338     5.9570     8.3420   113.5156     2.4410     0.1574     0.0154
  577.0000   -34.3217     5.6313     5.9570     8.2922   114.4325     2.4325     0.1578     0.0221
  577.5000   -34.1081     5.6217     5.9641     8.0842   114.7553     2.4488     0.1379     0.0237
  578.0000   -33.8951     5.6121     5.9840     8.0048   115.6250     2.4734     0.1366     0.0159
  578.5000   -33.7713     5.6024     6.0039     8.0287   112.0406     2.4732     0.1382     0.0084
  579.0000   -34.1708     5.5926     6.0241     8.2133   110.0525     2.4734     0.1452     0.0023
  579.5000   -34.9099     5.5657     6.0432     8.3166   111.5971     2.4618     0.1522     0.0026
  580.0000   -35.3603     5.4685     6.0687     8.3069   114.7664     2.4482     0.1593     0.0070
  580.5000   -35.3445     5.3734     5.8199     8.2974   114.6752     2.4344     0.1614     0.0114
  581.0000   -35.3343     5.2848     5.6069     8.2876   109.5171     2.4292     0.1591     0.0158
  581.5000   -35.3225     5.3448     5.5339     8.2780   105.1135     2.4327     0.1522     0.0198
  582.0000   -35.3113     5.3890     5.6368     8.2683   100.7292     2.4445     0.1455     0.0154
  582.5000   -35.3001     5.4335     5.9242     8.2587    97.6658     2.4567     0.1411     0.0110
  583.0000   -35.2889     5.4783     6.2068     8.2492    95.7445     2.4621     0.1425     0.0068
  583.5000   -35.2777     5.6571     6.5353     8.2403    93.8628     2.4600     0.1451     0.0045
  584.0000   -35.2665     5.8583     6.5299     8.2166    92.3840     2.4573     0.1467     0.0045
  584.5000   -35.2553     6.0153     6.5328     8.1913    91.6225     2.4550     0.1412     0.0045
  585.0000   -35.2441     6.1284     6.5318     8.1665    90.9020     2.4596     0.1356     0.0045
  585.5000   -35.2329     6.2438     6.5317     8.1367    87.7523     2.4685     0.1343     0.0045
  586.0000   -35.2217     6.2955     6.5324     8.0004    84.1737     2.4739     0.1379     0.0045
  586.5000   -35.2105     6.1141     6.5341     8.0606    81.1159     2.4685     0.1453     0.0045
  587.0000   -35.1993     5.8853     6.3607     8.1773    80.7081     2.4627     0.1520     0.0045
  587.5000   -35.1882     5.5902     6.1901     8.2862    82.8834     2.4505     0.1582     0.0045
  588.0000   -35.1776     5.2616     5.9298     8.1053    87.9956     2.4350     0.1636     0.0069
  588.5000   -35.1659     5.0937     5.6223     8.0245    87.9249     2.4253     0.1694     0.0115
  589.0000   -35.1160     5.0926     5.3306     8.0877    87.8371     2.4169     0.1698     0.0165
  589.5000   -34.8981     5.0934     5.2364     8.1599    87.7679     2.4165     0.1512     0.0287
  590.0000   -34.6856     5.0930     5.2545     8.2320    87.5205     2.4396     0.1379     0.0277
  590.5000   -34.4715     5.0937     5.2828     8.2418    86.0821     2.4641     0.1294     0.0161
  591.0000   -34.2551     5.1791     5.2818     8.1218    84.8156     2.4878     0.1226     0.0157
  591.5000   -34.0279     5.5359     6.1687     8.1128    84.8463     2.4980     0.1203     0.0150
  592.0000   -33.9647     5.9539     6.5359     8.1710    87.7857     2.5017     0.1162     0.0145
  592.5000   -33.9637     6.3899     6.8052     8.2284    91.0166     2.5050     0.1151     0.0139
  593.0000   -33.9640     6.6586     7.0857     8.2804    94.2841     2.5049     0.1179     0.0133
  593.5000   -33.9641     6.9668     7.1940     8.2769    97.4848     2.5001     0.1229     0.0127
  594.0000   -33.9641     6.9854     7.2379     8.2719   106.2598     2.4956     0.1257     0.0121
  594.5000   -33.9641     7.0105     7.2820     8.2670   107.4963     2.4910     0.1271     0.0115
  595.0000   -33.9641     7.0357     7.3264     8.2620   108.3208     2.4869     0.1265     0.0110
  595.5000   -33.9641     7.0610     7.3626     8.2618   110.2280     2.4879     0.1251     0.0107
  596.0000   -33.9641     7.0863     7.3668     8.2644   110.2985     2.4944     0.1228     0.0126
  596.5000   -33.9641     7.0964     7.3712     8.2669   108.2853     2.4983     0.1204     0.0144
  597.0000   -33.9641     7.0963     7.3755     8.2694   103.6781     2.5001     0.1164     0.0163
  597.5000   -33.9641     7.0963     7.3798     8.2720    97.3770     2.5043     0.1120     0.0182
  598.0000   -33.9642     7.0963     7.3841     8.2745    95.1170     2.5118     0.1115     0.0181
  598.5000   -33.9647     7.0963     7.3884     8.2772    96.2530     2.5111     0.1135     0.0178
  599.0000   -33.9640     7.0963     7.3927     8.2799    96.2703     2.5090     0.1167     0.0174
  599.5000   -33.9231     7.0963     7.3970     8.2711    96.2539     2.5036     0.1198     0.0170
  600.0000   -33.7471     7.0963     7.4014     8.2042    97.0354     2.4959     0.1211     0.0166
  600.5000   -33.5778     7.0963     7.4057     8.0579    97.8744     2.4950     0.1216     0.0163
  601.0000   -33.4031     7.0963     7.4100     7.9207    98.5095     2.4957     0.1248     0.0159
  601.5000   -33.3534     7.0963     7.4143     7.8836    95.2406     2.4907     0.1335     0.0155
  602.0000   -33.3148     7.0963     7.4187     7.8907    91.3101     2.4808     0.1423     0.0151
  602.5000   -33.2776     7.0963     7.4230     7.9135    90.0632     2.4709     0.1443     0.0148
  603.0000   -33.2399     7.0963     7.4273     7.9069    91.0065     2.4615     0.1435     0.0159
  603.5000   -33.2022     7.0963     7.4336     7.8818    94.8724     2.4601     0.1413     0.0246
  604.0000   -33.1645     7.0963     7.4478     7.8563   100.0568     2.4651     0.1347     0.0377
  604.5000   -33.1268     7.0963     7.4617     7.8437    97.4303     2.4739     0.1349     0.0501
