~VERSION INFORMATION
 VERS.                2.0:   CWLS LOG ASCII STANDARD - VERSION 2.0
 WRAP.                 NO:   ONE LINE PER DEPTH STEP
~WELL INFORMATION
#MNEM.UNIT      DATA TYPE    INFORMATION
#----------   ------------   ------------------------------
 STRT.F           33.0000:   START DEPTH
 STOP.F          560.0000:   STOP DEPTH
 STEP.F            0.5000:   STEP LENGTH
 NULL.          -999.2500:   NO VALUE
 COMP. BROWN JOHN E&C INC:   COMPANY
 WELL.        SX 85 #25-3:   WELL
 FLD .             TEAPOT:   FIELD
 LOC .       S3 T38N R78W:   LOCATION
 CNTY.            NATRONA:   COUNTY
 STAT.            WYOMING:   STATE
 CTRY. UNITED STATES OF AMERICA:   COUNTRY
 SRVC.       Schlumberger:   SERVICE COMPANY
 DATE.        23-SEP-1980:   LOGDATE
 API .       490251130600:   API NUMBER
~CURVE INFORMATION
#MNEM.UNIT       API CODE    CURVE DESCRIPTION
#----------   ------------   ------------------------------
 DEPT.F                  :   
 ILD .OHMM   07 120 46 00:   INDUCTION LOG DEEP
 ILM .OHMM   07 120 44 00:   INDUCTION LOG MEDIUM
 DPHI.DEC    45 890 12 00:   DENSITY POROSITY SANDSTONE
 RHOB.G/C3   45 350 01 00:   BULK DENSITY
 DRHO.G/C3   45 356 01 00:   DENSITY CORRECTION
 CALD.IN     45 280 60 00:   CALIPER
 GRD .GAPI   45 310 01 00:   GAMMA RAY FROM DENSITY LOG
~PARAMETER INFORMATION
#MNEM.UNIT          VALUE    DESCRIPTION
#----------   ------------   ------------------------------
 PD  .                 GL:   PERMANENT DATUM
 EPD .F              5144:   ELEVATION PERMANENT DATUM
 LMF .                 KB:   LOG MEASURED FROM
 DAPD.F                10:   FEET ABOVE PERMANENT DATUM
 DMF .                 KB:   DRILLING MEASURED FROM
 EKB .F              5154:   KELLING BUSHING
 EDF .F              5153:   DRILLING FLOOR
 EGL .F              5144:   GROUND LEVEL
 DATE.            9-23-90:   RUN DATE
 RUN .                  1:   RUN NUMBER
 DD  .F               564:   DEPTH DRILLER
 DL  .F               565:   DEPTH LOGGER
 BLI .F               559:   BOTTOM LOG INTERVAL
 TLI .F                40:   TOP LOG INTERVAL
 CS  .IN            8.625:   CASING SIZE
 CBD .F                50:   CASING BOTTOM DRILLER
 CBL .F                50:   CASING BOTTOM LOGGER
 BS  .IN            7.875:   BIT SIZE
 BSD .F               564:   BIT SIZE AT DEPTH
 DFT .                AIR:   DRILLING FLUID TYPE
 TCS .HRS            1900:   TIME CURCULATED STOPPED
 TLAB.HRS            2000:   TIME LOGGER AT BOTTOM
 LUN .               5882:   LOGGING UNIT NUMBER
 LUL .               CODY:   LOGGING UNIT LOCATION
 ENGI.          M. FISHER:   RECORDING ENGINEER
 WITN.          G. STRONG:   WITNESSED BY
 CLNT.            A2DTECH:   CLIENT CODE
 ORIG.        2" 5" PRINT:   ORIGIN OF DATA
 UWI .       490251130600:   UNIQUE WELL ID
 DICO. A2D Technologies, Inc.:   DIGITIZING COMPANY
~OTHER INFORMATION
~A   DEPT      ILD        ILM       DPHI       RHOB       DRHO       CALD         GRD  
# ...
  442.5000    12.5991    11.9835     0.1174     2.4539     0.0058     7.8463   100.6240
  443.0000    13.0404    12.4340     0.1176     2.4527     0.0044     7.8446   101.9755
  443.5000    13.6074    13.0457     0.1185     2.4517     0.0030     7.8430   103.1250
  444.0000    14.6950    14.3868     0.1206     2.4466     0.0016     7.8415   100.8737
  444.5000    15.9646    15.8596     0.1289     2.4378     0.0002     7.8325    96.1137
  445.0000    17.7206    17.4832     0.1451     2.3673    -0.0012     7.8226    91.1092
  445.5000    19.6696    19.0901     0.1612     2.2974    -0.0026     7.8126    86.1094
  446.0000    21.8360    20.9430     0.1740     2.2366    -0.0038     7.8027    81.4795
  446.5000    24.2277    22.7868     0.1707     2.2537    -0.0013     7.7927    79.9906
  447.0000    26.4383    24.7930     0.1650     2.2779     0.0032     7.7824    78.4093
  447.5000    26.9925    26.9758     0.1614     2.2952     0.0078     7.7867    77.3562
  448.0000    27.7109    27.7069     0.1628     2.2777     0.0122     7.7944    76.6169
  448.5000    27.0706    26.5547     0.1732     2.2444     0.0109     7.8021    75.8956
  449.0000    26.3072    25.7624     0.1837     2.2116     0.0090     7.8098    75.5480
  449.5000    25.5665    24.9938     0.1907     2.1808     0.0072     7.8175    76.6435
  450.0000    24.7773    24.3200     0.1921     2.1661     0.0053     7.8252    77.6747
  450.5000    24.6443    24.0677     0.1895     2.1828     0.0040     7.8329    78.7025
  451.0000    24.3200    23.8402     0.1864     2.1964     0.0027     7.8409    79.9375
  451.5000    24.6606    23.6500     0.1817     2.2099     0.0013     7.8524    81.5935
  452.0000    25.2933    24.3640     0.1796     2.2208     0.0015     7.8645    83.2267
  452.5000    25.9389    25.0236     0.1796     2.2259     0.0030     7.8767    84.0093
  453.0000    26.3138    25.7012     0.1784     2.2268     0.0044     7.8809    83.3475
  453.5000    26.5737    26.0471     0.1763     2.2337     0.0059     7.8704    82.6347
  454.0000    26.8407    26.2541     0.1743     2.2408     0.0077     7.8594    85.4339
  454.5000    27.1956    26.4463     0.1748     2.2389     0.0017     7.8487    88.5424
  455.0000    27.0915    26.3077     0.1759     2.2356    -0.0014     7.8462    90.0632
  455.5000    26.9405    26.1799     0.1769     2.2323    -0.0028     7.8685    90.8775
  456.0000    26.7904    26.0527     0.1764     2.2306    -0.0039     7.8898    91.6841
  456.5000    26.6411    25.9261     0.1753     2.2344    -0.0047     7.9110    92.2204
  457.0000    26.4930    25.8002     0.1744     2.2394    -0.0056     7.9322    91.3810
  457.5000    26.3468    25.6749     0.1748     2.2402    -0.0048     7.9536    90.5126
  458.0000    26.1997    25.5532     0.1774     2.2327    -0.0035     7.9644    89.6065
  458.5000    25.6985    25.2464     0.1776     2.2263    -0.0022     7.9690    90.5696
  459.0000    25.2149    24.7222     0.1735     2.2420    -0.0025     7.9735    91.9016
  459.5000    24.7404    24.2047     0.1688     2.2589    -0.0035     7.9781    91.8995
  460.0000    24.2748    23.6990     0.1768     2.2560    -0.0059     7.9807    91.2591
  460.5000    23.8180    23.2040     0.1861     2.2022    -0.0085     7.9576    91.6354
  461.0000    22.9984    22.7711     0.1912     2.1785    -0.0089     7.9351    92.3730
  461.5000    22.9984    22.6683     0.1918     2.1753    -0.0062     7.9128    93.0926
  462.0000    22.9942    22.5660     0.1823     2.2041    -0.0038     7.8904    92.4979
  462.5000    22.9977    22.4641     0.1752     2.2303    -0.0023     7.8785    90.9781
  463.0000    22.9984    22.3647     0.1721     2.2463    -0.0014     7.8735    89.2543
  463.5000    23.1474    22.5320     0.1706     2.2550    -0.0005     7.8686    87.5436
  464.0000    23.2944    22.6972     0.1683     2.2648     0.0004     7.8637    86.4868
  464.5000    23.4424    22.8637     0.1631     2.2805     0.0012     7.8552    87.6922
  465.0000    23.5913    23.0314     0.1595     2.3086     0.0021     7.8423    88.5743
  465.5000    23.7412    23.2136     0.1414     2.3791     0.0050     7.8295    86.4445
  466.0000    23.8713    22.9748     0.1153     2.4480     0.0091     7.8100    84.2868
  466.5000    23.1193    22.6498     0.0915     2.4996     0.0132     7.7741    83.7570
  467.0000    22.4776    22.0073     0.0879     2.5029     0.0174     7.7946    87.2103
  467.5000    21.8538    21.2877     0.1092     2.4577     0.0158     7.8271    91.6283
  468.0000    21.2490    20.5916     0.1284     2.3957     0.0090     7.8651    95.9584
  468.5000    20.6508    19.9182     0.1482     2.3341     0.0021     7.8848    98.8284
  469.0000    20.3756    19.6041     0.1517     2.3190    -0.0018     7.8900    98.0975
  469.5000    20.1046    19.3574     0.1530     2.3236    -0.0036     7.8945    96.7749
  470.0000    20.0000    19.0901     0.1507     2.3344    -0.0054     7.8991    96.0088
  470.5000    19.9665    19.2269     0.1518     2.3222    -0.0068     7.8994    95.4936
  471.0000    19.9194    19.3797     0.1574     2.3019    -0.0066     7.8930    94.9782
  471.5000    19.8720    19.4762     0.1629     2.2824    -0.0065     7.8866    94.4569
  472.0000    19.8277    19.5534     0.1651     2.2758    -0.0063     7.8807    93.9177
  472.5000    19.4161    19.6309     0.1638     2.2792    -0.0061     7.8777    95.4613
  473.0000    18.9195    18.7946     0.1619     2.2878    -0.0060     7.8747    97.4108
  473.5000    18.4357    17.9939     0.1592     2.2965    -0.0058     7.8717    99.3580
  474.0000    17.9664    17.5256     0.1542     2.3112    -0.0054     7.8687   100.8547
  474.5000    17.5200    17.1198     0.1491     2.3379    -0.0048     7.8657   100.8070
  475.0000    17.1117    16.7166     0.1441     2.3553    -0.0042     7.8626    99.8453
  475.5000    16.7098    16.3253     0.1399     2.3708    -0.0036     7.8603    95.6902
  476.0000    16.2949    16.0565     0.1390     2.3777    -0.0029     7.8585    92.0662
  476.5000    16.1739    15.8929     0.1390     2.3763    -0.0023     7.8567    89.0313
  477.0000    16.0464    15.7309     0.1390     2.3736    -0.0017     7.8550    90.4082
  477.5000    15.9199    15.5706     0.1380     2.3781    -0.0011     7.8532    91.8152
  478.0000    15.7944    15.4119     0.1365     2.3836    -0.0005     7.8514    93.2090
  478.5000    15.6519    15.2548     0.1359     2.3885    -0.0001     7.8496    94.6000
  479.0000    15.4468    15.0993     0.1360     2.3879     0.0003     7.8479    95.9910
  479.5000    15.2460    14.9454     0.1358     2.3880     0.0007     7.8461    97.3850
  480.0000    15.0475    14.7931     0.1333     2.3941     0.0011     7.8443    98.7777
  480.5000    14.8516    14.6424     0.1308     2.4041    -0.0005     7.8426   100.1105
  481.0000    14.6583    14.4850     0.1284     2.4141    -0.0034     7.8414   100.7207
  481.5000    14.5157    14.3221     0.1259     2.4241    -0.0064     7.8251    98.8774
  482.0000    14.3574    14.1610     0.1247     2.4302    -0.0093     7.8038    96.3461
  482.5000    14.2009    14.0018     0.1250     2.4288    -0.0123     7.7823    95.7181
  483.0000    14.0462    13.8547     0.1253     2.4265    -0.0139     7.7609    98.9240
  483.5000    13.8930    13.7237     0.1256     2.4242    -0.0120     7.7408   102.0885
  484.0000    13.7537    13.5939     0.1252     2.4261    -0.0094     7.7403   105.3050
  484.5000    13.6510    13.4654     0.1241     2.4308    -0.0083     7.7404   103.5227
  485.0000    13.5490    13.4004     0.1230     2.4356    -0.0076     7.7411   101.0168
  485.5000    13.4004    13.4528     0.1220     2.4390    -0.0069     7.7439    98.5073
  486.0000    13.4229    13.4888     0.1210     2.4414    -0.0062     7.7465    96.3207
  486.5000    13.4654    13.5247     0.1203     2.4438    -0.0060     7.7491    96.5340
  487.0000    13.5081    13.5425     0.1195     2.4469    -0.0064     7.7517    96.7044
  487.5000    13.5510    13.5649     0.1186     2.4501    -0.0068     7.7544    97.0344
