~VERSION INFORMATION
 VERS.                2.0:   CWLS LOG ASCII STANDARD - VERSION 2.0
 WRAP.                 NO:   ONE LINE PER DEPTH STEP
~WELL INFORMATION
#MNEM.UNIT      DATA TYPE    INFORMATION
#----------   ------------   ------------------------------
 STRT.F           92.0000:   START DEPTH
 STOP.F          810.0000:   STOP DEPTH
 STEP.F            0.5000:   STEP LENGTH
 NULL.          -999.2500:   NO VALUE
 COMP. U S NAVY/INTEX OIL CO:   COMPANY
 WELL. NPR #3 #86 S 34-34:   WELL
 FLD .        EAST TEAPOT:   FIELD
 LOC .      S34 T39N R78W:   LOCATION
 CNTY.            NATRONA:   COUNTY
 STAT.            WYOMING:   STATE
 CTRY. UNITED STATES OF AMERICA:   COUNTRY
 SRVC. Schlumberger Well Surveying Corp:   SERVICE COMPANY
 DATE.        22-JUL-1962:   LOGDATE
 API .       490250652900:   API NUMBER
~CURVE INFORMATION
#MNEM.UNIT       API CODE    CURVE DESCRIPTION
#----------   ------------   ------------------------------
 DEPT.F                  :   
 GR  .GAPI   30 310 01 00:   GAMMA RAY
 SPR .MV     05 010 01 00:   SPONTANEOUS POTENTIAL FROM RES.
 CILD.MMHO   05 110 46 00:   CONDUCTIVITY INDUCTION LOG DEEP
 ASN .OHMM   05 041 16 00:   AMPLIFIED SHORT NORMAL 16"
 ILD .OHMM   05 120 46 00:   INDUCTION LOG DEEP
 CALM.IN     15 280 01 00:   CALIPER FROM MICRO LOG
~PARAMETER INFORMATION
#MNEM.UNIT          VALUE    DESCRIPTION
#----------   ------------   ------------------------------
 PD  .                 GL:   PERMANENT DATUM
 EPD .F              5094:   ELEVATION PERMANENT DATUM
 LMF .                 KB:   LOG MEASURED FROM
 DAPD.F                 5:   FEET ABOVE PERMANENT DATUM
 DMF .                 KB:   DRILLING MEASURED FROM
 EKB .F              5099:   KELLING BUSHING
 EGL .F              5094:   GROUND LEVEL
 DATE.            7-22-62:   RUN DATE
 RUN .                  1:   RUN NUMBER
 DD  .F               810:   DEPTH DRILLER
 DL  .F               811:   DEPTH LOGGER
 BLI .F               810:   BOTTOM LOG INTERVAL
 TLI .F               100:   TOP LOG INTERVAL
 BS  .IN             6.75:   BIT SIZE
 BSD .F               810:   BIT SIZE AT DEPTH
 DFT .                GEL:   DRILLING FLUID TYPE
 DFD .               10.3:   DRILLING FLUID DENSITY
 DFV .                 43:   DRILLING FLUID VISCOSITY
 RMS .OHMM              4:   RESISTIVITY MUD SAMPLE
 MST .F                75:   MUD SAMPLE TEMPERATURE
 RMF .OHMM            2.9:   RESISTIVITY MUD FILTRATE SAMPLE
 MFST.F                75:   MUD FILTRATE SAMPLE TEMPERATURE
 RMC .OHMM            3.8:   RESISTIVITY MUD CAKE
 MCST.F                75:   MUD CAKE SAMPLE TEMPERATURE
 TCS .HRS               1:   TIME CURCULATED STOPPED
 LUN .               2503:   LOGGING UNIT NUMBER
 ENGI.           ELLERMAN:   RECORDING ENGINEER
 WITN.          JORGENSON:   WITNESSED BY
 CLNT.            A2DTECH:   CLIENT CODE
 ORIG.   1", 2", 5" PRINT:   ORIGIN OF DATA
 UWI .       490250652900:   UNIQUE WELL ID
 DICO. A2D Technologies, Inc.:   DIGITIZING COMPANY
~OTHER INFORMATION
~A   DEPT       GR        SPR       CILD        ASN        ILD       CALM   
# ...
  508.0000  -999.2500   -32.4097   111.4401     9.0861     8.9824     6.7249
  508.5000  -999.2500   -32.3961   110.3317     9.2829     8.9824     6.7672
  509.0000  -999.2500   -32.4242   109.2234     9.6579     8.9824     6.8105
  509.5000  -999.2500   -32.6205   109.7819     9.6704     8.9824     6.7765
  510.0000  -999.2500   -32.6551   111.9418     9.2242     8.9830     6.7164
  510.5000  -999.2500   -32.6840   114.9413     8.8972     8.9879     6.6266
  511.0000  -999.2500   -32.7121   118.8206     9.1608     8.7655     6.6622
  511.5000  -999.2500   -32.7404   122.6999     9.3209     8.4937     6.7302
  512.0000  -999.2500   -32.7687   126.5792     9.0014     8.2208     6.7090
  512.5000  -999.2500   -32.7988   130.4586     8.3466     7.9479     6.6342
  513.0000  -999.2500   -32.9303   134.3379     8.2027     7.6751     6.4839
  513.5000  -999.2500   -33.2597   138.2143     8.0751     7.4274     6.5493
  514.0000  -999.2500   -33.5986   141.7769     7.8864     7.4153     6.6063
  514.5000  -999.2500   -33.1677   143.8082     7.4705     7.3818     6.5565
  515.0000  -999.2500   -32.6283   143.8214     7.2893     7.3491     6.4711
  515.5000  -999.2500   -32.7619   143.0000     7.7520     7.3327     6.6315
  516.0000  -999.2500   -32.9141   140.5061     8.1909     7.4322     6.7076
  516.5000  -999.2500   -32.9755   138.0122     8.0726     7.5320     6.7065
  517.0000  -999.2500   -32.7643   135.5184     7.9695     7.6290     6.6998
  517.5000  -999.2500   -32.5626   134.4756     7.9438     7.6331     6.6936
  518.0000  -999.2500   -32.3622   134.7747     7.9487     7.6325     6.6874
  518.5000  -999.2500   -32.2014   135.1587     7.9755     7.6324     6.6813
  519.0000  -999.2500   -32.2813   135.5062     8.0019     7.6323     6.6752
  519.5000  -999.2500   -32.3574   133.6413     8.0265     7.6326     6.6690
  520.0000  -999.2500   -32.4328   131.8258     8.0278     7.6311     6.6629
  520.5000  -999.2500   -32.5079   130.0104     8.0629     7.7123     6.6568
  521.0000  -999.2500   -32.5851   128.1949     8.1402     7.8294     6.6506
  521.5000  -999.2500   -32.5468   126.3795     8.2168     7.9480     6.6445
  522.0000  -999.2500   -32.4565   124.8885     8.3244     8.0665     6.6384
  522.5000  -999.2500   -32.3639   124.1143     8.4816     8.1850     6.6322
  523.0000  -999.2500   -32.2722   123.3400     8.5848     8.3035     6.6232
  523.5000  -999.2500   -32.2375   122.5658     8.5514     8.4223     6.6102
  524.0000  -999.2500   -32.5702   121.7916     8.5418     8.5450     6.6101
  524.5000  -999.2500   -32.9031   121.0173     8.6483     8.5057     6.5249
  525.0000  -999.2500   -33.2166   120.2431     8.7217     8.4273     6.4268
  525.5000  -999.2500   -33.1158   121.0004     8.6419     8.3479     6.4468
  526.0000  -999.2500   -33.0222   122.7553     8.5649     8.2689     6.5350
  526.5000  -999.2500   -33.0220   124.5102     8.4880     8.1899     6.6088
  527.0000  -999.2500   -32.9413   126.1682     8.4129     8.1109     6.5377
  527.5000  -999.2500   -32.5765   126.4505     8.4039     8.0316     6.3433
  528.0000  -999.2500   -32.2324   126.7796     7.6590     7.9530     6.1857
  528.5000  -999.2500   -32.1831   127.1086     8.2050     7.9437     6.3500
  529.0000  -999.2500   -32.8466   127.4377     8.2478     7.9438     6.3998
  529.5000  -999.2500   -33.4990   127.7667     8.2175     7.9439     6.4226
  530.0000   106.1845   -34.0209   128.0958     8.3036     7.9439     6.3936
  530.5000   106.1845   -33.6798   128.0280     8.4001     7.9439     6.1683
  531.0000   106.1845   -33.3496   127.6195     8.4574     7.9439     5.9660
  531.5000   106.1845   -33.2315   127.2136     8.4369     7.9439     5.9408
  532.0000   106.1944   -33.2295   126.8089     8.4081     7.9439     5.9687
  532.5000   106.1991   -33.2300   126.4039     8.3319     7.9439     6.0008
  533.0000   106.3361   -33.2271   126.3662     8.2570     7.9439     6.0331
  533.5000   110.4060   -33.1716   127.2623     8.2160     7.9440     6.0654
  534.0000   108.6003   -33.1171   128.1585     8.2279     7.9440     6.0896
  534.5000   114.8115   -33.0630   129.0546     8.2066     7.9433     6.0720
  535.0000   118.2312   -33.0090   129.9507     8.1449     7.9097     5.9958
  535.5000   111.9935   -32.9548   130.8469     8.0837     7.8368     5.9193
  536.0000   114.5282   -32.9008   131.7430     8.0222     7.7644     5.9219
  536.5000   113.4763   -32.8478   132.6391     7.9591     7.6917     5.9479
  537.0000   116.2367   -32.8575   133.5353     7.9113     7.6190     5.9743
  537.5000   110.3980   -32.9589   134.4756     7.8508     7.5440     5.9996
  538.0000   106.4963   -33.0593   136.4777     7.7584     7.5293     6.0658
  538.5000    95.0670   -33.1593   138.6293     7.6555     7.4484     6.1270
  539.0000    98.0402   -33.2304   144.4237     7.5508     7.3098     6.2952
  539.5000   108.4796   -33.1679   150.3466     7.4144     7.1705     6.4445
  540.0000   113.1824   -33.0219   156.2695     7.2709     7.0310     6.5962
  540.5000   104.3616   -32.8306   162.1924     7.1274     6.8916     6.6747
  541.0000    89.6159   -32.4793   167.7051     6.9829     6.7521     6.6957
  541.5000    95.9219   -32.0659   169.7756     6.8365     6.6143     6.7154
  542.0000    95.7000   -31.3568   169.3024     6.6382     6.5178     6.7347
  542.5000   104.6869   -30.6483   168.6993     6.3764     6.4308     6.7542
  543.0000   106.2750   -30.6138   168.1066     6.0847     6.4308     6.7737
  543.5000   102.0714   -30.7899   166.1326     6.4278     6.5889     6.7933
  544.0000   110.6483   -30.9684   161.1185     7.0873     6.7449     6.8127
  544.5000   107.8026   -31.1531   156.1044     7.1558     6.9012     6.8194
  545.0000   114.9655   -31.3412   151.0903     7.1773     7.0581     6.8252
  545.5000   109.9113   -31.0581   146.7809     7.2005     7.2118     6.8311
  546.0000   122.1091   -30.7788   145.8732     7.2247     7.2294     6.8339
  546.5000   113.4886   -30.5045   144.9655     7.2492     7.2403     6.8161
  547.0000   116.6616   -30.3858   144.0577     7.2584     7.2518     6.7977
  547.5000   109.9791   -30.5402   143.1507     7.2586     7.2635     6.8228
  548.0000   106.1852   -30.6901   142.2027     7.2559     7.2752     6.8708
  548.5000    92.7446   -30.8410   142.8140     7.2498     7.2869     6.8424
  549.0000    83.0450   -30.9936   144.5940     7.2443     7.2991     6.7985
  549.5000    86.0801   -31.1519   146.6999     7.2323     7.3124     6.8503
  550.0000    84.3680   -30.8238   149.0135     7.1189     7.3078     6.9042
  550.5000    93.6931   -30.4238   151.0433     7.0077     7.0554     6.8819
  551.0000    89.6681   -30.4809   157.5213     6.8970     6.8095     6.8319
  551.5000    92.2145   -30.6871   164.7038     6.7840     6.5655     6.8131
  552.0000    94.3743   -30.9066   175.1275     6.6578     6.3217     6.8780
  552.5000    88.3942   -30.8474   186.9951     6.3761     6.0780     6.8400
  553.0000    89.7610   -30.7063   198.8162     6.1097     5.8341     6.7965
  553.5000    92.3779   -30.5630   211.3188     5.8359     5.5896     6.7596
  554.0000    90.5286   -30.4233   216.5109     5.5548     5.3461     6.7294
  554.5000    92.1199   -30.4135   216.1170     5.4105     5.1414     6.6993
  555.0000   101.2177   -30.6491   214.9978     5.2978     5.0314     6.6691
  555.5000   109.4396   -30.8818   213.8785     5.1893     5.2062     6.6390
  556.0000   103.5163   -31.1236   207.2698     5.2102     5.5026     6.6104
  556.5000   106.2169   -30.9092   195.7351     5.9346     5.8010     6.5831
  557.0000   116.1582   -30.5920   184.2027     6.4603     6.0999     6.5559
  557.5000   108.8405   -30.6029   172.6601     6.6389     6.3995     6.5749
  558.0000    99.1801   -30.7083   161.0811     6.8197     6.6916     6.6077
  558.5000    92.0827   -30.6325   152.9011     6.9098     6.7973     6.6404
  559.0000    87.1859   -30.4625   149.6366     6.9962     6.8948     6.6735
  559.5000    90.1885   -30.3839   146.3720     7.0961     6.9931     6.7072
