~VERSION INFORMATION
 VERS.                2.0:   CWLS LOG ASCII STANDARD - VERSION 2.0
 WRAP.                 NO:   ONE LINE PER DEPTH STEP
~WELL INFORMATION
#MNEM.UNIT      DATA TYPE    INFORMATION
#----------   ------------   ------------------------------
 STRT.F           30.0000:   START DEPTH
 STOP.F          618.0000:   STOP DEPTH
 STEP.F            0.5000:   STEP LENGTH
 NULL.          -999.2500:   NO VALUE
 COMP. FENNIX & SCISSON, INC.:   COMPANY
 WELL.       NPR #88-S-10:   WELL
 FLD .              NPR-3:   FIELD
 LOC .      S10 T38N R78W:   LOCATION
 CNTY.            NATRONA:   COUNTY
 STAT.            WYOMING:   STATE
 CTRY. UNITED STATES OF AMERICA:   COUNTRY
 SRVC.              Welex:   SERVICE COMPANY
 DATE.        22-APR-1977:   LOGDATE
 API .       490251034200:   API NUMBER
~CURVE INFORMATION
#MNEM.UNIT       API CODE    CURVE DESCRIPTION
#----------   ------------   ------------------------------
 DEPT.F                  :   
 CALD.IN     45 280 60 00:   CALIPER FROM DENSITY LOG
 GRD .GAPI   45 310 01 00:   GAMMA RAY FROM DENSITY LOG
 CORR.G/C3   45 356 01 00:   DENSITY CORRECTION
 RHOB.G/C3   45 350 01 00:   BULK DENSITY
 DPHI.DEC    45 890 12 00:   DENSITY POROSITY SANDSTONE
 ILD .OHMM   07 120 46 00:   INDUCTION LOG DEEP
 ILM .OHMM   07 120 44 00:   INDUCTION LOG MEDIUM
 SGRD.OHMM   07 220 05 00:   SHALLOW GUARD RESISTIVITY
 SPR .MV     07 010 01 00:   SPONTANEOUS POTENTIAL FROM RES.
~PARAMETER INFORMATION
#MNEM.UNIT          VALUE    DESCRIPTION
#----------   ------------   ------------------------------
 PD  .                 GL:   PERMANENT DATUM
 EPD .F              5255:   ELEVATION PERMANENT DATUM
 LMF .                 GL:   LOG MEASURED FROM
 DMF .                 GL:   DRILLING MEASURED FROM
 EGL .F              5255:   GROUND LEVEL
 DATE.        22-APR-1977:   RUN DATE
 RUN .                  1:   RUN NUMBER
 DD  .F               630:   DEPTH DRILLER
 DL  .F               620:   DEPTH LOGGER
 BLI .F               618:   BOTTOM LOG INTERVAL
 TLI .F                38:   TOP LOG INTERVAL
 CS  .IN            8.625:   CASING SIZE
 CBD .F                40:   CASING BOTTOM DRILLER
 BS  .IN            7.875:   BIT SIZE
 BSD .F               630:   BIT SIZE AT DEPTH
 DFT .            KCL GEL:   DRILLING FLUID TYPE
 DFD .                9.0:   DRILLING FLUID DENSITY
 DFV .                 40:   DRILLING FLUID VISCOSITY
 DFPH.                8.0:   DRILLING FLUID PH
 DFL .                6.4:   DRILLING FLUID LOSS
 MSS .            MUD PIT:   MUD SAMPLE SOURCE
 RMS .OHMM            .20:   RESISTIVITY MUD SAMPLE
 MST .F                65:   MUD SAMPLE TEMPERATURE
 RMF .OHMM            .18:   RESISTIVITY MUD FILTRATE SAMPLE
 MFST.F                65:   MUD FILTRATE SAMPLE TEMPERATURE
 RMC .OHMM            .28:   RESISTIVITY MUD CAKE
 MCST.F                65:   MUD CAKE SAMPLE TEMPERATURE
 MFSS.               MEAS:   MUD FILTRATE SAMPLE SOURCE
 MCSS.               MEAS:   MUD CAKE SAMPLE SOURCE
 RMB .OHMM            .18:   RESISTIVITY MUD AT BHT
 BHT .F                71:   BOTTOM HOLE TEMPERATURE
 TCS .HRS            0300:   TIME CURCULATED STOPPED
 MRT .F                71:   MAXIMUM RECORDED TEMPERATURE
 LUN .               8611:   LOGGING UNIT NUMBER
 LUL .             CASPER:   LOGGING UNIT LOCATION
 ENGI.          T. JOYNER:   RECORDING ENGINEER
 WITN.           ROB LYON:   WITNESSED BY
 CLNT.            A2DTECH:   CLIENT CODE
 ORIG.           5" PRINT:   ORIGIN OF DATA
 UWI .       490251034200:   UNIQUE WELL ID
 DICO. A2D Technologies, Inc.:   DIGITIZING COMPANY
~OTHER INFORMATION
~A   DEPT     CALD        GRD       CORR       RHOB       DPHI        ILD        ILM       SGRD        SPR   
# ...
  285.5000     7.8492   125.8783     0.0109     2.4522     0.1199     8.7549     9.5368    12.3080   -24.2128
  286.0000     7.8493   124.6762     0.0124     2.4582     0.1164     8.5158     9.2108    12.2218   -24.2143
  286.5000     7.8644   123.6238     0.0139     2.4664     0.1128     8.2832     8.9577    12.0527   -24.2158
  287.0000     7.8646   122.1222     0.0170     2.4753     0.1108     7.9467     8.7717    11.9683   -24.0684
  287.5000     7.8647   118.6746     0.0200     2.4828     0.1073     7.8369     8.5897    11.8844   -24.0699
  288.0000     7.8649   117.7719     0.0200     2.4895     0.1032     7.6755     8.4114    12.0478   -24.0714
  288.5000     7.8650   119.1158     0.0185     2.4925     0.1029     7.6218     8.2368    12.2134   -23.9241
  289.0000     7.8652   116.8646     0.0155     2.4857     0.1066     7.6737     8.1217    12.2962   -23.9256
  289.5000     7.8653   117.9080     0.0110     2.4745     0.1102     7.7256     8.0636    12.2100   -23.9271
  290.0000     7.8655   120.7477     0.0095     2.4468     0.1169     7.6713     8.0060    11.9584   -23.9286
  290.5000     7.8656   122.2414     0.0080     2.4438     0.1218     7.5133     7.9487    11.7120   -23.9301
  291.0000     7.8658   120.4393     0.0065     2.4588     0.1170     7.2580     7.9465    11.5501   -23.9316
  291.5000     7.8659   115.6443     0.0065     2.4625     0.1150     7.1577     7.9443    11.6284   -23.9331
  292.0000     7.8661   115.0421     0.0050     2.4535     0.1165     7.0588     7.8875    11.7073   -23.9345
  292.5000     7.8662   118.8797     0.0051     2.4273     0.1242     7.0578     7.8853    11.7056   -23.9360
  293.0000     7.8664   122.0888     0.0066     2.4310     0.1284     7.1056     7.8289    11.7040   -23.9375
  293.5000     7.8366   122.6782     0.0066     2.4415     0.1264     7.2032     7.7195    11.6220   -23.9390
  294.0000     7.8218   123.4073     0.0066     2.4407     0.1225     7.2522     7.6643    11.5405   -24.0893
  294.5000     7.7921   124.0065     0.0051     2.4257     0.1252     7.2012     7.6095    11.4597   -24.2396
  295.0000     7.7773   124.7455     0.0036     2.4190     0.1378     7.1017     7.5032    11.3012   -24.3899
  295.5000     7.7625   125.7889     0.0021     2.4145     0.1390     6.9555     7.4495    11.1449   -24.5402
  296.0000     7.7626   127.1317     0.0006     2.4100     0.1420     6.8123     7.3454    10.9908   -24.8394
  296.5000     7.7478   127.5913     0.0006     2.4070     0.1486     6.6262     7.2427    10.8388   -24.9897
  297.0000     7.7480   126.3741     0.0007     2.4023     0.1510     6.4898     7.2914    10.6155   -25.2888
  297.5000     7.7332   125.3217     0.0007     2.3971     0.1558     6.4001     7.7558    10.4687   -25.5879
  298.0000     7.7334   121.4249     0.0007     2.3935     0.1564     6.2683     8.2503    10.1126   -25.8870
  298.5000     7.7485   116.9294     0.0007     2.3967     0.1525     6.1393     8.6562     9.7686   -26.0373
  299.0000     7.7636   115.5775     0.0007     2.4010     0.1459     6.0963     8.9575     9.3715   -26.0388
  299.5000     7.7637   114.9742     0.0007     2.4078     0.1339     6.0536     8.5919     8.8674   -26.0403
  300.0000     7.7788   118.8613     0.0008     2.4323     0.1205     6.0112     7.8527     7.9399   -26.0418
  300.5000     7.7933   123.9451     0.0068     2.4503     0.1217     5.9782     7.7438     8.5630   -25.8867
  301.0000     7.7928   125.1382     0.0068     2.4360     0.1247     5.9248     8.1291     9.2990   -25.7468
  301.5000     7.7924   124.6817     0.0053     2.4292     0.1277     5.9642     8.1799     9.8235   -25.7486
  302.0000     7.7919   122.7296     0.0051     2.4173     0.1331     6.0033     7.7355    10.3064   -25.4525
  302.5000     7.7915   120.0290     0.0038     2.4242     0.1322     6.0427     7.4194    10.4473   -25.3052
  303.0000     7.7910   120.7715     0.0023     2.4353     0.1283     6.0824     7.3204    10.4437   -25.1575
  303.5000     7.8055   126.0051     0.0023     2.4343     0.1295     6.1223     7.3189    10.4408   -25.0101
  304.0000     7.8200   129.7416     0.0023     2.4218     0.1331     6.1197     7.3748    10.4379   -24.8628
  304.5000     7.8345   130.7850     0.0008     2.4106     0.1337     6.1604     7.6330    10.5079   -24.7155
  305.0000     7.8341   128.8314     0.0008     2.4214     0.1280     6.2009     7.9548    10.5043   -24.5682
  305.5000     7.8336   124.3344     0.0023     2.4204     0.1343     6.1982     8.2903    10.5014   -24.5700
  306.0000     7.8332   123.2806     0.0023     2.4143     0.1313     6.1961     8.4513    10.4985   -24.5715
  306.5000     7.8328   124.3225     0.0023     2.4427     0.1247     6.1514     7.8858    10.5689   -24.5730
  307.0000     7.8323   128.5081     0.0038     2.4298     0.1268     6.1493     7.3080    10.4927   -24.5745
  307.5000     7.8317   129.8495     0.0053     2.4292     0.1271     6.1472     7.1076    10.4898   -24.5759
  308.0000     7.8313   128.9453     0.0053     2.4299     0.1271     6.1450     7.0573    10.4149   -24.5774
  308.5000     7.8309   125.3465     0.0068     2.4307     0.1268     6.1429     7.0559    10.3405   -24.7277
  309.0000     7.8304   122.9453     0.0068     2.4307     0.1295     6.1408     7.1036    10.1960   -24.8780
  309.5000     7.8150   119.7956     0.0083     2.4135     0.1322     6.0965     7.0529    10.0536   -24.8795
  310.0000     7.7996   117.8435     0.0098     2.4082     0.1343     6.0944     7.0515     9.9138   -24.8810
  310.5000     7.7992   118.7357     0.0113     2.4082     0.1355     6.0090     6.9056     9.7753   -25.0313
  311.0000     7.7987   120.2268     0.0113     2.4105     0.1358     5.9247     6.5335     9.6388   -25.0328
  311.5000     7.7983   121.4184     0.0128     2.4164     0.1349     5.8416     6.1814     9.5042   -25.1830
  312.0000     7.7829   123.0591     0.0158     2.4254     0.1310     5.6809     5.9705     9.3603   -25.1845
  312.5000     7.7824   127.8451     0.0189     2.4493     0.1203     5.6012     5.7669     9.1036   -25.1860
  313.0000     7.7970   126.6400     0.0219     2.4665     0.1125     5.4471     5.6476     8.8540   -25.3363
  313.5000     7.7965   126.0352     0.0234     2.4762     0.1080     5.2973     5.5308     8.6022   -25.3378
  314.0000     7.7960   122.2867     0.0249     2.4964     0.0984     5.1515     5.4916     8.1872   -25.3393
  314.5000     7.7956   120.3361     0.0249     2.4830     0.1101     5.4041     5.6441     9.1938   -25.3408
  315.0000     7.7951   123.4724     0.0249     2.4777     0.1080     5.8276     5.8814     9.7692   -25.3423
  315.5000     7.8098   124.5143     0.0249     2.4829     0.1023     6.1133     6.1712    10.1690   -25.3438
  316.0000     7.8092   125.5562     0.0249     2.4986     0.0973     6.4132     6.4752    10.4500   -25.1964
  316.5000     7.8238   126.8975     0.0249     2.5054     0.1056     6.5901     6.7475    10.5916   -25.1979
  317.0000     7.8383   128.5383     0.0249     2.4852     0.1068     6.7724     7.0312    10.6615   -25.1994
  317.5000     7.8378   130.1805     0.0249     2.4814     0.1053     6.9586     7.2264    10.7244   -25.2009
  318.0000     7.8373   128.8257     0.0249     2.4986     0.0988     7.0533     7.2753    10.7956   -25.1805
  318.5000     7.8369   124.6281     0.0249     2.5038     0.1051     7.1481     7.2234    10.8673   -25.0550
  319.0000     7.8364   122.9754     0.0234     2.4896     0.1069     7.1457     7.2220    10.8643   -25.0565
  319.5000     7.8360   123.7180     0.0219     2.4874     0.1084     7.1432     7.6302    10.9419   -25.0303
  320.0000     7.8206   125.2090     0.0189     2.4799     0.1129     7.1407     8.4604    11.0141   -24.9106
  320.5000     7.8052   124.3048     0.0187     2.4582     0.1180     7.1383     9.0628    11.0822   -24.9125
  321.0000     7.7898   122.8018     0.0173     2.4462     0.1204     7.1358     9.3794    11.0750   -24.9140
  321.5000     7.7893   125.4905     0.0173     2.4432     0.1221     7.0844     9.3770    10.9999   -24.9155
