~VERSION INFORMATION
 VERS.                2.0:   CWLS LOG ASCII STANDARD - VERSION 2.0
 WRAP.                 NO:   ONE LINE PER DEPTH STEP
~WELL INFORMATION
#MNEM.UNIT      DATA TYPE    INFORMATION
#----------   ------------   ------------------------------
 STRT.F           20.0000:   START DEPTH
 STOP.F         1363.5000:   STOP DEPTH
 STEP.F            0.5000:   STEP LENGTH
 NULL.          -999.2500:   NO VALUE
 COMP.   FLUOR DANIEL INC:   COMPANY
 WELL.   NPR 3 "S" #83-14:   WELL
 FLD .             TEAPOT:   FIELD
 LOC .      S14 T38N R78W:   LOCATION
 CNTY.            NATRONA:   COUNTY
 STAT.            WYOMING:   STATE
 CTRY. UNITED STATES OF AMERICA:   COUNTRY
 SRVC. Schlumberger Well Surveying Corp:   SERVICE COMPANY
 DATE.        22-AUG-1966:   LOGDATE
 API .       490250971000:   API NUMBER
~CURVE INFORMATION
#MNEM.UNIT       API CODE    CURVE DESCRIPTION
#----------   ------------   ------------------------------
 DEPT.F                  :   
 SPR .MV     05 010 01 00:   SPONTANEOUS POTENTIAL FROM RES.
 ASN .OHMM   05 041 16 00:   AMPLIFIED SHORT NORMAL 16"
 CILD.MMHO   05 110 00 00:   CONDUCTIVITY INDUCTION LOG
 ILD .OHMM   05 120 46 00:   INDUCTION LOG DEEP
 CALD.IN     45 280 60 00:   CALIPER
 GRD .GAPI   45 310 01 00:   GAMMA RAY FROM DENSITY LOG
 CORR.G/C3   45 356 01 00:   DENSITY CORRECTION
 RHOB.G/C3   45 350 01 00:   BULK DENSITY
 DPOR.DEC    45 890 12 00:   DENSITY POROSITY SANDSTONE
~PARAMETER INFORMATION
#MNEM.UNIT          VALUE    DESCRIPTION
#----------   ------------   ------------------------------
 PD  .                 GL:   PERMANENT DATUM
 EPD .F              5300:   ELEVATION PERMANENT DATUM
 LMF .                 KB:   LOG MEASURED FROM
 DAPD.F                 5:   FEET ABOVE PERMANENT DATUM
 DMF .                 KB:   DRILLING MEASURED FROM
 EKB .F              5305:   KELLING BUSHING
 EGL .F              5300:   GROUND LEVEL
 DATE.          8-22-1966:   RUN DATE
 RUN .                  1:   RUN NUMBER
 DD  .F              1365:   DEPTH DRILLER
 DL  .F              1363:   DEPTH LOGGER
 BLI .F              1362:   BOTTOM LOG INTERVAL
 TLI .F                20:   TOP LOG INTERVAL
 CS  .IN            8.625:   CASING SIZE
 CBD .F                15:   CASING BOTTOM DRILLER
 CBL .F                20:   CASING BOTTOM LOGGER
 BS  .IN            7.875:   BIT SIZE
 BSD .F              1365:   BIT SIZE AT DEPTH
 DFT .           GEL-CHEM:   DRILLING FLUID TYPE
 DFD .                 10:   DRILLING FLUID DENSITY
 DFV .                 55:   DRILLING FLUID VISCOSITY
 DFL .                  8:   DRILLING FLUID LOSS
 MSS .          FLOW LINE:   MUD SAMPLE SOURCE
 RMS .OHMM           1.86:   RESISTIVITY MUD SAMPLE
 MST .F                73:   MUD SAMPLE TEMPERATURE
 RMF .OHMM           1.13:   RESISTIVITY MUD FILTRATE SAMPLE
 MFST.F                70:   MUD FILTRATE SAMPLE TEMPERATURE
 MFSS.                  M:   MUD FILTRATE SAMPLE SOURCE
 RMB .OHMM           1.32:   RESISTIVITY MUD AT BHT
 BHT .F               102:   BOTTOM HOLE TEMPERATURE
 TCS .HRS               1:   TIME CURCULATED STOPPED
 MRT .F               102:   MAXIMUM RECORDED TEMPERATURE
 LUN .               3527:   LOGGING UNIT NUMBER
 LUL .               CSPR:   LOGGING UNIT LOCATION
 ENGI.          TOLLEFSON:   RECORDING ENGINEER
 WITN.         MAY/TUTTLE:   WITNESSED BY
 CLNT.            A2DTECH:   CLIENT CODE
 ORIG.       2", 5" PRINT:   ORIGIN OF DATA
 UWI .       490250971000:   UNIQUE WELL ID
 DICO. A2D Technologies, Inc.:   DIGITIZING COMPANY
~OTHER INFORMATION
~A   DEPT       SPR       ASN         CILD      ILD         CALD       GRD       CORR        RHOB     DPOR   
# ...
  640.5000   -54.4120     4.9872   241.7171     4.9731     8.1610   103.1392     0.0020     2.4005     0.1628
  641.0000   -54.6777     5.1685   228.7575     5.1139     8.1501   105.7622     0.0117     2.4217     0.1561
  641.5000   -54.9780     5.3484   222.6158     5.2039     8.1390   107.7695     0.0217     2.4348     0.1495
  642.0000   -55.2109     5.5288   216.4741     5.2925     8.1278   107.2685     0.0363     2.4376     0.1429
  642.5000   -55.0582     5.7102   210.9218     5.3817     8.1169   101.3338     0.0400     2.4414     0.1362
  643.0000   -55.0755     5.9052   207.4032     5.4709     8.1054    92.1795     0.0377     2.4444     0.1296
  643.5000   -55.2048     6.0500   204.1061     5.5595     8.0951    92.8494     0.0299     2.4518     0.1268
  644.0000   -55.3268     6.1734   200.8090     5.6531     8.0824    95.6510     0.0367     2.4630     0.1221
  644.5000   -55.1434     6.4465   197.8958     5.8627     8.0842    98.7721     0.0560     2.4728     0.1180
  645.0000   -54.8842     6.7295   188.0887     6.0778     8.0998   102.0939     0.0520     2.4839     0.1140
  645.5000   -54.8856     7.1622   178.6266     6.2945     8.1132   103.0732     0.0364     2.4879     0.1099
  646.0000   -55.0332     8.3477   168.8377     6.6371     8.1273    99.6165     0.0287     2.4921     0.1059
  646.5000   -55.1864    10.0112   154.2214     7.0270     8.1418    96.4695     0.0392     2.5001     0.1016
  647.0000   -55.1608    10.7176   139.7796     7.4228     8.1546    93.1630     0.0511     2.5131     0.1028
  647.5000   -55.0996    13.9927   136.7735     7.5112     8.1717    89.8664     0.0578     2.5247     0.1053
  648.0000   -55.0370    17.1881   135.7715     7.4499     8.1696    86.6230     0.0517     2.5138     0.1078
  648.5000   -55.1000    19.9500   141.5882     7.1260     8.1354    83.0967     0.0416     2.4975     0.1092
  649.0000   -55.2627    19.9500   149.4188     6.7809     8.1039    75.3210     0.0321     2.5083     0.0990
  649.5000   -55.3936    14.9500   157.3816     6.1771     8.0705    66.1488     0.0226     2.5307     0.0960
  650.0000   -55.0193    10.3500   176.2870     5.5431     8.0381    61.2546     0.0195     2.5527     0.0731
  650.5000   -54.6410     8.5706   201.2875     5.1401     8.0054    60.9848     0.0269     2.5736     0.0540
  651.0000   -54.2517     7.0247   226.0774     4.7439     7.9724    61.9095     0.0370     2.5950     0.0349
  651.5000   -54.6622     5.8300   250.8982     4.3494     7.9406    72.1589     0.0479     2.6169     0.0045
  652.0000   -54.6577     5.4030   275.7588     4.0325     7.9065    81.4501     0.0600     2.6379     0.0248
  652.5000   -54.3078     4.9812   300.4781     3.9881     7.9018    90.6466     0.0707     2.6497     0.0752
  653.0000   -54.2313     4.5481   306.1122     3.9387     7.9531   102.3134     0.0742     2.6116     0.0855
  653.5000   -54.2991     4.3541   302.5816     3.8893     7.9974   103.3767     0.0692     2.5728     0.0960
  654.0000   -54.3609     4.3899   297.7972     3.8607     8.0443   104.7477     0.0590     2.5331     0.1104
  654.5000   -54.1322     4.4094   293.0128     3.9261     8.0895   105.7214     0.0498     2.4939     0.1088
  655.0000   -53.8372     4.4055   288.2285     4.0955     8.1343   108.5717     0.0401     2.4636     0.1179
  655.5000   -53.9609     4.5833   283.0661     4.3130     8.1354   112.2522     0.0307     2.4519     0.1258
  656.0000   -54.1766     4.8623   264.2866     4.5331     8.1305   112.8391     0.0205     2.4358     0.1338
  656.5000   -54.3936     5.0631   244.0050     4.7525     8.1266   109.4332     0.0140     2.4196     0.1417
  657.0000   -54.6592     5.1290   231.6433     4.9745     8.1218   102.6009     0.0294     2.4035     0.1496
  657.5000   -54.5573     5.1976   221.2425     5.0240     8.1208    99.9776     0.0202     2.3948     0.1579
  658.0000   -54.4490     5.2734   217.7340     4.9873     8.1395   101.2694     0.0099     2.4226     0.1693
  658.5000   -54.7883     5.2894   220.4305     4.9485     8.1582   102.2903     0.0202     2.4525     0.1618
  659.0000   -55.0193     5.2732   223.1270     4.9100     8.1768   102.9889     0.0459     2.4825     0.1452
  659.5000   -54.7385     5.2260   225.8235     4.8707     8.1964   101.3420     0.0682     2.5070     0.1285
  660.0000   -54.3635     5.1795   228.5200     4.7933     8.1926    99.0895     0.0615     2.4808     0.1119
  660.5000   -54.3107     5.1344   230.9619     4.6621     8.1835    96.9018     0.0462     2.4620     0.1242
  661.0000   -54.4221     5.0665   239.7261     4.3973     8.1754    94.7696     0.0334     2.4055     0.1274
  661.5000   -54.5401     4.8874   255.4080     4.1156     8.1668    94.9200     0.0182     2.4785     0.1166
  662.0000   -54.6037     4.7208   284.3222     3.8342     8.1593    97.1755     0.0158     2.4636     0.1195
  662.5000   -54.3995     4.4732   313.2365     3.5532     8.0365   100.5568     0.0138     2.4495     0.1240
  663.0000   -54.1895     4.1851   342.1507     3.3048     8.0321   103.5600     0.0228     2.4569     0.1231
  663.5000   -54.0037     3.8952   371.0649     3.1283     8.0303   104.9422     0.0429     2.4656     0.1224
  664.0000   -54.1049     3.6086   386.2726     3.0810     7.9200   106.1457     0.0601     2.4556     0.1244
  664.5000   -54.2138     3.4014   384.5185     3.1340     7.8117   104.7454     0.0330     2.4522     0.1263
  665.0000   -53.8847     3.4292   377.4365     3.1886     7.7048   101.3036     0.0373     2.4603     0.1245
  665.5000   -53.4893     3.4900   370.3236     3.2410     7.6532   100.6962     0.0795     2.4520     0.1289
  666.0000   -53.2266     3.5549   363.1648     3.3247     7.7091   104.5996     0.0950     2.4159     0.1559
  666.5000   -53.4555     3.6418   350.5194     3.5763     7.8096   106.2517     0.0966     2.3700     0.1784
  667.0000   -53.6833     3.9587   329.1610     3.8873     7.9239   102.2762     0.1173     2.3266     0.1982
  667.5000   -54.0013     4.3373   302.8123     4.1997     8.0331   101.4999     0.1019     2.3016     0.2142
  668.0000   -53.8688     4.5585   276.3110     4.5089     8.1564   103.7936     0.0816     2.3702     0.1765
  668.5000   -53.8200     4.6231   253.9087     4.6520     8.1704   105.5314     0.0604     2.4135     0.1393
  669.0000   -53.9423     4.5919   237.8665     4.7437     8.1634   106.1566     0.0386     2.4425     0.1161
  669.5000   -54.0646     4.5607   235.9719     4.6685     8.1601   103.3795     0.0291     2.4709     0.1106
  670.0000   -54.1913     4.5784   240.0488     4.5959     8.1560    98.1312     0.0330     2.4567     0.1131
  670.5000   -53.9848     4.6154   246.8744     4.5237     8.1512    96.0892     0.0402     2.4523     0.1242
  671.0000   -53.6405     4.6536   253.5983     4.4517     8.1543    96.9508     0.0508     2.4717     0.1146
  671.5000   -53.7906     4.6916   258.1364     4.3797     8.1625    94.5615     0.0254     2.4686     0.1177
  672.0000   -54.0496     4.7309   259.9944     4.3076     8.1693    96.1026     0.0293     2.4449     0.1290
  672.5000   -54.3144     4.6189   263.9201     4.2250     8.1770    94.7417     0.0475     2.4525     0.1274
  673.0000   -54.2844     4.4906   268.7205     4.0943     8.1837    91.3399     0.0454     2.4676     0.1219
  673.5000   -54.0934     4.3680   273.5209     3.9715     8.1918    88.8836     0.0310     2.4609     0.1170
  674.0000   -53.8968     4.2463   290.9026     3.7194     8.1977    88.5703     0.0429     2.4457     0.1362
  674.5000   -53.7840     4.1240   313.6302     3.4596     8.2081    90.7894     0.0351     2.4570     0.1234
  675.0000   -53.7071     3.9846   336.3579     3.2293     8.1957    93.2111     0.0187     2.4208     0.1358
  675.5000   -53.6330     3.8329   359.0856     3.1460     8.1586    96.4289     0.0233     2.4282     0.1334
  676.0000   -53.5588     3.6810   381.8133     3.0578     8.1211   100.4698     0.0356     2.4522     0.1289
  676.5000   -53.4845     3.5312   396.0000     3.1254     8.1272    99.0087     0.0260     2.4488     0.1368
