~VERSION INFORMATION
 VERS.                2.0:   CWLS LOG ASCII STANDARD - VERSION 2.0
 WRAP.                 NO:   ONE LINE PER DEPTH STEP
~WELL INFORMATION
#MNEM.UNIT      DATA TYPE    INFORMATION
#----------   ------------   ------------------------------
 STRT.F           34.5000:   START DEPTH
 STOP.F          880.5000:   STOP DEPTH
 STEP.F            0.5000:   STEP LENGTH
 NULL.          -999.2500:   NO VALUE
 COMP. FENIX & SCISSON INC:   COMPANY
 WELL. NAVAL PETROLEUM RESERVE 3 S-14 #35-14:   WELL
 FLD .             TEAPOT:   FIELD
 LOC .      S14 T38N R78W:   LOCATION
 CNTY.            NATRONA:   COUNTY
 STAT.            WYOMING:   STATE
 CTRY. UNITED STATES OF AMERICA:   COUNTRY
 SRVC.            Unknown:   SERVICE COMPANY
 DATE.        24-APR-1978:   LOGDATE
 API .       490251062000:   API NUMBER
~CURVE INFORMATION
#MNEM.UNIT       API CODE    CURVE DESCRIPTION
#----------   ------------   ------------------------------
 DEPT.F                  :   
 RHOB.G/C3   45 350 01 00:   BULK DENSITY
 DPHI.DEC    45 890 12 00:   DENSITY POROSITY SANDSTONE
 CORR.G/C3   45 356 01 00:   DENSITY CORRECTION
 GRD .GAPI   45 310 01 00:   GAMMA RAY FROM DENSITY LOG
 CALD.IN     45 280 60 00:   CALIPER FROM DENSITY LOG
 SPR .MV     05 010 01 00:   SPONTANEOUS POTENTIAL FROM RES.
 SN  .OHMM   05 040 16 00:   SHORT NORMAL 16"
 ILD .OHMM   05 120 46 00:   INDUCTION LOG DEEP
~PARAMETER INFORMATION
#MNEM.UNIT          VALUE    DESCRIPTION
#----------   ------------   ------------------------------
 PD  .                 GL:   PERMANENT DATUM
 EPD .F              5246:   ELEVATION PERMANENT DATUM
 LMF .                 KB:   LOG MEASURED FROM
 DMF .                 KB:   DRILLING MEASURED FROM
 EKB .F              5250:   KELLING BUSHING
 EGL .F              5246:   GROUND LEVEL
 DATE.          4-24-1978:   RUN DATE
 RUN .                  1:   RUN NUMBER
 DD  .F               880:   DEPTH DRILLER
 DL  .F               880:   DEPTH LOGGER
 BLI .F               884:   BOTTOM LOG INTERVAL
 TLI .F                50:   TOP LOG INTERVAL
 CS  .IN            8.625:   CASING SIZE
 CBD .F                40:   CASING BOTTOM DRILLER
 CBL .F                50:   CASING BOTTOM LOGGER
 BS  .IN            7.875:   BIT SIZE
 BSD .F               880:   BIT SIZE AT DEPTH
 DFT .                KCL:   DRILLING FLUID TYPE
 DFD .                8.6:   DRILLING FLUID DENSITY
 DFV .                 32:   DRILLING FLUID VISCOSITY
 DFPH.                 10:   DRILLING FLUID PH
 DFL .               12.8:   DRILLING FLUID LOSS
 MSS .            MUD PIT:   MUD SAMPLE SOURCE
 RMS .OHMM            .34:   RESISTIVITY MUD SAMPLE
 MST .F                62:   MUD SAMPLE TEMPERATURE
 RMF .OHMM             .3:   RESISTIVITY MUD FILTRATE SAMPLE
 MFST.F                70:   MUD FILTRATE SAMPLE TEMPERATURE
 RMC .OHMM            .58:   RESISTIVITY MUD CAKE
 MCST.F                70:   MUD CAKE SAMPLE TEMPERATURE
 MFSS.           MEASURED:   MUD FILTRATE SAMPLE SOURCE
 RMB .OHMM            .28:   RESISTIVITY MUD AT BHT
 BHT .F                74:   BOTTOM HOLE TEMPERATURE
 TCS .HRS               4:   TIME CURCULATED STOPPED
 MRT .F                74:   MAXIMUM RECORDED TEMPERATURE
 LUN .               2958:   LOGGING UNIT NUMBER
 LUL .              CASP.:   LOGGING UNIT LOCATION
 ENGI.             MILLER:   RECORDING ENGINEER
 WITN.           MCGINLEY:   WITNESSED BY
 CLNT.            A2DTECH:   CLIENT CODE
 ORIG.       2", 5" PRINT:   ORIGIN OF DATA
 UWI .       490251062000:   UNIQUE WELL ID
 DICO. A2D Technologies, Inc.:   DIGITIZING COMPANY
~OTHER INFORMATION
~A   DEPT     RHOB       DPHI       CORR         GRD      CALD        SPR         SN        ILD   
# ...
  399.0000     2.4947     0.0858     0.0370    90.0854     8.4476   -32.9681     8.7257     8.1639
  399.5000     2.4922     0.0874     0.0359    89.8108     8.4459   -32.9681     8.7257     8.1143
  400.0000     2.4889     0.0882     0.0310    87.2651     8.4442   -32.9681     8.7257     8.0649
  400.5000     2.4974     0.0815     0.0281    84.9326     8.4425   -32.9681     8.7257     8.0159
  401.0000     2.5134     0.0738     0.0384    83.8967     8.4408   -32.9681     8.7257     7.9672
  401.5000     2.5111     0.0813     0.0487    86.2743     8.4391   -32.9681     8.7258     7.9187
  402.0000     2.4936     0.0898     0.0523    89.7125     8.4370   -32.9681     8.7258     7.8707
  402.5000     2.4862     0.0899     0.0566    89.1833     8.4182   -32.9681     8.7254     7.8223
  403.0000     2.4870     0.0901     0.0650    89.3286     8.3722   -32.9681     8.7270     7.7915
  403.5000     2.4875     0.0917     0.0734    90.3653     8.3264   -32.9681     8.6274     7.7546
  404.0000     2.4836     0.0977     0.0817    90.7320     8.2792   -32.9681     8.5586     7.7183
  404.5000     2.4741     0.1037     0.0900    90.8320     8.1853   -32.9681     8.4906     7.6821
  405.0000     2.4643     0.1073     0.0987    91.2597     8.0378   -32.9681     8.4231     7.6461
  405.5000     2.4611     0.1057     0.1128    93.7756     7.8901   -32.9681     8.3561     7.6102
  406.0000     2.4618     0.1072     0.1279    96.4652     7.7443   -32.9681     8.2897     7.5745
  406.5000     2.4477     0.1134     0.1425    98.8379     7.7457   -32.9675     8.2238     7.5390
  407.0000     2.4517     0.1119     0.1431    99.4752     7.7942   -32.9678     8.1584     7.5037
  407.5000     2.4561     0.1093     0.1417   100.1640     7.8415   -33.0099     8.0935     7.4685
  408.0000     2.4581     0.1067     0.1347   100.0926     7.8885   -33.2511     8.0325     7.4335
  408.5000     2.4621     0.1041     0.1303    96.6235     7.9351   -33.4886     8.0105     7.3986
  409.0000     2.4757     0.0971     0.1288    93.5558     7.9825   -33.7259     7.9896     7.3639
  409.5000     2.4852     0.0924     0.1270    91.1967     8.0094   -33.9633     7.9687     7.3294
  410.0000     2.4834     0.0976     0.1139    89.6841     8.0646   -34.1974     7.9480     7.2950
  410.5000     2.4724     0.0998     0.0989    88.8555     8.2108   -34.3766     7.9272     7.2595
  411.0000     2.4765     0.0960     0.0738    88.0184     8.3531   -34.4110     7.9066     7.2670
  411.5000     2.4844     0.0912     0.0686    89.2915     8.4036   -34.4487     7.8859     7.2748
  412.0000     2.4872     0.0874     0.0647    91.8927     8.4498   -34.4857     7.8654     7.2825
  412.5000     2.4636     0.1070     0.0348    94.0447     8.4763   -34.5229     7.8450     7.2903
  413.0000     2.4646     0.0953     0.0231    94.5672     8.4761   -34.5601     7.8251     7.2981
  413.5000     2.4864     0.0846     0.0243    95.1076     8.4761   -34.5972     7.7727     7.3059
  414.0000     2.5018     0.0728     0.0334    95.9846     8.4761   -34.6344     7.6901     7.3137
  414.5000     2.5152     0.0760     0.0456    98.4829     8.4761   -34.6716     7.6074     7.3215
  415.0000     2.5079     0.0812     0.0501   100.7908     8.4761   -34.7087     7.5257     7.3266
  415.5000     2.5001     0.0865     0.0488    99.0326     8.4761   -34.7459     7.4450     7.2474
  416.0000     2.4924     0.0917     0.0473    96.7871     8.4761   -34.7831     7.3651     7.1796
  416.5000     2.4847     0.0958     0.0458    98.0099     8.4761   -34.8202     7.2861     7.1124
  417.0000     2.4807     0.0952     0.0444    99.4238     8.4761   -34.8574     7.2079     7.0459
  417.5000     2.4811     0.0946     0.0430    99.1069     8.4761   -34.8947     7.1305     6.9799
  418.0000     2.4828     0.0942     0.0430    98.6750     8.4761   -34.9317     7.0540     6.9146
  418.5000     2.4855     0.0906     0.0430    99.8954     8.4761   -34.9609     6.9784     6.8499
  419.0000     2.4907     0.0876     0.0469   100.8919     8.4761   -34.9606     6.8698     6.7859
  419.5000     2.4958     0.0858     0.0512   100.9739     8.4761   -34.9601     6.9068     6.7445
  420.0000     2.5008     0.0829     0.0556   101.3446     8.4761   -34.9329     6.9750     6.8060
  420.5000     2.5009     0.0822     0.0591   103.1310     8.4761   -34.8193     7.0439     6.8518
  421.0000     2.5006     0.0815     0.0590   104.7947     8.4761   -34.7104     7.1136     6.8980
  421.5000     2.5004     0.0806     0.0590   104.6672     8.4761   -34.6015     7.1840     6.9445
  422.0000     2.5003     0.0822     0.0586   104.4984     8.4761   -34.4924     7.2550     6.9912
  422.5000     2.5001     0.0820     0.0578   103.2617     8.4761   -34.3812     7.3268     7.0383
  423.0000     2.5022     0.0784     0.0569   102.0216     8.4761   -34.3823     7.3988     7.0858
  423.5000     2.5068     0.0776     0.0561   102.0521     8.4761   -34.4069     7.4642     7.1280
  424.0000     2.5082     0.0774     0.0552    99.7169     8.4761   -34.4320     7.4698     7.1340
  424.5000     2.5095     0.0764     0.0544    95.7917     8.4761   -34.4568     7.4763     7.1402
  425.0000     2.5109     0.0754     0.0534    91.9755     8.4761   -34.4816     7.4826     7.1463
  425.5000     2.5034     0.0831     0.0501    90.8526     8.4761   -34.5064     7.4890     7.1524
  426.0000     2.4940     0.0922     0.0429    89.8530     8.4761   -34.5315     7.4954     7.1585
  426.5000     2.4870     0.0914     0.0417    89.9329     8.4761   -34.5595     7.5018     7.1647
  427.0000     2.4921     0.0830     0.0478    90.0023     8.4761   -34.4441     7.5083     7.1708
  427.5000     2.5003     0.0823     0.0538    90.0789     8.4760   -34.2906     7.5146     7.1769
  428.0000     2.5012     0.0817     0.0590    90.1502     8.4703   -34.1363     7.5210     7.1830
  428.5000     2.5025     0.0811     0.0577    90.2177     8.4516   -33.9822     7.5275     7.1891
  429.0000     2.5025     0.0805     0.0566    90.3276     8.4305   -33.8283     7.5497     7.2012
  429.5000     2.5013     0.0844     0.0554    91.6330     8.3965   -33.6746     7.5992     7.2233
  430.0000     2.5001     0.0862     0.0573    92.4536     8.3626   -33.5432     7.6489     7.2455
  430.5000     2.5046     0.0772     0.0614    92.3638     8.3286   -33.4604     7.6990     7.2677
  431.0000     2.5103     0.0750     0.0726    93.0376     8.2946   -33.3792     7.7494     7.2900
  431.5000     2.5087     0.0794     0.0838    94.3664     8.2608   -33.2981     7.8002     7.3124
  432.0000     2.5060     0.0766     0.0833    92.2882     8.2382   -33.2164     7.8519     7.3349
  432.5000     2.5033     0.0845     0.0814    90.8323     8.2442   -33.1088     7.8858     7.3574
  433.0000     2.5007     0.0841     0.0794    92.2541     8.2498   -32.9578     7.8379     7.3802
  433.5000     2.4998     0.0823     0.0807    94.6107     8.2554   -32.8073     7.8014     7.3939
  434.0000     2.5063     0.0732     0.0838    94.5323     8.2609   -32.6559     7.7652     7.3658
  434.5000     2.5147     0.0723     0.0827    93.9069     8.2665   -32.5027     7.7292     7.3451
  435.0000     2.5146     0.0734     0.0791    94.0920     8.2720   -32.3887     7.6933     7.3244
  435.5000     2.5141     0.0742     0.0770    94.7177     8.2776   -32.7385     7.6576     7.3037
  436.0000     2.5126     0.0805     0.0770    95.3556     8.2831   -33.0810     7.6221     7.2831
  436.5000     2.5040     0.0886     0.0770    95.9994     8.2886   -33.4199     7.5868     7.2626
  437.0000     2.4952     0.0894     0.0770    96.6526     8.2943   -33.7561     7.5516     7.2421
  437.5000     2.4910     0.0871     0.0769    96.6493     8.2965   -33.9876     7.5166     7.2216
  438.0000     2.4909     0.0875     0.0717    95.1209     8.3351   -34.1066     7.4817     7.2013
  438.5000     2.4910     0.0886     0.0660    94.0726     8.4034   -34.2273     7.4470     7.1810
  439.0000     2.4933     0.0834     0.0669    94.1811     8.4414   -34.3468     7.4125     7.1607
