~VERSION INFORMATION
 VERS.                2.0:   CWLS LOG ASCII STANDARD - VERSION 2.0
 WRAP.                 NO:   ONE LINE PER DEPTH STEP
~WELL INFORMATION
#MNEM.UNIT      DATA TYPE    INFORMATION
#----------   ------------   ------------------------------
 STRT.F           70.0000:   START DEPTH
 STOP.F          884.0000:   STOP DEPTH
 STEP.F            0.5000:   STEP LENGTH
 NULL.          -999.2500:   NO VALUE
 COMP. U S NAVY/INTEX OIL CO:   COMPANY
 WELL.   NPR#3 "S" #16-35:   WELL
 FLD .             TEAPOT:   FIELD
 LOC .      S35 T39N R78W:   LOCATION
 CNTY.            NATRONA:   COUNTY
 STAT.            WYOMING:   STATE
 CTRY. UNITED STATES OF AMERICA:   COUNTRY
 SRVC.         Lane Wells:   SERVICE COMPANY
 DATE.        21-MAR-1960:   LOGDATE
 API .       490250651800:   API NUMBER
~CURVE INFORMATION
#MNEM.UNIT       API CODE    CURVE DESCRIPTION
#----------   ------------   ------------------------------
 DEPT.F                  :   
 SPR .MV     05 010 01 00:   SPONTANEOUS POTENTIAL FROM RES.
 ASN .OHMM   05 040 16 00:   AMPLIFIED SHORT NORMAL 16"
 ILD .OHMM   05 120 46 00:   INDUCTION LOG DEEP
 CILD.MMHO   05 110 46 00:   CONDUCTIVITY INDUCTION LOG DEEP
 GR  .GAPI   30 310 01 00:   GAMMA RAY
~PARAMETER INFORMATION
#MNEM.UNIT          VALUE    DESCRIPTION
#----------   ------------   ------------------------------
 PD  .                 GL:   PERMANENT DATUM
 EPD .F              5091:   ELEVATION PERMANENT DATUM
 LMF .                 KB:   LOG MEASURED FROM
 DAPD.F                 5:   FEET ABOVE PERMANENT DATUM
 DMF .                 KB:   DRILLING MEASURED FROM
 EKB .F              5096:   KELLING BUSHING
 EGL .F              5091:   GROUND LEVEL
 DATE.          3-21-1960:   RUN DATE
 RUN .                  1:   RUN NUMBER
 DD  .F               913:   DEPTH DRILLER
 DL  .F               885:   DEPTH LOGGER
 BLI .F               883:   BOTTOM LOG INTERVAL
 TLI .F                70:   TOP LOG INTERVAL
 CS  .IN            8.625:   CASING SIZE
 CBD .F                12:   CASING BOTTOM DRILLER
 BS  .IN            7.875:   BIT SIZE
 BSD .F               913:   BIT SIZE AT DEPTH
 DFT .   GEL-OIL EMULSION:   DRILLING FLUID TYPE
 DFD .                9.9:   DRILLING FLUID DENSITY
 DFV .                 40:   DRILLING FLUID VISCOSITY
 MSS .           FLOWLINE:   MUD SAMPLE SOURCE
 RMS .OHMM              3:   RESISTIVITY MUD SAMPLE
 MST .F                64:   MUD SAMPLE TEMPERATURE
 RMF .OHMM            2.2:   RESISTIVITY MUD FILTRATE SAMPLE
 MFST.F                64:   MUD FILTRATE SAMPLE TEMPERATURE
 RMC .OHMM              4:   RESISTIVITY MUD CAKE
 MCST.F                64:   MUD CAKE SAMPLE TEMPERATURE
 MFSS.                MUD:   MUD FILTRATE SAMPLE SOURCE
 MCSS.              PRESS:   MUD CAKE SAMPLE SOURCE
 RMB .OHMM            2.7:   RESISTIVITY MUD AT BHT
 BHT .F                70:   BOTTOM HOLE TEMPERATURE
 MRT .F                70:   MAXIMUM RECORDED TEMPERATURE
 LUN .             L-4474:   LOGGING UNIT NUMBER
 LUL .             CASPER:   LOGGING UNIT LOCATION
 ENGI.             NELSON:   RECORDING ENGINEER
 WITN.          JORGENSEN:   WITNESSED BY
 CLNT.            A2DTECH:   CLIENT CODE
 ORIG.      2" & 5" PRINT:   ORIGIN OF DATA
 UWI .       490250651800:   UNIQUE WELL ID
 DICO. A2D Technologies, Inc.:   DIGITIZING COMPANY
~OTHER INFORMATION
~A   DEPT      SPR          ASN      ILD        CILD        GR   
# ...
  802.0000   -29.6654    10.6540     9.7593   108.3099    67.1037
  802.5000   -29.8233    10.6454     9.7805   108.3731    54.6163
  803.0000   -29.9690    10.6368     9.8029   108.4350    58.1748
  803.5000   -30.1022    10.6274     9.8246   108.4964    61.7021
  804.0000   -30.3115    10.6239     9.8471   108.5577    61.6550
  804.5000   -30.9249    10.6597     9.8681   108.6199    57.7979
  805.0000   -31.7847    10.6965     9.8920   108.6821    58.2099
  805.5000   -32.1963    10.7339     9.9046   108.7443    44.3776
  806.0000   -31.8435    10.7705     9.9029   108.8065    45.8041
  806.5000   -31.5837    10.8083     9.9037   108.8687    43.1129
  807.0000   -31.2855    10.8441     9.9032   108.9309    52.3604
  807.5000   -30.9727    10.8833     9.9036   108.9931    55.0049
  808.0000   -30.8018    10.9159     9.9039   109.0553    55.2646
  808.5000   -30.8776    10.9626     9.9036   109.1175    61.5625
  809.0000   -30.9121    10.9371     9.9045   109.1797    69.2645
  809.5000   -30.9690    10.7940     9.9029   109.2419    62.6892
  810.0000   -31.0137    10.6693     9.9054   109.3041    56.9144
  810.5000   -31.0695    10.5178     9.9031   109.3663    56.2378
  811.0000   -31.1046    10.4301     9.8841   109.4285    59.5919
  811.5000   -31.2171    10.4298     9.6017   109.4907    63.1507
  812.0000   -31.7163    10.4140     9.4302   109.5529    67.5844
  812.5000   -32.2748    10.4064     9.3625   109.6151    62.9700
  813.0000   -32.6593    10.3937     9.2807   109.6765    68.0808
  813.5000   -32.7499    10.3850     9.2948   109.7364    71.6507
  814.0000   -33.0727    10.3726     9.3144   109.7965    67.9551
  814.5000   -33.4546    10.3644     9.3352   109.8527    56.9350
  815.0000   -33.8633    10.3556     9.3553   109.2274    54.7313
  815.5000   -34.0776    10.4761     9.3759   108.6540    58.7294
  816.0000   -33.2038    10.6572     9.3961   108.0830    58.8148
  816.5000   -32.3509    10.8279     9.4174   107.5120    38.4600
  817.0000   -31.4803    11.0049     9.4337   106.9434    41.5045
  817.5000   -30.6734    11.1730     9.4781   106.3806    49.6173
  818.0000   -30.3948    11.3318     9.7072   105.8225    50.5310
  818.5000   -30.1691    11.4821     9.9202   105.2630    48.3263
  819.0000   -29.9564    11.6282    10.1377   104.6947    57.0806
  819.5000   -29.7177    11.7731    10.3515   102.4042    51.5388
  820.0000   -29.9532    11.9225    10.5658    99.4968    53.3683
  820.5000   -30.5427    12.0652    10.7820    97.3113    54.9660
  821.0000   -31.0983    12.2925    10.9911    95.1681    61.6764
  821.5000   -31.6654    12.6320    11.2147    93.1554    66.0413
  822.0000   -32.2302    12.9081    11.4167    91.1427    59.6510
  822.5000   -32.5202    13.6148    11.7686    89.1301    63.1823
  823.0000   -32.7907    14.1706    12.0235    87.1174    64.1084
  823.5000   -33.4224    14.8868    12.8873    81.4750    66.3698
  824.0000   -35.8293    16.1127    14.3559    74.4307    68.3141
  824.5000   -37.7157    17.7083    15.6678    67.9940    63.1346
  825.0000   -37.7833    19.2849    17.1397    62.3585    64.9769
  825.5000   -37.5250    20.8615    18.7146    57.0252    58.6374
  826.0000   -37.3162    22.4380    21.1732    51.9678    52.1279
  826.5000   -37.7838    23.4363    21.7547    47.1226    59.7408
  827.0000   -38.5313    22.7839    22.3486    48.0853    53.6238
  827.5000   -38.1974    22.1577    22.5024    49.0091    51.0743
  828.0000   -39.5799    21.5315    22.0012    49.9330    48.8049
  828.5000   -40.7708    20.9054    21.5522    50.8568    49.2949
  829.0000   -40.3048    20.2792    21.0696    51.7807    39.9666
  829.5000   -40.0811    19.6530    20.6021    52.7045    41.1424
  830.0000   -39.6737    19.3182    20.3377    53.6284    37.0531
  830.5000   -39.4883    19.0833    20.0986    54.5522    46.8035
  831.0000   -40.1037    18.8485    19.8542    55.4761    38.0837
  831.5000   -40.9767    18.6137    19.6076    56.3999    35.6521
  832.0000   -40.4005    18.3810    19.3497    57.3238    44.2023
  832.5000   -39.3509    18.1521    19.1994    58.0988    50.3076
  833.0000   -38.3971    18.0318    19.1178    58.6513    48.7814
  833.5000   -37.9005    17.9099    18.7316    59.2038    51.9603
  834.0000   -37.9126    17.7858    18.1541    59.7563    55.1071
  834.5000   -37.2282    17.6882    17.6497    60.3088    54.6536
  835.0000   -37.3586    17.3611    17.1227    60.8613    56.7482
  835.5000   -38.6758    17.0943    16.5945    61.4623    53.3711
  836.0000   -38.7039    16.8173    16.2055    62.5695    55.9993
  836.5000   -37.6327    16.5651    15.9462    63.7874    61.1625
  837.0000   -36.6791    16.2567    15.6789    65.0055    53.5959
  837.5000   -35.6844    15.9222    15.3995    66.2229    58.2989
  838.0000   -35.3562    15.5958    15.2374    67.4402    51.6976
  838.5000   -35.0699    15.4087    15.1723    68.6578    41.4920
  839.0000   -34.7944    15.3549    15.0586    69.8753    43.3013
  839.5000   -34.5740    15.2406    14.2916    71.0918    42.4175
  840.0000   -34.9703    14.7883    13.7038    72.3132    40.3557
  840.5000   -34.6789    14.3495    13.4816    73.5308    38.1031
  841.0000   -33.5435    13.8842    13.1247    74.8468    47.9580
  841.5000   -32.9179    13.4235    12.9342    76.8594    47.6206
  842.0000   -32.5452    13.3064    12.9545    78.8721    53.1102
  842.5000   -32.2063    13.3410    12.9445    79.2348    58.1129
  843.0000   -31.8284    13.3594    12.9512    79.0306    58.0453
  843.5000   -32.5780    13.3746    12.9486    78.8265    51.2742
  844.0000   -34.1012    13.3907    12.9514    78.6223    55.5771
  844.5000   -34.1062    13.3165    12.9510    78.4181    44.5869
  845.0000   -33.3039    13.2248    12.9512    78.2139    48.1593
  845.5000   -33.5123    13.1352    12.9552    78.0097    47.4718
  846.0000   -32.7271    13.0459    12.9286    77.8055    59.8090
  846.5000   -31.5982    12.9480    12.6935    77.5943    56.7865
  847.0000   -31.3706    12.8026    12.4618    80.3153    56.0463
  847.5000   -30.9199    12.6419    12.2272    83.1330    55.8748
  848.0000   -30.6091    12.4920    11.9957    85.9508    56.9422
  848.5000   -30.2270    12.2830    11.7619    88.3491    56.0284
  849.0000   -30.6603    12.0193    11.5295    87.2700    57.4335
  849.5000   -31.7055    11.7657    11.2963    86.5566    45.3819
  850.0000   -32.8320    11.5066    11.0637    90.3438    46.1510
  850.5000   -33.2337    11.2548    10.8309    93.3969    49.0810
  851.0000   -32.7318    10.9910    10.5980    96.4499    46.7002
  851.5000   -32.4520    10.8339    10.3668    99.5030    51.6670
  852.0000   -32.3749    10.6970    10.1608   102.5561    56.8665
  852.5000   -32.0474    10.5456     9.9792   104.9853    45.6003
  853.0000   -31.5687    10.5371     9.7946   106.3498    42.9516
  853.5000   -31.5385    10.5642     9.6165   107.7143    41.7024
  854.0000   -31.6012    10.5835     9.4291   109.0788    40.3849
  854.5000   -31.6898    10.6056     9.3575   109.7634    49.8627
  855.0000   -31.5036    10.6266     9.3666   109.5415    52.9579
  855.5000   -31.1044    10.6479     9.3626   109.3197    50.1957
  856.0000   -30.8966    10.6694     9.3685   109.0978    50.1720
  856.5000   -30.7523    10.6890     9.4298   108.8759    57.4068
  857.0000   -30.6156    10.7205     9.5077   108.6541    53.5255
  857.5000   -30.4754    10.8431     9.5841   108.4322    56.3077
  858.0000   -30.3363    10.9637     9.6585   108.2103    63.4001
  858.5000   -30.1970    11.0845     9.7384   107.3429    51.1837
  859.0000   -30.0573    11.2060     9.8061   105.2755    77.5670
  859.5000   -29.9188    11.3245     9.9157   103.2081    67.1462
  860.0000   -29.7780    11.4525    10.0018   101.1406    67.7344
  860.5000   -29.6409    11.5299     9.9898    99.1038    63.4366
  861.0000   -29.4980    11.4612     9.9960   100.2760    66.8542
  861.5000   -29.3624    11.3230     9.9928   101.4311    67.5147
  862.0000   -29.2172    11.1874     9.9947   102.5863    67.2505
  862.5000   -29.3733    11.0495     9.9934   103.7414    68.0240
