~VERSION INFORMATION
 VERS.                2.0:   CWLS LOG ASCII STANDARD - VERSION 2.0
 WRAP.                 NO:   ONE LINE PER DEPTH STEP
~WELL INFORMATION
#MNEM.UNIT      DATA TYPE    INFORMATION
#----------   ------------   ------------------------------
 STRT.F           36.0000:   START DEPTH
 STOP.F          592.0000:   STOP DEPTH
 STEP.F            0.5000:   STEP LENGTH
 NULL.          -999.2500:   NO VALUE
 COMP. FENIX & SCISSON INC:   COMPANY
 WELL.           S #35-10:   WELL
 FLD .              NPR-3:   FIELD
 LOC .      S10 T38N R78W:   LOCATION
 CNTY.            NATRONA:   COUNTY
 STAT.            WYOMING:   STATE
 CTRY. UNITED STATES OF AMERICA:   COUNTRY
 SRVC.              Welex:   SERVICE COMPANY
 DATE.        07-MAR-1977:   LOGDATE
 API .       490251029000:   API NUMBER
~CURVE INFORMATION
#MNEM.UNIT       API CODE    CURVE DESCRIPTION
#----------   ------------   ------------------------------
 DEPT.F                  :   
 SPR .MV     07 010 01 00:   SPONTANEOUS POTENTIAL
 ILM .OHMM   07 120 44 00:   INDUCTION LOG MEDIUM
 ILD .OHMM   07 120 46 00:   INDUCTION LOG DEEP
 SGRD.OHMM   07 220 05 00:   SHALLOW GUARD RESISTIVITY
 CALD.IN     45 280 60 00:   CALIPER FROM DENSITY LOG
 RHOB.G/C3   45 350 01 00:   BULK DENSITY
 CORR.G/C3   45 356 01 00:   DENSITY CORRECTION
 DPHI.DEC    45 890 12 00:   DENSITY POROSITY SANDSTONE
 GRD .GAPI   45 310 01 00:   GAMMA RAY FROM DENSITY LOG
~PARAMETER INFORMATION
#MNEM.UNIT          VALUE    DESCRIPTION
#----------   ------------   ------------------------------
 PD  .                 GL:   PERMANENT DATUM
 EPD .F              5234:   ELEVATION PERMANENT DATUM
 LMF .                 GL:   LOG MEASURED FROM
 DMF .                 GL:   DRILLING MEASURED FROM
 EGL .F              5234:   GROUND LEVEL
 DATE.             3-7-77:   RUN DATE
 RUN .                  1:   RUN NUMBER
 DD  .F               600:   DEPTH DRILLER
 DL  .F               593:   DEPTH LOGGER
 BLI .F               591:   BOTTOM LOG INTERVAL
 TLI .F                35:   TOP LOG INTERVAL
 CS  .IN            8.625:   CASING SIZE
 CBD .F                42:   CASING BOTTOM DRILLER
 CBL .F                42:   CASING BOTTOM LOGGER
 BS  .IN            7.875:   BIT SIZE
 BSD .F               600:   BIT SIZE AT DEPTH
 DFT .            KCL MUD:   DRILLING FLUID TYPE
 MSS .          FLOW LINE:   MUD SAMPLE SOURCE
 RMS .OHMM            .40:   RESISTIVITY MUD SAMPLE
 MST .F                58:   MUD SAMPLE TEMPERATURE
 RMF .OHMM            .33:   RESISTIVITY MUD FILTRATE SAMPLE
 MFST.F                58:   MUD FILTRATE SAMPLE TEMPERATURE
 RMC .OHMM            .44:   RESISTIVITY MUD CAKE
 MCST.F                58:   MUD CAKE SAMPLE TEMPERATURE
 MFSS.           FANN KIT:   MUD FILTRATE SAMPLE SOURCE
 MCSS.           FANN KIT:   MUD CAKE SAMPLE SOURCE
 RMB .OHMM            .31:   RESISTIVITY MUD AT BHT
 BHT .F                62:   BOTTOM HOLE TEMPERATURE
 TCS .HRS               3:   TIME CURCULATED STOPPED
 MRT .F                62:   MAXIMUM RECORDED TEMPERATURE
 LUN .               8611:   LOGGING UNIT NUMBER
 LUL .           GILLETTE:   LOGGING UNIT LOCATION
 ENGI.            C. DOAK:   RECORDING ENGINEER
 WITN.      L. STUEBINGER:   WITNESSED BY
 CLNT.            A2DTECH:   CLIENT CODE
 ORIG.        2" 5" PRINT:   ORIGIN OF DATA
 UWI .       490251029000:   UNIQUE WELL ID
 DICO. A2D Technologies, Inc.:   DIGITIZING COMPANY
~OTHER INFORMATION
~A   DEPT      SPR        ILM        ILD       SGRD         CALD       RHOB      CORR        DPHI       GRD  
# ...
  145.5000   -52.7045     9.4521     7.1913     8.7921     7.9165     2.4926     0.0401     0.0925   123.6045
  146.0000   -52.7259     9.5685     7.2895     9.1440     7.9070     2.4988     0.0418     0.0867   120.4599
  146.5000   -52.7473     9.6863     7.4140     9.7409     7.8969     2.4955     0.0412     0.0897   120.1648
  147.0000   -52.7685     9.8056     7.5407    10.3768     7.8869     2.4908     0.0403     0.0946   123.2502
  147.5000   -52.7884     9.9263     7.6695    11.0542     7.8769     2.4865     0.0394     0.0950   123.5553
  148.0000   -52.8042    10.0242     7.8005    11.7758     7.8669     2.4885     0.0385     0.0962   122.5070
  148.5000   -52.8201    10.1440     7.9771    12.2429     7.8601     2.4836     0.0371     0.0982   120.6579
  149.0000   -52.8360    10.2651     8.0944    11.5907     7.8695     2.4784     0.0331     0.1003   120.0787
  149.5000   -52.8518    10.3877     8.2134    11.1697     7.8785     2.4747     0.0290     0.1022   124.3537
  150.0000   -52.8677    10.5118     8.2749    12.5845     7.8875     2.4779     0.0293     0.1006   128.7397
  150.5000   -52.8836    10.6690     8.3086    12.4810     7.8973     2.4810     0.0313     0.0991   133.0635
  151.0000   -52.8994    10.5945     8.3423    12.2429     7.8718     2.4840     0.0334     0.0975   133.0337
  151.5000   -52.9153    10.4623     8.3762    11.7356     7.8397     2.4871     0.0355     0.0960   133.3064
  152.0000   -52.9311    10.3297     8.4103    11.1697     7.8396     2.4901     0.0348     0.0945   133.9190
  152.5000   -52.9470    10.1958     8.4445    11.0677     7.8603     2.4926     0.0336     0.0930   132.1546
  153.0000   -52.9630    10.0981     8.4787    11.5872     7.8591     2.4915     0.0324     0.0942   128.9041
  153.5000   -52.9800    10.1770     8.5133    11.5359     7.8588     2.4864     0.0312     0.0963   126.2449
  154.0000   -52.9460    10.2296     8.5479    11.3765     7.8589     2.4811     0.0300     0.0984   125.5056
  154.5000   -52.9001    10.2825     8.6842    11.6797     7.8588     2.4793     0.0288     0.0998   125.8774
  155.0000   -52.8540    10.3357     8.8827    11.8018     7.8588     2.4812     0.0277     0.0989   126.2403
  155.5000   -52.8080    10.3891     9.0857    11.3765     7.8592     2.4832     0.0265     0.0980   125.9233
  156.0000   -52.7621    10.4428     9.2974    11.5872     7.8681     2.4848     0.0260     0.0968   126.2418
  156.5000   -52.7161    10.7016     9.2827    12.7296     7.8769     2.4885     0.0265     0.0949   128.0731
  157.0000   -52.6700    11.2841     9.2583    14.3419     7.8856     2.4921     0.0270     0.0929   129.9503
  157.5000   -52.6239    11.5939     9.2336    14.8439     7.8943     2.4956     0.0275     0.0910   131.8309
  158.0000   -52.5899    10.4821     9.2126    12.6888     7.9030     2.4975     0.0280     0.0891   133.7142
  158.5000   -52.6419    10.0649     9.2484    12.1311     7.9118     2.4983     0.0312     0.0871   135.6028
  159.0000   -52.6930     9.8433     9.2953    12.3557     7.9188     2.5016     0.0343     0.0863   135.6326
  159.5000   -52.7439     9.6266     9.0012    12.0203     7.9126     2.5040     0.0374     0.0871   133.7381
  160.0000   -52.7947     9.4147     8.5442    12.2998     7.9059     2.4943     0.0369     0.0921   131.7291
  160.5000   -52.8456     9.2083     8.1972    11.5732     7.8974     2.4879     0.0358     0.0954   132.0921
  161.0000   -52.8964     9.0001     8.0313    11.0764     7.9181     2.4893     0.0379     0.0942   132.9115
  161.5000   -52.9472     8.8806     7.8688    11.3447     7.9373     2.4893     0.0378     0.0941   133.2588
  162.0000   -52.9981     8.8267     7.6682    11.4960     7.9384     2.4864     0.0377     0.0958   133.6997
  162.5000   -53.0490     8.7743     7.6479    11.6940     7.9383     2.4834     0.0352     0.0974   134.5325
  163.0000   -53.0999     8.7221     7.6283    11.6115     7.9385     2.4799     0.0328     0.0991   135.3498
  163.5000   -53.1503     8.6703     7.6089    11.4814     7.9006     2.4751     0.0305     0.1022   134.9916
  164.0000   -53.1764     8.6187     7.5971    11.6940     7.8908     2.4690     0.0281     0.1069   131.6901
  164.5000   -53.1638     8.5608     7.7183    11.4668     7.8828     2.4613     0.0258     0.1116   128.2466
  165.0000   -53.1517     8.5987     7.8380    11.3732     7.8746     2.4589     0.0239     0.1163   124.7942
  165.5000   -53.1395     8.6425     7.9595    11.6962     7.8663     2.4625     0.0257     0.1181   121.3192
  166.0000   -53.1273     8.6869     8.0830    11.3751     7.8581     2.4663     0.0276     0.1117   118.5220
  166.5000   -53.1152     8.7314     8.2083    11.5839     7.8498     2.4700     0.0294     0.1051   118.2238
  167.0000   -53.1030     8.7761     8.3282    11.3478     7.8414     2.4738     0.0313     0.1034   121.4146
  167.5000   -53.0909     8.8806     8.3129    10.8665     7.8365     2.4760     0.0332     0.1016   124.7888
  168.0000   -53.0787     9.1301     8.2984    11.0793     7.8314     2.4708     0.0335     0.1044   128.6934
  168.5000   -53.0665     9.4145     8.2839    11.3855     7.8264     2.4626     0.0322     0.1089   132.7779
  169.0000   -53.0544     9.6449     8.2695    11.6940     7.8235     2.4548     0.0310     0.1133   135.7530
  169.5000   -53.0422     9.6021     8.2550    11.1345     7.8195     2.4469     0.0298     0.1175   137.3098
  170.0000   -53.0300     9.5669     8.2406    10.7673     7.8162     2.4401     0.0286     0.1205   138.4203
  170.5000   -53.0179     9.5319     8.2263    10.9667     7.7946     2.4451     0.0282     0.1197   132.6346
  171.0000   -53.0057     9.4970     8.2119    10.7897     7.7793     2.4565     0.0310     0.1143   130.9487
  171.5000   -52.9931     9.4622     8.1976    10.5583     7.8055     2.4688     0.0338     0.1073   133.4655
  172.0000   -52.9843     9.4275     8.1833    10.4750     7.8187     2.4791     0.0366     0.1002   136.8374
  172.5000   -53.0350     9.3930     8.1690    11.2211     7.8175     2.4844     0.0394     0.0960   141.8890
  173.0000   -53.0858     9.3586     8.1548    11.4814     7.8579     2.4888     0.0421     0.0930   144.7500
  173.5000   -53.1363     9.3243     8.1405    11.0745     7.8820     2.4949     0.0426     0.0903   144.9204
  174.0000   -53.1867     9.2826     8.1264    10.8686     7.8919     2.5017     0.0398     0.0874   140.5889
  174.5000   -53.2372     9.2111     8.1121    11.0147     7.9019     2.4998     0.0370     0.0871   137.9290
  175.0000   -53.2878     9.1405     8.1032    11.0658     7.9118     2.4927     0.0342     0.0909   136.8246
  175.5000   -53.3386     9.0705     8.1437    10.5804     7.9186     2.4856     0.0314     0.0946   135.7251
  176.0000   -53.3792     9.0009     8.1762    10.2845     7.9185     2.4828     0.0285     0.0983   134.5885
  176.5000   -53.3061     8.9319     8.2087    10.5698     7.9185     2.4801     0.0303     0.0990   135.0654
  177.0000   -53.2300     8.8805     8.2415    10.9429     7.9185     2.4814     0.0338     0.0967   136.2155
  177.5000   -53.1543     8.9288     8.2743    11.0677     7.9185     2.4916     0.0373     0.0910   137.8779
  178.0000   -53.0786     8.9752     8.3072    10.4750     7.9157     2.5016     0.0408     0.0833   139.3946
  178.5000   -53.0029     9.0217     8.3403    10.8748     7.9111     2.5091     0.0442     0.0811   138.3056
  179.0000   -52.9271     9.0683     8.3735    11.3158     7.9064     2.5109     0.0477     0.0814   135.3656
  179.5000   -52.8510     9.1152     8.4069    11.7007     7.9017     2.5172     0.0489     0.0774   133.9373
  180.0000   -52.7855     9.1624     8.4404    12.0203     7.8970     2.5234     0.0470     0.0722   135.4902
  180.5000   -52.8231     9.2125     8.4740    11.6239     7.8923     2.5215     0.0450     0.0756   137.6395
  181.0000   -52.8606     9.2037     8.5077    11.2726     7.8876     2.5166     0.0431     0.0793   139.7909
  181.5000   -52.8976     9.1943     8.5416    11.5872     7.8829     2.5103     0.0412     0.0829   141.4205
