~VERSION INFORMATION
 VERS.                2.0:   CWLS LOG ASCII STANDARD - VERSION 2.0
 WRAP.                 NO:   ONE LINE PER DEPTH STEP
~WELL INFORMATION
#MNEM.UNIT      DATA TYPE    INFORMATION
#----------   ------------   ------------------------------
 STRT.F            0.0000:   START DEPTH
 STOP.F          678.0000:   STOP DEPTH
 STEP.F            0.5000:   STEP LENGTH
 NULL.          -999.2500:   NO VALUE
 COMP. FENIX & SCISSON INC:   COMPANY
 WELL. 37-21 SX 11 WO #37-11:   WELL
 FLD .             TEAPOT:   FIELD
 LOC .      S11 T38N R78W:   LOCATION
 CNTY.            NATRONA:   COUNTY
 STAT.            WYOMING:   STATE
 CTRY. UNITED STATES OF AMERICA:   COUNTRY
 SRVC.      Dresser Atlas:   SERVICE COMPANY
 DATE.        14-OCT-1983:   LOGDATE
 API .       490251084300:   API NUMBER
~CURVE INFORMATION
#MNEM.UNIT       API CODE    CURVE DESCRIPTION
#----------   ------------   ------------------------------
 DEPT.F                  :   
 SPR .MV     07 010 01 00:   SPONTANEOUS POTENTIAL
 SFLU.OHMM   07 220 01 00:   SPHERICALLY FOCUSED LOG UNAVERAGED RESISTIVITY
 ILM .OHMM   07 120 44 00:   INDUCTION LOG MEDIUM
 ILD .OHMM   07 120 46 00:   INDUCTION LOG DEEP
 NPHI.DEC    42 890 03 00:   NEUTRON POROSITY SANDSTONE
 DPHI.DEC    45 890 12 00:   DENSITY POROSITY SANDSTONE
 RHOB.G/C3   45 350 01 00:   BULK DENSITY
 CORR.G/C3   45 356 01 00:   DENSITY CORRECTION
 GRD .GAPI   45 310 01 00:   GAMMA RAY FROM DENSITY LOG
 CALD.IN     45 280 60 00:   CALIPER
~PARAMETER INFORMATION
#MNEM.UNIT          VALUE    DESCRIPTION
#----------   ------------   ------------------------------
 PD  .                 GL:   PERMANENT DATUM
 EPD .F              5188:   ELEVATION PERMANENT DATUM
 LMF .                 KB:   LOG MEASURED FROM
 DAPD.F                 5:   FEET ABOVE PERMANENT DATUM
 DMF .                 KB:   DRILLING MEASURED FROM
 EKB .F              5193:   KELLING BUSHING
 EGL .F              5188:   GROUND LEVEL
 DATE.           10-14-83:   RUN DATE
 RUN .                  4:   RUN NUMBER
 DD  .F               629:   DEPTH DRILLER
 DL  .F               630:   DEPTH LOGGER
 BLI .F               624:   BOTTOM LOG INTERVAL
 TLI .F               335:   TOP LOG INTERVAL
 BS  .IN             8.75:   BIT SIZE
 BSD .F               629:   BIT SIZE AT DEPTH
 DFT .          KCL WATER:   DRILLING FLUID TYPE
 LUN .               6307:   LOGGING UNIT NUMBER
 LUL .               GLTE:   LOGGING UNIT LOCATION
 ENGI.            DEYOUNG:   RECORDING ENGINEER
 WITN.            SCHULTE:   WITNESSED BY
 CLNT.            A2DTECH:   CLIENT CODE
 ORIG.       2", 5" PRINT:   ORIGIN OF DATA
 UWI .       490251084300:   UNIQUE WELL ID
 DICO. A2D Technologies, Inc.:   DIGITIZING COMPANY
~OTHER INFORMATION
~A    DEPT     SPR       SFLU        ILM        ILD       NPHI       DPHI       RHOB       CORR        GRD       CALD   
# ...
  402.0000   -29.5371     7.3464     6.9647     6.6791     0.2609     0.1173     2.4377     0.0451    91.5790     9.6587
  402.5000   -29.4554     7.2080     6.8355     6.4802     0.2625     0.1226     2.4250     0.0377    90.7643     9.6588
  403.0000   -29.3737     7.0700     6.7110     5.9715     0.2686     0.1375     2.4060     0.0305    92.2796     9.6588
  403.5000   -29.2920     6.9468     6.1877     5.5027     0.2850     0.1488     2.3906     0.0253    93.4959     9.6587
  404.0000   -29.2103     6.2129     5.6603     5.0708     0.2956     0.1596     2.3768     0.0282    91.4592     9.6589
  404.5000   -29.1281     5.6060     5.1779     4.7727     0.2990     0.1703     2.3870     0.0386    89.3604     9.6470
  405.0000   -29.0449     5.0584     4.7366     4.7292     0.2837     0.1783     2.4114     0.0518    90.0591     9.6295
  405.5000   -29.0913     4.9507     4.6434     4.7883     0.2578     0.1807     2.4395     0.0564    91.5601     9.6224
  406.0000   -29.1566     5.9796     5.3453     4.8766     0.2397     0.1723     2.4569     0.0552    92.9693     9.6384
  406.5000   -29.2223     7.1240     5.8377     4.9507     0.2353     0.1571     2.4685     0.0606    94.2277     9.6539
  407.0000   -29.2876     7.7156     6.1707     5.1885     0.2350     0.1417     2.4754     0.0660    95.5080     9.6693
  407.5000   -29.3524     7.9784     6.4977     5.4063     0.2344     0.1356     2.4811     0.0709    95.3637     9.6781
  408.0000   -29.4110     8.3427     6.8421     5.7511     0.2320     0.1294     2.4809     0.0668    94.3841     9.6769
  408.5000   -29.8096     8.2479     7.2047     6.2631     0.2295     0.1232     2.4789     0.0622    92.9538     9.6758
  409.0000   -29.7651     8.1170     7.4395     6.8206     0.2342     0.1183     2.4864     0.0575    91.5145     9.6747
  409.5000   -29.7069     8.1724     7.5652     7.1891     0.2392     0.1206     2.4855     0.0546    90.0435     9.6735
  410.0000   -29.6454     8.2372     7.6929     7.2959     0.2400     0.1213     2.4896     0.0539    91.1201     9.6724
  410.5000   -29.9453     8.3028     7.8229     7.4042     0.2373     0.1188     2.4779     0.0532    93.8679     9.6713
  411.0000   -29.8597     8.3689     7.9551     7.5141     0.2354     0.1163     2.4755     0.0488    96.2013     9.6701
  411.5000   -29.6643     8.4354     8.0896     7.6257     0.2399     0.1180     2.4716     0.0438    95.2343     9.6690
  412.0000   -29.4628     8.5025     8.2027     7.7389     0.2447     0.1213     2.4730     0.0452    96.6141     9.6679
  412.5000   -29.4816     8.5701     8.2468     7.8371     0.2492     0.1246     2.4636     0.0469    94.5951     9.6668
  413.0000   -29.5469     8.6382     8.2912     7.8860     0.2462     0.1258     2.4537     0.0429    95.0006     9.6656
  413.5000   -29.6166     8.7069     8.3358     7.9353     0.2430     0.1247     2.4470     0.0396    96.0394     9.6645
  414.0000   -29.5062     8.7761     8.3807     7.9849     0.2373     0.1300     2.4559     0.0479    96.6123     9.6634
  414.5000   -29.3563     8.8459     8.4259     8.0348     0.2337     0.1405     2.4724     0.0574    95.4580     9.6623
  415.0000   -29.2287     8.9162     8.4713     8.0850     0.2423     0.1422     2.4878     0.0647    96.6493     9.6611
  415.5000   -29.2312     8.9871     8.5170     8.1355     0.2482     0.1290     2.4838     0.0626    96.1696     9.6600
  416.0000   -29.2370     9.0585     8.5629     8.1864     0.2473     0.1184     2.4904     0.0608    95.7123     9.6588
  416.5000   -29.4864     9.1426     8.6090     8.2375     0.2452     0.1185     2.4956     0.0591    96.4317     9.6588
  417.0000   -29.6250     9.1306     8.6554     8.2890     0.2454     0.1174     2.4863     0.0562    94.9641     9.6588
  417.5000   -29.6275     9.1162     8.7021     8.3408     0.2471     0.1147     2.4753     0.0529    94.9628     9.6588
  418.0000   -29.6390     9.1019     8.7490     8.3930     0.2449     0.1140     2.4722     0.0495    95.2702     9.6588
  418.5000   -29.9669     9.0876     8.8138     8.4454     0.2471     0.1203     2.4736     0.0537    94.1995     9.6588
  419.0000   -29.9169     9.0732     8.7685     8.4969     0.2497     0.1263     2.4772     0.0592    93.1205     9.6588
  419.5000   -29.7942     9.0590     8.6965     8.4039     0.2405     0.1274     2.4882     0.0648    93.4270     9.6588
  420.0000   -29.6920     9.0447     8.6251     8.3140     0.2360     0.1246     2.4996     0.0683    94.3064     9.6588
  420.5000   -29.9200     9.0305     8.5542     8.2251     0.2439     0.1180     2.4962     0.0706    94.0943     9.6588
  421.0000   -29.8654     9.0162     8.4839     8.1372     0.2474     0.1132     2.4915     0.0668    93.3822     9.6588
  421.5000   -29.6881     9.0021     8.4142     8.0502     0.2416     0.1096     2.4832     0.0619    93.1162     9.6588
  422.0000   -29.5097     8.9879     8.3451     7.9641     0.2345     0.1136     2.4863     0.0603    94.6083     9.6588
  422.5000   -29.6366     8.9456     8.2765     7.8790     0.2283     0.1175     2.4962     0.0677    93.3194     9.6588
  423.0000   -29.6901     8.7992     8.2085     7.7947     0.2283     0.1201     2.5055     0.0746    92.0080     9.6587
  423.5000   -29.4414     8.6553     8.1411     7.7114     0.2260     0.1132     2.5011     0.0745    93.6583     9.6590
  424.0000   -29.4277     8.5136     8.0742     7.6289     0.2216     0.1081     2.5020     0.0741    93.5120     9.6644
  424.5000   -29.4287     8.3743     8.0079     7.5475     0.2215     0.1075     2.5041     0.0737    93.9883     9.6701
  425.0000   -29.4291     8.2373     7.9427     7.4667     0.2254     0.1099     2.5061     0.0733    96.4297     9.6757
  425.5000   -29.4291     8.1025     7.8763     7.3868     0.2369     0.1063     2.4914     0.0731    99.0383     9.6813
  426.0000   -29.4291     7.9694     7.7251     7.1700     0.2521     0.1031     2.4892     0.0655    97.7818     9.6869
  426.5000   -29.4291     7.6245     7.2183     6.7610     0.2593     0.1120     2.4801     0.0564    96.5738     9.6925
  427.0000   -29.4291     7.2120     6.7475     6.3753     0.2601     0.1155     2.4675     0.0494    97.3581     9.6980
  427.5000   -29.4292     6.8218     6.3075     6.0116     0.2604     0.1171     2.4590     0.0529    98.3072     9.6983
  428.0000   -29.4288     6.4528     5.8922     5.6688     0.2706     0.1250     2.4467     0.0565    96.7004     9.6984
  428.5000   -29.4313     6.0412     5.5477     5.3474     0.2865     0.1326     2.4237     0.0498    94.3175     9.6892
  429.0000   -29.3078     5.3971     5.2193     4.7631     0.3024     0.1399     2.3990     0.0481    91.9625     9.6775
  429.5000   -29.1288     4.8230     4.7025     4.1793     0.3183     0.1470     2.3910     0.0525    92.5564     9.6657
  430.0000   -28.9272     4.2866     4.1074     3.6671     0.3343     0.1665     2.3749     0.0566    90.4845     9.6540
  430.5000   -28.3461     3.7949     3.5877     3.2176     0.3461     0.1750     2.3302     0.0483    88.0769     9.6422
  431.0000   -27.6585     3.3596     3.1337     2.8232     0.3512     0.1829     2.2618     0.0396    91.0414     9.6201
  431.5000   -27.3583     2.9743     2.7354     2.4688     0.3284     0.2130     2.2452     0.0423    89.9751     9.5943
  432.0000   -27.2885     2.5609     2.4421     2.4688     0.3058     0.2430     2.2497     0.0450    93.5092     9.5683
  432.5000   -27.3232     2.8844     2.2528     2.5673     0.2894     0.2622     2.2594     0.0398    96.6948     9.5410
  433.0000   -27.3593     3.3234     2.2119     2.6831     0.2841     0.2582     2.2942     0.0375   100.0449     9.5779
  433.5000   -27.3941     3.6000     2.2473     2.8481     0.2832     0.2523     2.3592     0.0538   103.1438     9.6309
  434.0000   -27.4329     3.8997     2.3155     3.0233     0.2789     0.2260     2.3863     0.0489   104.0463     9.6761
  434.5000   -27.6618     4.2243     2.5609     3.3097     0.2694     0.1814     2.3699     0.0680   103.5408     9.6424
  435.0000   -28.2168     4.5759     2.9465     3.7101     0.2557     0.1828     2.4720     0.0771   104.9765     9.6715
