~VERSION INFORMATION
 VERS.                2.0:   CWLS LOG ASCII STANDARD - VERSION 2.0
 WRAP.                 NO:   ONE LINE PER DEPTH STEP
~WELL INFORMATION
#MNEM.UNIT      DATA TYPE    INFORMATION
#----------   ------------   ------------------------------
 STRT.F           20.0000:   START DEPTH
 STOP.F          436.5000:   STOP DEPTH
 STEP.F            0.5000:   STEP LENGTH
 NULL.          -999.2500:   NO VALUE
 COMP. FENIX & SCISSON INC:   COMPANY
 WELL. NPR 3 SX-10 #55-10:   WELL
 FLD .        YEAPOT DOME:   FIELD
 LOC .      S10 T38N R78W:   LOCATION
 CNTY.            NATRONA:   COUNTY
 STAT.            WYOMING:   STATE
 CTRY. UNITED STATES OF AMERICA:   COUNTRY
 SRVC.           BIRDWELL:   SERVICE COMPANY
 DATE.        06-JUN-1978:   LOGDATE
 API .       490251062900:   API NUMBER
~CURVE INFORMATION
#MNEM.UNIT       API CODE    CURVE DESCRIPTION
#----------   ------------   ------------------------------
 DEPT.F                  :   
 GRD .GAPI   45 310 01 00:   GAMMA RAY FROM DENSITY LOG
 CALD.IN     45 280 60 00:   CALIPER FROM DENSITY LOG
 RHOB.G/C3   45 350 01 00:   BULK DENSITY
 DPHI.DEC    45 890 12 00:   DENSITY POROSITY SANDSTONE
 CORR.G/C3   45 356 01 00:   DENSITY CORRECTION
 SPR .MV     05 010 01 00:   SPONTANEOUS POTENTIAL FROM RES.
 SN  .OHMM   05 040 16 00:   SHORT NORMAL 16"
 ILD .OHMM   05 120 46 00:   INDUCTION LOG DEEP
~PARAMETER INFORMATION
#MNEM.UNIT          VALUE    DESCRIPTION
#----------   ------------   ------------------------------
 PD  .                 GL:   PERMANENT DATUM
 EPD .F              5202:   ELEVATION PERMANENT DATUM
 LMF .                 KB:   LOG MEASURED FROM
 DAPD.F                 4:   FEET ABOVE PERMANENT DATUM
 DMF .                 KB:   DRILLING MEASURED FROM
 EKB .F              5206:   KELLING BUSHING
 EGL .F              5202:   GROUND LEVEL
 DATE.             6-6-78:   RUN DATE
 RUN .                  1:   RUN NUMBER
 DD  .F               425:   DEPTH DRILLER
 DL  .F               436:   DEPTH LOGGER
 BLI .F               432:   BOTTOM LOG INTERVAL
 TLI .F                40:   TOP LOG INTERVAL
 CS  .IN            8.625:   CASING SIZE
 CBD .F                40:   CASING BOTTOM DRILLER
 CBL .F                40:   CASING BOTTOM LOGGER
 BS  .IN            7.875:   BIT SIZE
 BSD .F               425:   BIT SIZE AT DEPTH
 DFT .            KCL/OIL:   DRILLING FLUID TYPE
 DFD .                8.6:   DRILLING FLUID DENSITY
 DFV .                 34:   DRILLING FLUID VISCOSITY
 DFPH.                 10:   DRILLING FLUID PH
 DFL .                7.6:   DRILLING FLUID LOSS
 MSS .                PIT:   MUD SAMPLE SOURCE
 TCS .HRS               4:   TIME CURCULATED STOPPED
 LUN .               2958:   LOGGING UNIT NUMBER
 LUL .               CASP:   LOGGING UNIT LOCATION
 ENGI.            POINTER:   RECORDING ENGINEER
 WITN.           MCGINLEY:   WITNESSED BY
 CLNT.            A2DTECH:   CLIENT CODE
 ORIG. 1", 2", 2.5", 5" PRINT:   ORIGIN OF DATA
 UWI .       490251062900:   UNIQUE WELL ID
 DICO. A2D Technologies, Inc.:   DIGITIZING COMPANY
~OTHER INFORMATION
~A   DEPT       GRD      CALD       RHOB       DPHI       CORR        SPR         SN        ILD   
# ...
  344.0000    61.8416     7.8771     2.3244     0.2117     0.0793   -21.1824    16.0228    13.7197
  344.5000    59.5390     7.8266     2.3192     0.2118     0.0834   -21.4715    15.6844    13.5486
  345.0000    60.5249     8.0459     2.3121     0.2160     0.0874   -21.7577    15.5121    13.3958
  345.5000    61.8747     8.5634     2.3053     0.2222     0.0917   -21.9304    15.4874    12.7566
  346.0000    63.4314     8.7259     2.2981     0.2282     0.0956   -21.8827    15.4628    12.1097
  346.5000    64.9197     8.6274     2.2917     0.2342     0.0990   -21.8386    15.4382    11.9491
  347.0000    65.7198     8.5256     2.2829     0.2402     0.0907   -21.7936    15.4137    11.8922
  347.5000    64.7451     8.4211     2.2569     0.2460     0.0829   -21.7489    15.3892    11.8356
  348.0000    63.7860     8.3155     2.2120     0.2797     0.0848   -21.7042    15.3380    11.7793
  348.5000    62.7673     8.2085     2.1508     0.3114     0.1406   -21.6595    15.2772    11.7232
  349.0000    62.2621     8.1099     2.1553     0.3122     0.1925   -21.6148    15.0396    11.6689
  349.5000    63.2391     7.9391     2.2808     0.1860     0.1540   -21.5702    14.4240    11.9238
  350.0000    64.1877     7.6692     2.4066     0.1928     0.1067   -21.5255    14.6392    12.1773
  350.5000    65.1740     7.5315     2.3312     0.2041     0.0583   -21.4808    14.9768    12.4362
  351.0000    66.1548     7.8512     2.3369     0.2089     0.0472   -21.4361    15.3179    12.7006
  351.5000    66.6370     8.1578     2.3287     0.2089     0.0410   -21.3914    15.5550    12.9131
  352.0000    66.9728     8.4369     2.3191     0.2168     0.0382   -21.3467    15.6297    12.7888
  352.5000    67.2903     7.8743     2.3241     0.2114     0.0342   -21.3020    15.8169    12.6871
  353.0000    67.4901     7.9579     2.3419     0.2040     0.0322   -21.2571    16.1298    12.5863
  353.5000    66.7085     8.0933     2.3558     0.1985     0.0323   -21.2122    16.4490    12.5466
  354.0000    66.1184     7.8522     2.3612     0.1938     0.0320   -21.1697    16.7745    12.5273
  354.5000    67.2218     7.8473     2.3669     0.1884     0.0318   -21.2418    17.0228    12.5079
  355.0000    68.3021     7.8443     2.3696     0.1887     0.0316   -21.4796    17.0228    12.4886
  355.5000    69.4743     7.8459     2.3681     0.1892     0.0314   -21.7155    17.0228    12.4698
  356.0000    70.5634     7.8433     2.3729     0.1866     0.0312   -21.9521    17.0228    12.4501
  356.5000    71.6865     7.8660     2.3791     0.1835     0.0310   -22.1885    17.0228    12.2668
  357.0000    71.8160     7.9085     2.3852     0.1805     0.0308   -22.4248    17.0229    11.9720
  357.5000    71.6206     7.9464     2.3918     0.1774     0.0306   -22.6614    17.0231    11.6843
  358.0000    71.4261     7.9860     2.3970     0.1743     0.0304   -22.8995    17.0228    11.4035
  358.5000    71.2588     8.0254     2.3997     0.1712     0.0302   -23.1369    16.8489    11.1294
  359.0000    71.0677     8.0613     2.4032     0.1679     0.0300   -23.1482    16.6200    10.8619
  359.5000    70.8623     8.1326     2.4042     0.1671     0.0298   -23.1466    16.3941    10.6009
  360.0000    71.1004     8.1935     2.4052     0.1671     0.0295   -23.1463    16.1713    10.3461
  360.5000    72.3318     8.1580     2.4042     0.1681     0.0293   -23.1463    15.9515    10.0974
  361.0000    73.5595     8.1262     2.4030     0.1694     0.0291   -23.1463    15.7347     9.8548
  361.5000    74.6630     8.0923     2.4017     0.1706     0.0289   -23.1463    15.5209     9.6179
  362.0000    75.4264     8.0585     2.4004     0.1718     0.0287   -23.1463    15.3099     9.3868
  362.5000    73.9257     8.0252     2.3992     0.1721     0.0285   -23.1463    15.0598     9.2534
  363.0000    72.0112     7.9915     2.3979     0.1709     0.0283   -23.1462    14.7938     9.1996
  363.5000    70.0358     7.9580     2.3967     0.1702     0.0281   -23.1455    14.5325     9.1462
  364.0000    69.3511     7.9244     2.3954     0.1709     0.0279   -23.1488    14.2759     9.0931
  364.5000    68.6700     7.8907     2.3941     0.1722     0.0277   -23.2757    14.0237     9.0403
  365.0000    68.0389     7.8573     2.3929     0.1735     0.0275   -23.4111    13.7760     8.9878
  365.5000    67.3757     7.8237     2.3917     0.1748     0.0273   -23.5461    13.5327     8.9356
  366.0000    66.8074     7.7896     2.3927     0.1761     0.0271   -23.6809    13.2936     8.8837
  366.5000    66.7969     7.7652     2.3942     0.1748     0.0269   -23.8157    13.0897     8.8321
  367.0000    66.7719     7.7630     2.3957     0.1723     0.0267   -23.9506    12.9339     8.7808
  367.5000    66.7777     7.7600     2.4007     0.1698     0.0265   -24.0854    12.8524     8.7298
  368.0000    66.3158     7.7577     2.4054     0.1673     0.0262   -24.2204    12.7826     8.6791
  368.5000    65.7678     7.7552     2.4102     0.1649     0.0260   -24.3549    12.7133     8.6286
  369.0000    65.2208     7.7526     2.4155     0.1623     0.0258   -24.4905    12.6443     8.5787
  369.5000    65.0965     7.7502     2.4153     0.1623     0.0256   -24.5122    12.5756     8.5314
  370.0000    64.9759     7.7477     2.4141     0.1623     0.0254   -24.4500    12.5074     8.4863
  370.5000    64.8686     7.7452     2.4177     0.1580     0.0252   -24.3862    12.4395     8.4435
  371.0000    64.7935     7.7427     2.4212     0.1568     0.0250   -24.3224    12.3719     8.4011
  371.5000    64.8048     7.7402     2.4275     0.1548     0.0248   -24.2587    12.3148     8.3588
  372.0000    65.1922     7.7376     2.4346     0.1510     0.0237   -24.1950    12.2724     8.3168
  372.5000    66.0095     7.7353     2.4418     0.1471     0.0207   -24.1313    12.2303     8.2750
  373.0000    67.1837     7.7325     2.4456     0.1435     0.0178   -24.0666    12.1882     8.2334
  373.5000    68.8487     7.7299     2.4418     0.1452     0.0148   -24.0020    12.1463     8.1920
  374.0000    70.9442     7.7292     2.4379     0.1481     0.0119   -23.9967    12.1046     8.1508
  374.5000    71.9210     7.7039     2.4341     0.1510     0.0090   -24.4257    12.0630     8.1098
  375.0000    71.5127     7.6469     2.4313     0.1510     0.0096   -24.8563    12.0215     8.0690
  375.5000    71.2568     7.5894     2.4355     0.1490     0.0109   -25.2850    11.9802     8.0284
  376.0000    70.9781     7.5685     2.4388     0.1471     0.0122   -25.4660    11.9390     7.9880
  376.5000    70.6780     7.5764     2.4426     0.1450     0.0134   -25.6012    11.8979     7.9479
  377.0000    70.4073     7.5816     2.4431     0.1464     0.0147   -25.7360    11.8570     7.9079
  377.5000    70.1115     7.5866     2.4441     0.1481     0.0160   -25.8741    11.8163     7.8682
  378.0000    69.8272     7.5924     2.4451     0.1454     0.0172   -26.1270    11.7757     7.8286
  378.5000    69.5677     7.5976     2.4497     0.1394     0.0185   -26.5583    11.7352     7.7893
  379.0000    69.1994     7.6027     2.4540     0.1374     0.0198   -26.9867    11.6948     7.7386
  379.5000    69.7396     7.6145     2.4586     0.1351     0.0210   -27.3657    11.6546     7.6853
  380.0000    70.8106     7.6426     2.4630     0.1328     0.0223   -27.3559    11.6146     7.6324
  380.5000    71.6354     7.6699     2.4674     0.1305     0.0236   -27.3548    11.5747     7.5798
  381.0000    72.0162     7.7098     2.4718     0.1282     0.0248   -27.3547    11.5349     7.5276
  381.5000    72.4116     7.7654     2.4763     0.1259     0.0261   -27.3547    11.4952     7.4757
  382.0000    72.8351     7.8213     2.4806     0.1236     0.0274   -27.3547    11.4557     7.4242
  382.5000    73.1295     7.8617     2.4851     0.1214     0.0286   -27.3547    11.4163     7.3731
  383.0000    74.1997     7.8886     2.4855     0.1189     0.0299   -27.3547    11.3771     7.3223
  383.5000    75.8345     7.9169     2.4845     0.1205     0.0311   -27.3547    11.3380     7.2718
  384.0000    76.6364     7.9243     2.4835     0.1222     0.0324   -27.3547    11.2990     7.2217
