~VERSION INFORMATION
 VERS.                2.0:   CWLS LOG ASCII STANDARD - VERSION 2.0
 WRAP.                 NO:   ONE LINE PER DEPTH STEP
~WELL INFORMATION
#MNEM.UNIT      DATA TYPE    INFORMATION
#----------   ------------   ------------------------------
 STRT.F           34.0000:   START DEPTH
 STOP.F          517.0000:   STOP DEPTH
 STEP.F            0.5000:   STEP LENGTH
 NULL.          -999.2500:   NO VALUE
 COMP.    FENIX & SCISSON:   COMPANY
 WELL.       NPR #77-S-10:   WELL
 FLD .             TEAPOT:   FIELD
 LOC .      S10 T38N R78W:   LOCATION
 CNTY.            NATRONA:   COUNTY
 STAT.            WYOMING:   STATE
 CTRY. UNITED STATES OF AMERICA:   COUNTRY
 SRVC.              Welex:   SERVICE COMPANY
 DATE.        16-APR-1977:   LOGDATE
 API .       490251033600:   API NUMBER
~CURVE INFORMATION
#MNEM.UNIT       API CODE    CURVE DESCRIPTION
#----------   ------------   ------------------------------
 DEPT.F                  :   
 SPR .MV     07 010 01 00:   SPONTANEOUS POTENTIAL
 ILD .OHMM   07 120 46 00:   INDUCTION LOG DEEP
 ILM .OHMM   07 120 44 00:   INDUCTION LOG MEDIUM
 SGRD.OHMM   07 221 05 00:   SHALLOW SHORT GUARD RESISTIVITY
 CALD.IN     45 280 60 00:   CALIPER FROM DENSITY LOG
 GRD .GAPI   45 310 01 00:   GAMMA RAY FROM DENSITY LOG
 CORR.G/C3   45 356 01 00:   DENSITY CORRECTION
 RHOB.G/C3   45 350 01 00:   BULK DENSITY
 DPHI.DEC    45 890 12 00:   DENSITY POROSITY SANDSTONE
~PARAMETER INFORMATION
#MNEM.UNIT          VALUE    DESCRIPTION
#----------   ------------   ------------------------------
 PD  .                 GL:   PERMANENT DATUM
 EPD .F              5210:   ELEVATION PERMANENT DATUM
 LMF .                 GL:   LOG MEASURED FROM
 DMF .                 GL:   DRILLING MEASURED FROM
 EGL .F              5210:   GROUND LEVEL
 DATE.        16-APR-1977:   RUN DATE
 RUN .                  1:   RUN NUMBER
 DD  .F               525:   DEPTH DRILLER
 DL  .F               519:   DEPTH LOGGER
 BLI .F               517:   BOTTOM LOG INTERVAL
 TLI .F                30:   TOP LOG INTERVAL
 CS  .IN            8.625:   CASING SIZE
 BS  .IN            7.875:   BIT SIZE
 BSD .F               525:   BIT SIZE AT DEPTH
 DFT .            KCL MUD:   DRILLING FLUID TYPE
 DFD .                8.9:   DRILLING FLUID DENSITY
 BHT .F                61:   BOTTOM HOLE TEMPERATURE
 TCS .HRS            0300:   TIME CURCULATED STOPPED
 MRT .F                61:   MAXIMUM RECORDED TEMPERATURE
 ENGI.               DOAK:   RECORDING ENGINEER
 WITN.      B. HARRINGTON:   WITNESSED BY
 CLNT.            A2DTECH:   CLIENT CODE
 ORIG.           5" PRINT:   ORIGIN OF DATA
 UWI .       490251033600:   UNIQUE WELL ID
 DICO. A2D Technologies, Inc.:   DIGITIZING COMPANY
~OTHER INFORMATION
~A   DEPT      SPR        ILD        ILM       SGRD       CALD        GRD       CORR       RHOB       DPHI   
# ...
  180.0000   -45.1488     8.2081    11.7854    14.4511     7.7763   106.8318     0.0165     2.4338     0.1278
  180.5000   -45.1324     8.2132    12.1230    13.0385     7.7919   108.7850     0.0150     2.4240     0.1329
  181.0000   -45.1129     8.1617    12.0387    12.3459     7.7926   109.8416     0.0120     2.4157     0.1371
  181.5000   -45.0968     8.1668    11.6335    12.8757     7.7933   109.7019     0.0090     2.4105     0.1401
  182.0000   -45.0806     8.1156    11.4926    12.7071     7.7940   109.7144     0.0060     2.4044     0.1413
  182.5000   -45.2173     8.1206    11.4205    11.7047     7.7948   109.4255     0.0060     2.4022     0.1392
  183.0000   -45.1970     8.0143    11.6685    11.7930     7.7956   109.1341     0.0060     2.4112     0.1344
  183.5000   -45.1809     8.0192    12.5102    13.0868     7.7964   108.5487     0.0060     2.4187     0.1323
  184.0000   -45.1647     8.0241    12.9576    13.6484     7.7820   107.0105     0.0075     2.4239     0.1352
  184.5000   -45.3013     8.0291    12.4394    13.4696     7.7829   104.5354     0.0090     2.4111     0.1407
  185.0000   -45.4299     8.0340    11.4574    12.8425     7.7836   101.4064     0.0075     2.4006     0.1467
  185.5000   -45.5666     8.0389    10.9992    13.1192     7.7845    99.1743     0.0060     2.3983     0.1497
  186.0000   -45.6952     8.0996    10.7803    13.4946     7.7852    99.7822     0.0060     2.3998     0.1477
  186.5000   -45.6790     8.1046    10.7127    13.1354     7.7859   101.2870     0.0075     2.4073     0.1421
  187.0000   -45.8116     8.1096    10.6439    12.7858     7.8015   103.9820     0.0092     2.4156     0.1348
  187.5000   -45.7955     8.1145    10.6521    12.7947     7.8022   111.1751     0.0165     2.4247     0.1303
  188.0000   -45.7793     8.0083    10.7324    12.8912     7.8181   114.1746     0.0195     2.4335     0.1276
  188.5000   -45.9119     7.9497    10.8134    12.4644     7.8188   115.0815     0.0240     2.4403     0.1253
  189.0000   -45.8957     7.7999    10.8201    11.7593     7.8195   115.0916     0.0270     2.4448     0.1235
  189.5000   -46.0284     7.6989    10.6782    11.5653     7.8202   114.4998     0.0270     2.4478     0.1211
  190.0000   -46.0119     7.5969    10.0411    11.7738     7.8060   113.3204     0.0285     2.4492     0.1220
  190.5000   -45.9955     7.4470     9.9094    12.1108     7.8067   111.2377     0.0285     2.4455     0.1226
  191.0000   -45.9792     7.3484     9.9844    12.2022     7.7927   109.1551     0.0285     2.4440     0.1213
  191.5000   -45.9596     7.1538     9.9906    12.1685     7.7934   106.3251     0.0285     2.4477     0.1199
  192.0000   -46.0963     6.9634     9.9980    11.9266     7.7941   104.6908     0.0285     2.4522     0.1187
  192.5000   -46.0760     6.7780     9.7991    11.2155     7.7799   104.7110     0.0240     2.4537     0.1208
  193.0000   -46.3615     6.6423     9.4724    10.9925     7.7955   104.8629     0.0225     2.4459     0.1229
  193.5000   -46.6430     6.4664     9.2200    10.8486     7.7964   103.0792     0.0210     2.4401     0.1241
  194.0000   -46.7756     6.3817     8.9744    11.3140     7.7971   100.8471     0.0210     2.4386     0.1255
  194.5000   -46.9082     6.3408     8.5562    10.3499     7.7978   101.4550     0.0225     2.4371     0.1262
  195.0000   -46.8880     6.3011     7.9903     9.9363     7.8135   104.4546     0.0240     2.4386     0.1251
  195.5000   -46.7230     6.2616     7.6708     9.8741     7.8142   106.4240     0.0255     2.4431     0.1236
  196.0000   -46.7068     6.1796     7.5170     9.8802     7.8151   107.1677     0.0270     2.4468     0.1230
  196.5000   -46.5418     6.1409     7.5227    10.0237     7.8158   106.1314     0.0285     2.4476     0.1224
  197.0000   -46.3768     6.1882     7.7381    10.3819     7.8165   105.0926     0.0300     2.4498     0.1209
  197.5000   -45.9142     6.2348     7.9049    11.5209     7.8172   105.5536     0.0300     2.4535     0.1182
  198.0000   -45.7492     6.3254     8.1313    11.3701     7.8179   105.5715     0.0315     2.4580     0.1152
  198.5000   -45.7331     6.5063     8.4220    11.0674     7.8187   103.0728     0.0315     2.4626     0.1108
  199.0000   -45.5681     6.6925     8.6036    10.7728     7.8195   102.1457     0.0330     2.4670     0.1078
  199.5000   -45.4031     6.8367     8.7286    10.6317     7.8352   104.1014     0.0345     2.4677     0.1081
  200.0000   -45.8306     7.0816     8.8554    11.6365     7.8397   107.8484     0.0381     2.4677     0.1045
  200.5000   -45.8144     7.0855     8.8005    11.4032     7.8507   108.3890     0.0420     2.4767     0.1006
  201.0000   -45.7981     7.0894     8.8066    11.1750     7.8806   109.0496     0.0389     2.4737     0.1033
  201.5000   -45.7818     7.0933     8.8737    11.8966     7.8657   109.9494     0.0359     2.4684     0.1054
  202.0000   -45.7656     7.0475     8.8799    11.6602     7.8507   110.4205     0.0329     2.4684     0.1069
  202.5000   -45.7493     7.0523     8.8859    11.1149     7.8358   109.8057     0.0298     2.4676     0.1087
  203.0000   -45.7331     7.0562     8.6463    11.1201     7.8209   109.3601     0.0281     2.4639     0.1117
  203.5000   -45.7168     6.9634     8.4200    11.0872     7.8209   109.3638     0.0252     2.4594     0.1150
  204.0000   -45.7005     6.8708     8.4259    10.9783     7.8358   109.5161     0.0237     2.4546     0.1180
  204.5000   -45.8372     6.7337     8.4902    10.8706     7.8507   109.6685     0.0221     2.4488     0.1207
  205.0000   -45.8168     6.5550     8.6142    10.4348     7.8657   109.9703     0.0206     2.4425     0.1226
  205.5000   -45.8006     6.4242     8.4955    10.2260     7.8507   110.4217     0.0220     2.4387     0.1247
  206.0000   -45.7843     6.2098     8.3842    10.5187     7.8358   111.1719     0.0220     2.4357     0.1265
  206.5000   -45.9209     5.9613     8.1680    10.5222     7.8060   111.3244     0.0219     2.4304     0.1292
  207.0000   -46.0535     5.7227     8.0061    10.1358     7.8060   109.9826     0.0204     2.4229     0.1337
  207.5000   -46.1860     5.5317     7.7933     9.9330     7.8060   107.5939     0.0203     2.4087     0.1400
  208.0000   -46.6121     5.2375     7.5698     9.7342     7.8060   104.3076     0.0173     2.3902     0.1534
  208.5000   -46.7487     5.0279     7.1095     9.4086     7.8060   105.0586     0.0142     2.3779     0.1621
  209.0000   -46.8780     4.9611     6.5103     9.0315     7.8060   105.9583     0.0112     2.3704     0.1651
  209.5000   -46.7122     4.8621     6.0637     6.4885     7.8060   106.4295     0.0097     2.3696     0.1663
  210.0000   -46.6959     4.8992     5.6152     5.8940     7.7910   104.3199     0.0081     2.3733     0.1657
  210.5000   -46.5308     4.9700     5.8567     7.5073     7.7761   101.8515     0.0111     2.3853     0.1569
  211.0000   -46.3657     5.0767     6.4556    10.7522     7.7761   100.2905     0.0172     2.4049     0.1430
  211.5000   -46.0519     5.2578     7.0180    10.6834     7.7761   100.8913     0.0230     2.4287     0.1295
  212.0000   -45.8868     5.4830     7.5249    10.1146     7.7761   103.5848     0.0244     2.4466     0.1208
  212.5000   -45.5729     5.7575     7.9577    10.0499     7.7761   104.9330     0.0259     2.4504     0.1216
  213.0000   -45.4077     6.0041     8.3000    10.4076     7.7910   105.3843     0.0274     2.4436     0.1231
  213.5000   -45.2426     6.3046     8.6570    10.7040     7.7910   105.8356     0.0288     2.4428     0.1214
  214.0000   -45.2262     6.6202     9.0294    11.5535     7.7910   106.9048     0.0288     2.4473     0.1201
  214.5000   -45.0610     6.8092     9.2886    11.0141     7.7761   106.4400     0.0302     2.4480     0.1192
  215.0000   -45.0446     7.0036     9.5553    10.3560     7.7612   105.6956     0.0317     2.4488     0.1180
  215.5000   -44.8795     7.1048     9.5618    10.1487     7.7612   105.9974     0.0316     2.4502     0.1165
  216.0000   -44.8631     7.1579     9.5010    10.9541     7.7612   107.3456     0.0331     2.4517     0.1147
