~VERSION INFORMATION
 VERS.                2.0:   CWLS LOG ASCII STANDARD - VERSION 2.0
 WRAP.                 NO:   ONE LINE PER DEPTH STEP
~WELL INFORMATION
#MNEM.UNIT      DATA TYPE    INFORMATION
#----------   ------------   ------------------------------
 STRT.F          100.0000:   START DEPTH
 STOP.F         1196.0000:   STOP DEPTH
 STEP.F            0.5000:   STEP LENGTH
 NULL.          -999.2500:   NO VALUE
 COMP. DEPARTMENT OF ENERGY:   COMPANY
 WELL.     NRP ##3 77S-11:   WELL
 FLD .             TEAPOT:   FIELD
 LOC .      S11 T38N R78W:   LOCATION
 CNTY.            NATRONA:   COUNTY
 STAT.            WYOMING:   STATE
 CTRY. UNITED STATES OF AMERICA:   COUNTRY
 SRVC.       Schlumberger:   SERVICE COMPANY
 DATE.        18-AUG-1959:   LOGDATE
 API .       490250632900:   API NUMBER
~CURVE INFORMATION
#MNEM.UNIT       API CODE    CURVE DESCRIPTION
#----------   ------------   ------------------------------
 DEPT.F                  :   
 SPR .MV     05 010 01 00:   SPONTANEOUS POTENTIAL FROM RES.
 ASN .OHMM   05 041 16 00:   AMPLIFIED SHORT NORMAL 16"
 ILD .OHMM   05 120 46 00:   INDUCTION LOG DEEP
 CILD.MMHO   05 110 46 00:   CONDUCTIVITY INDUCTION LOG DEEP
~PARAMETER INFORMATION
#MNEM.UNIT          VALUE    DESCRIPTION
#----------   ------------   ------------------------------
 PD  .                 GL:   PERMANENT DATUM
 EPD .F              5258:   ELEVATION PERMANENT DATUM
 LMF .                 KB:   LOG MEASURED FROM
 DAPD.F                 4:   FEET ABOVE PERMANENT DATUM
 DMF .                 KB:   DRILLING MEASURED FROM
 EKB .F              5262:   KELLING BUSHING
 EGL .F              5258:   GROUND LEVEL
 DATE.            8-18-59:   RUN DATE
 RUN .                  1:   RUN NUMBER
 DD  .F              1200:   DEPTH DRILLER
 DL  .F              1201:   DEPTH LOGGER
 BLI .F              1196:   BOTTOM LOG INTERVAL
 TLI .F               100:   TOP LOG INTERVAL
 CBD .F                17:   CASING BOTTOM DRILLER
 BS  .IN             6.75:   BIT SIZE
 BSD .F              1200:   BIT SIZE AT DEPTH
 DFT . GEL-OIL-PHDS-CAUSTIC:   DRILLING FLUID TYPE
 DFD .               10.8:   DRILLING FLUID DENSITY
 DFV .                 60:   DRILLING FLUID VISCOSITY
 DFPH.                  9:   DRILLING FLUID PH
 DFL .                  4:   DRILLING FLUID LOSS
 RMS .OHMM            1.8:   RESISTIVITY MUD SAMPLE
 MST .F                90:   MUD SAMPLE TEMPERATURE
 RMF .OHMM            1.5:   RESISTIVITY MUD FILTRATE SAMPLE
 MFST.F                90:   MUD FILTRATE SAMPLE TEMPERATURE
 RMC .OHMM              2:   RESISTIVITY MUD CAKE
 MCST.F                90:   MUD CAKE SAMPLE TEMPERATURE
 TCS .HRS               1:   TIME CURCULATED STOPPED
 LUN .               2523:   LOGGING UNIT NUMBER
 LUL .               CSPR:   LOGGING UNIT LOCATION
 ENGI.             KNOBEL:   RECORDING ENGINEER
 WITN.             MARTIN:   WITNESSED BY
 CLNT.            A2DTECH:   CLIENT CODE
 ORIG.     1", 2.5" PRINT:   ORIGIN OF DATA
 UWI .       490250632900:   UNIQUE WELL ID
 DICO. A2D Technologies, Inc.:   DIGITIZING COMPANY
~OTHER INFORMATION
~A   DEPT      SPR          ASN        ILD      CILD  
# ...
  173.0000   -32.9575     8.6798     7.8632   122.3227
  173.5000   -33.0074     8.5321     7.6955   124.8759
  174.0000   -33.0814     8.4608     7.5794   127.4291
  174.5000   -33.1439     8.3550     7.4801   129.9823
  175.0000   -33.1179     8.2310     7.3466   132.5355
  175.5000   -32.9728     8.2026     7.1792   133.8652
  176.0000   -32.7590     8.2962     7.0458   132.0669
  176.5000   -32.5433     8.4240     7.0207   130.8511
  177.0000   -32.3516     8.5216     7.1082   129.6353
  177.5000   -32.1791     8.6107     7.2407   128.4194
  178.0000   -31.9997     8.7100     7.3534   127.2037
  178.5000   -31.7796     8.7736     7.4349   125.9878
  179.0000   -31.5475     8.7471     7.5085   125.0000
  179.5000   -31.4359     8.6443     7.5970   127.0213
  180.0000   -31.5569     8.5256     7.7049   128.7234
  180.5000   -31.8375     8.4311     7.8008   130.4255
  181.0000   -32.0982     8.3502     7.8194   132.0922
  181.5000   -32.3021     8.2518     7.7176   134.5248
  182.0000   -32.5714     8.1336     7.5264   136.9078
  182.5000   -32.9089     8.0169     7.3262   139.2908
  183.0000   -33.0857     7.8682     7.1723   141.6738
  183.5000   -32.9258     7.5944     7.0609   144.5036
  184.0000   -32.5531     7.2066     6.9602   145.5408
  184.5000   -32.2012     6.9238     6.8519   146.8174
  185.0000   -31.9059     6.9338     6.7438   148.0940
  185.5000   -31.5677     7.0662     6.6443   149.8227
  186.0000   -31.2234     6.9310     6.5398   149.8227
  186.5000   -31.0442     6.4415     6.4133   149.8227
  187.0000   -31.0851     5.9681     6.2920   149.8227
  187.5000   -31.2148     5.8608     6.2447   149.8227
  188.0000   -31.3070     6.0369     6.3052   149.8227
  188.5000   -31.3646     6.2096     6.4139   147.7246
  189.0000   -31.4380     6.3166     6.4705   146.3062
  189.5000   -31.5293     6.4655     6.4475   144.8877
  190.0000   -31.6132     6.5948     6.4245   143.4693
  190.5000   -31.6873     6.5064     6.4838   142.0508
  191.0000   -31.7649     6.2227     6.5960   140.9574
  191.5000   -31.8476     6.0269     6.6499   142.6312
  192.0000   -31.9289     6.0821     6.5909   143.9929
  192.5000   -32.0084     6.2323     6.4866   145.3546
  193.0000   -32.0881     6.2625     6.4324   146.7163
  193.5000   -32.1685     6.1694     6.4412   148.0497
  194.0000   -32.2487     6.0759     6.4578   146.3121
  194.5000   -32.3291     6.0338     6.4514   144.6099
  195.0000   -32.4098     6.0238     6.4431   142.9078
  195.5000   -32.4889     6.0539     6.4505   140.9574
  196.0000   -32.5676     6.1405     6.4548   141.9960
  196.5000   -32.6492     6.2497     6.4435   143.2117
  197.0000   -32.7318     6.3252     6.4408   144.4276
  197.5000   -32.8091     6.3440     6.4621   145.6434
  198.0000   -32.8838     6.3114     6.4645   146.8592
  198.5000   -32.9691     6.2441     6.4017   148.0750
  199.0000   -33.0647     6.1711     6.3091   149.8227
  199.5000   -33.1458     6.1085     6.2670   153.3688
  200.0000   -33.1902     6.0283     6.2770   153.6716
  200.5000   -33.2070     5.9124     6.2461   154.2529
  201.0000   -33.2228     5.8319     6.1245   154.8342
  201.5000   -33.2484     5.8884     5.9817   155.4155
  202.0000   -33.2756     6.0652     5.9122   155.9968
  202.5000   -33.2986     6.2235     5.9166   156.5781
  203.0000   -33.3201     6.2694     5.9271   157.1594
  203.5000   -33.3427     6.2415     5.9152   157.7407
  204.0000   -33.3667     6.2099     5.9116   158.3220
  204.5000   -33.3925     6.1786     5.9297   158.6879
  205.0000   -33.4167     6.1275     5.9284   162.4493
  205.5000   -33.4355     6.0714     5.8728   165.1938
  206.0000   -33.4567     6.0263     5.7919   167.9382
  206.5000   -33.4891     5.9698     5.7353   170.6826
  207.0000   -33.5174     5.8772     5.6967   173.4270
  207.5000   -33.5050     5.7630     5.6282   176.1715
  208.0000   -33.4351     5.6584     5.5165   178.1915
  208.5000   -33.3337     5.5722     5.3914   179.9645
  209.0000   -33.2378     5.5004     5.2654   183.5106
  209.5000   -33.1566     5.4575     5.1383   185.6649
  210.0000   -33.0737     5.4738     5.0536   187.4113
  210.5000   -32.9797     5.5591     5.0743   188.8298
  211.0000   -32.8868     5.6830     5.1927   182.6064
  211.5000   -32.8062     5.8008     5.3345   177.3670
  212.0000   -32.7253     5.8962     5.4548   172.8723
  212.5000   -32.6248     5.9911     5.5669   169.9911
  213.0000   -32.5234     6.1172     5.6817   167.4685
  213.5000   -32.4789     6.2888     5.7843   164.9458
  214.0000   -32.5267     6.4980     5.8733   162.4232
  214.5000   -32.6339     6.7098     5.9719   159.9005
  215.0000   -32.7403     6.8575     6.0934   157.3779
  215.5000   -32.8289     6.8749     6.2270   154.8552
  216.0000   -32.9226     6.7637     6.3480   152.2366
  216.5000   -33.0266     6.6167     6.4213   149.8337
  217.0000   -33.1186     6.5441     6.4211   151.2444
  217.5000   -33.2026     6.5758     6.3664   152.6499
  218.0000   -33.3115     6.6591     6.3098   154.2696
  218.5000   -33.4338     6.7408     6.2761   155.4397
  219.0000   -33.4876     6.8157     6.2400   157.3218
  219.5000   -33.4094     6.8935     6.1814   158.3915
  220.0000   -33.2339     6.9688     6.1294   154.1968
  220.5000   -33.0417     7.0422     6.1376   148.3210
  221.0000   -32.8644     7.1315     6.2291   143.0253
  221.5000   -32.6906     7.2246     6.3778   144.7025
  222.0000   -32.5209     7.2637     6.5221   147.8954
  222.5000   -32.3552     7.2091     6.5917   150.0338
  223.0000   -32.1649     7.0901     6.5535   153.5890
  223.5000   -31.9487     6.9575     6.4464   155.7547
  224.0000   -31.7873     6.8280     6.3403   159.2429
  224.5000   -31.7674     6.7064     6.2524   162.0656
  225.0000   -31.8694     6.6135     6.1447   165.5443
  225.5000   -31.9962     6.5612     6.0197   169.1720
  226.0000   -32.0939     6.5722     5.9581   167.2881
  226.5000   -32.1831     6.7477     6.0275   163.6499
  227.0000   -32.2856     7.1943     6.2012   161.0511
  227.5000   -32.3891     7.8302     6.4007   157.2876
  228.0000   -32.4877     8.3884     6.5784   153.7114
  228.5000   -32.5926     8.6904     6.7346   147.6095
  229.0000   -32.6969     8.8004     6.8967   139.9344
  229.5000   -32.7846     8.8504     7.0910   131.0578
  230.0000   -32.8779     8.8469     7.3025   119.8177
  230.5000   -33.0069     8.7426     7.4574   121.2991
  231.0000   -33.1210     8.5779     7.4884   126.7268
  231.5000   -33.1046     8.4337     7.4170   128.2491
  232.0000   -32.9160     8.3193     7.3259   132.0922
  232.5000   -32.6517     8.1943     7.2611   133.8652
  233.0000   -32.4303     8.0521     7.2049   135.6383
  233.5000   -32.2719     7.9178     7.1357   135.6383
  234.0000   -32.1275     7.8026     7.0619   139.1844
  234.5000   -31.9728     7.7016     6.9947   140.9574
  235.0000   -31.8174     7.6129     6.9293   144.5036
  235.5000   -31.6651     7.5350     6.8611   144.5036
  236.0000   -31.5149     7.4643     6.7936   146.2766
  236.5000   -31.3935     7.4029     6.7262   149.5981
  237.0000   -31.3461     7.3553     6.6552   151.9267
  237.5000   -31.3938     7.3074     6.5862   153.3688
  238.0000   -31.5113     7.2308     6.5249   155.7801
  238.5000   -31.6524     7.1199     6.4598   157.5266
  239.0000   -31.7930     7.0125     6.3784   159.2731
  239.5000   -31.9387     6.9654     6.3070   160.4610
  240.0000   -32.0863     7.0066     6.2998   157.1083
  240.5000   -32.2167     7.1155     6.3755   154.5680
  241.0000   -32.3412     7.2455     6.4902   152.0277
  241.5000   -32.5037     7.3658     6.5924   149.4874
  242.0000   -32.6836     7.4776     6.6790   146.9471
  242.5000   -32.7504     7.5933     6.7735   144.4068
  243.0000   -32.5948     7.7119     6.8746   141.8665
  243.5000   -32.2768     7.8260     6.9648   139.3262
  244.0000   -31.9529     7.9381     7.0536   136.7859
  244.5000   -31.6754     8.0528     7.1623   134.2457
  245.0000   -31.3702     8.1585     7.2664   132.0922
  245.5000   -31.0161     8.2239     7.3003   134.1046
