~VERSION INFORMATION
 VERS.                2.0:   CWLS LOG ASCII STANDARD - VERSION 2.0
 WRAP.                 NO:   ONE LINE PER DEPTH STEP
~WELL INFORMATION
#MNEM.UNIT      DATA TYPE    INFORMATION
#----------   ------------   ------------------------------
 STRT.F           30.0000:   START DEPTH
 STOP.F         1358.0000:   STOP DEPTH
 STEP.F            0.5000:   STEP LENGTH
 NULL.          -999.2500:   NO VALUE
 COMP. FENIX & SCISSON INC:   COMPANY
 WELL.      3 SX14 #85-14:   WELL
 FLD .             TEAPOT:   FIELD
 LOC .      S14 T38N R78W:   LOCATION
 CNTY.            NATRONA:   COUNTY
 STAT.            WYOMING:   STATE
 CTRY. UNITED STATES OF AMERICA:   COUNTRY
 SRVC.              Welex:   SERVICE COMPANY
 DATE.        10-FEB-1977:   LOGDATE
 API .       490251027500:   API NUMBER
~CURVE INFORMATION
#MNEM.UNIT       API CODE    CURVE DESCRIPTION
#----------   ------------   ------------------------------
 DEPT.F                  :   
 ILM .OHMM   07 120 44 00:   INDUCTION LOG MEDIUM
 ILD .OHMM   07 120 46 00:   INDUCTION LOG DEEP
 CALD.IN     45 280 60 00:   CALIPER
 GRD .GAPI   45 310 01 00:   GAMMA RAY FROM DENSITY LOG
 RHOB.G/C3   45 350 01 00:   BULK DENSITY
 DPHI.DEC    45 890 12 00:   DENSITY POROSITY SANDSTONE
 CORR.G/C3   45 356 01 00:   DENSITY CORRECTION
~PARAMETER INFORMATION
#MNEM.UNIT          VALUE    DESCRIPTION
#----------   ------------   ------------------------------
 PD  .                 GL:   PERMANENT DATUM
 EPD .F              5345:   ELEVATION PERMANENT DATUM
 LMF .                 GL:   LOG MEASURED FROM
 DMF .                 GL:   DRILLING MEASURED FROM
 EGL .F              5345:   GROUND LEVEL
 DATE.          2-10-1977:   RUN DATE
 RUN .                  1:   RUN NUMBER
 DD  .F              1362:   DEPTH DRILLER
 DL  .F              1361:   DEPTH LOGGER
 BLI .F              1359:   BOTTOM LOG INTERVAL
 TLI .F                43:   TOP LOG INTERVAL
 CS  .IN            8.625:   CASING SIZE
 CBD .F                43:   CASING BOTTOM DRILLER
 CBL .F                43:   CASING BOTTOM LOGGER
 BS  .IN            7.875:   BIT SIZE
 BSD .F              1362:   BIT SIZE AT DEPTH
 DFT .           AIR MIST:   DRILLING FLUID TYPE
 TCS .HRS               4:   TIME CURCULATED STOPPED
 MRT .F               104:   MAXIMUM RECORDED TEMPERATURE
 LUN .               8611:   LOGGING UNIT NUMBER
 LUL .           GILLETTE:   LOGGING UNIT LOCATION
 ENGI.               DOAK:   RECORDING ENGINEER
 WITN. PETTINGILL/STUEBINGER:   WITNESSED BY
 CLNT.            A2DTECH:   CLIENT CODE
 ORIG.       2", 5" PRINT:   ORIGIN OF DATA
 UWI .       490251027500:   UNIQUE WELL ID
 DICO. A2D Technologies, Inc.:   DIGITIZING COMPANY
~OTHER INFORMATION
~A   DEPT      ILM        ILD         CALD      GRD         RHOB     DPHI        CORR  
# ...
  530.5000     8.3790     7.5725     8.2598   117.0614     2.4491     0.1312     0.0250
  531.0000     8.3074     7.6107     8.2425   117.7239     2.4540     0.1304     0.0298
  531.5000     8.2365     7.5233     8.2423   118.3374     2.4521     0.1307     0.0347
  532.0000     8.1662     7.4408     8.2417   118.0504     2.4487     0.1320     0.0349
  532.5000     8.0965     7.3593     8.2433   117.3606     2.4394     0.1366     0.0328
  533.0000     8.0274     7.2786     8.2508   116.6767     2.4339     0.1398     0.0307
  533.5000     7.9589     7.1988     8.2582   115.9923     2.4330     0.1408     0.0285
  534.0000     7.8910     7.1199     8.2625   115.3007     2.4319     0.1417     0.0264
  534.5000     7.8237     7.0419     8.2615   115.0527     2.4311     0.1426     0.0241
  535.0000     7.7569     6.9647     8.2496   115.0560     2.4320     0.1425     0.0261
  535.5000     7.6907     6.8884     8.2212   115.2248     2.4350     0.1416     0.0287
  536.0000     7.6251     6.8129     8.1970   115.4010     2.4381     0.1406     0.0314
  536.5000     7.5600     6.7382     8.1922   115.4619     2.4412     0.1396     0.0341
  537.0000     7.4955     6.6644     8.1862   115.2713     2.4443     0.1373     0.0367
  537.5000     7.4316     6.5913     8.1809   114.2719     2.4474     0.1342     0.0394
  538.0000     7.3485     6.5191     8.1796   113.2843     2.4505     0.1311     0.0385
  538.5000     7.2516     6.4494     8.1776   112.2968     2.4511     0.1297     0.0353
  539.0000     7.1560     6.4118     8.2048   111.3233     2.4500     0.1309     0.0321
  539.5000     7.0708     6.3754     8.2158   110.4910     2.4488     0.1320     0.0288
  540.0000     7.0687     6.3391     8.2189   111.0614     2.4477     0.1332     0.0256
  540.5000     7.0523     6.3031     8.2417   111.9713     2.4466     0.1343     0.0224
  541.0000     7.0360     6.2673     8.2414   112.8875     2.4454     0.1352     0.0194
  541.5000     7.0196     6.2316     8.2417   113.8394     2.4444     0.1358     0.0185
  542.0000     7.0032     6.1962     8.2418   113.5076     2.4440     0.1365     0.0175
  542.5000     6.9869     6.1610     8.2417   112.8537     2.4436     0.1371     0.0165
  543.0000     6.9708     6.1259     8.2417   112.1872     2.4432     0.1369     0.0155
  543.5000     6.9545     6.0911     8.2417   111.5225     2.4428     0.1366     0.0179
  544.0000     6.9421     6.0565     8.2419   110.8594     2.4420     0.1364     0.0195
  544.5000     6.7844     6.0220     8.2492   110.1962     2.4392     0.1379     0.0231
  545.0000     6.6365     5.9752     8.2571   109.5338     2.4365     0.1401     0.0219
  545.5000     6.4918     5.8342     8.2650   108.8727     2.4337     0.1423     0.0207
  546.0000     6.3503     5.6966     8.2729   108.2089     2.4308     0.1442     0.0194
  546.5000     6.2164     5.5622     8.2813   107.3800     2.4281     0.1446     0.0182
  547.0000     6.2164     5.4309     8.2896   105.4745     2.4314     0.1438     0.0169
  547.5000     6.1594     5.3025     8.3134   103.5732     2.4352     0.1412     0.0157
  548.0000     6.0962     5.1786     8.3229   102.4360     2.4391     0.1384     0.0198
  548.5000     5.9783     5.1241     8.3114   104.0967     2.4421     0.1361     0.0244
  549.0000     5.8626     5.0772     8.2999   105.7498     2.4398     0.1376     0.0291
  549.5000     5.7492     5.1143     8.2882   107.3963     2.4374     0.1391     0.0337
  550.0000     5.6699     5.1449     8.2766   108.7434     2.4391     0.1400     0.0384
  550.5000     5.7172     5.1757     8.2650   107.4659     2.4447     0.1356     0.0424
  551.0000     5.7541     5.2068     8.2534   106.1174     2.4458     0.1350     0.0413
  551.5000     5.7913     5.2380     8.2418   105.1907     2.4432     0.1361     0.0400
  552.0000     5.8287     5.2694     8.2302   106.8544     2.4407     0.1371     0.0388
  552.5000     5.8664     5.3010     8.2186   108.4816     2.4384     0.1382     0.0376
  553.0000     5.9043     5.4150     8.2071   110.1980     2.4419     0.1376     0.0364
  553.5000     5.9425     5.4699     8.2005   110.3251     2.4455     0.1348     0.0352
  554.0000     5.9808     5.4983     8.1999   110.1044     2.4490     0.1320     0.0342
  554.5000     6.0195     5.5268     8.1973   109.8724     2.4532     0.1292     0.0358
  555.0000     6.0471     5.5555     8.1947   109.6444     2.4598     0.1264     0.0382
  555.5000     6.1080     5.5843     8.1922   109.4206     2.4665     0.1231     0.0406
  556.0000     6.1446     5.6132     8.1896   109.4551     2.4732     0.1189     0.0431
  556.5000     6.1814     5.6424     8.1871   109.9382     2.4748     0.1181     0.0421
  557.0000     6.2185     5.6716     8.1845   110.4179     2.4752     0.1173     0.0408
  557.5000     6.2558     5.7010     8.1819   111.0196     2.4756     0.1164     0.0404
  558.0000     6.2934     5.7306     8.1797   111.6861     2.4760     0.1186     0.0408
  558.5000     6.3311     5.7603     8.1797   111.2020     2.4764     0.1192     0.0424
  559.0000     6.3691     5.7902     8.1798   110.7111     2.4769     0.1182     0.0426
  559.5000     6.4073     5.8202     8.1849   110.2186     2.4773     0.1173     0.0425
  560.0000     6.4457     5.8504     8.1905   109.7497     2.4776     0.1176     0.0414
  560.5000     6.4844     5.8825     8.1961   110.7498     2.4711     0.1203     0.0409
  561.0000     6.5090     5.8047     8.2017   111.9349     2.4637     0.1241     0.0416
  561.5000     6.4606     5.7234     8.2073   113.0978     2.4563     0.1279     0.0406
  562.0000     6.3423     5.6431     8.2129   114.2623     2.4490     0.1316     0.0394
  562.5000     6.2261     5.5640     8.2185   115.1379     2.4430     0.1354     0.0382
  563.0000     6.1121     5.4860     8.2241   112.4955     2.4421     0.1370     0.0370
  563.5000     6.0002     5.4091     8.2297   110.4493     2.4409     0.1374     0.0359
  564.0000     5.8903     5.3333     8.2353   108.5238     2.4398     0.1378     0.0347
  564.5000     5.7824     5.2585     8.2409   107.7024     2.4387     0.1382     0.0342
  565.0000     5.6763     5.1848     8.2465   106.8210     2.4400     0.1377     0.0342
  565.5000     5.5665     5.1120     8.2522   105.9219     2.4428     0.1360     0.0342
  566.0000     5.5156     5.0405     8.2578   105.0261     2.4456     0.1343     0.0342
  566.5000     5.4650     4.9848     8.2624   104.1142     2.4484     0.1326     0.0342
  567.0000     5.4639     5.0131     8.2562   104.5560     2.4512     0.1309     0.0342
  567.5000     5.4140     5.0368     8.2498   105.6574     2.4540     0.1292     0.0342
  568.0000     5.4172     5.0606     8.2434   106.7404     2.4568     0.1275     0.0342
  568.5000     5.3677     5.0844     8.2371   105.3426     2.4597     0.1258     0.0342
  569.0000     5.4977     5.1084     8.2308   103.7567     2.4625     0.1242     0.0342
  569.5000     5.5978     5.1325     8.2234   102.1721     2.4653     0.1232     0.0342
  570.0000     5.6993     5.1567     8.2043   100.5794     2.4680     0.1222     0.0342
  570.5000     5.8025     5.1810     8.1999    99.2821     2.4610     0.1214     0.0342
  571.0000     5.8825     5.2055     8.2042   101.5560     2.4528     0.1297     0.0342
  571.5000     5.8334     5.2300     8.2088   103.4238     2.4514     0.1316     0.0342
  572.0000     5.7919     5.2547     8.2133   105.2117     2.4510     0.1308     0.0342
  572.5000     5.7507     5.2676     8.2177   107.0271     2.4532     0.1288     0.0342
  573.0000     5.7098     5.2196     8.2212   107.0535     2.4588     0.1263     0.0342
  573.5000     5.6691     5.1872     8.2213   106.1900     2.4645     0.1239     0.0342
  574.0000     5.6288     5.1551     8.2140   105.3028     2.4610     0.1252     0.0342
  574.5000     5.5887     5.1232     8.2055   105.6633     2.4559     0.1265     0.0342
  575.0000     5.5490     5.0915     8.1971   106.4671     2.4470     0.1347     0.0342
  575.5000     5.5095     5.0600     8.1882   107.2914     2.4356     0.1428     0.0318
