~VERSION INFORMATION
 VERS.                2.0:   CWLS LOG ASCII STANDARD - VERSION 2.0
 WRAP.                 NO:   ONE LINE PER DEPTH STEP
~WELL INFORMATION
#MNEM.UNIT      DATA TYPE    INFORMATION
#----------   ------------   ------------------------------
 STRT.F            0.0000:   START DEPTH
 STOP.F          489.0000:   STOP DEPTH
 STEP.F            0.5000:   STEP LENGTH
 NULL.          -999.2500:   NO VALUE
 COMP.   FLUOR DANIEL INC:   COMPANY
 WELL. NAVAL PETROLEUM RES 3 SX-3 44 #1-3:   WELL
 FLD .             TEAPOT:   FIELD
 LOC .       S3 T38N R78W:   LOCATION
 CNTY.            NATRONA:   COUNTY
 STAT.            WYOMING:   STATE
 CTRY. UNITED STATES OF AMERICA:   COUNTRY
 SRVC.      Western Atlas:   SERVICE COMPANY
 DATE.        10-JUL-1995:   LOGDATE
 API .       490252273800:   API NUMBER
~CURVE INFORMATION
#MNEM.UNIT       API CODE    CURVE DESCRIPTION
#----------   ------------   ------------------------------
 DEPT.F                  :   
 RILD.OHMM   07 120 46 00:   INDUCTION LOG DEEP RESISTIVITY
 RILM.OHMM   07 120 44 00:   INDUCTION LOG MEDIUM RESISTIVITY
 GRR .GAPI   07 310 01 00:   GAMMA RAY FROM RES. LOG.
~PARAMETER INFORMATION
#MNEM.UNIT          VALUE    DESCRIPTION
#----------   ------------   ------------------------------
 PD  .                 GL:   PERMANENT DATUM
 EPD .F              5164:   ELEVATION PERMANENT DATUM
 LMF .                 KB:   LOG MEASURED FROM
 DAPD.F                10:   FEET ABOVE PERMANENT DATUM
 DMF .                 KB:   DRILLING MEASURED FROM
 EKB .F              5174:   KELLING BUSHING
 EDF .F              5173:   DRILLING FLOOR
 EGL .F              5164:   GROUND LEVEL
 DATE.            7-10-95:   RUN DATE
 RUN .                  1:   RUN NUMBER
 DD  .F               500:   DEPTH DRILLER
 DL  .F               500:   DEPTH LOGGER
 BLI .F               494:   BOTTOM LOG INTERVAL
 TLI .F                53:   TOP LOG INTERVAL
 CS  .IN            9.625:   CASING SIZE
 CBD .F                53:   CASING BOTTOM DRILLER
 CBL .F                53:   CASING BOTTOM LOGGER
 BS  .IN             8.75:   BIT SIZE
 BSD .F               500:   BIT SIZE AT DEPTH
 DFT .                AIR:   DRILLING FLUID TYPE
 BHT .F                92:   BOTTOM HOLE TEMPERATURE
 MRT .F                92:   MAXIMUM RECORDED TEMPERATURE
 LUN .            HL 6530:   LOGGING UNIT NUMBER
 LUL .             CASPER:   LOGGING UNIT LOCATION
 ENGI.          RASMUSEEN:   RECORDING ENGINEER
 WITN.             STRONG:   WITNESSED BY
 CLNT.            A2DTECH:   CLIENT CODE
 ORIG.       2", 5" PRINT:   ORIGIN OF DATA
 UWI .       490252273800:   UNIQUE WELL ID
 DICO. A2D Technologies, Inc.:   DIGITIZING COMPANY
~OTHER INFORMATION
~A    DEPT    RILD       RILM          GRR 
# ...
  182.0000     7.7863     7.9972   111.3899
  182.5000     7.8386     8.0586   110.3397
  183.0000     7.8384     8.0317   108.7134
  183.5000     7.8383     8.0078   108.5109
  184.0000     7.8379     7.9842   110.1210
  184.5000     7.8390     7.9221   111.4611
  185.0000     7.7157     7.8469   112.2306
  185.5000     7.6249     7.7724   112.2541
  186.0000     7.5060     7.6949   112.2620
  186.5000     7.3792     7.5469   111.5787
  187.0000     7.2803     7.3941   109.7379
  187.5000     6.8802     7.1833   107.1129
  188.0000     6.5070     6.7808   106.0058
  188.5000     6.1582     6.4005   105.8223
  189.0000     5.8983     6.0957   105.8211
  189.5000     5.6249     5.6379   105.6579
  190.0000     5.4671     5.2223   104.9013
  190.5000     5.4693     5.2213   104.1624
  191.0000     5.4689     5.5721   103.4456
  191.5000     5.4689     5.8305   103.8151
  192.0000     5.5383     6.1006   105.8221
  192.5000     5.7881     6.4363   108.0590
  193.0000     6.1137     6.8079   108.9181
  193.5000     6.6045     7.2007   109.7922
  194.0000     7.0815     7.4955   107.8931
  194.5000     7.3278     7.6618   105.0938
  195.0000     7.6242     7.8376   103.9159
  195.5000     7.6612     7.9149   106.7097
  196.0000     7.7593     7.9942   109.8139
  196.5000     7.8587     8.0749   111.7101
  197.0000     7.9587     8.1622   111.4668
  197.5000     8.0592     8.2654   110.9260
  198.0000     8.1611     8.3699   110.3709
  198.5000     8.2642     8.4737   109.8516
  199.0000     8.3613     8.5134   110.2972
  199.5000     8.4074     8.6326   112.3721
  200.0000     8.4526     8.6809   114.8944
  200.5000     8.4972     8.7277   114.9882
  201.0000     8.5340     8.7647   112.8127
  201.5000     8.5772     8.8124   111.6279
  202.0000     8.6211     8.8600   110.7210
  202.5000     8.6652     8.9078   109.2199
  203.0000     8.6757     8.9559   109.3139
  203.5000     8.6396     9.0043   109.7912
  204.0000     8.6134     9.0529   108.9159
  204.5000     8.5873     9.0854   106.7214
  205.0000     8.5614     9.0510   104.6067
  205.5000     8.5355     9.0252   103.0580
  206.0000     8.5169     9.0020   104.1369
  206.5000     8.5002     8.7662   107.9706
  207.0000     8.4851     8.6225   112.7855
  207.5000     8.4697     8.5960   113.2981
  208.0000     8.4547     8.5960   110.6787
  208.5000     8.4388     8.5820   109.3351
  209.0000     8.3100     8.4847   111.4189
  209.5000     8.1781     8.3886   113.2141
  210.0000     8.0565     8.2845   108.9389
  210.5000     7.8249     8.0855   104.9491
  211.0000     7.6418     7.8846   101.5034
  211.5000     7.5042     7.7388   102.3428
  212.0000     7.0327     7.3352   106.8244
  212.5000     6.5397     6.8179   111.2698
  213.0000     6.0813     6.3377   111.1895
  213.5000     5.4635     5.7415   111.3618
  214.0000     4.8688     5.1166   111.8487
  214.5000     4.3389     4.5597   112.3360
  215.0000     3.8666     4.0634   112.4635
  215.5000     3.4458     3.6208   111.3200
  216.0000     3.0707     3.2259   109.8452
  216.5000     2.7365     2.8769   108.3560
  217.0000     2.6258     2.7372   106.6109
  217.5000     2.5630     2.7372   103.5606
  218.0000     2.4959     2.7372    99.1852
  218.5000     2.5461     2.7482    94.8795
  219.0000     2.6028     2.9045    92.4249
  219.5000     2.8787     3.2334   100.3002
  220.0000     3.2433     3.5996   107.1554
  220.5000     3.6704     4.2227   112.3036
  221.0000     4.1909     5.0585   113.3966
  221.5000     4.7851     5.5571   117.0284
  222.0000     5.7319     5.8938   117.4558
  222.5000     5.7255     6.2510   117.7887
  223.0000     6.3100     6.4971   119.4948
  223.5000     6.5021     6.6641   122.2757
  224.0000     6.6385     6.7622   123.7233
  224.5000     6.6145     6.7175   125.4259
  225.0000     6.5762     6.6769   125.7971
  225.5000     6.3710     6.6385   122.1834
  226.0000     6.0046     6.4012   119.3488
  226.5000     5.6629     5.9472   119.0947
  227.0000     5.3403     5.5186   119.7092
  227.5000     5.0985     5.2707   121.1723
  228.0000     4.9047     5.0739   124.2481
  228.5000     4.7738     4.9287   128.8550
  229.0000     4.6682     4.8198   129.3803
  229.5000     4.5894     4.7182   125.9396
  230.0000     4.6592     4.8731   120.3941
  230.5000     4.7420     5.1268   114.9641
  231.0000     4.9150     5.4150   112.6585
  231.5000     5.1991     5.7351   115.9585
  232.0000     5.4981     6.0740   119.2591
  232.5000     5.8143     6.4330   121.9341
  233.0000     6.1486     6.8132   121.0283
  233.5000     6.5021     7.0875   120.8223
  234.0000     6.8760     7.3417   121.4557
  234.5000     7.2803     7.6050   118.8904
  235.0000     7.7662     7.8778   113.9319
  235.5000     7.7546     7.9842   113.9612
  236.0000     7.7364     7.9566   119.3321
  236.5000     7.7170     7.9374   123.7346
  237.0000     7.6998     7.9182   124.3043
  237.5000     7.5349     7.7848   123.8207
  238.0000     7.3418     7.5853   123.3249
  238.5000     7.1537     7.3910   122.8355
  239.0000     6.9708     7.2016   122.3469
  239.5000     6.7898     7.0171   121.9313
  240.0000     6.5851     6.8882   121.8165
  240.5000     6.1789     6.4176   123.9773
  241.0000     5.8017     6.0162   127.7631
  241.5000     5.4475     5.6398   130.6982
  242.0000     5.1150     5.2870   130.5436
  242.5000     4.8028     4.9562   128.8167
  243.0000     4.6533     4.7498   127.0559
  243.5000     4.5894     4.7163   126.6661
  244.0000     4.6941     4.7932   126.1504
  244.5000     4.8061     4.9401   123.1587
  245.0000     4.9258     5.4191   120.3728
  245.5000     5.0263     5.7997   121.0794
  246.0000     5.2562     6.1665   123.0191
  246.5000     5.7352     6.5552   124.5920
  247.0000     6.2578     6.9414   123.0610
  247.5000     6.6374     7.2274   121.3073
  248.0000     6.8950     7.5541   119.4889
  248.5000     7.1625     7.5955   119.5385
  249.0000     7.3478     7.6538   122.9576
  249.5000     7.4675     7.7126   126.3900
  250.0000     7.5549     7.7662   129.0456
  250.5000     7.5903     7.7969   127.7587
  251.0000     7.6237     7.8312   125.3155
  251.5000     7.6571     7.8655   123.9359
  252.0000     7.6947     7.9108   126.9160
  252.5000     7.6717     7.8927   129.3910
  253.0000     7.6455     7.8654   127.7839
  253.5000     7.6177     7.8382   126.3472
  254.0000     7.5829     7.8026   129.4997
  254.5000     7.5482     7.7669   133.7657
  255.0000     7.5137     7.7313   135.1234
  255.5000     7.4847     7.6946   133.0899
  256.0000     7.5178     7.7219   131.7175
  256.5000     7.5523     7.7575   132.6824
  257.0000     7.5870     7.7931   131.4586
  257.5000     7.6250     7.8289   128.4908
  258.0000     7.6260     7.8382   126.2978
  258.5000     7.4775     7.7352   128.5252
  259.0000     7.2336     7.4820   130.6553
  259.5000     7.0153     7.2370   132.7836
  260.0000     6.5755     6.7622   133.6750
  260.5000     6.3722     6.5430   129.2936
  261.0000     6.1661     6.3181   127.4215
  261.5000     6.0658     6.2232   128.6675
  262.0000     6.0432     6.2232   132.9245
  262.5000     5.9221     6.1661   135.8305
  263.0000     5.7529     6.3392   135.5245
  263.5000     5.5431     6.1865   132.2257
  264.0000     5.3409     5.9152   129.1909
  264.5000     5.1461     5.4215   130.2835
  265.0000     4.9396     4.9690   131.6795
  265.5000     4.9416     4.5894   131.5493
  266.0000     4.9174     4.7686   130.4715
  266.5000     4.9003     4.9902   129.3312
  267.0000     4.8956     5.2220   127.2659
  267.5000     4.9868     5.4646   125.7066
  268.0000     5.2579     5.8024   124.7266
  268.5000     5.5489     6.1866   125.2966
  269.0000     5.8414     6.4791   126.6543
  269.5000     6.3868     6.7741   127.1667
  270.0000     6.8882     7.0844   127.6406
  270.5000     6.9632     7.2829   127.7168
  271.0000     7.0165     7.2028   126.9452
  271.5000     6.5784     7.0165   125.7891
  272.0000     6.2809     6.6625   124.1390
  272.5000     5.9648     6.2005   121.6636
