~VERSION INFORMATION
 VERS.                2.0:   CWLS LOG ASCII STANDARD - VERSION 2.0
 WRAP.                 NO:   ONE LINE PER DEPTH STEP
~WELL INFORMATION
#MNEM.UNIT      DATA TYPE    INFORMATION
#----------   ------------   ------------------------------
 STRT.F           66.0000:   START DEPTH
 STOP.F          814.0000:   STOP DEPTH
 STEP.F            0.5000:   STEP LENGTH
 NULL.          -999.2500:   NO VALUE
 COMP.   FLUOR DANIEL INC:   COMPANY
 WELL. NAVAL PETROLEUM RESERVE 3 SX-2 #32-11-2:   WELL
 FLD .        N.P.R NO. 3:   FIELD
 LOC .       S2 T38N R78W:   LOCATION
 CNTY.            NATRONA:   COUNTY
 STAT.            WYOMING:   STATE
 CTRY. UNITED STATES OF AMERICA:   COUNTRY
 SRVC.      Dresser Atlas:   SERVICE COMPANY
 DATE.        15-AUG-1985:   LOGDATE
 API .       490251104000:   API NUMBER
~CURVE INFORMATION
#MNEM.UNIT       API CODE    CURVE DESCRIPTION
#----------   ------------   ------------------------------
 DEPT.F                  :   
 SPR .MV     07 010 01 00:   SPONTANEOUS POTENTIAL
 RILD.OHMM   07 120 46 00:   INDUCTION LOG DEEP RESISTIVITY
 RILM.OHMM   07 120 44 00:   INDUCTION LOG MEDIUM RESISTIVITY
 RFOC.OHMM   07 220 04 00:   RESISTIVITY FOCUSED LOG
 PORD.DEC    45 890 12 00:   POROSITY DENSITY SANDSTONE
 CNC .DEC    42 890 03 00:   NEUTRON POROSITY SANDSTONE
 GRD .GAPI   45 310 01 00:   GAMMA RAY FROM DENSITY LOG
 CALD.IN     45 280 60 00:   CALIPER FROM DENSITY LOG
 CORR.G/C3   45 356 01 00:   DENSITY CORRECTION
 DEN .G/C3   45 350 01 00:   COMPENSATED BULK DENSTIY
~PARAMETER INFORMATION
#MNEM.UNIT          VALUE    DESCRIPTION
#----------   ------------   ------------------------------
 PD  .                 GL:   PERMANENT DATUM
 EPD .F              5113:   ELEVATION PERMANENT DATUM
 LMF .                 GL:   LOG MEASURED FROM
 DMF .                 GL:   DRILLING MEASURED FROM
 EGL .F              5113:   GROUND LEVEL
 DATE.            8-15-85:   RUN DATE
 RUN .                  1:   RUN NUMBER
 DD  .F               817:   DEPTH DRILLER
 DL  .F               817:   DEPTH LOGGER
 BLI .F               814:   BOTTOM LOG INTERVAL
 CS  .IN            8.625:   CASING SIZE
 CBD .F                79:   CASING BOTTOM DRILLER
 CBL .F                79:   CASING BOTTOM LOGGER
 BS  .IN            7.875:   BIT SIZE
 BSD .F               817:   BIT SIZE AT DEPTH
 DFT .          KCL WATER:   DRILLING FLUID TYPE
 MSS .               TANK:   MUD SAMPLE SOURCE
 RMS .OHMM            .25:   RESISTIVITY MUD SAMPLE
 MST .F                70:   MUD SAMPLE TEMPERATURE
 BHT .F               100:   BOTTOM HOLE TEMPERATURE
 TCS .HRS               2:   TIME CURCULATED STOPPED
 MRT .F               100:   MAXIMUM RECORDED TEMPERATURE
 LUN .            HL-6274:   LOGGING UNIT NUMBER
 LUL .           GILLETTE:   LOGGING UNIT LOCATION
 ENGI.             RAUTIO:   RECORDING ENGINEER
 WITN.           JENNINGS:   WITNESSED BY
 CLNT.            A2DTECH:   CLIENT CODE
 ORIG.       2", 5" PRINT:   ORIGIN OF DATA
 UWI .       490251104000:   UNIQUE WELL ID
 DICO. A2D Technologies, Inc.:   DIGITIZING COMPANY
~OTHER INFORMATION
~A   DEPT      SPR       RILD       RILM       RFOC       PORD        CNC        GRD       CALD       CORR        DEN   
# ...
  300.5000   -37.1244     7.0694     7.0898     8.1892     0.1272     0.2870    97.5924     8.2953    -0.0141     2.4636
  301.0000   -37.3042     6.9774     6.9595     8.3639     0.1317     0.2858   102.9907     8.2882    -0.0017     2.4560
  301.5000   -37.3970     6.9035     6.7902     8.1363     0.1358     0.2891   105.9960     8.2576     0.0116     2.4493
  302.0000   -37.5397     6.8570     6.6978     7.6991     0.1397     0.2979   107.4838     8.2572     0.0161     2.4410
  302.5000   -37.3773     6.7170     6.6527     7.4900     0.1473     0.3085   103.8731     8.2417     0.0011     2.4319
  303.0000   -37.2172     6.6252     6.5621     7.3880     0.1497     0.3104    99.6632     8.2261    -0.0035     2.4290
  303.5000   -37.0570     6.5352     6.4728     7.1878     0.1482     0.3143    96.0539     8.2257     0.0115     2.4312
  304.0000   -37.0483     6.4421     6.3408     7.0904     0.1395     0.3173    94.8471     8.2253     0.0220     2.4410
  304.5000   -37.0394     6.3587     6.2978     7.0432     0.1340     0.3213    98.7439     8.2249     0.0100     2.4508
  305.0000   -37.0289     6.3156     6.4321     7.0946     0.1356     0.3279   101.7412     8.2545    -0.0080     2.4477
  305.5000   -37.0202     6.3613     6.3888     7.0965     0.1395     0.3355   101.7355     8.2692    -0.0096     2.4402
  306.0000   -36.8600     6.3184     6.3022     7.1977     0.1425     0.3380   100.5126     8.2838    -0.0081     2.4364
  306.5000   -36.8514     6.2323     6.3034     7.2001     0.1453     0.3231    98.7197     8.2983    -0.0081     2.4349
  307.0000   -36.6707     6.1478     6.2607     7.2020     0.1462     0.3174    97.2125     8.2978    -0.0066     2.4409
  307.5000   -36.2258     6.1919     6.1330     7.1535     0.1377     0.3152    95.1047     8.2974    -0.0018     2.4499
  308.0000   -36.0657     6.1502     6.0495     7.1063     0.1344     0.3331    92.9969     8.2969     0.0129     2.4552
  308.5000   -35.7540     6.1944     6.0510     7.1083     0.1341     0.3411    95.0919     8.3116     0.0294     2.4552
  309.0000   -35.7453     6.2391     6.1369     7.0123     0.1335     0.3447    98.3896     8.3111     0.0444     2.4582
  309.5000   -35.5848     6.3278     6.1810     6.9169     0.1321     0.3416   101.0866     8.3106     0.0519     2.4619
  310.0000   -35.4228     6.3732     6.2687     6.8708     0.1290     0.3416   101.1211     8.3254     0.0549     2.4634
  310.5000   -35.4141     6.3745     6.3140     6.8731     0.1278     0.3401    98.3443     8.3399     0.0504     2.4611
  311.0000   -35.4055     6.4654     6.4483     6.9233     0.1282     0.3356    98.0651     8.3395     0.0399     2.4611
  311.5000   -35.3968     6.5573     6.5399     6.9251     0.1297     0.3174    98.0594     8.3389     0.0263     2.4671
  312.0000   -35.2364     6.7436     6.6790     7.1222     0.1258     0.3059    95.3510     8.3385     0.0098     2.4784
  312.5000   -35.3795     6.7920     6.9170     7.4793     0.1191     0.3150    91.7417     8.3381     0.0068     2.4837
  313.0000   -35.8232     6.9877     7.0152     7.6998     0.1128     0.3174    90.5349     8.3376     0.0113     2.4837
  313.5000   -35.9683     7.3354     7.0166     7.7484     0.1113     0.3138    94.7320     8.3372     0.0203     2.4821
  314.0000   -35.9574     7.4397     7.3169     7.7505     0.1137     0.3102    99.5311     8.3367     0.0201     2.4814
  314.5000   -35.9485     7.5981     7.5271     7.8611     0.1159     0.2999    96.2221     8.3362     0.0337     2.4799
  315.0000   -36.0895     7.6526     7.6319     8.0307     0.1171     0.2835    93.2132     8.3358     0.0848     2.4739
  315.5000   -36.2345     7.7614     7.6334     8.3155     0.1183     0.2720    95.6087     8.3354     0.1284     2.4648
  316.0000   -36.2237     7.7633     7.6881     8.4930     0.1256     0.2702    99.2066     8.3349     0.1192     2.4626
  316.5000   -36.3665     7.7648     7.7433     8.5545     0.1289     0.2920   101.6033     8.3344     0.0743     2.4746
  317.0000   -36.6808     7.7664     7.7449     8.2644     0.1235     0.3211   103.1111     8.3340     0.0412     2.4821
  317.5000   -37.1046     7.7679     7.8008     7.7493     0.1166     0.3232   103.9944     8.3336     0.0216     2.4753
  318.0000   -37.5527     7.7698     7.7479     7.2968     0.1157     0.3196   103.9873     8.3482     0.0126     2.4678
  318.5000   -37.2388     7.6636     7.6961     7.0981     0.1196     0.3193   103.3810     8.3477     0.0186     2.4678
  319.0000   -36.7756     7.6120     7.7513     7.0508     0.1254     0.3124   101.8738     8.3623     0.0156     2.4700
  319.5000   -36.5950     7.6139     7.8073     7.0531     0.1269     0.3054    99.4643     8.3619    -0.0040     2.4730
  320.0000   -36.4531     7.6686     7.5947     7.1046     0.1227     0.3048    97.9571     8.3765    -0.0145     2.4714
  320.5000   -36.4444     7.6704     7.6492     7.1561     0.1200     0.3096    98.5520     8.3760    -0.0142     2.4610
  321.0000   -36.4358     7.7255     7.7041     7.1580     0.1267     0.2960   103.6514     8.3756     0.0020     2.4512
  321.5000   -36.4271     7.7270     7.7595     7.2098     0.1309     0.2872   105.1473     8.3751     0.0095     2.4542
  322.0000   -36.4182     7.7825     7.7613     7.2122     0.1340     0.2857    99.4344     8.3747     0.0110     2.4595
  322.5000   -36.5592     7.8388     7.7628     7.2141     0.1331     0.2880    98.2276     8.3591     0.0065     2.4625
  323.0000   -36.7020     7.8403     7.7644     7.2663     0.1282     0.2966    98.8239     8.3587     0.0110     2.4632
  323.5000   -36.9964     7.8419     7.8201     7.3189     0.1279     0.2976    99.4174     8.3582     0.0230     2.4640
  324.0000   -37.2909     7.8434     7.8766     7.3747     0.1280     0.2936   100.3112     8.3578     0.0470     2.4640
  324.5000   -37.2818     7.8450     7.8236     7.4776     0.1274     0.2973   104.5097     8.3574     0.0474     2.4632
  325.0000   -37.4228     7.8062     7.7709     7.6904     0.1268     0.2894   107.8073     8.3569     0.0214     2.4639
  325.5000   -37.4141     7.6861     7.7724     7.9645     0.1274     0.2752   109.0029     8.3414     0.0094     2.4647
  326.0000   -37.5570     7.7417     7.8282     8.2484     0.1274     0.2736   108.6967     8.3409     0.0019     2.4662
  326.5000   -37.5483     7.7973     7.8301     8.7838     0.1253     0.2776   109.2918     8.3255     0.0289     2.4669
  327.0000   -37.5394     7.8533     7.8863     8.9091     0.1241     0.2940   110.4873     8.3099     0.0270     2.4677
  327.5000   -37.5289     7.9097     7.8879     8.9114     0.1245     0.3070   110.7819     8.2944     0.0048     2.4669
  328.0000   -37.6717     7.9116     7.8894     8.9138     0.1269     0.3100   111.0831     8.2939    -0.0057     2.4669
  328.5000   -37.9661     7.9132     7.9464     8.6603     0.1275     0.3013   112.5695     8.2935     0.0003     2.4684
  329.0000   -38.2606     7.9147     8.0034     8.2619     0.1227     0.3019   112.5638     8.2931     0.0108     2.4723
  329.5000   -38.4033     8.0272     8.0609     8.2647     0.1197     0.3058   111.6572     8.3077     0.0273     2.4759
  330.0000   -38.3925     8.0853     8.1187     8.2668     0.1191     0.3012   110.1501     8.3224     0.0258     2.4766
  330.5000   -38.3838     8.0869     8.1203     8.2690     0.1221     0.2901   108.0408     8.3218     0.0182     2.4736
  331.0000   -38.3752     8.0885     8.0660     8.3294     0.1191     0.2834   105.6328     8.3365     0.0182     2.4729
  331.5000   -38.5182     8.1465     8.0676     8.5072     0.1155     0.2789   105.3268     8.3359     0.0272     2.4781
  332.0000   -38.5091     8.1482     8.1255     8.9337     0.1131     0.2743   105.6228     8.3355     0.0347     2.4834
  332.5000   -38.4986     8.1502     8.1271     9.1880     0.1161     0.2737   105.9160     8.3502     0.0392     2.4856
  333.0000   -38.4899     8.1518     8.1858     9.1266     0.1192     0.2840   104.4074     8.3497     0.0212     2.4834
  333.5000   -38.6349     8.2676     8.3600     9.3870     0.1204     0.2995   101.6990     8.3793     0.0031     2.4788
