~VERSION INFORMATION
 VERS.                2.0:   CWLS LOG ASCII STANDARD - VERSION 2.0
 WRAP.                 NO:   ONE LINE PER DEPTH STEP
~WELL INFORMATION
#MNEM.UNIT      DATA TYPE    INFORMATION
#----------   ------------   ------------------------------
 STRT.F          566.5000:   START DEPTH
 STOP.F         2065.5000:   STOP DEPTH
 STEP.F            0.5000:   STEP LENGTH
 NULL.          -999.2500:   NO VALUE
 COMP. LAWRENCE/ALLISON INC:   COMPANY
 WELL.      NPR 3 #25-X-3:   WELL
 FLD .             TEAPOT:   FIELD
 LOC .       S3 T38N R78W:   LOCATION
 CNTY.            NATRONA:   COUNTY
 STAT.            WYOMING:   STATE
 CTRY. UNITED STATES OF AMERICA:   COUNTRY
 SRVC.            Unknown:   SERVICE COMPANY
 DATE.        26-SEP-1987:   LOGDATE
 API .       490251119000:   API NUMBER
~CURVE INFORMATION
#MNEM.UNIT       API CODE    CURVE DESCRIPTION
#----------   ------------   ------------------------------
 DEPT.F                  :   
 ROP .MIN/FT 91 810 01 00:   RATE OF DRILLING PENETRATION
 TGAS.UNITS  91 830 01 00:   TOTAL GAS FROM HOTWIRE
~PARAMETER INFORMATION
#MNEM.UNIT          VALUE    DESCRIPTION
#----------   ------------   ------------------------------
 DATE.        26-SEP-1987:   RUN DATE
 RUN .                  1:   RUN NUMBER
 DD  .F              2066:   DEPTH DRILLER
 TLI .F               566:   TOP LOG INTERVAL
 WITN. R. HUSK/R. PETERSON:   WITNESSED BY
 CLNT.            A2DTECH:   CLIENT CODE
 ORIG.           5" PRINT:   ORIGIN OF DATA
 UWI .       490251119000:   UNIQUE WELL ID
 DICO. A2D Technologies, Inc.:   DIGITIZING COMPANY
~OTHER INFORMATION
~A   DEPT        ROP       TGAS 
# ...
 1295.5000     0.2854   150.2320
 1296.0000     0.2854   150.4046
 1296.5000     0.2853   150.5773
 1297.0000     0.2853   150.7499
 1297.5000     0.2852   150.9225
 1298.0000     0.2852   151.0952
 1298.5000     0.2852   151.2678
 1299.0000     0.2851   151.4404
 1299.5000     0.2851   151.6131
 1300.0000     0.2850   151.7857
 1300.5000     0.2850   151.9583
 1301.0000     0.2849   152.1310
 1301.5000     0.2849   152.3036
 1302.0000     0.2848   152.4762
 1302.5000     0.2848   152.6488
 1303.0000     0.2847   152.8215
 1303.5000     0.2847   152.9941
 1304.0000     0.2847   153.1667
 1304.5000     0.2846   153.3394
 1305.0000     0.2846   153.5120
 1305.5000     0.2845   153.6846
 1306.0000     0.2845   153.8573
 1306.5000     0.2844   154.0299
 1307.0000     0.2844   154.2025
 1307.5000     0.2843   154.3752
 1308.0000     0.2843   154.5478
 1308.5000     0.2842   154.7204
 1309.0000     0.2842   154.8931
 1309.5000     0.2842   149.1294
 1310.0000     0.2841   140.9476
 1310.5000     0.2841   134.4630
 1311.0000     0.2840   134.5563
 1311.5000     0.2840   134.6497
 1312.0000     0.2839   134.7431
 1312.5000     0.2839   134.8364
 1313.0000     0.2838   134.9298
 1313.5000     0.2838   135.0232
 1314.0000     0.2837   135.1165
 1314.5000     0.2837   135.2099
 1315.0000     0.2836   135.3033
 1315.5000     0.2836   135.3966
 1316.0000     0.2836   135.4900
 1316.5000     0.2835   135.5834
 1317.0000     0.2835   135.6767
 1317.5000     0.2834   135.7701
 1318.0000     0.2834   135.8635
 1318.5000     0.2833   135.9568
 1319.0000     0.2833   136.0502
 1319.5000     0.2832   136.1436
 1320.0000     0.2832   136.2369
 1320.5000     0.2831   136.3303
 1321.0000     0.2831   136.4237
 1321.5000     0.2831   136.5170
 1322.0000     0.2830   136.6104
 1322.5000     0.2830   136.7038
 1323.0000     0.2829   136.7971
 1323.5000     0.2829   136.8905
 1324.0000     0.2828   136.9839
 1324.5000     0.2828   137.0772
 1325.0000     0.2827   137.1706
 1325.5000     0.2827   137.2640
 1326.0000     0.2826   137.3573
 1326.5000     0.2826   137.4507
 1327.0000     0.2825   137.5441
 1327.5000     0.2825   137.6374
 1328.0000     0.2825   137.7308
 1328.5000     0.2824   137.8242
 1329.0000     0.2824   137.9175
 1329.5000     0.2823   138.0109
 1330.0000     0.2823   138.1043
 1330.5000     0.2822   138.1976
 1331.0000     0.2822   138.2910
 1331.5000     0.2821   138.3844
 1332.0000     0.2821   138.4777
 1332.5000     0.2820   138.5711
 1333.0000     0.2820   138.6645
 1333.5000     0.2820   138.7578
 1334.0000     0.2819   138.8512
 1334.5000     0.2819   138.9446
 1335.0000     0.2818   139.0379
 1335.5000     0.2818   139.1313
 1336.0000     0.2817   139.2247
 1336.5000     0.2817   139.3180
 1337.0000     0.2816   139.4114
 1337.5000     0.2816   139.5048
 1338.0000     0.2815   139.5981
 1338.5000     0.2815   139.6915
 1339.0000     0.2815   139.7849
 1339.5000     0.2814   139.8782
 1340.0000     0.2814   139.9716
 1340.5000     0.2813   140.0650
 1341.0000     0.2813   140.1583
 1341.5000     0.2812   140.2517
 1342.0000     0.2812   140.3451
 1342.5000     0.2811   140.4384
 1343.0000     0.2811   140.5318
 1343.5000     0.2810   140.6252
 1344.0000     0.2810   140.7185
 1344.5000     0.2809   140.8119
 1345.0000     0.2809   140.9053
 1345.5000     0.2809   140.9986
 1346.0000     0.2810   141.0920
 1346.5000     0.2811   141.1854
 1347.0000     0.2812   141.2787
 1347.5000     0.2813   141.3721
 1348.0000     0.2814   141.4655
 1348.5000     0.2815   141.5588
 1349.0000     0.2816   141.6522
 1349.5000     0.2922   141.7456
 1350.0000     0.3236   141.8389
 1350.5000     0.3342   141.9323
 1351.0000     0.3656   142.0257
 1351.5000     0.3761   142.1190
 1352.0000     0.3971   142.2124
 1352.5000     0.4076   142.3058
 1353.0000     0.4077   142.3991
 1353.5000     0.4078   142.4925
 1354.0000     0.4079   142.5859
 1354.5000     0.4081   142.6792
 1355.0000     0.4082   142.7726
 1355.5000     0.4083   142.8660
 1356.0000     0.4084   142.9593
 1356.5000     0.4085   143.0527
 1357.0000     0.4086   143.1461
 1357.5000     0.4087   143.2394
 1358.0000     0.4088   143.3328
 1358.5000     0.4089   143.4262
 1359.0000     0.3985   143.5195
 1359.5000     0.4091   143.6129
 1360.0000     0.4092   143.7063
 1360.5000     0.3988   143.7996
 1361.0000     0.3885   143.8930
 1361.5000     0.3782   143.9864
 1362.0000     0.3678   144.0797
 1362.5000     0.3575   144.1731
 1363.0000     0.3367   144.2665
 1363.5000     0.3369   144.3598
 1364.0000     0.3265   144.4532
 1364.5000     0.3266   144.5466
 1365.0000     0.3267   144.6399
 1365.5000     0.3268   144.7333
 1366.0000     0.3269   144.8267
 1366.5000     0.3270   144.9200
 1367.0000     0.3272   145.0134
 1367.5000     0.3273   145.1068
 1368.0000     0.3274   145.2001
 1368.5000     0.3275   145.2935
 1369.0000     0.3276   145.3869
 1369.5000     0.3277   145.4802
 1370.0000     0.3278   145.5736
 1370.5000     0.3279   145.6670
 1371.0000     0.3280   145.7603
 1371.5000     0.3281   145.8537
 1372.0000     0.3282   145.9471
 1372.5000     0.3283   146.0404
 1373.0000     0.3284   146.1338
 1373.5000     0.3285   146.2272
 1374.0000     0.3286   146.3205
 1374.5000     0.3287   146.4139
 1375.0000     0.3288   146.5073
 1375.5000     0.3289   146.6006
 1376.0000     0.3290   146.6940
 1376.5000     0.3291   146.7874
 1377.0000     0.3292   146.8807
 1377.5000     0.3293   146.9741
 1378.0000     0.3295   147.0675
 1378.5000     0.3295   147.1608
 1379.0000     0.3297   147.2542
 1379.5000     0.3298   147.3476
 1380.0000     0.3299   147.4409
 1380.5000     0.3300   147.5343
 1381.0000     0.3301   147.6277
 1381.5000     0.3302   147.7210
 1382.0000     0.3303   147.8144
 1382.5000     0.3304   147.9078
 1383.0000     0.3305   148.0011
 1383.5000     0.3306   148.0945
 1384.0000     0.3307   148.1879
 1384.5000     0.3308   148.2812
 1385.0000     0.3309   148.3746
 1385.5000     0.3310   148.4680
 1386.0000     0.3311   148.5613
 1386.5000     0.3312   148.6547
 1387.0000     0.3418   148.7481
 1387.5000     0.3314   148.8414
 1388.0000     0.3420   148.9348
 1388.5000     0.3421   149.0282
 1389.0000     0.3422   149.1215
 1389.5000     0.3423   149.2149
 1390.0000     0.3424   149.3083
 1390.5000     0.3425   149.4016
 1391.0000     0.3426   149.4950
 1391.5000     0.3427   149.5884
 1392.0000     0.3428   149.6817
 1392.5000     0.3429   149.7751
 1393.0000     0.3326   149.8685
 1393.5000     0.3327   149.9618
 1394.0000     0.3328   150.0552
 1394.5000     0.3329   150.1486
 1395.0000     0.3330   150.2419
 1395.5000     0.3331   150.3353
 1396.0000     0.3332   150.4287
 1396.5000     0.3438   150.5220
 1397.0000     0.3334   150.6154
 1397.5000     0.3335   150.7088
 1398.0000     0.3336   150.8021
 1398.5000     0.3337   150.8955
 1399.0000     0.3338   150.9889
 1399.5000     0.3339   151.0822
 1400.0000     0.3340   151.1756
 1400.5000     0.3446   151.2690
 1401.0000     0.3447   151.3623
 1401.5000     0.3657   151.4557
 1402.0000     0.3762   151.5491
 1402.5000     0.3763   151.6424
 1403.0000     0.3869   151.7358
 1403.5000     0.4078   151.8292
 1404.0000     0.4184   151.9225
 1404.5000     0.4185   152.0159
 1405.0000     0.4186   152.1093
 1405.5000     0.4187   152.2026
 1406.0000     0.4188   152.2960
 1406.5000     0.4189   152.3894
 1407.0000     0.4190   152.4827
 1407.5000     0.4198   152.5761
 1408.0000     0.4206   152.6695
 1408.5000     0.4214   152.7628
 1409.0000     0.4222   152.8562
 1409.5000     0.4231   152.9496
 1410.0000     0.4239   153.0429
 1410.5000     0.4247   153.1363
 1411.0000     0.4255   153.2297
 1411.5000     0.4264   153.3230
 1412.0000     0.4272   153.4164
 1412.5000     0.4280   153.5098
 1413.0000     0.4288   153.6031
 1413.5000     0.4296   153.6965
 1414.0000     0.4305   153.7899
 1414.5000     0.4313   153.8832
 1415.0000     0.4321   153.9766
 1415.5000     0.4329   154.0700
 1416.0000     0.4337   154.1633
 1416.5000     0.4346   154.2567
