~VERSION INFORMATION
 VERS.                2.0:   CWLS LOG ASCII STANDARD - VERSION 2.0
 WRAP.                 NO:   ONE LINE PER DEPTH STEP
~WELL INFORMATION
#MNEM.UNIT      DATA TYPE    INFORMATION
#----------   ------------   ------------------------------
 STRT.F          610.5000:   START DEPTH
 STOP.F         2311.0000:   STOP DEPTH
 STEP.F            0.5000:   STEP LENGTH
 NULL.          -999.2500:   NO VALUE
 COMP. BROWN JOHN E&C INC:   COMPANY
 WELL.  48-1SHX-34 #48-34:   WELL
 FLD .             TEAPOT:   FIELD
 LOC .      S34 T39N R78W:   LOCATION
 CNTY.            NATRONA:   COUNTY
 STAT.            WYOMING:   STATE
 CTRY. UNITED STATES OF AMERICA:   COUNTRY
 SRVC.            Unknown:   SERVICE COMPANY
 DATE.        16-SEP-1991:   LOGDATE
 API .       490251109000:   API NUMBER
~CURVE INFORMATION
#MNEM.UNIT       API CODE    CURVE DESCRIPTION
#----------   ------------   ------------------------------
 DEPT.F                  :   
 ROP .MIN/FT 91 810 01 00:   RAT OF DRILLING PENETRATION
 TGAS.UNITS  91 830 01 00:   TOTAL GAS FROM HOTWIRE
~PARAMETER INFORMATION
#MNEM.UNIT          VALUE    DESCRIPTION
#----------   ------------   ------------------------------
 EKB .F              5163:   KELLING BUSHING
 EGL .F              5152:   GROUND LEVEL
 DATE.            9-16-91:   RUN DATE
 DD  .F              2311:   DEPTH DRILLER
 TCS .HRS            0200:   TIME CURCULATED STOPPED
 TLAB.HRS            0115:   TIME LOGGER AT BOTTOM
 ENGI.             HENDRY:   RECORDING ENGINEER
 WITN.               HUSK:   WITNESSED BY
 CLNT.            A2DTECH:   CLIENT CODE
 ORIG.           5" PRINT:   ORIGIN OF DATA
 UWI .       490251109000:   UNIQUE WELL ID
 DICO. A2D Technologies, Inc.:   DIGITIZING COMPANY
~OTHER INFORMATION
~A   DEPT        ROP       TGAS 
# ...
 1947.0000     0.9000    11.2766
 1947.5000     0.8642    10.5206
 1948.0000     0.8281     9.8449
 1948.5000     0.8025     9.7120
 1949.0000     0.7853     8.8470
 1949.5000     0.8094     8.1368
 1950.0000     0.8366     7.4364
 1950.5000     0.8638     6.8108
 1951.0000     0.8910     6.8007
 1951.5000     0.9181     6.7476
 1952.0000     0.9452     6.6938
 1952.5000     0.9723     6.6398
 1953.0000     0.9862     6.5859
 1953.5000     0.9862     6.5320
 1954.0000     0.9709     6.4781
 1954.5000     0.9205     6.4241
 1955.0000     0.8741     6.3702
 1955.5000     0.8277     6.3163
 1956.0000     0.7857     6.2624
 1956.5000     0.7855     6.2085
 1957.0000     0.7862     6.1546
 1957.5000     0.7867     6.1007
 1958.0000     0.7872     6.0467
 1958.5000     0.7877     5.9928
 1959.0000     0.7882     5.9389
 1959.5000     0.7886     5.8850
 1960.0000     0.7891     5.8311
 1960.5000     0.7896     5.7772
 1961.0000     0.7901     5.7233
 1961.5000     0.7906     5.6694
 1962.0000     0.7911     5.6154
 1962.5000     0.7916     5.5615
 1963.0000     0.7921     5.5076
 1963.5000     0.7926     5.4537
 1964.0000     0.7930     5.3997
 1964.5000     0.7935     5.3457
 1965.0000     0.7940     5.2956
 1965.5000     0.7945     5.2912
 1966.0000     0.7950     5.2258
 1966.5000     0.7955     5.1592
 1967.0000     0.7960     5.0930
 1967.5000     0.7965     5.0268
 1968.0000     0.7970     4.9596
 1968.5000     0.7975     4.8965
 1969.0000     0.7978     4.8341
 1969.5000     0.7977     5.3796
 1970.0000     0.7979     6.8198
 1970.5000     0.7454     8.3124
 1971.0000     0.6513     9.8087
 1971.5000     0.5612    11.3031
 1972.0000     0.5491    12.7965
 1972.5000     0.5459    14.3089
 1973.0000     0.5460    14.8290
 1973.5000     0.5458    13.7297
 1974.0000     0.5455    12.5798
 1974.5000     0.5453    11.4342
 1975.0000     0.5450    10.2880
 1975.5000     0.5448     9.3294
 1976.0000     0.5445     8.4739
 1976.5000     0.5443     8.2672
 1977.0000     0.5440     8.2001
 1977.5000     0.5438     8.1364
 1978.0000     0.5435     8.0713
 1978.5000     0.5433     8.0059
 1979.0000     0.5430     7.9406
 1979.5000     0.5428     7.8752
 1980.0000     0.5425     7.8099
 1980.5000     0.5423     7.7445
 1981.0000     0.5420     7.6792
 1981.5000     0.5418     7.6138
 1982.0000     0.5415     7.5485
 1982.5000     0.5413     7.4822
 1983.0000     0.5410     7.4104
 1983.5000     0.5408     7.3492
 1984.0000     0.5405     7.8223
 1984.5000     0.5403    11.1105
 1985.0000     0.5400    14.4727
 1985.5000     0.5398    19.1750
 1986.0000     0.5395   121.2056
 1986.5000     0.5393   103.7832
 1987.0000     0.5390    86.3078
 1987.5000     0.5388    68.6975
 1988.0000     0.5385    51.0897
 1988.5000     0.5383    33.5108
 1989.0000     0.5380    15.8041
 1989.5000     0.5378  -999.2500
 1990.0000     0.5375  -999.2500
 1990.5000     0.5373  -999.2500
 1991.0000     0.5370  -999.2500
 1991.5000     0.5368  -999.2500
 1992.0000     0.5365  -999.2500
 1992.5000     0.5362  -999.2500
 1993.0000     0.5360  -999.2500
 1993.5000     0.5357  -999.2500
 1994.0000     0.5355  -999.2500
 1994.5000     0.5352  -999.2500
 1995.0000     0.5350  -999.2500
 1995.5000     0.5347  -999.2500
 1996.0000     0.5345  -999.2500
 1996.5000     0.5342  -999.2500
 1997.0000     0.5334  -999.2500
 1997.5000     0.5638  -999.2500
 1998.0000     0.6159  -999.2500
 1998.5000     0.6634  -999.2500
 1999.0000     0.7119  -999.2500
 1999.5000     0.7609  -999.2500
 2000.0000     0.7869  -999.2500
 2000.5000     1.1746    40.0820
 2001.0000     1.1746    40.0820
 2001.5000     1.1746    40.0820
 2002.0000     1.1746    40.0820
 2002.5000     1.1747    40.0820
 2003.0000     1.1746    40.0820
 2003.5000     1.1742    40.0818
 2004.0000     1.1500    40.0886
 2004.5000     1.1005    40.0978
 2005.0000     1.0513    40.1071
 2005.5000     1.0018    40.1164
 2006.0000     0.9521    40.1256
 2006.5000     0.9017    40.1349
 2007.0000     0.8847    40.1442
 2007.5000     0.8864    40.1534
 2008.0000     0.9008    40.1627
 2008.5000     0.9565    40.1720
 2009.0000     1.0106    40.1812
 2009.5000     1.0641    40.1905
 2010.0000     1.1132    40.1997
 2010.5000     1.0786    40.2090
 2011.0000     0.9972    40.2183
 2011.5000     0.9186    40.2275
 2012.0000     0.8404    40.2368
 2012.5000     0.7614    40.2461
 2013.0000     0.7150    40.2553
 2013.5000     0.6980    40.2646
 2014.0000     0.6874    40.2738
 2014.5000     0.7496    40.2831
 2015.0000     0.8097    40.2924
 2015.5000     0.8685    40.3016
 2016.0000     0.9182    40.3109
 2016.5000     0.8827    40.3202
 2017.0000     0.8276    40.3294
 2017.5000     0.7721    40.3387
 2018.0000     0.7139    40.3479
 2018.5000     0.7465    40.3572
 2019.0000     0.7977    40.3665
 2019.5000     0.8488    40.3757
 2020.0000     0.8873    40.3850
 2020.5000     0.8901    40.3943
 2021.0000     0.8939    40.4035
 2021.5000     0.8964    40.4128
 2022.0000     0.9480    40.4221
 2022.5000     1.0168    40.4313
 2023.0000     1.0866    40.4406
 2023.5000     1.1565    40.4498
 2024.0000     1.2263    40.4591
 2024.5000     1.2961    40.4684
 2025.0000     1.3659    40.4776
 2025.5000     1.4361    40.4869
 2026.0000     1.5072    40.4962
 2026.5000     1.5262    40.5054
 2027.0000     1.4181    40.5147
 2027.5000     1.3150    40.5239
 2028.0000     1.2115    40.5332
 2028.5000     1.1056    40.5425
 2029.0000     1.0752    40.5526
 2029.5000     1.0501    40.5585
 2030.0000     1.0238    40.5872
 2030.5000     0.9876    39.3124
 2031.0000     0.9393    37.3216
 2031.5000     0.8916    35.3128
 2032.0000     0.8444    33.3024
 2032.5000     0.8093    31.3062
 2033.0000     0.7984    29.6364
 2033.5000     0.8286    28.6255
 2034.0000     0.8719    28.3594
 2034.5000     0.9181    28.4394
 2035.0000     0.9114    28.5417
 2035.5000     0.8616    28.6427
 2036.0000     0.8139    28.7429
 2036.5000     0.7663    28.8431
 2037.0000     0.7187    28.9432
 2037.5000     0.6712    29.0434
 2038.0000     0.6225    29.1435
 2038.5000     0.5954    29.2437
 2039.0000     0.5920    29.3439
 2039.5000     0.6019    29.4440
 2040.0000     0.6124    29.5442
 2040.5000     0.6228    29.6443
 2041.0000     0.6330    29.7445
 2041.5000     0.6447    29.8447
 2042.0000     0.6766    29.9448
 2042.5000     0.7981    30.0450
 2043.0000     0.9145    30.1451
 2043.5000     1.0292    30.2453
 2044.0000     1.1131    30.3455
 2044.5000     1.0902    30.4456
 2045.0000     1.0029    30.5419
 2045.5000     0.9201    30.6281
 2046.0000     0.8595    30.8555
 2046.5000     0.8668    33.2608
 2047.0000     0.8920    35.6280
 2047.5000     0.9177    37.9756
 2048.0000     0.9352    40.2820
 2048.5000     0.9332    41.0576
 2049.0000     0.8751    41.0488
 2049.5000     0.8188    41.0308
 2050.0000     0.7630    41.0104
 2050.5000     0.7072    40.9913
 2051.0000     0.6507    40.9723
 2051.5000     0.6346    40.9532
 2052.0000     0.6344    40.9341
 2052.5000     0.6363    40.9151
 2053.0000     0.6441    40.8960
 2053.5000     0.6516    40.8769
 2054.0000     0.6591    40.8579
 2054.5000     0.6669    40.8388
 2055.0000     0.6810    40.8197
 2055.5000     0.6945    40.8007
 2056.0000     0.6539    40.7816
 2056.5000     0.6090    40.7625
 2057.0000     0.5638    40.7435
 2057.5000     0.5187    40.7244
 2058.0000     0.4729    40.7053
 2058.5000     0.4584    40.6863
 2059.0000     0.4468    40.6672
 2059.5000     0.4552    40.6481
 2060.0000     0.4630    40.6291
 2060.5000     0.4705    40.6099
 2061.0000     0.4778    40.5926
 2061.5000     0.4862    40.5782
 2062.0000     0.5183    40.5567
 2062.5000     0.5576    38.6272
 2063.0000     0.6113    36.5798
 2063.5000     0.6645    34.5143
 2064.0000     0.7178    32.4501
 2064.5000     0.7490    30.3905
 2065.0000     0.7012    28.3335
 2065.5000     0.6462    26.7934
 2066.0000     0.6388    26.6182
 2066.5000     0.6601    26.3658
 2067.0000     0.6812    26.1098
 2067.5000     0.7021    25.8527
 2068.0000     0.7020    25.5958
