~VERSION INFORMATION
 VERS.                2.0:   CWLS LOG ASCII STANDARD - VERSION 2.0
 WRAP.                 NO:   ONE LINE PER DEPTH STEP
~WELL INFORMATION
#MNEM.UNIT      DATA TYPE    INFORMATION
#----------   ------------   ------------------------------
 STRT.F           22.0000:   START DEPTH
 STOP.F          630.5000:   STOP DEPTH
 STEP.F            0.5000:   STEP LENGTH
 NULL.          -999.2500:   NO VALUE
 COMP. LAWRENCE/ALLISON INC:   COMPANY
 WELL.   16-61 SHX #11-11:   WELL
 FLD .             TEAPOT:   FIELD
 LOC .      S11 T38N R78W:   LOCATION
 CNTY.            NATRONA:   COUNTY
 STAT.            WYOMING:   STATE
 CTRY. UNITED STATES OF AMERICA:   COUNTRY
 SRVC.           Gearhart:   SERVICE COMPANY
 DATE.        13-JUN-1986:   LOGDATE
 API .       490251108900:   API NUMBER
~CURVE INFORMATION
#MNEM.UNIT       API CODE    CURVE DESCRIPTION
#----------   ------------   ------------------------------
 DEPT.F                  :   
 GRR .GAPI   07 310 01 00:   GAMMA RAY FROM RES. LOG.
 RILD.OHMM   07 120 46 00:   INDUCTION LOG DEEP RESISTIVITY
 RILM.OHMM   07 120 44 00:   INDUCTION LOG MEDIUM RESISTIVITY
~PARAMETER INFORMATION
#MNEM.UNIT          VALUE    DESCRIPTION
#----------   ------------   ------------------------------
 PD  .                 GL:   PERMANENT DATUM
 EPD .F              5185:   ELEVATION PERMANENT DATUM
 LMF .                 KB:   LOG MEASURED FROM
 DAPD.F                 5:   FEET ABOVE PERMANENT DATUM
 DMF .                 KB:   DRILLING MEASURED FROM
 EKB .F              5190:   KELLING BUSHING
 EGL .F              5185:   GROUND LEVEL
 DATE.            6-13-86:   RUN DATE
 RUN .                  1:   RUN NUMBER
 DD  .F               648:   DEPTH DRILLER
 DL  .F               640:   DEPTH LOGGER
 BLI .F               631:   BOTTOM LOG INTERVAL
 TLI .F                22:   TOP LOG INTERVAL
 CS  .IN            8.625:   CASING SIZE
 CBD .F                42:   CASING BOTTOM DRILLER
 CBL .F                47:   CASING BOTTOM LOGGER
 BS  .IN            7.875:   BIT SIZE
 BSD .F               648:   BIT SIZE AT DEPTH
 DFT .               FOAM:   DRILLING FLUID TYPE
 MSS .               TANK:   MUD SAMPLE SOURCE
 RMS .OHMM           1.85:   RESISTIVITY MUD SAMPLE
 MST .F                70:   MUD SAMPLE TEMPERATURE
 RMB .OHMM           1.55:   RESISTIVITY MUD AT BHT
 BHT .F                85:   BOTTOM HOLE TEMPERATURE
 TCS .HRS            1330:   TIME CURCULATED STOPPED
 TLAB.HRS            1600:   TIME LOGGER AT BOTTOM
 MRT .F                85:   MAXIMUM RECORDED TEMPERATURE
 LUN .               7609:   LOGGING UNIT NUMBER
 LUL .           GILLETTE:   LOGGING UNIT LOCATION
 ENGI.              BAUER:   RECORDING ENGINEER
 WITN.           JENNINGS:   WITNESSED BY
 CLNT.            A2DTECH:   CLIENT CODE
 ORIG.       2", 5" PRINT:   ORIGIN OF DATA
 UWI .       490251108900:   UNIQUE WELL ID
 DICO. A2D Technologies, Inc.:   DIGITIZING COMPANY
~OTHER INFORMATION
~A   DEPT       GRR      RILD       RILM   
# ...
  204.0000   115.4977     8.1973     8.0183
  204.5000   115.1993     8.2871     8.0989
  205.0000   117.1525     8.3778     8.1804
  205.5000   119.9978     8.4694     8.2626
  206.0000   120.2669     8.5573     8.3457
  206.5000   117.0804     8.6323     8.4296
  207.0000   113.8636     8.7081     8.5144
  207.5000   112.4934     8.7845     8.6001
  208.0000   112.0778     8.8616     8.6865
  208.5000   111.0668     8.9441     8.7792
  209.0000   109.8102     8.9087     8.7664
  209.5000   108.7505     8.8613     8.7493
  210.0000   108.9218     8.8141     8.7320
  210.5000   109.4968     8.7671     8.7149
  211.0000   109.0298     8.7205     8.6978
  211.5000   106.5212     8.6740     8.6807
  212.0000   104.2195     8.6278     8.6632
  212.5000   107.4074     8.5818     8.6466
  213.0000   112.0452     8.5360     8.6297
  213.5000   115.2587     8.4907     8.6173
  214.0000   118.1378     8.4585     9.7668
  214.5000   120.5039     8.5703    10.7753
  215.0000   119.9463     8.6582    11.8879
  215.5000   116.9906     8.7469    13.1154
  216.0000   113.7784     8.8366    13.7212
  216.5000   110.5365     8.9272    12.3325
  217.0000   107.2272     9.0187    11.3907
  217.5000   106.9239     9.1120    10.5209
  218.0000   108.7974     9.2749     9.9060
  218.5000   110.0007     9.4423     9.5459
  219.0000   107.0507     9.6128     9.6560
  219.5000   103.0416     9.7863     9.7475
  220.0000   101.1168     9.9630     9.8399
  220.5000    99.7732    10.1400     9.9516
  221.0000   102.6646    10.3123    10.1226
  221.5000   107.9795    10.4874    10.2925
  222.0000   113.6259    10.7308    10.5330
  222.5000   116.0838    11.0446    10.8410
  223.0000   113.3652    11.3676    11.1581
  223.5000   108.1799    11.7140    11.4981
  224.0000   102.9798    11.8848    11.7610
  224.5000    99.3381    12.0655    12.0417
  225.0000    95.5477    12.2490    12.3290
  225.5000    92.1546    12.4353    12.6233
  226.0000    89.8675    12.6188    12.9763
  226.5000    88.8984    12.5643    12.8319
  227.0000    89.5123    12.5122    12.6601
  227.5000    91.6889    12.3015    12.4907
  228.0000    95.7456    12.0716    12.3235
  228.5000    99.7407    11.8460    12.0845
  229.0000   101.6265    11.7236    11.8175
  229.5000   100.7545    11.6136    11.5564
  230.0000    99.9360    11.4981    11.2861
  230.5000    99.4470    11.5440    11.3347
  231.0000    99.8769    11.4700    11.2586
  231.5000   100.2876    11.3920    11.1816
  232.0000   100.4344    11.3519    11.1426
  232.5000    99.5127    11.3115    11.1030
  233.0000    98.6195    11.2713    11.0635
  233.5000    98.3872    11.2313    11.0242
  234.0000   100.2347    11.1914    10.9851
  234.5000   101.8852    11.1516    10.9460
  235.0000    99.3782    11.1120    10.9071
  235.5000    95.0862    11.0725    10.8684
  236.0000    90.7395    11.0331    10.8297
  236.5000    90.2965    10.9939    10.7913
  237.0000    91.0318    10.9176    10.7163
  237.5000    93.6255    10.8089    10.6098
  238.0000    96.8783    10.7013    10.5041
  238.5000    99.8199    10.5948    10.3995
  239.0000    96.5392    10.4893    10.2959
  239.5000    93.0573    10.3849    10.1930
  240.0000    93.0927    10.2835    10.0946
  240.5000    98.1137    10.2367    10.0480
  241.0000   100.8052    10.1800     9.9924
  241.5000   102.3744    10.1237     9.9371
  242.0000   103.9133    10.0677     9.8821
  242.5000   103.4760    10.0120     9.8274
  243.0000    99.7967     9.9565     9.7730
  243.5000    96.2390     9.8970     9.7142
  244.0000    97.6141     9.8041     9.6235
  244.5000    99.3212     9.7120     9.5330
  245.0000    97.9827     9.6208     9.4435
  245.5000    93.9606     9.5305     9.3548
  246.0000    92.3667     9.4538     9.2832
  246.5000    95.3779     9.4340     9.3576
  247.0000    98.3885     9.4143     9.4209
  247.5000   101.4247     9.3946     9.4575
  248.0000   101.0445     9.3749     9.3759
  248.5000    99.7328     9.3553     9.3190
  249.0000    99.0070     9.3356     9.2624
  249.5000    99.5761     9.3160     9.2062
  250.0000   100.1441     9.2965     9.1501
  250.5000   100.7148     9.2480     9.0781
  251.0000   101.3742     9.1359     8.9675
  251.5000    97.8334     9.0252     8.8588
  252.0000    93.2810     8.9158     8.7514
  252.5000    89.7655     8.8077     8.6453
  253.0000    91.4089     8.7009     8.5405
  253.5000    96.5223     8.5697     8.4073
  254.0000    99.4280     8.3449     8.1663
  254.5000    98.5403     8.1259     7.9322
  255.0000    97.2756     7.9252     7.7918
  255.5000    95.9758     7.9003     7.7127
  256.0000    95.3534     7.8631     7.6139
  256.5000    95.4189     7.8260     7.5650
  257.0000    98.1361     7.7791     7.6200
  257.5000   102.5231     7.8429     7.6625
  258.0000   106.9548     7.9313     7.7052
  258.5000   108.1996     8.0208     7.7482
  259.0000   106.0775     8.1112     7.7914
  259.5000   103.1405     8.2027     7.8348
  260.0000   100.2078     8.2952     7.9276
  260.5000   100.8437     8.3888     8.0535
  261.0000   103.1276     8.4834     8.1814
  261.5000   104.6950     8.5791     8.3113
  262.0000   105.7018     8.6758     8.4433
  262.5000   104.1456     8.7737     8.5773
  263.0000   101.8232     8.8612     8.6979
  263.5000    99.4625     8.8479     8.6848
  264.0000    99.0686     8.8360     8.6732
  264.5000    99.7108     8.8241     8.6614
  265.0000    99.4501     8.8122     8.6497
  265.5000   100.2110     8.8004     8.6380
  266.0000   101.6248     8.7883     8.6265
  266.5000   106.1167     8.7679     8.6068
  267.0000   108.2719     8.7158     8.5551
  267.5000   109.3737     8.6646     8.5048
  268.0000   109.8905     8.6173     8.4584
  268.5000   109.4049     8.6306     8.4714
  269.0000   108.8434     8.6457     8.4863
  269.5000   108.3043     8.6609     8.5012
  270.0000   108.3788     8.6760     8.5161
  270.5000   110.2551     8.6912     8.5310
  271.0000   109.9645     8.7105     8.5499
  271.5000   109.5975     8.7327     8.5717
  272.0000   109.2361     8.7550     8.5936
  272.5000   108.8796     8.7774     8.6156
  273.0000   107.6294     8.7999     8.6376
  273.5000   105.5600     8.8224     8.6597
  274.0000   103.8427     8.8449     8.6819
  274.5000   105.6563     8.8612     8.6979
  275.0000   107.3293     8.7403     8.5792
  275.5000   103.8761     8.6469     8.4875
  276.0000    99.4905     8.5545     8.3968
  276.5000    95.8596     8.4585     8.3026
  277.0000    98.9018     8.3551     8.2048
  277.5000   100.1713     8.2205     8.0765
  278.0000   100.7441     8.0876     7.9503
  278.5000   100.6625     7.9568     7.8260
  279.0000   100.3441     7.8282     7.7037
  279.5000   100.8236     7.7071     7.5833
  280.0000   100.5011     7.8499     7.3856
  280.5000    99.6197     7.4698     7.1791
  281.0000    98.6916     7.1253     6.9784
  281.5000    99.9868     6.9301     6.8024
  282.0000   101.7049     6.7576     6.6331
  282.5000   103.4169     6.5796     6.4583
  283.0000   104.7083     6.5149     6.3948
  283.5000   103.2021     6.4583     6.3393
  284.0000   101.1519     6.5871     6.4657
  284.5000    99.0525     6.6992     6.5756
  285.0000   100.0614     6.8258     6.6739
  285.5000   101.5255     6.9731     6.7519
  286.0000   102.9652     7.1235     6.9077
  286.5000   103.2194     7.2772     7.0795
  287.0000   101.6073     7.4342     7.2563
  287.5000   100.0308     7.5946     7.4393
  288.0000   100.2655     7.7137     7.5704
  288.5000   101.2875     7.7352     7.5932
  289.0000   101.1190     7.7567     7.6141
  289.5000    99.6928     7.7791     7.6364
  290.0000    98.2963     7.7791     7.5868
  290.5000    97.6874     7.5975     7.4575
  291.0000   100.0105     7.4823     7.3464
  291.5000   102.3020     7.4241     7.2970
  292.0000   104.5992     7.3664     7.2479
  292.5000   104.6504     7.3064     7.1991
  293.0000   102.7270     7.0990     7.1543
  293.5000   100.7978     6.8178     7.0623
  294.0000    99.8730     6.5498     6.8710
  294.5000   101.5458     6.2923     6.5800
