~VERSION INFORMATION
 VERS.                2.0:   CWLS LOG ASCII STANDARD - VERSION 2.0
 WRAP.                 NO:   ONE LINE PER DEPTH STEP
~WELL INFORMATION
#MNEM.UNIT      DATA TYPE    INFORMATION
#----------   ------------   ------------------------------
 STRT.F           31.0000:   START DEPTH
 STOP.F          590.0000:   STOP DEPTH
 STEP.F            0.1000:   STEP LENGTH
 NULL.          -999.2500:   NO VALUE
 COMP. LAWRENCE/ALLISON INC:   COMPANY
 WELL. NPR 3 73-61 SX #3-3:   WELL
 FLD .             TEAPOT:   FIELD
 LOC .       S3 T38N R78W:   LOCATION
 CNTY.            NATRONA:   COUNTY
 STAT.            WYOMING:   STATE
 CTRY. UNITED STATES OF AMERICA:   COUNTRY
 SRVC.           Gearhart:   SERVICE COMPANY
 DATE.        14-AUG-1988:   LOGDATE
 API .       490251124200:   API NUMBER
~CURVE INFORMATION
#MNEM.UNIT       API CODE    CURVE DESCRIPTION
#----------   ------------   ------------------------------
 DEPT.F                  :   
 GRR .GAPI   07 310 01 00:   GAMMA RAY
 RILD.OHMM   07 120 46 00:   INDUCTION LOG DEEP RESISTIVITY
 RILM.OHMM   07 120 44 00:   INDUCTION LOG MEDIUM RESISTIVITY
~PARAMETER INFORMATION
#MNEM.UNIT          VALUE    DESCRIPTION
#----------   ------------   ------------------------------
 PD  .                 GL:   PERMANENT DATUM
 EPD .F              5136:   ELEVATION PERMANENT DATUM
 LMF .                 KB:   LOG MEASURED FROM
 DAPD.F                10:   FEET ABOVE PERMANENT DATUM
 DMF .                 KB:   DRILLING MEASURED FROM
 EKB .F              5146:   KELLING BUSHING
 EDF .F              5144:   DRILLING FLOOR
 EGL .F              5136:   GROUND LEVEL
 DATE.        14-AUG-1988:   RUN DATE
 RUN .                  1:   RUN NUMBER
 DD  .F               597:   DEPTH DRILLER
 DL  .F               598:   DEPTH LOGGER
 BLI .F               590:   BOTTOM LOG INTERVAL
 TLI .F                50:   TOP LOG INTERVAL
 CS  .IN            9.625:   CASING SIZE
 CBD .F                50:   CASING BOTTOM DRILLER
 CBL .F                50:   CASING BOTTOM LOGGER
 BS  .IN             8.75:   BIT SIZE
 BSD .F               597:   BIT SIZE AT DEPTH
 DFT .                AIR:   DRILLING FLUID TYPE
 TCS .HRS            1930:   TIME CURCULATED STOPPED
 TLAB.HRS            2030:   TIME LOGGER AT BOTTOM
 MRT .F                70:   MAXIMUM RECORDED TEMPERATURE
 LUN .               7597:   LOGGING UNIT NUMBER
 LUL .           GILLETTE:   LOGGING UNIT LOCATION
 ENGI.         WEATHERMON:   RECORDING ENGINEER
 WITN.             STRONG:   WITNESSED BY
 CLNT.            A2DTECH:   CLIENT CODE
 ORIG.           5" PRINT:   ORIGIN OF DATA
 UWI .       490251124200:   UNIQUE WELL ID
 DICO. A2D Technologies, Inc.:   DIGITIZING COMPANY
~OTHER INFORMATION
~A   DEPT       GRR      RILD       RILM   
# ...
  540.6000    95.8145    12.5943    12.4046
  540.7000    95.3102    12.5931    12.4034
  540.8000    94.8059    12.5866    12.4026
  540.9000    94.3520    12.5035    12.3587
  541.0000    94.0998    12.5024    12.3148
  541.1000    93.7973    12.5012    12.3138
  541.2000    93.9990    12.5000    12.3128
  541.3000    94.4025    12.4794    12.3117
  541.4000    95.0077    12.4112    12.3107
  541.5000    95.7137    12.4098    12.3097
  541.6000    96.2179    12.3468    12.2803
  541.7000    96.8230    12.3218    12.2226
  541.8000    97.2264    12.2876    12.2216
  541.9000    97.7306    12.2343    12.2203
  542.0000    98.1341    12.2331    12.1632
  542.1000    98.3863    12.2317    12.1340
  542.2000    98.6384    12.2307    12.1330
  542.3000    98.6384    12.1830    12.1320
  542.4000    98.8401    12.1438    12.1310
  542.5000    98.9410    12.1426    12.0602
  542.6000    98.9410    12.1414    12.0452
  542.7000    98.9915    12.1401    12.0442
  542.8000    99.2436    12.0791    12.0432
  542.9000    98.9410    12.0540    12.0422
  543.0000    98.9410    12.0529    12.0412
  543.1000    98.7896    12.0517    11.9567
  543.2000    98.6384    12.0467    11.9560
  543.3000    98.5377    11.9659    11.9550
  543.4000    98.0333    11.9649    11.9540
  543.5000    97.7812    11.9637    11.9392
  543.6000    97.5290    11.9315    11.8694
  543.7000    97.4281    11.8787    11.8682
  543.8000    97.4281    11.8776    11.8674
  543.9000    97.4281    11.8763    11.8254
  544.0000    97.4281    11.8753    11.7834
  544.1000    97.4281    11.8298    11.7824
  544.2000    97.4281    11.7909    11.7814
  544.3000    97.5794    11.7898    11.7127
  544.4000    97.8316    11.7856    11.6981
  544.5000    98.0333    11.7058    11.6971
  544.6000    98.0333    11.7049    11.6961
  544.7000    98.0333    11.7038    11.6816
  544.8000    98.2350    11.6729    11.6134
  544.9000    98.4871    11.6206    11.6122
  545.0000    98.6384    11.6195    11.6114
  545.1000    98.6384    11.6182    11.6104
  545.2000    98.6384    11.5611    11.6095
  545.3000    98.8905    11.5358    11.6085
  545.4000    99.1429    11.5057    11.6076
  545.5000    99.2436    11.4538    11.6066
  545.6000    99.2436    11.4528    11.6056
  545.7000    99.2940    11.4514    11.5646
  545.8000    99.5461    11.3956    11.5235
  545.9000    99.8487    11.3703    11.5225
  546.0000    99.8487    11.3408    11.5216
  546.1000    99.8487    11.2895    11.5206
  546.2000    99.8487    11.2864    11.4666
  546.3000    99.7983    11.2091    11.4391
  546.4000    99.5461    11.2082    11.4381
  546.5000    99.2941    11.2071    11.4240
  546.6000    99.2436    11.1785    11.3572
  546.7000    98.9411    11.1275    11.3561
  546.8000    98.5376    11.1264    11.3553
  546.9000    98.2351    11.1251    11.3544
  547.0000    97.7307    11.0715    11.3273
  547.1000    97.4281    11.0463    11.2740
  547.2000    97.0247    11.0452    11.2731
  547.3000    96.5203    11.0300    11.2721
  547.4000    96.1169    10.9668    11.2712
  547.5000    95.9153    10.9655    11.2313
  547.6000    95.9154    10.9129    11.1914
  547.7000    96.2178    10.8878    11.1905
  547.8000    96.4195    10.8867    11.1896
  547.9000    96.6716    10.8721    11.1111
  548.0000    97.0246    10.8094    11.1104
  548.1000    97.5289    10.8081    11.0710
  548.2000    98.0333    10.7566    11.0317
  548.3000    98.5375    10.7315    11.0181
  548.4000    99.0423    10.7049    10.9537
  548.5000    99.5465    10.6553    10.9528
  548.6000   100.0505    10.6543    10.9519
  548.7000   100.5548    10.6530    10.9131
  548.8000   101.0591    10.6025    10.8743
  548.9000   101.6641    10.5776    10.8609
  549.0000   102.0677    10.5766    10.7974
  549.1000   102.5720    10.5629    10.7963
  549.2000   103.0762    10.5014    10.7956
  549.3000   103.5300    10.5002    10.7574
  549.4000   103.7822    10.4507    10.7192
  549.5000   104.2863    10.3895    10.7060
  549.6000   104.7906    10.3527    10.6433
  549.7000   105.2949    10.3396    10.6423
  549.8000   105.7993    10.2792    10.6416
  549.9000   106.3035    10.2780    10.6039
  550.0000   106.8079    10.2176    10.5493
  550.1000   106.5053    10.1421    10.5059
  550.2000   106.3035    10.0666    10.4626
  550.3000   106.0514     9.9912    10.4193
  550.4000   105.6984     9.9157    10.3760
  550.5000   105.1940     9.8537    10.3326
  550.6000   104.6898     9.8528    10.2893
  550.7000   104.3873     9.7968    10.2460
  550.8000   104.1856     9.7396    10.2026
  550.9000   103.7823     9.6829    10.1593
  551.0000   103.2780     9.6264    10.1160
  551.1000   102.7736     9.5702    10.0727
  551.2000   102.2693     9.5117    10.0293
  551.3000   102.0172     9.5108     9.9860
  551.4000   101.5629     9.4692     9.9427
  551.5000   101.2101     9.4140     9.8993
  551.6000   101.0590     9.3591     9.8560
  551.7000   101.1095     9.3045     9.8127
  551.8000   101.3617     9.2463     9.7693
  551.9000   101.9667     9.1962     9.7260
  552.0000   102.3703     9.1049     9.6827
  552.1000   102.8746     9.0265     9.6394
  552.2000   103.3788     8.9578     9.5960
  552.3000   103.9394     8.8544     9.5527
  552.4000   104.4290     8.7424     9.5010
  552.5000   104.9294     8.6963     9.5003
  552.6000   105.2906     8.6456     9.4670
  552.7000   105.5406     8.5709     9.4120
  552.8000   105.7909     8.4860     9.3573
  552.9000   106.0606     8.4323     9.3012
  553.0000   106.2908     8.3234     9.2490
  553.1000   106.3636     8.2391     9.1952
  553.2000   106.4879     8.1440     9.1418
  553.3000   106.6667     8.0717     9.0887
  553.4000   106.6481     8.0125     9.0359
  553.5000   106.3636     7.9173     8.9792
  553.6000   106.3636     7.7614     8.9312
  553.7000   106.2007     7.7227     8.8794
  553.8000   106.0606     7.6492     8.8027
  553.9000   106.0036     7.5610     8.7015
  554.0000   105.7536     7.4839     8.6052
  554.1000   105.4545     7.4371     8.5489
  554.2000   105.4545     7.2877     8.4635
  554.3000   105.3063     7.2179     8.3348
  554.4000   105.1515     7.1346     8.2129
  554.5000   105.1515     7.0354     8.1073
  554.6000   105.1515     6.9226     7.9667
  554.7000   105.1515     6.8422     7.7535
  554.8000   105.1515     6.7020     7.5732
  554.9000   105.2852     6.6397     7.3842
  555.0000   105.6159     6.5405     7.1997
  555.1000   106.1160     6.4278     7.0028
  555.2000   106.6667     6.3171     6.8405
  555.3000   106.8917     6.2069     6.6877
  555.4000   107.4864     6.1362     6.5355
  555.5000   108.1174     6.0655     6.3665
  555.6000   108.6839     5.9956     6.1859
  555.7000   109.4345     5.9391     6.0102
  555.8000   110.3030     5.9044     5.8286
  555.9000   111.1447     5.8687     5.5848
  556.0000   112.1451     5.8681     5.3782
  556.1000   113.3545     5.8420     5.2110
  556.2000   114.9075     5.8265     5.0631
  556.3000   116.6667     5.8143     4.9218
  556.4000   118.4101     5.7851     4.7972
  556.5000   120.5525     5.7846     4.7244
  556.6000   122.8025     5.7841     4.6613
  556.7000   124.9624     5.7835     4.6077
  556.8000   126.9257     5.8007     4.5614
  556.9000   128.7879     5.8669     4.5349
  557.0000   129.9589     5.9860     4.5044
  557.1000   131.0285     5.9854     4.5258
  557.2000   131.9007     5.9849     4.5678
  557.3000   132.6510     5.9843     4.6313
  557.4000   133.3333     6.0012     4.7173
  557.5000   133.3333     6.0248     4.8273
  557.6000   133.3333     6.0243     4.9373
  557.7000   132.8331     6.0237     5.0473
  557.8000   131.9689     6.0232     5.1573
  557.9000   130.9072     6.0465     5.2673
  558.0000   129.6255     6.0640     5.3773
  558.1000   126.9697     6.0829     5.4873
  558.2000   125.7379     6.1502     5.5973
  558.3000   124.0848     6.1897     5.7074
  558.4000   122.2345     6.2514     5.8174
  558.5000   120.1873     6.3233     5.9363
  558.6000   117.8788     6.4130     6.0950
  558.7000   115.6873     6.5239     6.2461
