~VERSION INFORMATION
 VERS.                2.0:   CWLS LOG ASCII STANDARD - VERSION 2.0
 WRAP.                 NO:   ONE LINE PER DEPTH STEP
~WELL INFORMATION
#MNEM.UNIT      DATA TYPE    INFORMATION
#----------   ------------   ------------------------------
 STRT.F           94.0000:   START DEPTH
 STOP.F          939.0000:   STOP DEPTH
 STEP.F            0.5000:   STEP LENGTH
 NULL.          -999.2500:   NO VALUE
 COMP. U S NAVY/INTEX OIL CO:   COMPANY
 WELL.    NPR #3 #88-S-27:   WELL
 FLD .             TEAPOT:   FIELD
 LOC .      S27 T39N R78W:   LOCATION
 CNTY.            NATRONA:   COUNTY
 STAT.            WYOMING:   STATE
 CTRY. UNITED STATES OF AMERICA:   COUNTRY
 SRVC.       Schlumberger:   SERVICE COMPANY
 DATE.        30-JUL-1963:   LOGDATE
 API .       490250658100:   API NUMBER
~CURVE INFORMATION
#MNEM.UNIT       API CODE    CURVE DESCRIPTION
#----------   ------------   ------------------------------
 DEPT.F                  :   
 SPR .MV     05 010 01 00:   SPONTANEOUS POTENTIAL FROM RES.
 CILD.MMHO   05 110 46 00:   CONDUCTIVITY INDUCTION LOG DEEP
 ASN .OHMM   05 041 16 00:   AMPLIFIED SHORT NORMAL 16"
 ILD .OHMM   05 120 46 00:   INDUCTION LOG DEEP
 GR  .GAPI   30 310 01 00:   GAMMA RAY
~PARAMETER INFORMATION
#MNEM.UNIT          VALUE    DESCRIPTION
#----------   ------------   ------------------------------
 PD  .                 GL:   PERMANENT DATUM
 EPD .F              5069:   ELEVATION PERMANENT DATUM
 LMF .                 KB:   LOG MEASURED FROM
 DAPD.F                 5:   FEET ABOVE PERMANENT DATUM
 DMF .                 KB:   DRILLING MEASURED FROM
 EKB .F              5074:   KELLING BUSHING
 EGL .F              5069:   GROUND LEVEL
 DATE.          7-30-1969:   RUN DATE
 RUN .                  1:   RUN NUMBER
 DD  .F               940:   DEPTH DRILLER
 DL  .F               940:   DEPTH LOGGER
 BLI .F               939:   BOTTOM LOG INTERVAL
 TLI .F                94:   TOP LOG INTERVAL
 CS  .IN            8.625:   CASING SIZE
 CBD .F                10:   CASING BOTTOM DRILLER
 BS  .IN             6.75:   BIT SIZE
 BSD .F               940:   BIT SIZE AT DEPTH
 DFT .            GEL/OIL:   DRILLING FLUID TYPE
 DFD .                9.6:   DRILLING FLUID DENSITY
 DFV .                 40:   DRILLING FLUID VISCOSITY
 DFPH.                  9:   DRILLING FLUID PH
 DFL .                  6:   DRILLING FLUID LOSS
 MSS .          FLOW LINE:   MUD SAMPLE SOURCE
 RMS .OHMM           2.94:   RESISTIVITY MUD SAMPLE
 MST .F                89:   MUD SAMPLE TEMPERATURE
 RMF .OHMM           2.19:   RESISTIVITY MUD FILTRATE SAMPLE
 MFST.F                87:   MUD FILTRATE SAMPLE TEMPERATURE
 MFSS.           MEASURED:   MUD FILTRATE SAMPLE SOURCE
 TCS .HRS               1:   TIME CURCULATED STOPPED
 LUN .               4507:   LOGGING UNIT NUMBER
 LUL .               CSPR:   LOGGING UNIT LOCATION
 ENGI.            WINKLER:   RECORDING ENGINEER
 WITN.          JORGENSEN:   WITNESSED BY
 CLNT.            A2DTECH:   CLIENT CODE
 ORIG.           5" PRINT:   ORIGIN OF DATA
 UWI .       490250658100:   UNIQUE WELL ID
 DICO. A2D Technologies, Inc.:   DIGITIZING COMPANY
~OTHER INFORMATION
~A   DEPT      SPR        CILD         ASN        ILD       GR   
# ...
  521.0000   -38.6531   140.1996     8.4532     7.2883  -999.2500
  521.5000   -38.6540   140.2053     8.4849     7.3501  -999.2500
  522.0000   -38.6514   139.7454     8.5871     7.4118  -999.2500
  522.5000   -38.7984   138.3920     8.6754     7.4735  -999.2500
  523.0000   -38.9909   137.0385     8.6618     7.5352  -999.2500
  523.5000   -39.1840   135.6851     8.6335     7.5970  -999.2500
  524.0000   -39.3787   134.3317     8.7053     7.6587  -999.2500
  524.5000   -39.4566   132.9782     8.9035     7.7204  -999.2500
  525.0000   -39.4580   131.6248     9.0988     7.7821  -999.2500
  525.5000   -39.4580   130.2714     9.2466     7.8439  -999.2500
  526.0000   -39.4578   128.9179     9.3147     7.9057  -999.2500
  526.5000   -39.4578   128.1424     9.3246     7.9674  -999.2500
  527.0000   -39.4578   128.1381     9.3641     8.0222  -999.2500
  527.5000   -39.4578   128.1406     9.3501     8.0729  -999.2500
  528.0000   -39.4574   128.1407     9.3088     8.1237  -999.2500
  528.5000   -39.4550   127.4322     9.2976     8.1743  -999.2500
  529.0000   -39.5558   125.9096     9.4609     8.2223  -999.2500
  529.5000   -39.6685   124.0997     9.6279     8.2697  -999.2500
  530.0000   -39.7797   121.9849     9.7837     8.3773  -999.2500
  530.5000   -39.8604   119.8702     9.8953     8.5515  -999.2500
  531.0000   -39.8607   117.7554    10.0604     8.7246  -999.2500
  531.5000   -39.9792   115.6407    10.2378     8.8983  -999.2500
  532.0000   -40.3638   113.5260    10.3954     9.0719  -999.2500
  532.5000   -40.7441   111.4112    10.2117     9.2457  -999.2500
  533.0000   -41.1245   109.2965    10.2351     9.4199  -999.2500
  533.5000   -41.5048   107.1817    10.5459     9.5936  -999.2500
  534.0000   -41.8853   105.0670    10.7661     9.6866  -999.2500
  534.5000   -42.2658   102.9472    10.9062     9.7767  -999.2500
  535.0000   -42.6451   100.8413    10.9345     9.8673  -999.2500
  535.5000   -42.8728    99.9851    11.1074     9.9579  -999.2500
  536.0000   -42.7371   100.0017    11.2789    10.0475  -999.2500
  536.5000   -42.0858   100.5863    11.3068    10.0675  -999.2500
  537.0000   -42.0640   101.5448    11.3076     9.9868  -999.2500
  537.5000   -41.9947   102.4969    11.3062     9.9075  -999.2500
  538.0000   -41.6471   103.4485    11.2544     9.8278  -999.2500
  538.5000   -41.3078   104.4001    11.0114     9.7481  -999.2500
  539.0000   -40.9698   105.3518    10.7716     9.6685  -999.2500
  539.5000   -40.6626   106.3034    10.5964     9.5889  -999.2500
  540.0000   -40.8405   107.2550    10.5632     9.5092  -999.2500
  540.5000   -41.0699   108.2067    10.4889     9.4296  -999.2500
  541.0000   -41.0663   109.0452    10.4134     9.3510  -999.2500
  541.5000   -41.1625   109.0452    10.3362     9.2955  -999.2500
  542.0000   -41.4781   109.0450    10.3931     9.2966  -999.2500
  542.5000   -41.7902   109.0453    10.5665     9.2966  -999.2500
  543.0000   -42.1032   109.1475    10.6090     9.2965  -999.2500
  543.5000   -42.4158   109.8188    10.6528     9.2882  -999.2500
  544.0000   -42.6778   110.4866    10.6985     9.2342  -999.2500
  544.5000   -42.5809   111.1545    10.5525     9.1807  -999.2500
  545.0000   -42.0411   111.8223    10.3962     9.1272  -999.2500
  545.5000   -41.5078   112.4901    10.4378     9.0738  -999.2500
  546.0000   -40.9744   113.1579    10.8768     9.0203  -999.2500
  546.5000   -40.4736   113.8257    10.4594     8.9670  -999.2500
  547.0000   -40.4588   114.0704    10.3933     8.9130  -999.2500
  547.5000   -40.4608   114.0704    10.3210     8.8947  -999.2500
  548.0000   -40.4591   114.0704    10.2811     8.8944  -999.2500
  548.5000   -40.5587   114.0704    10.2816     8.8945  -999.2500
  549.0000   -40.6715   114.0704    10.2805     8.8939  -999.2500
  549.5000   -40.7841   114.0704    10.3345     8.8813  -999.2500
  550.0000   -40.8646   114.1582    10.4092     8.8689  -999.2500
  550.5000   -40.8341   114.4539    10.4515     8.8566  -999.2500
  551.0000   -40.7336   114.7496    10.3391     8.8443  -999.2500
  551.5000   -40.6619   115.0454    10.2260     8.8321  -999.2500
  552.0000   -40.8121   115.3411    10.1132     8.8198  -999.2500
  552.5000   -41.0736   115.6368    10.0004     8.8078  -999.2500
  553.0000   -41.0606   115.9325     9.9000     8.7948  -999.2500
  553.5000   -40.6898   116.9179     9.8990     8.7095  -999.2500
  554.0000   -40.2804   118.5930     9.8995     8.6152  -999.2500
  554.5000   -40.2580   120.3936     9.9005     8.5226  -999.2500
  555.0000   -40.2605   123.3250     9.8589     8.3322  -999.2500
  555.5000   -40.2609   126.2563     9.7723     8.1044  -999.2500
  556.0000   -40.2617   130.1944     9.5073     7.8758  -999.2500
  556.5000   -40.1642   134.5641     9.2062     7.6473  -999.2500
  557.0000   -39.9894   138.9338     8.9044     7.4187  -999.2500
  557.5000   -39.8140   143.3035     8.6032     7.1916  -999.2500
  558.0000   -39.6375   147.2362     8.3302     6.9768  -999.2500
  558.5000   -39.4644   148.2412     8.1290     6.8864  -999.2500
  559.0000   -39.4566   148.2412     8.0504     6.8838  -999.2500
  559.5000   -39.4576   147.3932     8.0501     6.8849  -999.2500
  560.0000   -39.4578   144.5666     8.1596     7.0096  -999.2500
  560.5000   -39.4576   141.7399     8.3931     7.1494  -999.2500
  561.0000   -39.4562   138.9133     8.6256     7.2892  -999.2500
  561.5000   -39.5241   136.0867     8.8586     7.4288  -999.2500
  562.0000   -39.6079   133.2543     8.9984     7.5684  -999.2500
  562.5000   -39.6923   130.4266     9.0452     7.7081  -999.2500
  563.0000   -39.7767   130.1463     9.0923     7.8496  -999.2500
  563.5000   -39.8564   130.1465     9.1157     7.8892  -999.2500
  564.0000   -39.8147   130.1489     9.1155     7.8850  -999.2500
  564.5000   -39.7014   130.6718     9.1060     7.8409  -999.2500
  565.0000   -39.5895   131.2518     9.0721     7.7964  -999.2500
  565.5000   -39.4773   131.8325     9.0385     7.7520  -999.2500
  566.0000   -39.3649   132.4127     9.0050     7.7076  -999.2500
  566.5000   -39.2594   132.9937     8.9715     7.6631  -999.2500
  567.0000   -39.2562   133.1683     8.9381     7.6189  -999.2500
  567.5000   -39.2570   133.1692     8.9140     7.5941  -999.2500
  568.0000   -39.2718   132.8143     8.9133     7.6585  -999.2500
  568.5000   -39.3433   131.6287     8.9465     7.7232  -999.2500
  569.0000   -39.4130   130.4464     8.9868     7.7877  -999.2500
  569.5000   -39.4825   129.2640     9.0393     7.8521  -999.2500
  570.0000   -39.5520   128.0816     9.1224     7.9165  -999.2500
  570.5000   -39.6214   126.8992     9.2049     7.9810  -999.2500
  571.0000   -39.6588   125.7168     9.2875     8.0452  -999.2500
  571.5000   -39.6586   125.1256     9.3702     8.0914  -999.2500
  572.0000   -39.6583   125.4606     9.4542     8.0906  -999.2500
  572.5000   -39.6569   125.9392     9.4767     8.0885  -999.2500
  573.0000   -39.6696   126.4178     9.3937     8.0701  -999.2500
  573.5000   -39.8912   126.8964     9.3000     8.0514  -999.2500
  574.0000   -40.1081   127.3750     9.2165     8.0328  -999.2500
  574.5000   -40.2641   127.8537     9.2156     8.0141  -999.2500
  575.0000   -40.2614   128.3326     9.2155     7.9955  -999.2500
  575.5000   -40.0975   128.8114     9.2418     7.9769  -999.2500
  576.0000   -39.7712   129.1457     9.2783     7.9583  -999.2500
  576.5000   -39.4453   129.1457     9.2963     7.9397  -999.2500
  577.0000   -39.1189   129.3970     9.2749     7.9212  -999.2500
  577.5000   -38.7927   130.5522     9.1985     7.9024  -999.2500
  578.0000   -38.4659   131.1270     9.1230     7.8732  -999.2500
  578.5000   -38.1291   131.7020     9.0511     7.8169  -999.2500
  579.0000   -38.1336   132.2757     9.0077     7.7610  -999.2500
  579.5000   -38.3956   132.8500     8.9649     7.7046  -999.2500
  580.0000   -38.4529   133.4243     8.9342     7.6788  -999.2500
  580.5000   -38.4523   133.9986     8.9348     7.6646  -999.2500
  581.0000   -38.5539   134.1722     8.9279     7.6507  -999.2500
  581.5000   -38.6900   134.1709     8.8643     7.6368  -999.2500
