~VERSION INFORMATION
 VERS.                2.0:   CWLS LOG ASCII STANDARD - VERSION 2.0
 WRAP.                 NO:   ONE LINE PER DEPTH STEP
~WELL INFORMATION
#MNEM.UNIT      DATA TYPE    INFORMATION
#----------   ------------   ------------------------------
 STRT.F           46.0000:   START DEPTH
 STOP.F          670.0000:   STOP DEPTH
 STEP.F            0.5000:   STEP LENGTH
 NULL.          -999.2500:   NO VALUE
 COMP. FENIX & SCISSON INC:   COMPANY
 WELL. TEAPOT #27 62SX 11WI-11:   WELL
 FLD .             TEAPOT:   FIELD
 LOC .      S11 T38N R78W:   LOCATION
 CNTY.            NATRONA:   COUNTY
 STAT.            WYOMING:   STATE
 CTRY. UNITED STATES OF AMERICA:   COUNTRY
 SRVC.      Dresser Atlas:   SERVICE COMPANY
 DATE.        27-JUL-1980:   LOGDATE
 API .       490251084000:   API NUMBER
~CURVE INFORMATION
#MNEM.UNIT       API CODE    CURVE DESCRIPTION
#----------   ------------   ------------------------------
 DEPT.F                  :   
 GRD .GAPI   45 310 01 00:   GAMMA RAY FROM DENSITY LOG
 RHOB.G/C3   45 350 01 00:   BULK DENSITY
 CORR.G/C3   45 356 01 00:   DENSITY CORRECTION
 CALD.IN     45 280 60 00:   CALIPER
 DPOR.DEC    45 890 12 00:   DENSITY POROSITY SANDSTONE
 SPR .MV     07 010 01 00:   SPONTANEOUS POTENTIAL
 SFL .OHMM   07 220 01 00:   SHALLOW FOCUSED LOG RESISTIVITY
 ILD .OHMM   07 120 46 00:   INDUCTION LOG DEEP
 ILM .OHMM   07 120 44 00:   INDUCTION LOG MEDIUM
~PARAMETER INFORMATION
#MNEM.UNIT          VALUE    DESCRIPTION
#----------   ------------   ------------------------------
 PD  .                 GL:   PERMANENT DATUM
 EPD .F              5186:   ELEVATION PERMANENT DATUM
 LMF .                 KB:   LOG MEASURED FROM
 DAPD.F                 5:   FEET ABOVE PERMANENT DATUM
 DMF .                 KB:   DRILLING MEASURED FROM
 EKB .F              5191:   KELLING BUSHING
 EGL .F              5186:   GROUND LEVEL
 DATE.            7-27-80:   RUN DATE
 RUN .                  1:   RUN NUMBER
 DD  .F               660:   DEPTH DRILLER
 DL  .F               663:   DEPTH LOGGER
 BLI .F               661:   BOTTOM LOG INTERVAL
 TLI .F                46:   TOP LOG INTERVAL
 BS  .IN            7.875:   BIT SIZE
 BSD .F               660:   BIT SIZE AT DEPTH
 DFT .           CHEM GEL:   DRILLING FLUID TYPE
 DFD .                9.5:   DRILLING FLUID DENSITY
 DFV .                 50:   DRILLING FLUID VISCOSITY
 DFPH.                 11:   DRILLING FLUID PH
 DFL .                  6:   DRILLING FLUID LOSS
 MSS .           FLOWLINE:   MUD SAMPLE SOURCE
 RMS .OHMM            .08:   RESISTIVITY MUD SAMPLE
 MST .F                70:   MUD SAMPLE TEMPERATURE
 RMC .OHMM            .08:   RESISTIVITY MUD CAKE
 MCST.F                70:   MUD CAKE SAMPLE TEMPERATURE
 MFSS.               MEAS:   MUD FILTRATE SAMPLE SOURCE
 MCSS.               MEAS:   MUD CAKE SAMPLE SOURCE
 RMB .OHMM            .06:   RESISTIVITY MUD AT BHT
 BHT .F                90:   BOTTOM HOLE TEMPERATURE
 TCS .HRS               5:   TIME CURCULATED STOPPED
 MRT .F                90:   MAXIMUM RECORDED TEMPERATURE
 LUN .               6145:   LOGGING UNIT NUMBER
 LUL .              GLTTE:   LOGGING UNIT LOCATION
 ENGI.              HENRY:   RECORDING ENGINEER
 WITN.              AMEND:   WITNESSED BY
 CLNT.            A2DTECH:   CLIENT CODE
 ORIG.       2", 5" PRINT:   ORIGIN OF DATA
 UWI .       490251084000:   UNIQUE WELL ID
 DICO. A2D Technologies, Inc.:   DIGITIZING COMPANY
~OTHER INFORMATION
~A   DEPT      GRD       RHOB       CORR       CALD       DPOR        SPR          SFL        ILD      ILM   
# ...
  192.0000   106.6199     2.5086     0.0053     8.5218     0.1030   -42.9217     8.9932     6.3475     7.2793
  192.5000   106.2454     2.5095     0.0016     8.5200     0.1032   -43.0289     8.9001     6.2936     7.2434
  193.0000   106.1480     2.5005     0.0024     8.5182     0.1073   -43.0521     8.8986     6.2738     7.2023
  193.5000   106.0743     2.4910     0.0032     8.5164     0.1128   -42.6046     8.9813     6.3176     7.2112
  194.0000   105.1682     2.4827     0.0003     8.5147     0.1164   -42.1617     9.1085     6.3483     7.2218
  194.5000   104.1678     2.4838    -0.0085     8.5129     0.1164   -41.7208     9.1751     6.3791     7.2324
  195.0000   106.0289     2.4857    -0.0168     8.5111     0.1156   -41.2722     9.2335     6.4101     7.2430
  195.5000   108.2922     2.4827    -0.0140     8.5093     0.1160   -41.2673     9.0372     6.4414     7.2536
  196.0000   104.6849     2.4742    -0.0106     8.5075     0.1240   -41.4562     8.8183     6.4813     7.2642
  196.5000   100.3219     2.4684    -0.0085     8.5057     0.1285   -41.6499     8.8706     6.5249     7.2802
  197.0000    99.8231     2.4625    -0.0093     8.5050     0.1289   -41.8447     8.9402     6.5688     7.3113
  197.5000   100.3038     2.4634    -0.0101     8.5050     0.1293   -41.9260     9.0436     6.6129     7.3425
  198.0000   100.7922     2.4604    -0.0102     8.5050     0.1307   -41.9274     9.1990     6.6491     7.3739
  198.5000   100.6546     2.4718    -0.0095     8.5050     0.1246   -41.9263     9.3188     6.6803     7.4040
  199.0000   101.6416     2.4840    -0.0088     8.5050     0.1191   -41.9274     9.3188     6.7117     7.3822
  199.5000   104.4853     2.4873    -0.0081     8.5050     0.1148   -42.0136     9.3188     6.7432     7.3566
  200.0000   105.1194     2.4850    -0.0074     8.5050     0.1177   -42.3961     9.2690     6.7531     7.3311
  200.5000   104.3660     2.4809    -0.0067     8.5050     0.1203   -42.7459     9.1969     6.7531     7.3057
  201.0000   105.3889     2.4767    -0.0041     8.5050     0.1225   -42.8717     9.1489     6.7531     7.2804
  201.5000   107.0251     2.4830    -0.0006     8.5050     0.1175   -43.0057     9.3447     6.7530     7.2476
  202.0000   107.7024     2.4910     0.0003     8.5050     0.1129   -43.1405     9.4919     6.7668     7.2085
  202.5000   106.3038     2.4962     0.0010     8.5050     0.1096   -43.2753     9.4530     6.7912     7.1696
  203.0000   105.2735     2.4971     0.0010     8.5050     0.1087   -43.4101     9.4039     6.8157     7.1309
  203.5000   104.5589     2.4890    -0.0003     8.5050     0.1145   -43.5388     9.4035     6.8403     7.0926
  204.0000   106.0061     2.4831    -0.0015     8.5050     0.1170   -43.6522     9.7586     6.8650     7.0710
  204.5000   107.3070     2.4850    -0.0025     8.5050     0.1173   -43.7646     9.8478     6.9171     7.1484
  205.0000   107.9519     2.4819    -0.0025     8.5050     0.1190   -43.8862     9.7149     7.0029     7.2115
  205.5000   108.2629     2.4832    -0.0025     8.5050     0.1197   -43.6819     9.5778     7.0897     7.2689
  206.0000   107.8421     2.4971     0.0000     8.5050     0.1108   -43.3616     9.6419     7.1776     7.4242
  206.5000   107.5293     2.5027     0.0054     8.5050     0.1050   -43.0387     9.8431     7.2385     7.5688
  207.0000   108.3381     2.5057     0.0108     8.5050     0.1043   -42.7204    10.0841     7.2889     7.7170
  207.5000   109.2321     2.5197     0.0157     8.5050     0.0942   -42.5874    10.3576     7.3396     7.8309
  208.0000   107.8769     2.5189     0.0152     8.5050     0.0888   -42.7672    10.6980     7.3907     7.9370
  208.5000   104.9783     2.5117     0.0148     8.5050     0.0912   -42.9424    10.6455     7.4422     8.0440
  209.0000   104.4645     2.5056     0.0144     8.5050     0.0928   -43.1190    10.5582     7.4791     8.1521
  209.5000   105.2427     2.5020     0.0141     8.5050     0.0947   -43.2932    10.4710     7.5096     8.2080
  210.0000   106.3059     2.4940     0.0137     8.5050     0.0953   -43.3579    10.4067     7.5402     8.2318
  210.5000   108.1687     2.5010     0.0135     8.5050     0.0941   -43.4058    10.4067     7.5709     8.2561
  211.0000   110.8855     2.5088     0.0135     8.5050     0.0920   -43.4536    10.4067     7.6017     8.2682
  211.5000   113.1693     2.4995     0.0135     8.5050     0.0950   -43.5008    10.4067     7.6779     8.2395
  212.0000   113.1779     2.4900     0.0139     8.5050     0.0981   -43.6163    10.4067     7.7746     8.2203
  212.5000   112.1079     2.4823     0.0155     8.5050     0.1004   -43.7513    10.6188     7.8723     8.2013
  213.0000   110.9516     2.4888     0.0170     8.5050     0.0973   -43.8879    10.8508     7.9941     8.1917
  213.5000   110.3677     2.5159     0.0186     8.5050     0.0905   -43.9099    11.0428     8.1254     8.2963
  214.0000   110.2297     2.5330     0.0202     8.5050     0.0864   -43.9096    11.1663     8.2587     8.3865
  214.5000   111.3085     2.5325     0.0216     8.5050     0.0891   -43.9088    11.2900     8.3950     8.4459
  215.0000   110.1770     2.5264     0.0222     8.5050     0.0921   -43.9337    11.4097     8.5526     8.4856
  215.5000   108.2188     2.5227     0.0230     8.5050     0.0927   -44.1645    11.4097     8.7809     8.5254
  216.0000   107.8229     2.5228     0.0227     8.5050     0.0887   -44.3998    11.4097     9.0153     8.5654
  216.5000   107.9088     2.5354     0.0199     8.5050     0.0848   -44.5032    11.5455     9.2335     8.6917
  217.0000   107.6390     2.5479     0.0172     8.5050     0.0807   -44.5095    12.1687     9.2927     8.8610
  217.5000   106.5110     2.5638     0.0158     8.5050     0.0698   -44.3145    12.1249     9.3245     9.0335
  218.0000   101.5776     2.5820     0.0171     8.5050     0.0586   -44.0721    12.0419     9.3420     9.1480
  218.5000    95.5671     2.5964     0.0174     8.5050     0.0498   -43.8287    11.9580     9.3596     9.0423
  219.0000    89.5489     2.5936     0.0133     8.5050     0.0503   -43.5845    11.8749     9.3772     8.9630
  219.5000    86.9764     2.5593     0.0049     8.5050     0.0724   -43.3379    11.7930     9.3961     8.8998
  220.0000    86.6745     2.5278     0.0036     8.5050     0.0878   -43.4918    11.7290     9.4042     8.8998
  220.5000    91.8127     2.4987     0.0035     8.5050     0.1033   -43.6961    11.7848     9.0993     8.8998
  221.0000   100.1282     2.4899     0.0034     8.5050     0.1149   -43.9011    11.8371     8.8884     8.7550
  221.5000   103.0396     2.4899     0.0077     8.5050     0.1137   -43.9113    11.7920     8.7910     8.5858
  222.0000   103.3539     2.5027     0.0120     8.5050     0.1067   -43.9098    11.7398     8.7499     8.4997
  222.5000   103.3727     2.5153     0.0164     8.5050     0.0988   -43.9099    11.6875     8.7091     8.6180
  223.0000   103.8590     2.5227     0.0207     8.5050     0.0904   -43.9078    11.6216     8.6684     8.6996
  223.5000   104.0837     2.5279     0.0235     8.5050     0.0904   -44.0583    11.6787     8.6306     8.7818
  224.0000   104.9883     2.5196     0.0227     8.5050     0.0964   -44.2905    11.7576     8.5940     8.8639
  224.5000   106.1604     2.5263     0.0220     8.5050     0.0928   -44.4998    11.8370     8.5776     8.9005
  225.0000   108.0211     2.5282     0.0203     8.5050     0.0928   -44.4515    11.7776     8.6517     8.8999
  225.5000   109.2894     2.5116     0.0168     8.5034     0.1001   -44.3996    11.7160     8.7375     8.8999
  226.0000   108.3279     2.5008     0.0135     8.4948     0.1075   -44.3488    11.6549     8.6912     8.8998
  226.5000   108.1686     2.5001     0.0101     8.4863     0.1084   -44.2982    11.6217     8.6175     8.8998
  227.0000   109.3129     2.4910     0.0068     8.4779     0.1052   -44.2477    11.6216     8.5444     8.8998
  227.5000   110.9170     2.4780     0.0036     8.4695     0.1215   -44.1973    11.6216     8.4720     8.8998
  228.0000   109.0336     2.4712     0.0003     8.4627     0.1249   -44.1469    11.5009     8.4218     8.8997
