~VERSION INFORMATION
 VERS.                2.0:   CWLS LOG ASCII STANDARD - VERSION 2.0
 WRAP.                 NO:   ONE LINE PER DEPTH STEP
~WELL INFORMATION
#MNEM.UNIT      DATA TYPE    INFORMATION
#----------   ------------   ------------------------------
 STRT.F           36.0000:   START DEPTH
 STOP.F         2324.5000:   STOP DEPTH
 STEP.F            0.5000:   STEP LENGTH
 NULL.          -999.2500:   NO VALUE
 COMP. FENIX & SCISSON INC:   COMPANY
 WELL.           SX #57-3:   WELL
 FLD .             TEAPOT:   FIELD
 LOC .       S3 T38N R78W:   LOCATION
 CNTY.            NATRONA:   COUNTY
 STAT.            WYOMING:   STATE
 CTRY. UNITED STATES OF AMERICA:   COUNTRY
 SRVC.           BIRDWELL:   SERVICE COMPANY
 DATE.        15-JUN-1978:   LOGDATE
 API .       490251028800:   API NUMBER
~CURVE INFORMATION
#MNEM.UNIT       API CODE    CURVE DESCRIPTION
#----------   ------------   ------------------------------
 DEPT.F                  :   
 CALD.IN     45 280 60 00:   CALIPER FROM DENSITY LOG
 GRD .GAPI   45 310 01 00:   GAMMA RAY FROM DENSITY LOG
 CORR.G/C3   45 356 01 00:   DENSITY CORRECTION
 RHOB.G/C3   45 350 01 00:   BULK DENSITY
 DPHI.DEC    45 890 12 00:   DENSITY POROSITY SANDSTONE
 SPR .MV     07 010 01 00:   SPONTANEOUS POTENTIAL
 ILD .OHMM   07 120 46 00:   INDUCTION LOG DEEP
 ILM .OHMM   07 120 44 00:   INDUCTION LOG MEDIUM
 SGRD.OHMM   07 220 05 00:   SHALLOW GUARD RESISTIVITY
~PARAMETER INFORMATION
#MNEM.UNIT          VALUE    DESCRIPTION
#----------   ------------   ------------------------------
 PD  .                 GL:   PERMANENT DATUM
 EPD .F              5184:   ELEVATION PERMANENT DATUM
 LMF .                 KB:   LOG MEASURED FROM
 DAPD.F                10:   FEET ABOVE PERMANENT DATUM
 DMF .                 KB:   DRILLING MEASURED FROM
 EKB .F              5184:   KELLING BUSHING
 EGL .F              5184:   GROUND LEVEL
 DATE.            6-15-78:   RUN DATE
 RUN .                  1:   RUN NUMBER
 DD  .F              2340:   DEPTH DRILLER
 DL  .F              2324:   DEPTH LOGGER
 BLI .F              2324:   BOTTOM LOG INTERVAL
 TLI .F                50:   TOP LOG INTERVAL
 CS  .IN            9.625:   CASING SIZE
 CBD .F               600:   CASING BOTTOM DRILLER
 CBL .F               601:   CASING BOTTOM LOGGER
 BS  .IN             8.75:   BIT SIZE
 BSD .F              2340:   BIT SIZE AT DEPTH
 DFT .           AIR MIST:   DRILLING FLUID TYPE
 BHT .F                68:   BOTTOM HOLE TEMPERATURE
 MRT .F                68:   MAXIMUM RECORDED TEMPERATURE
 LUN .               2958:   LOGGING UNIT NUMBER
 LUL .               CASP:   LOGGING UNIT LOCATION
 ENGI.           REYNOLDS:   RECORDING ENGINEER
 WITN.           MCGINLEY:   WITNESSED BY
 CLNT.            A2DTECH:   CLIENT CODE
 ORIG.   2" 2.5" 5" PRINT:   ORIGIN OF DATA
 UWI .       490251028800:   UNIQUE WELL ID
 DICO. A2D Technologies, Inc.:   DIGITIZING COMPANY
~OTHER INFORMATION
~A   DEPT       CALD      GRD        CORR      RHOB         DPHI      SPR        ILD        ILM       SGRD   
# ...
  620.0000     9.1277   135.9047     0.0350     2.5193  -999.2500  -999.2500  -999.2500  -999.2500  -999.2500
  620.5000     9.1682   138.9218     0.0339     2.5223     0.0209  -999.2500  -999.2500  -999.2500  -999.2500
  621.0000     9.2034   145.9542     0.0329     2.5198     0.0221  -999.2500  -999.2500  -999.2500  -999.2500
  621.5000     9.2435   148.0684     0.0320     2.5169     0.0277  -999.2500  -999.2500  -999.2500  -999.2500
  622.0000     9.2426   142.0828     0.0320     2.5166     0.0308  -999.2500  -999.2500  -999.2500  -999.2500
  622.5000     9.2166   135.0013     0.0332     2.5116     0.0318  -999.2500  -999.2500  -999.2500  -999.2500
  623.0000     9.1941   132.2095     0.0342     2.5069     0.0338  -999.2500  -999.2500  -999.2500  -999.2500
  623.5000     9.1718   133.9414     0.0356     2.5021     0.0352  -999.2500  -999.2500  -999.2500  -999.2500
  624.0000     9.1478   135.4086     0.0344     2.4985     0.0379  -999.2500  -999.2500  -999.2500  -999.2500
  624.5000     9.1264   135.3163     0.0312     2.4855     0.0561  -999.2500  -999.2500  -999.2500  -999.2500
  625.0000     9.1002   135.1009     0.0281     2.4720     0.0561  -999.2500  -999.2500  -999.2500  -999.2500
  625.5000     9.1034   134.8297     0.0251     2.4614     0.0544  -999.2500  -999.2500  -999.2500  -999.2500
  626.0000     9.1093   134.6171     0.0220     2.4601     0.0438  -999.2500  -999.2500  -999.2500  -999.2500
  626.5000     9.1164   134.9541     0.0189     2.4716     0.0387  -999.2500  -999.2500  -999.2500  -999.2500
  627.0000     9.1228   135.7442     0.0160     2.4842     0.0395  -999.2500  -999.2500  -999.2500  -999.2500
  627.5000     9.1288   136.5900     0.0162     2.4890     0.0402  -999.2500  -999.2500  -999.2500  -999.2500
  628.0000     9.1355   135.3548     0.0208     2.4872     0.0403  -999.2500  -999.2500  -999.2500  -999.2500
  628.5000     9.1169   133.4029     0.0252     2.4864     0.0353  -999.2500  -999.2500  -999.2500  -999.2500
  629.0000     9.0886   134.2490     0.0286     2.4856     0.0300  -999.2500  -999.2500  -999.2500  -999.2500
  629.5000     9.0609   143.0087     0.0303     2.4909     0.0281  -999.2500  -999.2500  -999.2500  -999.2500
  630.0000     9.0328   141.8452     0.0323     2.4968     0.0271  -999.2500  -999.2500  -999.2500  -999.2500
  630.5000     9.0053   141.2446     0.0344     2.5027     0.0277  -999.2500  -999.2500  -999.2500  -999.2500
  631.0000     8.9819   140.0978     0.0363     2.5085     0.0283  -999.2500  -999.2500  -999.2500  -999.2500
  631.5000     8.9884   139.6872     0.0377     2.5088     0.0289  -999.2500  -999.2500  -999.2500  -999.2500
  632.0000     8.9948   141.7244     0.0394     2.5054     0.0403  -999.2500  -999.2500  -999.2500  -999.2500
  632.5000     9.0020   146.3217     0.0389     2.5003     0.0380  -999.2500  -999.2500  -999.2500  -999.2500
  633.0000     9.0086   144.9201     0.0382     2.4954     0.0365  -999.2500  -999.2500  -999.2500  -999.2500
  633.5000     9.0171   142.7622     0.0375     2.4902     0.0370  -999.2500  -999.2500  -999.2500  -999.2500
  634.0000     9.0085   143.8473     0.0368     2.4867     0.0364  -999.2500  -999.2500  -999.2500  -999.2500
  634.5000     8.9808   145.9098     0.0360     2.4890     0.0345  -999.2500  -999.2500  -999.2500  -999.2500
  635.0000     8.9538   147.0761     0.0360     2.4923     0.0309  -999.2500  -999.2500  -999.2500  -999.2500
  635.5000     8.9284   146.9327     0.0374     2.4948     0.0314  -999.2500  -999.2500  -999.2500  -999.2500
  636.0000     8.9045   145.9730     0.0389     2.4978     0.0300  -999.2500  -999.2500  -999.2500  -999.2500
  636.5000     8.9255   143.2736     0.0392     2.4992     0.0277  -999.2500  -999.2500  -999.2500  -999.2500
  637.0000     8.9467   144.7941     0.0384     2.5003     0.0254  -999.2500  -999.2500  -999.2500  -999.2500
  637.5000     8.9702   147.2512     0.0376     2.5032     0.0231  -999.2500  -999.2500  -999.2500  -999.2500
  638.0000     8.9919   147.9191     0.0369     2.5114     0.0206  -999.2500  -999.2500  -999.2500  -999.2500
  638.5000     9.0143   148.2188     0.0361     2.5167     0.0206  -999.2500  -999.2500  -999.2500  -999.2500
  639.0000     9.0162   146.2165     0.0349     2.5162     0.0222  -999.2500  -999.2500  -999.2500  -999.2500
  639.5000     9.0110   140.7080     0.0327     2.5145     0.0236  -999.2500  -999.2500  -999.2500  -999.2500
  640.0000     9.0060   135.3335     0.0306     2.5125     0.0251  -999.2500  -999.2500  -999.2500  -999.2500
  640.5000     9.0013   133.0219     0.0284     2.5107     0.0266  -999.2500  -999.2500  -999.2500  -999.2500
  641.0000     8.9964   135.7352     0.0272     2.5076     0.0281  -999.2500  -999.2500  -999.2500  -999.2500
  641.5000     8.9914   136.0328     0.0266     2.5056     0.0295  -999.2500  -999.2500  -999.2500  -999.2500
  642.0000     8.9867   136.5894     0.0260     2.5036     0.0316  -999.2500  -999.2500  -999.2500  -999.2500
  642.5000     8.9817   149.0157     0.0254     2.5018     0.0339  -999.2500  -999.2500  -999.2500  -999.2500
  643.0000     8.9855   156.9344     0.0248     2.4991     0.0362  -999.2500  -999.2500  -999.2500  -999.2500
  643.5000     8.9932   156.2414     0.0241     2.4958     0.0386  -999.2500  -999.2500  -999.2500  -999.2500
  644.0000     9.0007   146.7737     0.0243     2.4926     0.0403  -999.2500  -999.2500  -999.2500  -999.2500
  644.5000     9.0082   145.3070     0.0266     2.4894     0.0388  -999.2500  -999.2500  -999.2500  -999.2500
  645.0000     9.0157   144.4386     0.0289     2.4879     0.0371  -999.2500  -999.2500  -999.2500  -999.2500
  645.5000     9.0232   144.2794     0.0312     2.4906     0.0353  -999.2500  -999.2500  -999.2500  -999.2500
  646.0000     9.0308   144.1942     0.0336     2.4932     0.0340  -999.2500  -999.2500  -999.2500  -999.2500
  646.5000     9.0380   145.2628     0.0358     2.4961     0.0342  -999.2500  -999.2500  -999.2500  -999.2500
  647.0000     9.0456   146.6708     0.0383     2.4967     0.0344  -999.2500  -999.2500  -999.2500  -999.2500
  647.5000     9.0536   147.5094     0.0397     2.4951     0.0346  -999.2500  -999.2500  -999.2500  -999.2500
  648.0000     9.0503   148.0527     0.0395     2.4932     0.0352  -999.2500  -999.2500  -999.2500  -999.2500
  648.5000     9.0124   150.9246     0.0395     2.4938     0.0372  -999.2500  -999.2500  -999.2500  -999.2500
  649.0000     8.9783   155.8023     0.0396     2.4947     0.0391  -999.2500  -999.2500  -999.2500  -999.2500
  649.5000     8.9453   156.0102     0.0394     2.4940     0.0411  -999.2500  -999.2500  -999.2500  -999.2500
  650.0000     8.9852   155.7722     0.0408     2.4909     0.0421  -999.2500  -999.2500  -999.2500  -999.2500
  650.5000     9.0261   155.9120     0.0435     2.4879     0.0431  -999.2500  -999.2500  -999.2500  -999.2500
  651.0000     9.0707   156.2834     0.0460     2.4850     0.0441  -999.2500  -999.2500  -999.2500  -999.2500
  651.5000     9.1129   156.7525     0.0476     2.4821     0.0443  -999.2500  -999.2500  -999.2500  -999.2500
  652.0000     9.1547   156.5357     0.0459     2.4788     0.0443  -999.2500  -999.2500  -999.2500  -999.2500
  652.5000     9.2013   155.4087     0.0447     2.4785     0.0419  -999.2500  -999.2500  -999.2500  -999.2500
  653.0000     9.2007   153.7066     0.0443     2.4807     0.0388  -999.2500  -999.2500  -999.2500  -999.2500
  653.5000     9.1681   152.1999     0.0529     2.4831     0.0356  -999.2500  -999.2500  -999.2500  -999.2500
  654.0000     9.1403   150.2009     0.0589     2.4880     0.0375  -999.2500  -999.2500  -999.2500  -999.2500
  654.5000     9.1059   151.4541     0.0658     2.4928     0.0378  -999.2500  -999.2500  -999.2500  -999.2500
  655.0000     9.1367   155.3396     0.0721     2.4925     0.0356  -999.2500  -999.2500  -999.2500  -999.2500
  655.5000     9.2158   157.4849     0.0786     2.4914     0.0395  -999.2500  -999.2500  -999.2500  -999.2500
  656.0000     9.2917   157.5894     0.0773     2.4902     0.0394  -999.2500  -999.2500  -999.2500  -999.2500
