~VERSION INFORMATION
 VERS.                2.0:   CWLS LOG ASCII STANDARD - VERSION 2.0
 WRAP.                 NO:   ONE LINE PER DEPTH STEP
~WELL INFORMATION
#MNEM.UNIT      DATA TYPE    INFORMATION
#----------   ------------   ------------------------------
 STRT.F           30.0000:   START DEPTH
 STOP.F         2432.5000:   STOP DEPTH
 STEP.F            0.5000:   STEP LENGTH
 NULL.          -999.2500:   NO VALUE
 COMP. FENIX & SCISSON INC:   COMPANY
 WELL.     72 SHX 4 #72-4:   WELL
 FLD .             TEAPOT:   FIELD
 LOC .       S4 T38N R78W:   LOCATION
 CNTY.            NATRONA:   COUNTY
 STAT.            WYOMING:   STATE
 CTRY. UNITED STATES OF AMERICA:   COUNTRY
 SRVC.           BIRDWELL:   SERVICE COMPANY
 DATE.        05-MAR-1979:   LOGDATE
 API .       490251074300:   API NUMBER
~CURVE INFORMATION
#MNEM.UNIT       API CODE    CURVE DESCRIPTION
#----------   ------------   ------------------------------
 DEPT.F                  :   
 SPR .MV     05 010 01 00:   SPONTANEOUS POTENTIAL FROM RES.
 SN  .OHMM   05 040 16 00:   SHORT NORMAL 16"
 ILD .OHMM   05 120 46 00:   INDUCTION LOG DEEP
 CALD.IN     45 280 60 00:   CALIPER
 GRD .GAPI   45 310 01 00:   GAMMA RAY FROM DENSITY LOG
 RHOB.G/C3   45 350 01 00:   BULK DENSITY
 CORR.G/C3   45 356 01 00:   DENSITY CORRECTION
 DPHI.DEC    45 890 12 00:   DENSITY POROSITY SANDSTONE
~PARAMETER INFORMATION
#MNEM.UNIT          VALUE    DESCRIPTION
#----------   ------------   ------------------------------
 PD  .                 GL:   PERMANENT DATUM
 EPD .F              5194:   ELEVATION PERMANENT DATUM
 LMF .                 KB:   LOG MEASURED FROM
 DAPD.F                10:   FEET ABOVE PERMANENT DATUM
 DMF .                 KB:   DRILLING MEASURED FROM
 EKB .F              5204:   KELLING BUSHING
 EGL .F              5194:   GROUND LEVEL
 DATE.             3-5-79:   RUN DATE
 RUN .                  1:   RUN NUMBER
 DD  .F              2560:   DEPTH DRILLER
 DL  .F              2432:   DEPTH LOGGER
 BLI .F              2432:   BOTTOM LOG INTERVAL
 TLI .F               400:   TOP LOG INTERVAL
 CS  .IN            9.625:   CASING SIZE
 CBD .F               685:   CASING BOTTOM DRILLER
 CBL .F               685:   CASING BOTTOM LOGGER
 BS  .IN             8.75:   BIT SIZE
 BSD .F              2560:   BIT SIZE AT DEPTH
 DFT .                AIR:   DRILLING FLUID TYPE
 TCS .HRS               5:   TIME CURCULATED STOPPED
 LUN .               3006:   LOGGING UNIT NUMBER
 LUL .             CASPER:   LOGGING UNIT LOCATION
 ENGI.         B. ROLLINS:   RECORDING ENGINEER
 WITN.           DINSMORE:   WITNESSED BY
 CLNT.            A2DTECH:   CLIENT CODE
 ORIG.           5" PRINT:   ORIGIN OF DATA
 UWI .       490251074300:   UNIQUE WELL ID
 DICO. A2D Technologies, Inc.:   DIGITIZING COMPANY
~OTHER INFORMATION
~A   DEPT      SPR         SN        ILD        CALD       GRD       RHOB         CORR      DPHI  
# ...
 1609.5000  -999.2500  -999.2500  -999.2500     9.2439    77.6124     2.5828     0.0725    -0.0225
 1610.0000  -999.2500  -999.2500  -999.2500     9.2410    76.5212     2.5857     0.0730    -0.0287
 1610.5000  -999.2500  -999.2500  -999.2500     9.2367    75.4277     2.5884     0.0736    -0.0313
 1611.0000  -999.2500  -999.2500  -999.2500     9.2258    74.4280     2.5903     0.0742    -0.0302
 1611.5000  -999.2500  -999.2500  -999.2500     9.2149    73.8790     2.5919     0.0748    -0.0249
 1612.0000  -999.2500  -999.2500  -999.2500     9.2040    73.3318     2.5860     0.0754    -0.0156
 1612.5000  -999.2500  -999.2500  -999.2500     9.1931    72.2665     2.5795     0.0759    -0.0157
 1613.0000  -999.2500  -999.2500  -999.2500     9.1822    71.0088     2.5763     0.0818    -0.0187
 1613.5000  -999.2500  -999.2500  -999.2500     9.1713    69.9009     2.5757     0.0892    -0.0217
 1614.0000  -999.2500  -999.2500  -999.2500     9.1605    71.0612     2.5788     0.0961    -0.0245
 1614.5000  -999.2500  -999.2500  -999.2500     9.1496    72.9820     2.5861     0.0979    -0.0253
 1615.0000  -999.2500  -999.2500  -999.2500     9.1387    74.9361     2.5940     0.0996    -0.0306
 1615.5000  -999.2500  -999.2500  -999.2500     9.1277    75.5480     2.6027     0.1012    -0.0377
 1616.0000  -999.2500  -999.2500  -999.2500     9.1180    75.5498     2.6114     0.1010    -0.0421
 1616.5000  -999.2500  -999.2500  -999.2500     9.1277    75.1670     2.6144     0.0954    -0.0385
 1617.0000  -999.2500  -999.2500  -999.2500     9.1381    74.0025     2.6065     0.0810    -0.0326
 1617.5000  -999.2500  -999.2500  -999.2500     9.1485    73.8034     2.5983     0.0682    -0.0272
 1618.0000  -999.2500  -999.2500  -999.2500     9.1588    74.4192     2.5900     0.0670    -0.0245
 1618.5000  -999.2500  -999.2500  -999.2500     9.1692    75.0382     2.5879     0.0662    -0.0236
 1619.0000  -999.2500  -999.2500  -999.2500     9.1795    75.6635     2.5888     0.0706    -0.0258
 1619.5000  -999.2500  -999.2500  -999.2500     9.1899    75.7806     2.5904     0.0754    -0.0280
 1620.0000  -999.2500  -999.2500  -999.2500     9.1990    75.4883     2.5919     0.0762    -0.0302
 1620.5000  -999.2500  -999.2500  -999.2500     9.2010    74.0639     2.5923     0.0763    -0.0271
 1621.0000  -999.2500  -999.2500  -999.2500     9.2033    71.9158     2.5907     0.0707    -0.0244
 1621.5000  -999.2500  -999.2500  -999.2500     9.2055    69.9665     2.5876     0.0629    -0.0267
 1622.0000  -999.2500  -999.2500  -999.2500     9.2078    70.7140     2.5844     0.0517    -0.0177
 1622.5000  -999.2500  -999.2500  -999.2500     9.2100    73.4868     2.5790     0.0348    -0.0156
 1623.0000  -999.2500  -999.2500  -999.2500     9.2123    75.8279     2.5701     0.0262    -0.0164
 1623.5000  -999.2500  -999.2500  -999.2500     9.2145    75.1244     2.5612     0.0201    -0.0048
 1624.0000  -999.2500  -999.2500  -999.2500     9.2168    74.3810     2.5527     0.0200    -0.0087
 1624.5000  -999.2500  -999.2500  -999.2500     9.2190    74.7375     2.5575     0.0274    -0.0164
 1625.0000  -999.2500  -999.2500  -999.2500     9.2213    75.1061     2.5720     0.0406    -0.0240
 1625.5000  -999.2500  -999.2500  -999.2500     9.2235    74.0515     2.5862     0.0540    -0.0317
 1626.0000  -999.2500  -999.2500  -999.2500     9.2258    72.7970     2.6005     0.0673    -0.0393
 1626.5000  -999.2500  -999.2500  -999.2500     9.2280    72.7388     2.6150     0.0807    -0.0437
 1627.0000  -999.2500  -999.2500  -999.2500     9.2303    73.1671     2.6161     0.0925    -0.0426
 1627.5000  -999.2500  -999.2500  -999.2500     9.2325    73.2361     2.6163     0.0922    -0.0405
 1628.0000  -999.2500  -999.2500  -999.2500     9.2348    73.3101     2.6166     0.0924    -0.0410
 1628.5000  -999.2500  -999.2500  -999.2500     9.2370    73.6083     2.6165     0.0984    -0.0433
 1629.0000  -999.2500  -999.2500  -999.2500     9.2368    74.1242     2.6158     0.1046    -0.0369
 1629.5000  -999.2500  -999.2500  -999.2500     9.2244    74.6232     2.6152     0.1110    -0.0431
 1630.0000  -999.2500  -999.2500  -999.2500     9.2121    75.9578     2.6171     0.1178    -0.0502
 1630.5000  -999.2500  -999.2500  -999.2500     9.1999    77.4786     2.6246     0.1223    -0.0533
 1631.0000  -999.2500  -999.2500  -999.2500     9.1876    78.9971     2.6316     0.1198    -0.0488
 1631.5000  -999.2500  -999.2500  -999.2500     9.1754    79.3914     2.6297     0.1059    -0.0432
 1632.0000  -999.2500  -999.2500  -999.2500     9.1631    78.0598     2.6190     0.0923    -0.0375
 1632.5000  -999.2500  -999.2500  -999.2500     9.1509    76.7006     2.6087     0.0786    -0.0313
 1633.0000  -999.2500  -999.2500  -999.2500     9.1387    75.9499     2.6014     0.0723    -0.0316
 1633.5000  -999.2500  -999.2500  -999.2500     9.1264    75.4014     2.6010     0.0721    -0.0325
 1634.0000  -999.2500  -999.2500  -999.2500     9.1142    74.5879     2.6005     0.0721    -0.0333
 1634.5000  -999.2500  -999.2500  -999.2500     9.1019    73.7389     2.6000     0.0721    -0.0328
 1635.0000  -999.2500  -999.2500  -999.2500     9.0897    73.8069     2.5995     0.0721    -0.0321
 1635.5000  -999.2500  -999.2500  -999.2500     9.0773    74.1653     2.5990     0.0721    -0.0332
 1636.0000  -999.2500  -999.2500  -999.2500     9.0652    74.5326     2.5985     0.0721    -0.0349
 1636.5000  -999.2500  -999.2500  -999.2500     9.0629    74.9123     2.5980     0.0715    -0.0325
 1637.0000  -999.2500  -999.2500  -999.2500     9.0877    74.3915     2.5962     0.0674    -0.0269
 1637.5000  -999.2500  -999.2500  -999.2500     9.1119    73.7253     2.5924     0.0634    -0.0213
 1638.0000  -999.2500  -999.2500  -999.2500     9.1360    73.1276     2.5843     0.0593    -0.0156
 1638.5000  -999.2500  -999.2500  -999.2500     9.1602    73.7294     2.5756     0.0600    -0.0132
 1639.0000  -999.2500  -999.2500  -999.2500     9.1841    74.7448     2.5719     0.0638    -0.0234
 1639.5000  -999.2500  -999.2500  -999.2500     9.1967    75.8597     2.5800     0.0676    -0.0244
 1640.0000  -999.2500  -999.2500  -999.2500     9.1920    77.3536     2.5887     0.0714    -0.0255
 1640.5000  -999.2500  -999.2500  -999.2500     9.1876    78.8308     2.5930     0.0752    -0.0308
 1641.0000  -999.2500  -999.2500  -999.2500     9.1830    79.5515     2.5921     0.0790    -0.0365
 1641.5000  -999.2500  -999.2500  -999.2500     9.1784    78.2681     2.6009     0.0787    -0.0365
 1642.0000  -999.2500  -999.2500  -999.2500     9.1858    75.8756     2.6070     0.0755    -0.0301
 1642.5000  -999.2500  -999.2500  -999.2500     9.1957    73.5946     2.5996     0.0720    -0.0245
 1643.0000  -999.2500  -999.2500  -999.2500     9.2056    73.8411     2.5904     0.0684    -0.0238
 1643.5000  -999.2500  -999.2500  -999.2500     9.2156    74.2399     2.5818     0.0648    -0.0231
 1644.0000  -999.2500  -999.2500  -999.2500     9.2178    74.0416     2.5809     0.0612    -0.0203
 1644.5000  -999.2500  -999.2500  -999.2500     9.2171    73.6227     2.5777     0.0579    -0.0166
 1645.0000  -999.2500  -999.2500  -999.2500     9.2162    73.3451     2.5747     0.0572    -0.0128
 1645.5000  -999.2500  -999.2500  -999.2500     9.2154    74.4146     2.5717     0.0564    -0.0127
 1646.0000  -999.2500  -999.2500  -999.2500     9.2146    76.5745     2.5717     0.0590    -0.0166
 1646.5000  -999.2500  -999.2500  -999.2500     9.2138    78.2334     2.5739     0.0637    -0.0205
 1647.0000  -999.2500  -999.2500  -999.2500     9.2129    76.6947     2.5792     0.0693    -0.0241
 1647.5000  -999.2500  -999.2500  -999.2500     9.2121    75.0333     2.5843     0.0760    -0.0263
 1648.0000  -999.2500  -999.2500  -999.2500     9.2113    73.5584     2.5888     0.0828    -0.0285
 1648.5000  -999.2500  -999.2500  -999.2500     9.2105    73.0086     2.5887     0.0827    -0.0262
 1649.0000  -999.2500  -999.2500  -999.2500     9.2097    73.2418     2.5887     0.0789    -0.0224
 1649.5000  -999.2500  -999.2500  -999.2500     9.2088    74.8992     2.5898     0.0751    -0.0242
