~VERSION INFORMATION
 VERS.                2.0:   CWLS LOG ASCII STANDARD - VERSION 2.0
 WRAP.                 NO:   ONE LINE PER DEPTH STEP
~WELL INFORMATION
#MNEM.UNIT      DATA TYPE    INFORMATION
#----------   ------------   ------------------------------
 STRT.F           16.0000:   START DEPTH
 STOP.F         2438.0000:   STOP DEPTH
 STEP.F            0.5000:   STEP LENGTH
 NULL.          -999.2500:   NO VALUE
 COMP. FENIX & SCISSON INC:   COMPANY
 WELL.      15 SHX #27-27:   WELL
 FLD .             TEAPOT:   FIELD
 LOC .      S27 T39N R78W:   LOCATION
 CNTY.            NATRONA:   COUNTY
 STAT.            WYOMING:   STATE
 CTRY. UNITED STATES OF AMERICA:   COUNTRY
 SRVC.            Unknown:   SERVICE COMPANY
 DATE.        09-JUN-1978:   LOGDATE
 API .       490251064100:   API NUMBER
~CURVE INFORMATION
#MNEM.UNIT       API CODE    CURVE DESCRIPTION
#----------   ------------   ------------------------------
 DEPT.F                  :   
 CALD.IN     45 280 60 00:   CALIPER FROM DENSITY LOG
 GRD .GAPI   45 310 01 00:   GAMMA RAY FROM DENSITY LOG
 CORR.G/C3   45 356 01 00:   DENSITY CORRECTION
 RHOB.G/C3   45 350 01 00:   BULK DENSITY
 DPHI.DEC    45 890 10 00:   DENSITY POROSITY LIMESTONE
~PARAMETER INFORMATION
#MNEM.UNIT          VALUE    DESCRIPTION
#----------   ------------   ------------------------------
 PD  .                 GL:   PERMANENT DATUM
 EPD .F              5062:   ELEVATION PERMANENT DATUM
 LMF .                 KB:   LOG MEASURED FROM
 DAPD.F                10:   FEET ABOVE PERMANENT DATUM
 DMF .                 KB:   DRILLING MEASURED FROM
 EKB .F              5072:   KELLING BUSHING
 EGL .F              5062:   GROUND LEVEL
 DATE.        09-JUN-1978:   RUN DATE
 RUN .                  1:   RUN NUMBER
 DD  .F              2450:   DEPTH DRILLER
 DL  .F              2445:   DEPTH LOGGER
 BLI .F              2438:   BOTTOM LOG INTERVAL
 TLI .F                10:   TOP LOG INTERVAL
 CS  .IN            9.625:   CASING SIZE
 CBD .F               688:   CASING BOTTOM DRILLER
 CBL .F               694:   CASING BOTTOM LOGGER
 BS  .IN             8.75:   BIT SIZE
 BSD .F              2450:   BIT SIZE AT DEPTH
 DFT .           AIR MIST:   DRILLING FLUID TYPE
 TCS .HRS               1:   TIME CURCULATED STOPPED
 LUN .               2958:   LOGGING UNIT NUMBER
 LUL .                CPR:   LOGGING UNIT LOCATION
 ENGI.             MILLER:   RECORDING ENGINEER
 WITN.           MCGINLEY:   WITNESSED BY
 CLNT.            A2DTECH:   CLIENT CODE
 ORIG.           5" PRINT:   ORIGIN OF DATA
 UWI .       490251064100:   UNIQUE WELL ID
 DICO. A2D Technologies, Inc.:   DIGITIZING COMPANY
~OTHER INFORMATION
~A   DEPT     CALD         GRD      CORR       RHOB       DPHI   
# ...
  809.0000     9.5677    76.8608  -999.2500     2.5208     0.0155
  809.5000     9.5999    74.7283  -999.2500     2.5185     0.0253
  810.0000     9.6321    74.4390  -999.2500     2.5225     0.0246
  810.5000     9.6335    74.7157  -999.2500     2.5257     0.0189
  811.0000     9.6657    81.5455  -999.2500     2.5273     0.0178
  811.5000     9.6825    80.9490  -999.2500     2.5266     0.0187
  812.0000     9.7147    71.7504  -999.2500     2.5267     0.0155
  812.5000     9.7163    74.0725  -999.2500     2.5276     0.0192
  813.0000     9.7181    74.7049  -999.2500     2.5276     0.0161
  813.5000     9.7196    71.8043  -999.2500     2.5331     0.0114
  814.0000     9.7364    69.0573  -999.2500     2.5401     0.0098
  814.5000     9.7379    70.4578  -999.2500     2.5441     0.0063
  815.0000     9.7237    72.1659  -999.2500     2.5480     0.0039
  815.5000     9.7101    72.4951  -999.2500     2.5489     0.0112
  816.0000     9.6963    75.4317  -999.2500     2.5303     0.0180
  816.5000     9.7132    79.1363  -999.2500     2.5274     0.0136
  817.0000     9.7917    76.8501  -999.2500     2.5260     0.0130
  817.5000     9.8239    68.5732  -999.2500     2.5253     0.0172
  818.0000     9.8254    67.6650  -999.2500     2.5254     0.0194
  818.5000     9.7195    69.8380  -999.2500     2.5255     0.0187
  819.0000     9.6443    72.3137  -999.2500     2.5271     0.0177
  819.5000     9.5844    75.9156  -999.2500     2.5272     0.0158
  820.0000     9.5093    79.2627  -999.2500     2.5273     0.0189
  820.5000     9.4801    77.4412  -999.2500     2.5226     0.0232
  821.0000     9.5137    72.6973  -999.2500     2.5198     0.0234
  821.5000     9.5448    69.3358  -999.2500     2.5229     0.0212
  822.0000     9.5156    68.4321  -999.2500     2.5253     0.0190
  822.5000     9.4711    69.6790  -999.2500     2.5254     0.0147
  823.0000     9.3959    70.7722  -999.2500     2.5224     0.0184
  823.5000     9.3510    71.4046  -999.2500     2.5171     0.0265
  824.0000     9.3222    71.7298  -999.2500     2.5125     0.0220
  824.5000     9.3237    72.6145  -999.2500     2.5188     0.0185
  825.0000     9.3558    75.9162  -999.2500     2.5220     0.0203
  825.5000     9.3727    77.4703  -999.2500     2.5236     0.0197
  826.0000     9.3899    77.4883  -999.2500     2.5260     0.0147
  826.5000     9.3914    77.6598  -999.2500     2.5292     0.0119
  827.0000     9.3928    77.2170  -999.2500     2.5315     0.0156
  827.5000     9.4250    75.8475  -999.2500     2.5177     0.0217
  828.0000     9.4572    76.2702  -999.2500     2.5178     0.0226
  828.5000     9.4587    79.2723  -999.2500     2.5195     0.0179
  829.0000     9.4602    80.8264  -999.2500     2.5227     0.0151
  829.5000     9.4617    80.0763  -999.2500     2.5289     0.0144
  830.0000     9.4632    77.7901  -999.2500     2.5390     0.0122
  830.5000     9.4650    77.6500  -999.2500     2.5506    -0.0054
  831.0000     9.4665    77.6724  -999.2500     2.5569    -0.0066
  831.5000     9.4680    77.6904  -999.2500     2.5531     0.0041
  832.0000     9.4538    77.8620  -999.2500     2.5447     0.0068
  832.5000     9.4399    77.8800  -999.2500     2.5402     0.0089
  833.0000     9.4418    76.5991  -999.2500     2.5356     0.0123
  833.5000     9.4279    75.1509  -999.2500     2.5333     0.0126
  834.0000     9.4294    75.6342  -999.2500     2.5312     0.0122
  834.5000     9.4310    80.4141  -999.2500     2.5297     0.0143
  835.0000     9.4328    80.5857  -999.2500     2.5298     0.0161
  835.5000     9.4186    79.8356  -999.2500     2.5307     0.0152
  836.0000     9.4047    73.8628  -999.2500     2.5300     0.0151
  836.5000     9.4066    69.1188  -999.2500     2.5285     0.0173
  837.0000     9.3924    68.6759  -999.2500     2.5248     0.0218
  837.5000     9.3482    70.3071  -999.2500     2.5202     0.0209
  838.0000     9.3497    77.9330  -999.2500     2.5234     0.0168
  838.5000     9.3819    81.9448  -999.2500     2.5258     0.0162
  839.0000     9.4014    81.3484  -999.2500     2.5251     0.0195
  839.5000     9.4159    79.0622  -999.2500     2.5252     0.0223
  840.0000     9.3561    78.4657  -999.2500     2.5260     0.0207
  840.5000     9.2809    77.1012  -999.2500     2.5261     0.0171
  841.0000     9.2363    74.6614  -999.2500     2.5262     0.0150
  841.5000     9.2532    76.5227  -999.2500     2.5255     0.0193
  842.0000     9.2547    76.5406  -999.2500     2.5248     0.0227
  842.5000     9.2561    74.8158  -999.2500     2.5249     0.0177
  843.0000     9.2423    72.2800  -999.2500     2.5266     0.0195
  843.5000     9.2595    72.7588  -999.2500     2.5282     0.0216
  844.0000     9.3223    81.2253  -999.2500     2.5298     0.0157
  844.5000     9.3545    81.6996  -999.2500     2.5299     0.0132
  845.0000     9.3560    77.5746  -999.2500     2.5284     0.0185
  845.5000     9.3575    76.5173  -999.2500     2.5239     0.0239
  846.0000     9.3279    79.6075  -999.2500     2.5209     0.0251
  846.5000     9.3144    79.7875  -999.2500     2.5225     0.0174
  847.0000     9.3160    78.5394  -999.2500     2.5280     0.0161
  847.5000     9.3175    77.1813  -999.2500     2.5296     0.0155
  848.0000     9.3193    81.5272  -999.2500     2.5320     0.0136
  848.5000     9.2901    79.0874  -999.2500     2.5352     0.0111
  849.0000     9.2759    76.6476  -999.2500     2.5384     0.0051
  849.5000     9.2621    75.7394  -999.2500     2.5477    -0.0032
  850.0000     9.3260    76.3436  -999.2500     2.5524     0.0103
  850.5000     9.4273    81.4649  -999.2500     2.5407     0.0094
  851.0000     9.4816    81.9438  -999.2500     2.5356     0.0124
  851.5000     9.5136    77.3535  -999.2500     2.5364     0.0133
  852.0000     9.5149    77.2134  -999.2500     2.5395     0.0087
  852.5000     9.4853    78.1576  -999.2500     2.5419     0.0077
  853.0000     9.4559    82.6303  -999.2500     2.5427     0.0083
  853.5000     9.4269    87.2566  -999.2500     2.5428     0.0080
  854.0000     9.4283    90.6540  -999.2500     2.5444     0.0060
  854.5000     9.4756    87.1540  -999.2500     2.5514    -0.0078
  855.0000     9.4923    80.8635  -999.2500     2.5716    -0.0146
  855.5000     9.5090    76.8877  -999.2500     2.5731    -0.0094
  856.0000     9.5107    74.2943  -999.2500     2.5639    -0.0070
  856.5000     9.5120    73.3907  -999.2500     2.5563    -0.0002
  857.0000     9.4981    72.3289  -999.2500     2.5440     0.0139
  857.5000     9.4841    72.3514  -999.2500     2.5310     0.0219
  858.0000     9.3474    71.2942  -999.2500     2.5249     0.0212
  858.5000     9.2870    68.5472  -999.2500     2.5249     0.0206
  859.0000     9.2887    67.6436  -999.2500     2.5258     0.0199
  859.5000     9.3207    73.5646  -999.2500     2.5289     0.0145
  860.0000     9.3834    75.2110  -999.2500     2.5305     0.0122
  860.5000     9.4324    71.6960  -999.2500     2.5306     0.0155
  861.0000     9.4785    69.1026  -999.2500     2.5291     0.0177
  861.5000     9.4798    67.8872  -999.2500     2.5284     0.0182
  862.0000     9.4198    71.2892  -999.2500     2.5277     0.0179
  862.5000     9.3292    74.3794  -999.2500     2.5270     0.0176
  863.0000     9.3919    75.0118  -999.2500     2.5262     0.0163
  863.5000     9.4392    73.0329  -999.2500     2.5309     0.0144
  864.0000     9.4406    71.0540  -999.2500     2.5379     0.0072
  864.5000     9.4419    70.4576  -999.2500     2.5449    -0.0018
  865.0000     9.4279    70.4762  -999.2500     2.5497    -0.0026
  865.5000     9.4139    72.1878  -999.2500     2.5512    -0.0014
  866.0000     9.4156    75.7389  -999.2500     2.5490     0.0038
  866.5000     9.3863    76.0641  -999.2500     2.5444     0.0093
  867.0000     9.3566    75.7749  -999.2500     2.5329     0.0210
  867.5000     9.3426    75.0248  -999.2500     2.5230     0.0234
  868.0000     9.4057    69.9692  -999.2500     2.5107     0.0311
  868.5000     9.4684    73.0639  -999.2500     2.5084     0.0283
  869.0000     9.5004    73.6964  -999.2500     2.5185     0.0221
  869.5000     9.5171    77.0938  -999.2500     2.5301     0.0134
