~VERSION INFORMATION
 VERS.                2.0:   CWLS LOG ASCII STANDARD - VERSION 2.0
 WRAP.                 NO:   ONE LINE PER DEPTH STEP
~WELL INFORMATION
#MNEM.UNIT      DATA TYPE    INFORMATION
#----------   ------------   ------------------------------
 STRT.F           60.0000:   START DEPTH
 STOP.F         1143.0000:   STOP DEPTH
 STEP.F            0.5000:   STEP LENGTH
 NULL.          -999.2500:   NO VALUE
 COMP. U S NAVY-INTEX OIL:   COMPANY
 WELL.    N.P.R . 3 #63-2:   WELL
 FLD .             TEAPOT:   FIELD
 LOC .       S2 T38N R78W:   LOCATION
 CNTY.            NATRONA:   COUNTY
 STAT.            WYOMING:   STATE
 CTRY. UNITED STATES OF AMERICA:   COUNTRY
 SRVC. Schlumberger Well Surveying Corp:   SERVICE COMPANY
 DATE.        24-MAY-1964:   LOGDATE
 API .       490250645500:   API NUMBER
~CURVE INFORMATION
#MNEM.UNIT       API CODE    CURVE DESCRIPTION
#----------   ------------   ------------------------------
 DEPT.F                  :   
 SPR .MV     05 010 01 00:   SPONTANEOUS POTENTIAL FROM RES.
 ASN .OHMM   05 041 16 00:   AMPLIFIED SHORT NORMAL 16"
 ILD .OHMM   05 120 46 00:   INDUCTION LOG DEEP
 CILD.MMHO   05 110 46 00:   CONDUCTIVITY INDUCTION LOG DEEP
 CALS.IN     60 280 50 00:   CALIPER FROM SONIC LOG
 DT  .US/F   60 520 33 00:   INTERVAL TRANSIT TIME
~PARAMETER INFORMATION
#MNEM.UNIT          VALUE    DESCRIPTION
#----------   ------------   ------------------------------
 PD  .                 GL:   PERMANENT DATUM
 EPD .F              5181:   ELEVATION PERMANENT DATUM
 LMF .                 KB:   LOG MEASURED FROM
 DAPD.F                 5:   FEET ABOVE PERMANENT DATUM
 DMF .                 KB:   DRILLING MEASURED FROM
 EKB .F              5186:   KELLING BUSHING
 EGL .F              5181:   GROUND LEVEL
 DATE.        24-MAY-1964:   RUN DATE
 RUN .                  1:   RUN NUMBER
 DD  .F              1140:   DEPTH DRILLER
 DL  .F              1144:   DEPTH LOGGER
 BLI .F              1143:   BOTTOM LOG INTERVAL
 TLI .F                82:   TOP LOG INTERVAL
 CS  .IN            8.625:   CASING SIZE
 CBD .F                10:   CASING BOTTOM DRILLER
 BS  .IN            7.875:   BIT SIZE
 BSD .F              1140:   BIT SIZE AT DEPTH
 DFT .            GEL/OIL:   DRILLING FLUID TYPE
 DFD .                9.0:   DRILLING FLUID DENSITY
 DFV .                 63:   DRILLING FLUID VISCOSITY
 DFPH.                8.0:   DRILLING FLUID PH
 DFL .                7.6:   DRILLING FLUID LOSS
 MSS .           FLOWLINE:   MUD SAMPLE SOURCE
 RMS .OHMM           0.87:   RESISTIVITY MUD SAMPLE
 MST .F                84:   MUD SAMPLE TEMPERATURE
 RMF .OHMM           0.43:   RESISTIVITY MUD FILTRATE SAMPLE
 MFST.F                84:   MUD FILTRATE SAMPLE TEMPERATURE
 RMC .OHMM           1.52:   RESISTIVITY MUD CAKE
 MCST.F                84:   MUD CAKE SAMPLE TEMPERATURE
 MFSS.                 FP:   MUD FILTRATE SAMPLE SOURCE
 MCSS.                 FP:   MUD CAKE SAMPLE SOURCE
 TCS .HRS               2:   TIME CURCULATED STOPPED
 LUN .               4507:   LOGGING UNIT NUMBER
 LUL .               CSPR:   LOGGING UNIT LOCATION
 ENGI.             DANNER:   RECORDING ENGINEER
 WITN.          JORGENSEN:   WITNESSED BY
 CLNT.            A2DTECH:   CLIENT CODE
 ORIG.       2", 5" PRINT:   ORIGIN OF DATA
 UWI .       490250645500:   UNIQUE WELL ID
 DICO. A2D Technologies, Inc.:   DIGITIZING COMPANY
~OTHER INFORMATION
~A   DEPT      SPR          ASN        ILD      CILD      CALS         DT   
# ...
  632.0000   -47.9458    16.6417    14.1441    69.2771     7.5462    94.4258
  632.5000   -48.0949    16.4543    13.9395    70.7831     7.5612    95.3322
  633.0000   -48.0934    16.1069    13.8641    71.9855     7.5762    96.5405
  633.5000   -48.1223    15.8171    13.7887    72.4410     7.5457   101.1450
  634.0000   -48.2410    15.7421    13.7882    73.7952     7.5154   101.0703
  634.5000   -48.2394    15.6647    13.7128    74.5482     7.5303   100.9199
  635.0000   -48.3886    15.5922    13.7124    74.5607     7.5604   100.6190
  635.5000   -48.3870    15.5697    13.7121    75.3012     7.5905   100.3931
  636.0000   -48.5364    15.5172    13.7117    75.3012     7.6205   101.8280
  636.5000   -48.5345    15.4423    13.7113    75.3012     7.6204   102.3571
  637.0000   -48.5331    15.4273    13.7345    74.5482     7.5749   102.7352
  637.5000   -48.5317    15.2924    13.7856    73.7952     7.5294   102.5850
  638.0000   -48.5301    15.1824    13.7853    74.2822     7.4689   101.8310
  638.5000   -48.4907    15.1274    13.6728    75.8699     7.4234   101.3789
  639.0000   -48.2258    14.9175    12.6583    82.0783     7.4383   101.0778
  639.5000   -48.0043    14.2857    11.4854    97.5445     7.4684   100.8521
  640.0000   -47.6003    13.5306    10.1802   107.9323     7.4834   100.4755
  640.5000   -47.1155    12.7755     9.7261   112.4574     7.4379   100.1744
  641.0000   -46.5472    11.8838     9.2522   115.0829     7.3924   100.3261
  641.5000   -45.6580    10.6551     8.7784   122.0529     7.4074   100.4023
  642.0000   -45.1355     9.9190     8.3045   131.7647     7.4677   100.0257
  642.5000   -44.4226     9.7601     7.8307   141.4765     7.5733    99.4981
  643.0000   -43.8461     9.5503     7.3568   151.1883     7.7091    99.5054
  643.5000   -43.6489     9.2474     6.8830   160.9001     7.7694    99.3487
  644.0000   -43.5421     8.8801     6.4092   170.6119     7.6785    98.7701
  644.5000   -43.5406     8.5293     5.9353   174.9671     7.7388    98.8723
  645.0000   -43.5392     8.1784     5.7470   177.7108     7.7991    99.3560
  645.5000   -43.6880     7.8701     5.6715   178.7563     7.6781   100.0453
  646.0000   -43.6868     7.8261     5.6712   178.4639     7.5722   100.8005
  646.5000   -43.6852     7.8261     5.6707   176.3591     7.6173   101.3341
  647.0000   -43.7645     7.8591     5.6704   173.7928     7.7985   101.6181
  647.5000   -43.8542     7.9310     5.6700   171.6868     7.8739   101.2277
  648.0000   -43.9819     8.0220     5.6697   171.0641     7.7075   100.6386
  648.5000   -43.9804     8.1259     5.6693   169.4140     7.6923   100.1111
  649.0000   -43.9789     8.2139     5.6689   168.6747     7.7828    99.9607
  649.5000   -43.8928     8.2769     5.7436   169.4277     7.8581   101.1692
  650.0000   -43.6747     8.2709     5.8183   170.1807     7.9033   102.0001
  650.5000   -43.5224     8.1179     5.8180   171.6868     7.8394   102.6801
  651.0000   -43.4643     7.7961     5.8927   172.4398     7.7755   103.3601
  651.5000   -43.2184     7.7141     5.8922   171.0434     7.7221   104.1911
  652.0000   -43.0663     7.7421     5.8919   169.6837     7.7523   104.2671
  652.5000   -42.9141     7.8760     5.9666   168.3240     7.8278   103.7397
  653.0000   -42.9125     8.0110     5.9662   166.9643     7.8882   103.3631
  653.5000   -42.7605     8.1259     5.9659   165.6046     7.9033   102.9865
  654.0000   -42.7590     8.1999     6.0405   164.2449     7.8882   102.5344
  654.5000   -42.7575     8.2459     6.1152   163.4036     7.8731   102.1578
  655.0000   -42.7886     8.2459     6.1149   164.6461     7.8731   101.9320
  655.5000   -42.9052     8.2189     6.0667   167.4904     7.8580   101.8572
  656.0000   -42.9036     8.1259     5.9640   169.5895     7.8580   101.9336
  656.5000   -42.9069     7.9870     5.8885   171.6887     7.8580   102.0099
  657.0000   -43.0512     7.8381     5.7796   173.7879     7.8580   102.1616
  657.5000   -43.0497     7.7561     5.6625   176.2048     7.8580   102.3887
  658.0000   -43.0480     7.6981     5.6622   177.3443     7.8580   102.6914
  658.5000   -43.0467     7.6462     5.6617   178.5531     7.8429   103.0695
  659.0000   -43.0536     7.6242     5.6614   178.6723     7.8278   103.2966
  659.5000   -43.1943     7.6152     5.6610   176.9690     7.8127   103.4483
  660.0000   -43.1928     7.6312     5.7408   173.9458     7.7674   103.2227
  660.5000   -43.3417     7.7641     5.8607   172.0344     7.7674   102.9215
  661.0000   -43.4122     7.9910     5.9057   169.9649     7.7976   102.3940
  661.5000   -43.4895     8.1669     5.9598   167.9217     7.7372   101.5593
  662.0000   -43.6383     8.3398     6.0706   166.1497     7.6767   101.0289
  662.5000   -43.6370     8.4358     6.1905   164.9096     7.7523   100.5786
  663.0000   -43.6354     8.4018     6.2590   162.5551     7.7825   100.2838
  663.5000   -43.7096     8.1559     6.2804   160.2649     7.8127   100.7374
  664.0000   -43.7992     8.1399     6.4084   158.1325     7.7825    99.8687
  664.5000   -43.9323     8.2389     6.5204   156.0567     7.7674    99.0785
  665.0000   -43.9784     8.4208     6.5728   153.6145     7.7523    99.7586
  665.5000   -44.0798     8.6187     6.7826   151.9752     7.7674    99.9101
  666.0000   -44.0783     8.7556     6.8574   150.3114     7.8278    99.4582
  666.5000   -44.0966     8.7926     6.8570   147.5904     7.8278    98.7797
  667.0000   -44.2259     8.7856     6.9317   146.8374     7.8429    99.2333
  667.5000   -44.2244     8.7856     6.9313   146.0843     7.8278    99.5360
  668.0000   -44.2228     8.7976     6.9309   147.2992     7.7976    98.8575
  668.5000   -44.2214     8.8906     6.8555   148.6726     7.7976    98.4054
  669.0000   -44.0693     8.9059     6.7800   150.6024     7.7674    98.3305
  669.5000   -44.0675     8.8043     6.6648   153.0759     7.7523    98.2559
  670.0000   -44.0663     8.7027     6.5541   155.9237     7.7372    98.4831
  670.5000   -44.0647     8.6011     6.4785   158.3409     7.7221    98.6348
  671.0000   -43.9764     8.5037     6.4527   159.6385     7.7221    98.7865
  671.5000   -43.8838     8.3958     6.3277   160.3916     7.7674    98.5608
  672.0000   -43.7588     8.2578     6.2522   161.1446     7.8127    98.4104
  672.5000   -43.6069     8.0810     6.2406   161.8976     7.8429    98.9397
  673.0000   -43.6054     7.9880     6.1764   162.3970     7.8278    99.6197
  673.5000   -43.6039     7.9760     6.1760   162.6506     7.7976    99.9223
  674.0000   -43.6024     8.1259     6.1757   162.6506     7.7674    99.9231
  674.5000   -43.4501     8.1979     6.1753   162.6506     7.7523    99.6974
  675.0000   -43.4488     8.2309     6.1750   162.6506     7.7523    99.4717
  675.5000   -43.4473     8.1979     6.1745   162.6506     7.7372    99.1706
  676.0000   -43.4458     8.1469     6.1742   162.6506     7.7221    98.9449
  676.5000   -43.4443     8.0810     6.1738   162.6506     7.6918    98.9457
  677.0000   -43.4426     8.0660     6.2485   162.6506     7.7069    99.0974
  677.5000   -43.4413     8.0660     6.2481   162.6506     7.7372    99.5509
  678.0000   -43.4398     8.0929     6.2477   162.6506     7.7674   100.1575
  678.5000   -43.4382     8.1679     6.2474   162.6506     7.7523   100.8420
  679.0000   -43.4367     8.2759     6.2470   162.6506     7.7221   101.2136
  679.5000   -43.4351     8.3478     6.2466   162.6506     7.6918   100.8136
  680.0000   -43.3634     8.3658     6.2463   162.6506     7.6616    99.9874
  680.5000   -43.2816     8.2339     6.2458   161.8976     7.6465    99.3799
  681.0000   -43.2801     8.0900     6.2455   161.1446     7.6918    99.1034
  681.5000   -43.2786     8.0660     6.3202   160.3916     7.7221    99.1798
  682.0000   -43.2770     8.1615     6.3659   159.2219     7.6767    99.2560
  682.5000   -43.2756     8.2707     6.4108   157.2603     7.7825    99.1058
  683.0000   -43.2596     8.3799     6.4692   155.1205     7.8127    98.5782
  683.5000   -43.1217     8.4890     6.5439   154.8432     7.8127    98.1262
