~VERSION INFORMATION
 VERS.                2.0:   CWLS LOG ASCII STANDARD - VERSION 2.0
 WRAP.                 NO:   ONE LINE PER DEPTH STEP
~WELL INFORMATION
#MNEM.UNIT      DATA TYPE    INFORMATION
#----------   ------------   ------------------------------
 STRT.F            0.0000:   START DEPTH
 STOP.F          789.0000:   STOP DEPTH
 STEP.F            0.5000:   STEP LENGTH
 NULL.          -999.2500:   NO VALUE
 COMP. U S NAVY-INTEX OIL:   COMPANY
 WELL.        NPR #35-S-2:   WELL
 FLD .             TEAPOT:   FIELD
 LOC .       S2 T38N R78W:   LOCATION
 CNTY.            NATRONA:   COUNTY
 STAT.            WYOMING:   STATE
 CTRY. UNITED STATES OF AMERICA:   COUNTRY
 SRVC.      NL McCullough:   SERVICE COMPANY
 DATE.        14-AUG-1961:   LOGDATE
 API .       490250644100:   API NUMBER
~CURVE INFORMATION
#MNEM.UNIT       API CODE    CURVE DESCRIPTION
#----------   ------------   ------------------------------
 DEPT.F                  :   
 GR  .GAPI   42 310 01 00:   GAMMA RAY
 NPHI.DEC    42 890 00 00:   NEUTRON POROSITY
~PARAMETER INFORMATION
#MNEM.UNIT          VALUE    DESCRIPTION
#----------   ------------   ------------------------------
 PD  .                 GL:   PERMANENT DATUM
 EPD .F              5133:   ELEVATION PERMANENT DATUM
 LMF .                 KB:   LOG MEASURED FROM
 DAPD.F                 6:   FEET ABOVE PERMANENT DATUM
 DMF .                 KB:   DRILLING MEASURED FROM
 EKB .F              5139:   KELLING BUSHING
 EGL .F              5133:   GROUND LEVEL
 DATE.        14-AUG-1961:   RUN DATE
 RUN .                  1:   RUN NUMBER
 DD  .F               790:   DEPTH DRILLER
 DL  .F               791:   DEPTH LOGGER
 BLI .F             789.5:   BOTTOM LOG INTERVAL
 BS  .IN            7.875:   BIT SIZE
 BSD .F               790:   BIT SIZE AT DEPTH
 DFT .        OIL EMULSON:   DRILLING FLUID TYPE
 DFD .                9.5:   DRILLING FLUID DENSITY
 TCS .HRS             1.5:   TIME CURCULATED STOPPED
 LUN .               1206:   LOGGING UNIT NUMBER
 ENGI.            JACKSON:   RECORDING ENGINEER
 WITN.          JORGENDEN:   WITNESSED BY
 CLNT.            A2DTECH:   CLIENT CODE
 ORIG.           2" PRINT:   ORIGIN OF DATA
 UWI .       490250644100:   UNIQUE WELL ID
 DICO. A2D Technologies, Inc.:   DIGITIZING COMPANY
~OTHER INFORMATION
~A    DEPT        GR     NPHI   
# ...
  121.5000     4.0412     0.2205
  122.0000     4.0867     0.1922
  122.5000     4.3417     0.1824
  123.0000     4.3988     0.1870
  123.5000     4.3669     0.1990
  124.0000     4.4547     0.2083
  124.5000     4.5411     0.2108
  125.0000     4.6433     0.2058
  125.5000     4.7002     0.2017
  126.0000     4.7079     0.1987
  126.5000     4.7080     0.2006
  127.0000     4.7174     0.2062
  127.5000     4.8595     0.2138
  128.0000     5.0611     0.2222
  128.5000     5.0715     0.2310
  129.0000     5.0806     0.2329
  129.5000     5.1421     0.2365
  130.0000     5.1742     0.2390
  130.5000     4.9235     0.2391
  131.0000     4.5862     0.2391
  131.5000     4.3839     0.2327
  132.0000     4.3336     0.2234
  132.5000     4.3084     0.2176
  133.0000     4.5809     0.2117
  133.5000     4.4618     0.2067
  134.0000     4.3239     0.2064
  134.5000     4.4594     0.2058
  135.0000     4.6663     0.2031
  135.5000     4.6798     0.1986
  136.0000     4.7829     0.1961
  136.5000     4.9448     0.1991
  137.0000     5.0054     0.2031
  137.5000     4.8908     0.2058
  138.0000     4.8316     0.2064
  138.5000     4.8620     0.2084
  139.0000     4.8451     0.2124
  139.5000     4.5370     0.2221
  140.0000     4.3933     0.2295
  140.5000     4.3351     0.2317
  141.0000     4.4995     0.2380
  141.5000     4.7424     0.2407
  142.0000     4.8619     0.2420
  142.5000     4.9310     0.2433
  143.0000     4.9423     0.2438
  143.5000     4.8219     0.2320
  144.0000     4.6817     0.2277
  144.5000     4.5886     0.2312
  145.0000     4.5831     0.2407
  145.5000     4.6973     0.2468
  146.0000     4.7351     0.2518
  146.5000     4.3873     0.2552
  147.0000     4.3115     0.2561
  147.5000     4.3924     0.2559
  148.0000     4.4454     0.2540
  148.5000     4.3717     0.2505
  149.0000     4.3197     0.2470
  149.5000     4.5619     0.2379
  150.0000     4.5822     0.2306
  150.5000     4.5168     0.2258
  151.0000     4.4091     0.2207
  151.5000     4.4440     0.2116
  152.0000     4.7062     0.2131
  152.5000     4.8401     0.2214
  153.0000     4.9578     0.2267
  153.5000     5.0923     0.2240
  154.0000     5.1637     0.2188
  154.5000     5.1601     0.2210
  155.0000     5.1456     0.2355
  155.5000     5.1281     0.2427
  156.0000     5.1080     0.2336
  156.5000     5.0716     0.2331
  157.0000     5.1096     0.2362
  157.5000     5.4336     0.2381
  158.0000     5.5635     0.2353
  158.5000     5.5045     0.2327
  159.0000     5.2676     0.2441
  159.5000     5.1944     0.2502
  160.0000     5.4569     0.2544
  160.5000     5.6158     0.2561
  161.0000     5.1470     0.2568
  161.5000     4.9450     0.2525
  162.0000     4.7992     0.2494
  162.5000     4.7804     0.2357
  163.0000     4.9261     0.2235
  163.5000     5.1097     0.2213
  164.0000     5.1553     0.2210
  164.5000     4.9255     0.2196
  165.0000     4.7777     0.2190
  165.5000     4.8576     0.2180
  166.0000     4.7868     0.2231
  166.5000     4.5128     0.2198
  167.0000     4.4302     0.2150
  167.5000     4.6038     0.2141
  168.0000     4.6125     0.2145
  168.5000     4.5553     0.2159
  169.0000     4.5588     0.2167
  169.5000     4.7211     0.2180
  170.0000     4.8389     0.2136
  170.5000     4.7861     0.2054
  171.0000     4.7756     0.1992
  171.5000     4.7965     0.1964
  172.0000     4.9150     0.1954
  172.5000     4.9601     0.1953
  173.0000     4.9613     0.1965
  173.5000     4.9621     0.1997
  174.0000     5.0622     0.2049
  174.5000     5.2333     0.2056
  175.0000     5.3922     0.2055
  175.5000     5.5550     0.2008
  176.0000     5.6950     0.1977
  176.5000     5.7481     0.1952
  177.0000     5.6801     0.1868
  177.5000     5.5906     0.1858
  178.0000     5.3399     0.1861
  178.5000     5.0519     0.1864
  179.0000     4.6500     0.1863
  179.5000     4.3947     0.1798
  180.0000     4.3469     0.1767
  180.5000     4.5200     0.1719
  181.0000     4.6069     0.1685
  181.5000     4.6297     0.1701
  182.0000     4.6298     0.1740
  182.5000     4.6299     0.1746
  183.0000     4.6376     0.1743
  183.5000     4.6453     0.1743
  184.0000     4.6387     0.1743
  184.5000     4.3370     0.1759
  185.0000     4.3340     0.1801
  185.5000     4.3044     0.1811
  186.0000     4.1453     0.1824
  186.5000     4.2980     0.1826
  187.0000     4.5424     0.1807
  187.5000     4.8038     0.1790
  188.0000     4.9564     0.1853
  188.5000     4.9944     0.1987
  189.0000     4.9945     0.2040
  189.5000     4.9946     0.2146
  190.0000     4.9609     0.2247
  190.5000     4.7679     0.2294
  191.0000     4.5961     0.2331
  191.5000     4.5109     0.2300
  192.0000     4.5867     0.2230
  192.5000     4.5543     0.2155
  193.0000     4.3265     0.2071
  193.5000     3.8760     0.1909
  194.0000     3.8086     0.1656
  194.5000     3.9292     0.1564
  195.0000     4.0823     0.1517
  195.5000     4.1260     0.1546
  196.0000     3.8312     0.1635
  196.5000     3.9003     0.1599
  197.0000     4.0995     0.1487
  197.5000     4.2097     0.1433
  198.0000     4.2779     0.1450
  198.5000     4.2609     0.1550
  199.0000     4.2252     0.1759
  199.5000     4.3044     0.1887
  200.0000     4.4372     0.1962
  200.5000     4.4875     0.1988
  201.0000     4.4904     0.2000
  201.5000     4.4829     0.1943
  202.0000     4.1807     0.1796
  202.5000     3.7754     0.1697
  203.0000     3.7800     0.1568
  203.5000     3.9617     0.1447
  204.0000     4.0436     0.1304
  204.5000     3.9046     0.1253
  205.0000     3.7429     0.1252
  205.5000     3.7529     0.1250
  206.0000     3.8063     0.1188
  206.5000     3.7362     0.1128
  207.0000     3.6236     0.1102
  207.5000     3.5323     0.1097
  208.0000     3.6611     0.1113
  208.5000     3.5368     0.1138
  209.0000     3.2728     0.1166
  209.5000     3.2567     0.1159
  210.0000     3.5434     0.1074
  210.5000     3.7302     0.1101
  211.0000     3.8266     0.1186
  211.5000     3.9348     0.1192
  212.0000     3.8040     0.1113
  212.5000     3.7611     0.1098
  213.0000     3.9202     0.1074
  213.5000     3.9766     0.1049
  214.0000     4.0046     0.1065
  214.5000     4.0059     0.1105
  215.0000     3.9757     0.1122
  215.5000     3.9513     0.1092
  216.0000     3.9292     0.1069
  216.5000     3.9139     0.1043
  217.0000     4.1331     0.1081
  217.5000     4.3985     0.1116
  218.0000     4.3891     0.1158
  218.5000     4.1848     0.1197
  219.0000     4.1116     0.1218
  219.5000     4.1009     0.1088
  220.0000     4.1684     0.1104
  220.5000     4.2559     0.1125
  221.0000     4.2635     0.1149
  221.5000     4.2033     0.1192
  222.0000     4.1046     0.1284
  222.5000     3.9595     0.1293
  223.0000     3.7500     0.1271
  223.5000     3.7273     0.1206
  224.0000     3.7932     0.1172
  224.5000     4.0456     0.1119
  225.0000     4.1145     0.1097
  225.5000     4.1518     0.1175
  226.0000     4.0386     0.1249
  226.5000     3.8637     0.1423
  227.0000     3.7440     0.1432
  227.5000     3.7276     0.1436
  228.0000     3.7776     0.1438
  228.5000     3.9412     0.1443
  229.0000     4.0207     0.1447
  229.5000     3.9798     0.1456
  230.0000     3.5938     0.1474
  230.5000     3.5577     0.1502
  231.0000     3.5096     0.1537
  231.5000     3.4733     0.1593
  232.0000     3.5525     0.1639
  232.5000     3.7990     0.1667
  233.0000     4.0627     0.1668
  233.5000     4.2791     0.1673
  234.0000     4.2761     0.1684
  234.5000     4.2205     0.1695
  235.0000     4.1612     0.1691
  235.5000     4.1859     0.1629
  236.0000     4.3261     0.1616
  236.5000     4.4974     0.1591
  237.0000     4.5867     0.1582
  237.5000     4.7578     0.1619
  238.0000     4.9130     0.1690
  238.5000     5.0086     0.1731
  239.0000     5.1625     0.1745
  239.5000     5.3750     0.1776
  240.0000     5.5224     0.1867
  240.5000     5.8300     0.1914
  241.0000     5.8370     0.1938
  241.5000     5.8335     0.1923
  242.0000     5.7308     0.1892
  242.5000     5.5432     0.1983
