~VERSION INFORMATION
 VERS.                2.0:   CWLS LOG ASCII STANDARD - VERSION 2.0
 WRAP.                 NO:   ONE LINE PER DEPTH STEP
~WELL INFORMATION
#MNEM.UNIT      DATA TYPE    INFORMATION
#----------   ------------   ------------------------------
 STRT.F          148.5000:   START DEPTH
 STOP.F          882.5000:   STOP DEPTH
 STEP.F            0.5000:   STEP LENGTH
 NULL.          -999.2500:   NO VALUE
 COMP.               NAVY:   COMPANY
 WELL. RES 3 TEAPOT DOM #55S-11:   WELL
 FLD .             TEAPOT:   FIELD
 LOC .      S11 T38N R78W:   LOCATION
 CNTY.            NATRONA:   COUNTY
 STAT.            WYOMING:   STATE
 CTRY. UNITED STATES OF AMERICA:   COUNTRY
 SRVC.       Schlumberger:   SERVICE COMPANY
 DATE.        05-AUG-1961:   LOGDATE
 API .       490250634000:   API NUMBER
~CURVE INFORMATION
#MNEM.UNIT       API CODE    CURVE DESCRIPTION
#----------   ------------   ------------------------------
 DEPT.F                  :   
 GR  .GAPI   30 310 01 00:   GAMMA RAY
 SPR .MV     05 010 01 00:   SPONTANEOUS POTENTIAL FROM RES.
 CILD.MMHO   05 110 46 00:   CONDUCTIVITY INDUCTION LOG DEEP
 ASN .OHMM   05 041 16 00:   AMPLIFIED SHORT NORMAL 16"
 ILD .OHMM   05 120 46 00:   INDUCTION LOG DEEP
~PARAMETER INFORMATION
#MNEM.UNIT          VALUE    DESCRIPTION
#----------   ------------   ------------------------------
 PD  .                 GL:   PERMANENT DATUM
 EPD .F              5201:   ELEVATION PERMANENT DATUM
 LMF .                 KB:   LOG MEASURED FROM
 DAPD.F                 6:   FEET ABOVE PERMANENT DATUM
 DMF .                 KB:   DRILLING MEASURED FROM
 EKB .F              5207:   KELLING BUSHING
 EGL .F              5201:   GROUND LEVEL
 DATE.             8-5-61:   RUN DATE
 RUN .                  1:   RUN NUMBER
 DD  .F               880:   DEPTH DRILLER
 DL  .F               882:   DEPTH LOGGER
 BLI .F               881:   BOTTOM LOG INTERVAL
 TLI .F               150:   TOP LOG INTERVAL
 BS  .IN            7.875:   BIT SIZE
 BSD .F               880:   BIT SIZE AT DEPTH
 DFT .       OIL EMULSION:   DRILLING FLUID TYPE
 DFV .                 40:   DRILLING FLUID VISCOSITY
 MSS .           FLOWLINE:   MUD SAMPLE SOURCE
 RMS .OHMM            .96:   RESISTIVITY MUD SAMPLE
 MST .F                74:   MUD SAMPLE TEMPERATURE
 TCS .HRS               1:   TIME CURCULATED STOPPED
 LUN .               2544:   LOGGING UNIT NUMBER
 LUL .                 NC:   LOGGING UNIT LOCATION
 ENGI.            EARNEST:   RECORDING ENGINEER
 WITN.          JORGENSEN:   WITNESSED BY
 CLNT.            A2DTECH:   CLIENT CODE
 ORIG.       2", 5" PRINT:   ORIGIN OF DATA
 UWI .       490250634000:   UNIQUE WELL ID
 DICO. A2D Technologies, Inc.:   DIGITIZING COMPANY
~OTHER INFORMATION
~A   DEPT       GR        SPR       CILD        ASN        ILD   
# ...
  392.5000  -999.2500   -50.6730   160.0855     7.5314     6.8912
  393.0000  -999.2500   -50.3179   158.8927     7.5499     6.8991
  393.5000  -999.2500   -50.3043   157.7702     7.5575     6.8981
  394.0000  -999.2500   -50.5750   156.6446     7.5259     6.8986
  394.5000  -999.2500   -50.7869   155.5192     7.4912     6.8984
  395.0000  -999.2500   -51.0279   154.3863     7.4624     6.8985
  395.5000  -999.2500   -51.2526   153.2533     7.4682     6.8987
  396.0000  -999.2500   -51.4874   152.1204     7.5261     6.8984
  396.5000  -999.2500   -51.7158   150.9875     7.5821     6.8992
  397.0000  -999.2500   -51.9458   150.0504     7.6392     6.8979
  397.5000  -999.2500   -52.0457   152.2659     7.6901     6.9012
  398.0000  -999.2500   -52.1577   155.5287     7.7723     6.8867
  398.5000  -999.2500   -52.2818   158.7915     7.8225     6.7846
  399.0000  -999.2500   -52.3888   162.0544     7.8193     6.6898
  399.5000  -999.2500   -52.4408   165.3172     7.6025     6.5939
  400.0000  -999.2500   -52.2622   166.9184     7.3643     6.4991
  400.5000  -999.2500   -51.7656   167.9381     7.1312     6.4033
  401.0000  -999.2500   -51.1469   168.9577     7.0682     6.3084
  401.5000  -999.2500   -50.4871   170.1913     7.0443     6.2043
  402.0000  -999.2500   -50.3783   171.0702     7.0074     6.1620
  402.5000  -999.2500   -50.4736   172.1826     6.9768     6.1268
  403.0000  -999.2500   -50.6817   173.2949     6.9415     6.0891
  403.5000  -999.2500   -50.9022   174.4072     6.9375     6.0520
  404.0000  -999.2500   -51.1195   175.5195     6.9389     6.0145
  404.5000  -999.2500   -51.3383   176.2336     6.9440     5.9837
  405.0000  -999.2500   -51.5570   178.2477     6.9513     6.0152
  405.5000  -999.2500   -51.7764   178.2477     6.9558     6.1186
  406.0000  -999.2500   -51.9974   178.2477     6.9227     6.1658
  406.5000  -999.2500   -52.0271   176.2336     6.8814     6.2245
  407.0000  -999.2500   -52.0187   175.2350     6.8392     6.2774
  407.5000  -999.2500   -52.0260   172.8558     6.8023     6.3335
  408.0000  -999.2500   -52.0155   170.4767     6.7923     6.3880
  408.5000  -999.2500   -52.0346   168.0975     6.8362     6.4433
  409.0000  -999.2500   -51.9726   165.7184     6.9595     6.4980
  409.5000  -999.2500   -51.7945   163.3392     7.0851     6.5534
  410.0000  -999.2500   -51.6676   160.1208     7.2122     6.6077
  410.5000  -999.2500   -51.4831   156.0423     7.3397     6.6641
  411.0000  -999.2500   -51.3198   154.0786     7.4581     6.7167
  411.5000  -999.2500   -51.1456   154.0786     7.5154     6.7761
  412.0000  -999.2500   -50.9759   156.1014     7.5683     6.7989
  412.5000  -999.2500   -50.8166   158.0520     7.6568     6.8013
  413.0000  -999.2500   -50.8208   160.0026     7.7454     6.7588
  413.5000  -999.2500   -51.0106   161.9532     7.8243     6.6716
  414.0000  -999.2500   -51.2174   163.9039     7.8106     6.5953
  414.5000  -999.2500   -51.4208   165.8545     7.6823     6.5142
  415.0000  -999.2500   -51.6274   167.8051     7.5423     6.4346
  415.5000  -999.2500   -51.8175   169.7557     7.3967     6.3565
  416.0000  -999.2500   -51.9491   171.7063     7.2553     6.2735
  416.5000  -999.2500   -52.0732   173.6569     7.1411     6.2003
  417.0000  -999.2500   -52.1926   175.6075     7.1046     6.1095
  417.5000  -999.2500   -52.3237   174.2195     7.0765     6.1631
  418.0000  -999.2500   -52.3964   171.3192     7.0451     6.3086
  418.5000  -999.2500   -52.1838   168.8721     7.0419     6.4271
  419.0000  -999.2500   -51.9603   165.4814     7.0765     6.5579
  419.5000  -999.2500   -51.7430   161.7166     7.2111     6.6823
  420.0000  -999.2500   -51.5169   157.9518     7.3702     6.8102
  420.5000  -999.2500   -51.3066   154.1870     7.5059     6.9362
  421.0000  -999.2500   -51.0702   150.4222     7.6559     7.0633
  421.5000  -999.2500   -51.0960   146.6574     7.8053     7.1891
  422.0000  -999.2500   -51.2902   144.0081     7.9691     7.3209
  422.5000  -999.2500   -51.4402   141.9940     8.0884     7.4821
  423.0000  -999.2500   -51.6134   142.7795     8.1217     7.3997
  423.5000  -999.2500   -51.7691   145.2266     8.1515     7.2547
  424.0000  -999.2500   -51.9431   148.0363     8.1504     7.1224
  424.5000  -999.2500   -52.0914   151.8756     8.1047     6.9837
  425.0000  -999.2500   -52.3190   156.9738     7.9619     6.8490
  425.5000  -999.2500   -52.2803   162.0720     7.8243     6.7106
  426.0000  -999.2500   -52.0324   167.1702     7.6781     6.5770
  426.5000  -999.2500   -51.8266   171.0222     7.5237     6.4358
  427.0000  -999.2500   -51.5964   172.2054     7.3767     6.3082
  427.5000  -999.2500   -51.3849   172.2054     7.2162     6.1534
  428.0000  -999.2500   -51.1475   172.2054     7.1081     6.1361
  428.5000  -999.2500   -50.9184   172.2054     7.0654     6.2781
  429.0000  -999.2500   -50.6893   169.7508     7.0577     6.3948
  429.5000  -999.2500   -50.4283   167.2017     7.1048     6.5272
  430.0000  -999.2500   -50.3974   164.6526     7.1500     6.6467
  430.5000  -999.2500   -50.4094   162.1035     7.2447     6.7814
  431.0000  -999.2500   -50.5502   159.5544     7.3898     6.8822
  431.5000  -999.2500   -50.7248   157.0053     7.5228     6.9779
  432.0000  -999.2500   -50.9130   154.4562     7.6658     7.0289
  432.5000  -999.2500   -51.0333   152.0645     7.7538     7.0430
  433.0000  -999.2500   -51.2468   148.0363     7.8004     7.0698
  433.5000  -999.2500   -51.5310   147.8390     7.8430     7.0903
  434.0000  -999.2500   -51.8022   147.4992     7.8473     7.1139
  434.5000  -999.2500   -52.0690   147.1593     7.8664     7.1364
  435.0000  -999.2500   -52.3603   146.8194     7.8851     7.1584
  435.5000  -999.2500   -52.5585   146.4795     7.9042     7.1832
  436.0000  -999.2500   -52.3937   146.1396     7.9231     7.1937
  436.5000  -999.2500   -52.1114   146.0222     7.9425     7.1394
  437.0000  -999.2500   -51.7651   146.0222     7.9613     7.0856
  437.5000  -999.2500   -51.4316   148.1481     7.9808     7.0317
  438.0000  -999.2500   -51.1034   149.9608     7.9868     6.9781
  438.5000  -999.2500   -50.7494   151.7735     7.9867     6.9243
  439.0000  -999.2500   -50.5912   153.5862     7.9861     6.8706
  439.5000  -999.2500   -50.6054   155.3989     7.9733     6.8168
  440.0000  -999.2500   -50.6075   157.2116     7.8450     6.7629
  440.5000  -999.2500   -50.5882   159.0243     7.6411     6.7030
  441.0000  -999.2500   -50.7764   160.8370     7.5221     6.6535
  441.5000  -999.2500   -51.0534   162.1349     7.4759     6.5991
  442.0000  -999.2500   -51.2579   162.1349     7.4362     6.5407
  442.5000  -999.2500   -51.4843   162.1349     7.4501     6.4901
  443.0000  -999.2500   -51.7060   162.1349     7.4675     6.4224
  443.5000  -999.2500   -51.9177   162.1349     7.4885     6.4103
  444.0000  -999.2500   -52.1558   162.1349     7.4996     6.5259
  444.5000  -999.2500   -52.1357   162.1349     7.4867     6.6186
  445.0000  -999.2500   -51.9299   160.9980     7.4852     6.6746
  445.5000  -999.2500   -51.7683   159.6823     7.5214     6.7335
  446.0000  -999.2500   -51.5849   158.3666     7.5636     6.7915
  446.5000  -999.2500   -51.4151   157.0510     7.6110     6.8501
  447.0000  -999.2500   -51.2340   155.7353     7.6569     6.9083
  447.5000  -999.2500   -51.0705   154.4196     7.7046     6.9667
  448.0000  -999.2500   -50.9203   153.1040     7.7493     7.0248
  448.5000  -999.2500   -50.7746   151.7883     7.7999     7.0831
  449.0000  -999.2500   -50.6411   150.4727     7.8316     7.1412
  449.5000  -999.2500   -50.5028   149.1570     7.7974     7.2011
  450.0000  -999.2500   -50.3968   147.8413     7.7908     7.2722
  450.5000  -999.2500   -50.4759   146.5257     7.7804     7.3454
  451.0000  -999.2500   -50.7472   145.2100     7.8080     7.4180
  451.5000  -999.2500   -51.0141   143.8944     7.9051     7.4912
  452.0000  -999.2500   -51.2963   142.5787     8.0035     7.5636
  452.5000  -999.2500   -51.5534   141.7512     8.1024     7.6378
  453.0000  -999.2500   -51.8632   141.3142     8.2011     7.7003
