~VERSION INFORMATION
 VERS.                2.0:   CWLS LOG ASCII STANDARD - VERSION 2.0
 WRAP.                 NO:   ONE LINE PER DEPTH STEP
~WELL INFORMATION
#MNEM.UNIT      DATA TYPE    INFORMATION
#----------   ------------   ------------------------------
 STRT.F            8.0000:   START DEPTH
 STOP.F          508.0000:   STOP DEPTH
 STEP.F            0.1000:   STEP LENGTH
 NULL.          -999.2500:   NO VALUE
 COMP. LAWRENCE/ALLISON INC:   COMPANY
 WELL. NPR 3 47-12 SX #3-3:   WELL
 FLD .             TEAPOT:   FIELD
 LOC .       S3 T38N R78W:   LOCATION
 CNTY.            NATRONA:   COUNTY
 STAT.            WYOMING:   STATE
 CTRY. UNITED STATES OF AMERICA:   COUNTRY
 SRVC.           Gearhart:   SERVICE COMPANY
 DATE.        12-AUG-1988:   LOGDATE
 API .       490251124100:   API NUMBER
~CURVE INFORMATION
#MNEM.UNIT       API CODE    CURVE DESCRIPTION
#----------   ------------   ------------------------------
 DEPT.F                  :   
 GRR .GAPI   07 310 01 00:   GAMMA RAY
 RILD.OHMM   07 120 46 00:   INDUCTION LOG DEEP RESISTIVITY
 RILM.OHMM   07 120 44 00:   INDUCTION LOG MEDIUM RESISTIVITY
~PARAMETER INFORMATION
#MNEM.UNIT          VALUE    DESCRIPTION
#----------   ------------   ------------------------------
 PD  .                 GL:   PERMANENT DATUM
 EPD .F              5208:   ELEVATION PERMANENT DATUM
 LMF .                 KB:   LOG MEASURED FROM
 DAPD.F                10:   FEET ABOVE PERMANENT DATUM
 DMF .                 KB:   DRILLING MEASURED FROM
 EKB .F              5218:   KELLING BUSHING
 EDF .F              5216:   DRILLING FLOOR
 EGL .F              5208:   GROUND LEVEL
 DATE.        12-AUG-1988:   RUN DATE
 RUN .                  1:   RUN NUMBER
 DD  .F               515:   DEPTH DRILLER
 DL  .F               516:   DEPTH LOGGER
 BLI .F               508:   BOTTOM LOG INTERVAL
 TLI .F                50:   TOP LOG INTERVAL
 CS  .IN            9.625:   CASING SIZE
 CBD .F                50:   CASING BOTTOM DRILLER
 CBL .F                50:   CASING BOTTOM LOGGER
 BS  .IN             8.75:   BIT SIZE
 BSD .F               515:   BIT SIZE AT DEPTH
 DFT .                AIR:   DRILLING FLUID TYPE
 TCS .HRS            1500:   TIME CURCULATED STOPPED
 TLAB.HRS            1640:   TIME LOGGER AT BOTTOM
 MRT .F                70:   MAXIMUM RECORDED TEMPERATURE
 LUN .               7597:   LOGGING UNIT NUMBER
 LUL .           GILLETTE:   LOGGING UNIT LOCATION
 ENGI.         WEATHERMON:   RECORDING ENGINEER
 WITN.             STRONG:   WITNESSED BY
 CLNT.            A2DTECH:   CLIENT CODE
 ORIG.       2", 5" PRINT:   ORIGIN OF DATA
 UWI .       490251124100:   UNIQUE WELL ID
 DICO. A2D Technologies, Inc.:   DIGITIZING COMPANY
~OTHER INFORMATION
~A    DEPT      GRR      RILD       RILM   
# ...
  299.2000   143.9032     7.3585     6.2784
  299.3000   143.1165     7.3891     6.3141
  299.4000   141.9567     7.4309     6.3683
  299.5000   140.1915     7.4729     6.4304
  299.6000   138.2147     7.5153     6.4717
  299.7000   136.2383     7.5641     6.6004
  299.8000   134.2507     7.6375     6.6642
  299.9000   131.6188     7.7245     6.7647
  300.0000   130.4987     7.7763     6.9084
  300.1000   129.1260     7.7760     7.0938
  300.2000   127.7534     7.7940     7.2792
  300.3000   126.3807     7.8583     7.4646
  300.4000   125.2599     7.9953     7.6500
  300.5000   124.5027     8.1055     7.8253
  300.6000   123.7484     8.2610     7.9627
  300.7000   123.1511     8.4242     8.1850
  300.8000   122.5321     8.5933     8.3411
  300.9000   122.2445     8.7947     8.4756
  301.0000   122.1381     9.0006     8.6162
  301.1000   121.9431     9.2467     8.8180
  301.2000   121.9437     9.4283     9.0265
  301.3000   121.9444     9.6859     9.4042
  301.4000   121.9450     9.9187     9.6784
  301.5000   122.1059    10.0778     9.9480
  301.6000   122.2487    10.1950    10.1812
  301.7000   122.3100    10.3310    10.4057
  301.8000   122.5525    10.4861    10.5861
  301.9000   122.5532    10.5882    10.7302
  302.0000   122.3398    10.7072    10.8342
  302.1000   122.2517    10.8777    10.8799
  302.2000   122.1381    10.9998    10.9071
  302.3000   121.8860    11.0714    10.9552
  302.4000   121.6340    11.1842    10.9549
  302.5000   121.3465    11.2254    10.9545
  302.6000   121.1297    11.2564    10.9543
  302.7000   121.0451    11.3214    10.9540
  302.8000   120.9279    11.3869    10.9537
  302.9000   120.6758    11.4598    10.9533
  303.0000   120.4235    11.4594    10.9531
  303.1000   120.1399    11.5054    10.9527
  303.2000   119.9192    11.5719    11.0066
  303.3000   119.6672    11.6387    11.0285
  303.4000   119.4150    11.7060    11.0282
  303.5000   119.2345    11.7797    11.0279
  303.6000   119.2351    11.8419    11.0313
  303.7000   119.2358    11.8608    11.1042
  303.8000   119.2363    11.8963    11.1039
  303.9000   119.2369    11.9651    11.1463
  304.0000   119.4878    12.0342    11.1807
  304.1000   120.0693    12.1085    11.1804
  304.2000   120.8026    12.1737    11.1845
  304.3000   121.3574    12.2442    11.2578
  304.4000   122.0428    12.3150    11.2575
  304.5000   122.9800    12.4111    11.2572
  304.6000   123.9918    12.5555    11.2568
  304.7000   124.9247    12.7087    11.2565
  304.8000   125.6544    12.8494    11.2613
  304.9000   126.2022    12.9990    11.3344
  305.0000   126.4346    13.1076    11.3921
  305.1000   126.6880    13.1834    11.4129
  305.2000   126.9414    13.2725    11.4446
  305.3000   127.1123    13.4315    11.5108
  305.4000   127.0802    13.5832    11.5951
  305.5000   126.8109    13.7414    11.8976
  305.6000   126.1047    13.9014    12.0207
  305.7000   124.9753    14.0947    12.1120
  305.8000   123.4401    14.3104    12.2172
  305.9000   121.7576    14.3940    12.3807
  306.0000   120.2414    14.5597    12.5975
  306.1000   118.6451    14.7293    12.8409
  306.2000   117.6890    14.9530    12.9753
  306.3000   116.2999    15.2150    13.2344
  306.4000   114.5048    15.4815    13.5448
  306.5000   112.4834    15.7525    13.9124
  306.6000   110.3817    16.0812    14.3944
  306.7000   107.7561    16.3880    14.8565
  306.8000   105.0848    16.7725    15.3352
  306.9000   101.1461    17.1659    16.1482
  307.0000    98.4259    17.5681    17.2189
  307.1000    96.6293    17.9823    18.2818
  307.2000    94.1371    18.6019    19.0103
  307.3000    90.5132    19.0581    19.6155
  307.4000    86.3243    19.4732    20.0383
  307.5000    82.0276    19.8145    20.5088
  307.6000    78.0244    20.1615    20.9254
  307.7000    74.8159    20.5198    21.3324
  307.8000    72.6366    21.0741    21.8480
  307.9000    70.8496    21.3887    22.5375
  308.0000    69.8504    21.8476    23.0282
  308.1000    68.6396    22.3600    23.5687
  308.2000    67.6770    22.8839    24.0464
  308.3000    66.8187    23.4013    24.5157
  308.4000    65.8592    23.7095    25.0699
  308.5000    65.1004    24.1939    25.5372
  308.6000    63.8948    24.6643    26.0991
  308.7000    63.2834    25.1674    26.7118
  308.8000    62.5257    25.7144    27.1656
  308.9000    61.9767    26.1779    27.4818
  309.0000    61.7247    26.8604    27.8016
  309.1000    61.4726    27.2794    28.1426
  309.2000    61.1753    27.7579    28.2968
  309.3000    61.3834    28.2447    28.4607
  309.4000    61.6367    28.6889    28.7176
  309.5000    61.9980    29.0225    28.9329
  309.6000    62.5042    29.3914    28.9838
  309.7000    63.0355    29.5457    29.3363
  309.8000    64.5072    29.7165    29.4986
  309.9000    65.9858    29.8884    29.6695
  310.0000    67.5949    30.0612    29.9388
  310.1000    69.3356    30.2349    30.2873
  310.2000    71.2337    30.4225    30.6105
  310.3000    72.7511    30.5856    30.7939
  310.4000    74.4957    30.7625    30.9661
  310.5000    75.7854    30.9403    31.1453
  310.6000    77.9631    31.1191    31.3257
  310.7000    80.1455    31.2990    31.5071
  310.8000    81.8496    31.4898    31.6896
  310.9000    83.3350    31.6622    31.8777
  311.0000    84.4842    31.8453    32.0576
  311.1000    85.1399    32.0293    32.0983
  311.2000    85.7302    32.1475    32.2054
  311.3000    85.9988    32.1763    32.3919
  311.4000    86.0684    32.3689    32.5794
  311.5000    86.3025    32.5496    32.7710
  311.6000    86.0007    32.7379    32.7701
  311.7000    85.7790    32.9271    32.7692
  311.8000    85.1825    33.0450    32.8805
  311.9000    84.5474    33.0782    32.9959
  312.0000    83.9700    33.2725    32.9950
  312.1000    83.1895    33.4620    32.9941
  312.2000    82.0709    33.5017    32.9932
  312.3000    81.3943    33.6158    32.9923
  312.4000    80.4607    33.8102    32.9914
  312.5000    79.7023    33.9663    32.9904
  312.6000    79.1974    33.9646    32.9895
  312.7000    78.6660    33.9629    32.9880
  312.8000    77.8385    34.1215    32.7590
  312.9000    77.6097    34.1971    32.7583
  313.0000    77.1781    34.1957    32.7573
  313.1000    76.8029    34.2379    32.7565
  313.2000    76.6306    34.4312    32.7556
  313.3000    76.6312    34.4295    32.7522
  313.4000    76.6318    34.2637    32.5267
  313.5000    76.6323    34.1885    32.3728
  313.6000    76.8161    34.1012    32.2997
  313.7000    77.0695    33.9491    32.2208
  313.8000    77.3227    33.9394    32.0334
  313.9000    77.5425    33.7111    31.8471
  314.0000    77.5432    33.5450    31.6295
  314.1000    77.5437    33.3494    31.4780
  314.2000    77.5443    33.0683    31.1822
  314.3000    77.4079    32.6848    30.8216
  314.4000    77.1558    32.3170    30.5052
  314.5000    76.9036    32.1032    30.3278
  314.6000    76.6391    31.6232    30.1223
  314.7000    76.3994    31.3171    29.8321
  314.8000    76.3376    31.0498    29.5956
  314.9000    76.1977    30.6898    29.4235
  315.0000    76.0363    30.3338    29.2122
  315.1000    76.0369    29.9415    28.8742
  315.2000    76.0375    29.6354    28.4882
  315.3000    76.2820    29.4087    28.2104
  315.4000    76.7295    29.1544    27.9886
  315.5000    77.3796    28.8655    27.8259
  315.6000    78.1383    28.6970    27.6641
  315.7000    78.8977    28.5134    27.5032
  315.8000    79.6720    28.2154    27.3199
  315.9000    80.1675    28.0028    27.3193
  316.0000    80.6737    27.8395    27.2150
  316.1000    81.0320    27.6773    27.0568
  316.2000    81.2854    27.4971    26.9398
  316.3000    81.5388    27.1534    26.9296
  316.4000    81.7937    27.0075    26.7516
  316.5000    82.0453    26.8500    26.6176
  316.6000    82.0974    26.6120    26.5649
  316.7000    82.0981    26.4051    26.4926
  316.8000    81.9970    26.3830    26.3385
  316.9000    81.7966    26.2201    26.1854
  317.0000    81.7973    26.0763    26.0137
  317.1000    81.7980    25.9243    25.8819
  317.2000    81.7985    25.7731    25.7315
  317.3000    81.7991    25.6751    25.5819
