~VERSION INFORMATION
 VERS.                2.0:   CWLS LOG ASCII STANDARD - VERSION 2.0
 WRAP.                 NO:   ONE LINE PER DEPTH STEP
~WELL INFORMATION
#MNEM.UNIT      DATA TYPE    INFORMATION
#----------   ------------   ------------------------------
 STRT.F            8.0000:   START DEPTH
 STOP.F          420.0000:   STOP DEPTH
 STEP.F            0.5000:   STEP LENGTH
 NULL.          -999.2500:   NO VALUE
 COMP.    FENIX & SCISSON:   COMPANY
 WELL.    NPR 3 SX #61-10:   WELL
 FLD .             TEAPOT:   FIELD
 LOC .      S10 T38N R78W:   LOCATION
 CNTY.            NATRONA:   COUNTY
 STAT.            WYOMING:   STATE
 CTRY. UNITED STATES OF AMERICA:   COUNTRY
 SRVC.            Unknown:   SERVICE COMPANY
 DATE.        20-NOV-1978:   LOGDATE
 API .       490251074900:   API NUMBER
~CURVE INFORMATION
#MNEM.UNIT       API CODE    CURVE DESCRIPTION
#----------   ------------   ------------------------------
 DEPT.F                  :   
 ILD .OHMM   01 120 46 00:   LOG INDUCTION
 SN  .OHMM   01 040 00 00:   SHORT NORMAL
 SPR .MV     01 010 01 00:   SPONTANEOUS POTENSIAL
 CALD.IN     45 280 60 00:   CALIPER
 GRD .GAPI   45 310 01 00:   GAMMA RAY FROM DENSITY LOG
 DPHI.DEC    45 890 12 00:   DENSITY POROSITY SANDSTONE
 RHOB.G/C3   45 350 01 00:   BULK DENSITY
 CORR.G/C3   45 356 01 00:   DENSITY CORRECTION
~PARAMETER INFORMATION
#MNEM.UNIT          VALUE    DESCRIPTION
#----------   ------------   ------------------------------
 PD  .                 GL:   PERMANENT DATUM
 EPD .F              5145:   ELEVATION PERMANENT DATUM
 LMF .                 KB:   LOG MEASURED FROM
 DAPD.F                 4:   FEET ABOVE PERMANENT DATUM
 DMF .                 KB:   DRILLING MEASURED FROM
 EKB .F              5149:   KELLING BUSHING
 EGL .F              5145:   GROUND LEVEL
 DATE.        20-NOV-1978:   RUN DATE
 RUN .                  1:   RUN NUMBER
 DD  .F               435:   DEPTH DRILLER
 DL  .F               426:   DEPTH LOGGER
 BLI .F               420:   BOTTOM LOG INTERVAL
 TLI .F                48:   TOP LOG INTERVAL
 CS  .IN            8.625:   CASING SIZE
 CBD .F                40:   CASING BOTTOM DRILLER
 CBL .F                42:   CASING BOTTOM LOGGER
 BS  .IN            7.875:   BIT SIZE
 BSD .F               435:   BIT SIZE AT DEPTH
 DFT .                KCL:   DRILLING FLUID TYPE
 DFD .                8.6:   DRILLING FLUID DENSITY
 DFV .                 38:   DRILLING FLUID VISCOSITY
 DFPH.                9.8:   DRILLING FLUID PH
 DFL .                 10:   DRILLING FLUID LOSS
 MSS .           FLOWLINE:   MUD SAMPLE SOURCE
 RMS .OHMM            .39:   RESISTIVITY MUD SAMPLE
 MST .F                54:   MUD SAMPLE TEMPERATURE
 RMF .OHMM            .26:   RESISTIVITY MUD FILTRATE SAMPLE
 MFST.F                72:   MUD FILTRATE SAMPLE TEMPERATURE
 RMC .OHMM            .34:   RESISTIVITY MUD CAKE
 MCST.F                74:   MUD CAKE SAMPLE TEMPERATURE
 MFSS.           MEASURED:   MUD FILTRATE SAMPLE SOURCE
 RMB .OHMM            .33:   RESISTIVITY MUD AT BHT
 BHT .F                63:   BOTTOM HOLE TEMPERATURE
 TCS .HRS               1:   TIME CURCULATED STOPPED
 MRT .F                63:   MAXIMUM RECORDED TEMPERATURE
 LUN .               2958:   LOGGING UNIT NUMBER
 LUL .               CASP:   LOGGING UNIT LOCATION
 ENGI.             MILLER:   RECORDING ENGINEER
 WITN.              AMEND:   WITNESSED BY
 CLNT.            A2DTECH:   CLIENT CODE
 ORIG.        2" 5" PRINT:   ORIGIN OF DATA
 UWI .       490251074900:   UNIQUE WELL ID
 DICO. A2D Technologies, Inc.:   DIGITIZING COMPANY
~OTHER INFORMATION
~A    DEPT     ILD         SN        SPR       CALD         GRD      DPHI       RHOB       CORR   
# ...
   89.0000    11.3029    12.5415   -17.5573     7.5885    90.9435     0.1247     2.4908     0.1112
   89.5000    11.3129    12.3771   -17.6896     7.6187    94.5372     0.1373     2.4878     0.0953
   90.0000    11.2447    12.2175   -17.9701     7.5893    95.4167     0.1408     2.4578     0.0527
   90.5000    11.0998    12.1466   -18.4005     7.5599    91.2553     0.1423     2.4458     0.0317
   91.0000    10.8059    12.1573   -18.3821     7.5306    90.3654     0.1435     2.4451     0.0302
   91.5000    10.5929    12.0840   -18.5348     7.5161    92.3053     0.1429     2.4459     0.0289
   92.0000    10.4562    12.0947   -19.0935     7.5613    94.5418     0.1396     2.4460     0.0260
   92.5000    10.4656    12.0216   -18.9222     7.5915    97.2248     0.1455     2.4438     0.0231
   93.0000    10.4751    12.0325   -18.6061     7.5771    99.0148     0.1491     2.4401     0.0232
   93.5000    10.4845    11.9562   -18.1407     7.5478    96.2872     0.1509     2.4356     0.0218
   94.0000    10.4210    11.8058   -17.5261     7.5173    95.3044     0.1506     2.4341     0.0219
   94.5000    10.3582    11.7346   -17.3593     7.5040    93.9695     0.1488     2.4342     0.0236
   95.0000    10.3697    11.6639   -17.0432     7.4450    93.9739     0.1539     2.4342     0.0267
   95.5000    10.3789    11.5161   -16.7271     7.4157    94.2758     0.1481     2.4343     0.0314
   96.0000    10.3881    11.3651   -17.7542     7.3863    95.3219     0.1475     2.4358     0.0360
   96.5000    10.3973    11.3777   -16.6918     7.5207    95.6228     0.1463     2.4374     0.0361
   97.0000    10.4065    11.3877   -16.5250     7.5212    92.3544     0.1448     2.4389     0.0363
   97.5000    10.4158    11.3978   -16.5074     7.5066    92.2098     0.1432     2.4420     0.0364
   98.0000    10.4250    11.4872   -17.2517     7.4923    93.7024     0.1441     2.4435     0.0350
   98.5000    10.3599    11.4974   -17.9826     7.4481    97.9053     0.1474     2.4428     0.0351
   99.0000    10.2283    11.4277   -18.2456     7.4188    98.6439     0.1489     2.4391     0.0352
   99.5000    10.0968    11.3590   -18.3773     7.3894    98.7761     0.1501     2.4324     0.0368
  100.0000     9.7615    10.9062   -18.5089     7.3899   102.8788     0.1512     2.4317     0.0400
  100.5000     9.5691    10.5441   -18.7898     7.3308   104.9600     0.1524     2.4317     0.0416
  101.0000     9.4458    10.3261   -19.2156     7.2992   107.2745     0.1536     2.4303     0.0462
  101.5000     9.2596    10.2030   -19.3750     7.2574   105.6434     0.1512     2.4288     0.0584
  102.0000     9.0792    10.1415   -19.8185     7.2132   104.3099     0.1452     2.4319     0.0676
  102.5000     9.0225    10.1527   -20.0602     7.1837   101.9347     0.1440     2.4409     0.0738
  103.0000     8.9681    10.1696   -20.4861     7.1544   100.0060     0.1427     2.4455     0.0739
  103.5000     9.0385    10.2047   -21.0656     7.1251    99.5654     0.1385     2.4455     0.0725
  104.0000     8.7497    10.2398   -20.4510     7.0958    99.8929     0.1316     2.4501     0.0772
  104.5000     8.6959    10.1868   -19.9858     7.0813    98.3880     0.1174     2.4621     0.0878
  105.0000     8.8899    10.1276   -19.9683     7.1116    96.7569     0.1144     2.4787     0.0985
  105.5000     9.0231    10.1365   -20.1000     7.1567   100.4829     0.1174     2.4892     0.1016
  106.0000     9.0953    10.2159   -20.6839     7.2167   103.1658     0.1270     2.4840     0.0867
  106.5000     9.1155    10.2249   -19.9157     7.2618   100.4945     0.1282     2.4720     0.0747
  107.0000     9.1794    10.3051   -19.8982     7.3228    97.9706     0.1282     2.4698     0.0718
  107.5000     9.1229    10.3862   -20.1792     7.3966    97.5298     0.1273     2.4714     0.0689
  108.0000     9.0714    10.4696   -19.8468     7.3971    97.5357     0.1254     2.4714     0.0630
  108.5000     9.1438    10.4788   -19.6920     7.3677    98.0416     0.1315     2.4715     0.0556
  109.0000     9.2168    10.5610   -19.5252     7.3384   103.5012     0.1365     2.4708     0.0437
  109.5000     9.2261    10.6438   -19.5077     7.3690   105.5903     0.1383     2.4581     0.0271
  110.0000     9.3644    10.6532   -19.6395     7.4168   105.8937     0.1389     2.4461     0.0204
  110.5000     9.4391    10.7367   -19.7712     7.5066   105.7507     0.1377     2.4467     0.0295
  111.0000     9.6472    10.8209   -19.7537     7.5519   103.2268     0.1353     2.4585     0.0341
  111.5000     9.8649    10.9057   -19.7362     7.5822   100.7028     0.1308     2.4616     0.0357
  112.0000     9.9390    10.9912   -19.5694     7.5977    98.9214     0.1193     2.4647     0.0393
  112.5000     9.9512    11.0776   -19.5519     7.5983    98.9534     0.1148     2.4797     0.0509
  113.0000     9.8217    11.0106   -19.6836     7.5988    96.1071     0.1124     2.4918     0.0600
  113.5000     9.5654    11.0227   -19.8294     7.5994    98.8834     0.1220     2.4994     0.0616
  114.0000     9.4409    11.0324   -20.0920     7.6149   102.0725     0.1393     2.4709     0.0421
  114.5000     9.3852    11.0421   -20.0744     7.6304   101.6319     0.1439     2.4484     0.0256
  115.0000     9.3299    11.0518   -20.2106     7.6310   100.1482     0.1454     2.4440     0.0272
  115.5000     9.2767    11.0616   -20.1887     7.6315   100.6019     0.1427     2.4441     0.0272
  116.0000     9.2223    11.0713   -20.1712     7.6025    98.9708     0.1399     2.4488     0.0273
  116.5000     9.2319    11.0045   -20.1536     7.6031    96.5956     0.1471     2.4457     0.0274
  117.0000     9.3057    11.0142   -19.9869     7.6037    96.3839     0.1486     2.4397     0.0275
  117.5000     9.3154    11.0240   -19.8201     7.6042    97.5001     0.1405     2.4443     0.0260
  118.0000     9.3269    10.9574   -19.8026     7.5898    97.6548     0.1381     2.4519     0.0276
  118.5000     9.4013    10.8913   -19.6358     7.5606    99.7728     0.1380     2.4527     0.0307
  119.0000     9.4095    10.7532   -19.6179     7.5463   104.8106     0.1389     2.4512     0.0278
  119.5000     9.4204    10.6145   -19.6000     7.5471   104.2212     0.1404     2.4520     0.0278
  120.0000     9.3625    10.6238   -19.5789     7.5476   104.0767     0.1422     2.4506     0.0219
  120.5000     9.4396    10.5574   -19.5614     7.5333   103.1911     0.1410     2.4477     0.0204
  121.0000     9.3816    10.5690   -19.5438     7.5187    99.4767     0.1320     2.4462     0.0235
  121.5000     9.3935    10.5783   -19.5263     7.4899    97.9934     0.1208     2.4527     0.0266
  122.0000     9.3380    10.5877   -19.5088     7.4906    99.7864     0.1226     2.4737     0.0282
  122.5000     9.1553    10.5238   -19.4913     7.5061   100.8338     0.1325     2.4772     0.0268
  123.0000     9.1649    10.4603   -19.4738     7.5215   101.4349     0.1382     2.4622     0.0269
  123.5000     9.1762    10.3972   -19.6060     7.5519   100.8454     0.1400     2.4540     0.0269
  124.0000     9.1221    10.3368   -19.5880     7.5673    96.0893     0.1403     2.4503     0.0270
  124.5000     9.1314    10.1330   -19.7197     7.5828    95.1929     0.1397     2.4504     0.0256
  125.0000     9.0753    10.1419   -19.8515     7.5834    94.7617     0.1298     2.4542     0.0256
  125.5000     9.0218    10.1508   -19.8296     7.5840    96.2570     0.1239     2.4670     0.0257
  126.0000     8.9686    10.1598   -19.8121     7.5845   102.2152     0.1234     2.4784     0.0273
  126.5000     8.9180    10.2372   -19.7945     7.5865   102.5186     0.1348     2.4739     0.0274
  127.0000     8.7433    10.0375   -19.9307     7.6006   105.0542     0.1396     2.4687     0.0290
  127.5000     8.5129     9.7042   -19.9088     7.5863   106.8457     0.1429     2.4625     0.0290
  128.0000     8.2841     9.5687   -19.8913     7.5869   110.4229     0.1456     2.4486     0.0291
  128.5000     7.8973     9.3031   -20.0274     7.5876   107.4525     0.1468     2.4426     0.0292
  129.0000     7.5919     8.9554   -20.1552     7.5882   101.9524     0.1480     2.4397     0.0304
