~VERSION INFORMATION
 VERS.                2.0:   CWLS LOG ASCII STANDARD - VERSION 2.0
 WRAP.                 NO:   ONE LINE PER DEPTH STEP
~WELL INFORMATION
#MNEM.UNIT      DATA TYPE    INFORMATION
#----------   ------------   ------------------------------
 STRT.F         1400.0000:   START DEPTH
 STOP.F         3422.0000:   STOP DEPTH
 STEP.F            0.5000:   STEP LENGTH
 NULL.          -999.2500:   NO VALUE
 COMP. LAWRENCE/ALLISON INC:   COMPANY
 WELL.   NPR 3 #36-STX-23:   WELL
 FLD .             TEAPOT:   FIELD
 LOC .      S23 T38N R78W:   LOCATION
 CNTY.            NATRONA:   COUNTY
 STAT.            WYOMING:   STATE
 CTRY. UNITED STATES OF AMERICA:   COUNTRY
 SRVC.            Unknown:   SERVICE COMPANY
 DATE.        04-JAN-1985:   LOGDATE
 API .       490251137700:   API NUMBER
~CURVE INFORMATION
#MNEM.UNIT       API CODE    CURVE DESCRIPTION
#----------   ------------   ------------------------------
 DEPT.F                  :   
 ROP .MIN/FT 91 810 01 00:   RAT OF DRILLING PENETRATION
 TGAS.UNITS  91 830 01 00:   TOTAL GAS UNIT
~PARAMETER INFORMATION
#MNEM.UNIT          VALUE    DESCRIPTION
#----------   ------------   ------------------------------
 DATE.           1-4-1985:   RUN DATE
 RUN .                  1:   RUN NUMBER
 DD  .F              3427:   DEPTH DRILLER
 TLI .F              1400:   TOP LOG INTERVAL
 BSD .F              3427:   BIT SIZE AT DEPTH
 WITN. RAY ANDERSON/JACK HARBISON:   WITNESSED BY
 CLNT.            A2DTECH:   CLIENT CODE
 ORIG.           5" PRINT:   ORIGIN OF DATA
 UWI .       490251137700:   UNIQUE WELL ID
 DICO. A2D Technologies, Inc.:   DIGITIZING COMPANY
~OTHER INFORMATION
~A  DEPT       ROP       TGAS   
# ...
 1764.5000     0.5258     0.5797
 1765.0000     0.5254     0.5859
 1765.5000     0.5249     0.5920
 1766.0000     0.5245     0.5982
 1766.5000     0.5241     0.6044
 1767.0000     0.5236     0.6106
 1767.5000     0.5232     0.6168
 1768.0000     0.5228     0.6230
 1768.5000     0.5205     0.6292
 1769.0000     0.5170     0.6353
 1769.5000     0.5135     0.6415
 1770.0000     0.5099     0.6477
 1770.5000     0.5064     0.6539
 1771.0000     0.5029     0.6601
 1771.5000     0.4993     0.6663
 1772.0000     0.5160     0.6725
 1772.5000     0.5933     0.6786
 1773.0000     0.6707     0.6848
 1773.5000     0.7384     0.6910
 1774.0000     0.7676     0.6972
 1774.5000     0.7776     0.7034
 1775.0000     0.7877     0.7096
 1775.5000     0.7881     0.7158
 1776.0000     0.7885     0.7219
 1776.5000     0.7889     0.7281
 1777.0000     0.7893     0.7343
 1777.5000     0.7897     0.7405
 1778.0000     0.7901     0.7467
 1778.5000     0.7905     0.7529
 1779.0000     0.7909     0.7590
 1779.5000     0.7913     0.7652
 1780.0000     0.7917     0.7714
 1780.5000     0.8016     0.7647
 1781.0000     0.8015     0.7451
 1781.5000     0.8015     0.7254
 1782.0000     0.8014     0.7058
 1782.5000     0.8014     0.6862
 1783.0000     0.8013     0.6666
 1783.5000     0.8013     0.6470
 1784.0000     0.8012     0.6274
 1784.5000     0.8012     0.6078
 1785.0000     0.8011     0.5882
 1785.5000     0.8011     0.5686
 1786.0000     0.8010     0.5490
 1786.5000     0.8010     0.5294
 1787.0000     0.8009     0.5098
 1787.5000     0.8009     0.4902
 1788.0000     0.8008     0.4706
 1788.5000     0.8008     0.4510
 1789.0000     0.8007     0.4313
 1789.5000     0.8007     0.4117
 1790.0000     0.8007     0.3921
 1790.5000     0.8006     0.3725
 1791.0000     0.8005     0.3529
 1791.5000     0.8000     0.3333
 1792.0000     0.7993     0.3137
 1792.5000     0.7986     0.2941
 1793.0000     0.7979     0.2745
 1793.5000     0.7972     0.2549
 1794.0000     0.7965     0.2353
 1794.5000     0.7958     0.2157
 1795.0000     0.7952     0.1961
 1795.5000     0.7945     0.1765
 1796.0000     0.7938     0.1569
 1796.5000     0.7931     0.1372
 1797.0000     0.7924     0.1176
 1797.5000     0.7917     0.0980
 1798.0000     0.7910     0.0784
 1798.5000     0.7903     0.0588
 1799.0000     0.7897     0.0392
 1799.5000     0.7890     0.0196
 1800.0000     0.7871     0.0000
 1800.5000     0.7793     0.0000
 1801.0000     0.7715     0.0000
 1801.5000     0.7638     0.0000
 1802.0000     0.7905     0.0000
 1802.5000     0.8871     0.0000
 1803.0000     0.9645     0.0000
 1803.5000     1.0131     0.0000
 1804.0000     1.0424     0.0000
 1804.5000     1.0525     0.0000
 1805.0000     1.0530     0.0000
 1805.5000     1.0534     0.0000
 1806.0000     1.0539     0.0000
 1806.5000     1.0544     0.0000
 1807.0000     1.0505     0.0000
 1807.5000     1.0440     0.0000
 1808.0000     1.0366     0.0000
 1808.5000     0.9618     0.0000
 1809.0000     0.8645     0.0000
 1809.5000     0.8217     0.0000
 1810.0000     0.7788     0.0000
 1810.5000     0.7785     0.0000
 1811.0000     0.7780     0.0000
 1811.5000     0.7775     0.0000
 1812.0000     0.7770     0.0000
 1812.5000     0.7765     0.0000
 1813.0000     0.7760     0.0000
 1813.5000     0.7755     0.0000
 1814.0000     0.7750     0.0000
 1814.5000     0.7745     0.0000
 1815.0000     0.7741     0.0000
 1815.5000     0.7736     0.0000
 1816.0000     0.7731     0.0000
 1816.5000     0.7726     0.0000
 1817.0000     0.7721     0.0000
 1817.5000     0.7716     0.0000
 1818.0000     0.7711     0.0000
 1818.5000     0.7706     0.0000
 1819.0000     0.7701     0.0000
 1819.5000     0.7696     0.0000
 1820.0000     0.7692     0.0000
 1820.5000     0.7688     0.0000
 1821.0000     0.7684     0.0000
 1821.5000     0.7680     0.0000
 1822.0000     0.7677     0.0000
 1822.5000     0.7673     0.0000
 1823.0000     0.7669     0.0000
 1823.5000     0.7665     0.0000
 1824.0000     0.7662     0.0000
 1824.5000     0.7658     0.0000
 1825.0000     0.7654     0.0000
 1825.5000     0.7650     0.0000
 1826.0000     0.7644     0.0000
 1826.5000     0.7620     0.0000
 1827.0000     0.7597     0.0000
 1827.5000     0.7574     0.0000
 1828.0000     0.7550     0.0000
 1828.5000     0.7527     0.0000
 1829.0000     0.7503     0.0000
 1829.5000     0.7480     0.0000
 1830.0000     0.7457     0.0000
 1830.5000     0.7433     0.0000
 1831.0000     0.7413     0.0000
 1831.5000     0.7433     0.0000
 1832.0000     0.7477     0.0000
 1832.5000     0.7521     0.0000
 1833.0000     0.7565     0.0000
 1833.5000     0.7609     0.0000
 1834.0000     0.7731     0.0000
 1834.5000     0.8505     0.0000
 1835.0000     0.9183     0.0000
 1835.5000     0.9765     0.0000
 1836.0000     1.0058     0.0000
 1836.5000     0.9293     0.0000
 1837.0000     0.8144     0.0000
 1837.5000     0.7668     0.0000
 1838.0000     0.7673     0.0000
 1838.5000     0.7582     0.0000
 1839.0000     0.7587     0.0000
 1839.5000     0.7495     0.0000
 1840.0000     0.7500     0.0000
 1840.5000     0.7504     0.0000
 1841.0000     0.7506     0.0000
 1841.5000     0.7508     0.0000
 1842.0000     0.7511     0.0000
 1842.5000     0.7513     0.0000
 1843.0000     0.7515     0.0000
 1843.5000     0.7518     0.0000
 1844.0000     0.7520     0.0000
 1844.5000     0.7522     0.0000
 1845.0000     0.7525     0.0000
 1845.5000     0.7527     0.0000
 1846.0000     0.7529     0.0000
 1846.5000     0.7531     0.0000
 1847.0000     0.7534     0.0000
 1847.5000     0.7536     0.0000
 1848.0000     0.7539     0.0000
 1848.5000     0.8310     0.0000
 1849.0000     0.8697     0.0000
 1849.5000     0.8892     0.0000
 1850.0000     0.8910     0.0000
 1850.5000     0.9028     0.0000
 1851.0000     0.9042     0.0000
 1851.5000     0.8988     0.0000
 1852.0000     0.8973     0.0000
 1852.5000     0.8959     0.0000
 1853.0000     0.8944     0.0000
 1853.5000     0.8929     0.0000
 1854.0000     0.8915     0.0000
 1854.5000     0.8900     0.0000
 1855.0000     0.8885     0.0000
 1855.5000     0.8870     0.0000
 1856.0000     0.8856     0.0000
 1856.5000     0.8841     0.0000
 1857.0000     0.8826     0.0000
 1857.5000     0.8812     0.0000
 1858.0000     0.8797     0.0000
 1858.5000     0.8782     0.0000
 1859.0000     0.8768     0.0000
 1859.5000     0.8753     0.0000
 1860.0000     0.8750     0.0000
 1860.5000     0.8752     0.0000
 1861.0000     0.8755     0.0000
 1861.5000     0.8757     0.0000
 1862.0000     0.8760     0.0000
 1862.5000     0.8762     0.0000
 1863.0000     0.8764     0.0000
 1863.5000     0.8767     0.0000
 1864.0000     0.8769     0.0000
 1864.5000     0.8772     0.0000
 1865.0000     0.8774     0.0000
 1865.5000     0.8776     0.0000
 1866.0000     0.8879     0.0000
 1866.5000     0.9658     0.0000
 1867.0000     1.0617     0.0000
 1867.5000     1.1484     0.0502
 1868.0000     1.1476     0.1717
 1868.5000     1.0132     0.2493
 1869.0000     0.9272     0.2091
 1869.5000     0.8796     0.1690
 1870.0000     0.8700     0.1289
 1870.5000     0.8698     0.0887
 1871.0000     0.8696     0.0486
 1871.5000     0.8693     0.0084
 1872.0000     0.8691     0.0000
 1872.5000     0.8689     0.0000
 1873.0000     0.8686     0.0000
 1873.5000     0.8684     0.0000
 1874.0000     0.8681     0.0000
 1874.5000     0.8679     0.0000
 1875.0000     0.8677     0.0000
 1875.5000     0.8674     0.0000
 1876.0000     0.8672     0.0000
 1876.5000     0.8670     0.0000
 1877.0000     0.8667     0.0000
 1877.5000     0.8665     0.0000
 1878.0000     0.8663     0.0000
 1878.5000     0.8660     0.0000
 1879.0000     0.8658     0.0000
 1879.5000     0.8656     0.0000
 1880.0000     0.8653     0.0000
 1880.5000     0.8651     0.0000
 1881.0000     0.8648     0.0000
 1881.5000     0.8646     0.0000
 1882.0000     0.8644     0.0000
 1882.5000     0.8641     0.0000
 1883.0000     0.8639     0.0000
 1883.5000     0.8636     0.0000
 1884.0000     0.8634     0.0000
 1884.5000     0.8632     0.0000
 1885.0000     0.8629     0.0000
 1885.5000     0.8627     0.0000
