~VERSION INFORMATION
 VERS.                2.0:   CWLS LOG ASCII STANDARD - VERSION 2.0
 WRAP.                 NO:   ONE LINE PER DEPTH STEP
~WELL INFORMATION
#MNEM.UNIT      DATA TYPE    INFORMATION
#----------   ------------   ------------------------------
 STRT.F           48.0000:   START DEPTH
 STOP.F          539.0000:   STOP DEPTH
 STEP.F            0.5000:   STEP LENGTH
 NULL.          -999.2500:   NO VALUE
 COMP. LAWRENCE/ALLISON INC:   COMPANY
 WELL.   57-21 SHX #10-10:   WELL
 FLD .             TEAPOT:   FIELD
 LOC .      S10 T38N R78W:   LOCATION
 CNTY.            NATRONA:   COUNTY
 STAT.            WYOMING:   STATE
 CTRY. UNITED STATES OF AMERICA:   COUNTRY
 SRVC.           Gearhart:   SERVICE COMPANY
 DATE.        12-JUN-1986:   LOGDATE
 API .       490251108700:   API NUMBER
~CURVE INFORMATION
#MNEM.UNIT       API CODE    CURVE DESCRIPTION
#----------   ------------   ------------------------------
 DEPT.F                  :   
 GRR .GAPI   11 310 01 00:   GAMMA RAY FROM RES.
 LLA .OHMM   11 220 00 00:   LATEROLOG AVERAGE RES.
 RILD.OHMM   07 120 46 00:   INDUCTION LOG DEEP RESISTIVITY
 RILM.OHMM   07 120 44 00:   INDUCTION LOG MEDIUM RESISTIVITY
~PARAMETER INFORMATION
#MNEM.UNIT          VALUE    DESCRIPTION
#----------   ------------   ------------------------------
 PD  .                 GL:   PERMANENT DATUM
 EPD .F              5196:   ELEVATION PERMANENT DATUM
 LMF .                 KB:   LOG MEASURED FROM
 DAPD.F                 5:   FEET ABOVE PERMANENT DATUM
 DMF .                 KB:   DRILLING MEASURED FROM
 EKB .F              5201:   KELLING BUSHING
 EGL .F              5196:   GROUND LEVEL
 DATE.           61-12-86:   RUN DATE
 RUN .                  1:   RUN NUMBER
 DD  .F               545:   DEPTH DRILLER
 DL  .F             543.5:   DEPTH LOGGER
 BLI .F             539.5:   BOTTOM LOG INTERVAL
 TLI .F                48:   TOP LOG INTERVAL
 CS  .IN            8.625:   CASING SIZE
 CBD .F                47:   CASING BOTTOM DRILLER
 BS  .IN            7.875:   BIT SIZE
 BSD .F               545:   BIT SIZE AT DEPTH
 DFT .          FRESH-MUD:   DRILLING FLUID TYPE
 DFD .                9.3:   DRILLING FLUID DENSITY
 DFV .                 38:   DRILLING FLUID VISCOSITY
 MSS .           FLOWLINE:   MUD SAMPLE SOURCE
 RMS .OHMM            .51:   RESISTIVITY MUD SAMPLE
 MST .F                82:   MUD SAMPLE TEMPERATURE
 RMF .OHMM            .38:   RESISTIVITY MUD FILTRATE SAMPLE
 MFST.F                78:   MUD FILTRATE SAMPLE TEMPERATURE
 RMC .OHMM            .65:   RESISTIVITY MUD CAKE
 MCST.F                79:   MUD CAKE SAMPLE TEMPERATURE
 MFSS.                  M:   MUD FILTRATE SAMPLE SOURCE
 MCSS.                  M:   MUD CAKE SAMPLE SOURCE
 RMB .OHMM            .49:   RESISTIVITY MUD AT BHT
 BHT .F                85:   BOTTOM HOLE TEMPERATURE
 TCS .HRS            1800:   TIME CURCULATED STOPPED
 TLAB.HRS            2000:   TIME LOGGER AT BOTTOM
 MRT .F                85:   MAXIMUM RECORDED TEMPERATURE
 LUN .               7609:   LOGGING UNIT NUMBER
 LUL .           GILLETTE:   LOGGING UNIT LOCATION
 ENGI.              BAUER:   RECORDING ENGINEER
 WITN.              FIVAS:   WITNESSED BY
 CLNT.            A2DTECH:   CLIENT CODE
 ORIG.       2", 5" PRINT:   ORIGIN OF DATA
 UWI .       490251108700:   UNIQUE WELL ID
 DICO. A2D Technologies, Inc.:   DIGITIZING COMPANY
~OTHER INFORMATION
~A   DEPT       GRR       LLA       RILD       RILM   
# ...
  267.0000   106.4294     6.1496     7.9251     7.8267
  267.5000   113.2599     6.1077     7.9429     7.8046
  268.0000   118.2248     6.3654     7.9553     7.7826
  268.5000   122.3817     6.3985     7.9677     7.7663
  269.0000   119.2553     6.4836     7.9801     7.7512
  269.5000   114.9604     6.5796     7.9926     7.7361
  270.0000   111.6977     6.4194     7.9993     7.7211
  270.5000   112.8198     6.2806     7.9705     7.7071
  271.0000   114.6642     6.2566     7.8385     7.4772
  271.5000   115.3386     6.2342     7.5220     7.2198
  272.0000   113.2092     6.2224     7.2184     6.9713
  272.5000   111.3138     6.2806     6.9270     6.7313
  273.0000   112.1002     5.7082     6.6473     6.5187
  273.5000   112.8462     5.2972     6.3790     6.2748
  274.0000   111.8403     5.0238     6.1214     6.0101
  274.5000   109.1600     4.8795     5.9736     5.7761
  275.0000   108.6468     4.7954     5.8987     5.7493
  275.5000   111.5470     5.0506     5.8254     5.7111
  276.0000   114.4038     5.4383     5.7709     5.6696
  276.5000   115.6294     5.7226     5.7541     5.6329
  277.0000   115.4444     5.4560     5.7374     5.5616
  277.5000   116.8903     5.0629     5.7226     5.4913
  278.0000   119.7228     4.7005     5.7664     5.4218
  278.5000   119.4996     4.5364     5.8512     5.3618
  279.0000   115.0785     4.4903     5.9372     5.4468
  279.5000   111.5279     4.7487     6.0493     5.5654
  280.0000   112.4878     5.1763     6.2142     5.7023
  280.5000   114.3872     5.6761     6.3835     5.9422
  281.0000   113.8731     5.6717     6.5575     6.1922
  281.5000   113.4101     5.6947     6.7364     6.4527
  282.0000   113.8842     5.7068     6.9197     6.6035
  282.5000   114.0777     5.7194     7.1567     6.7596
  283.0000   112.3160     5.7839     7.1373     6.8929
  283.5000   110.9613     5.8668     7.0881     6.9573
  284.0000   110.9718     5.8846     6.8334     6.6098
  284.5000   108.5849     5.7425     6.4084     6.2691
  285.0000   105.1710     5.3100     6.0098     5.9459
  285.5000   102.0181     4.8224     5.7367     5.6393
  286.0000   100.8848     4.3795     5.5263     5.3486
  286.5000   102.9879     4.2098     5.3618     5.0707
  287.0000   106.1233     4.2417     5.3970     5.0238
  287.5000   109.2921     4.5175     5.4416     5.0238
  288.0000   112.4991     4.8773     5.4867     5.1669
  288.5000   115.1602     5.3137     5.6285     5.4591
  289.0000   114.9515     5.3124     5.9187     5.7061
  289.5000   111.6803     5.3114     6.2257     5.9642
  290.0000   107.8198     5.3129     6.5483     6.2340
  290.5000   103.8389     5.5065     6.8874     6.5160
  291.0000   103.8753     5.7530     7.2441     6.8109
  291.5000   104.3111     6.0105     7.6205     7.1192
  292.0000   104.7593     6.1648     7.9983     7.4417
  292.5000   104.8467     6.2650     8.0636     7.5984
  293.0000   104.8609     6.3633     8.1377     7.7236
  293.5000   105.5462     6.4583     8.2141     7.8507
  294.0000   107.4141     6.4379     8.2911     7.9808
  294.5000   105.7991     6.4139     8.3689     8.0261
  295.0000   103.4686     6.3900     8.3802     8.0682
  295.5000   101.2823     6.3661     8.3802     8.1102
  296.0000   101.0964     6.3393     8.3802     8.1495
  296.5000   102.6886     6.4039     8.3796     8.1374
  297.0000   104.2235     6.4791     8.4004     8.1193
  297.5000   105.7530     6.5552     8.4308     8.1013
  298.0000   106.9264     6.6322     8.4610     8.0833
  298.5000   105.5962     6.7032     8.4914     8.0740
  299.0000   103.6296     6.5746     8.5216     8.2283
  299.5000   101.7087     6.4586     8.5649     8.3026
  300.0000   100.0129     6.3436     8.6193     8.1156
  300.5000   100.7980     6.2230     8.6747     7.9993
  301.0000   101.7064     6.2757     8.7299     8.1233
  301.5000   102.6146     6.3393     8.7797     8.2369
  302.0000   101.6380     6.4965     8.7791     8.3521
  302.5000    98.1219     6.6709     8.8273     8.4690
  303.0000    94.8093     6.8506     8.8792     8.6173
  303.5000    93.2726     7.0362     8.9441     8.2226
  304.0000    92.8026     7.1552     8.4297     7.7243
  304.5000    94.9423     6.7032     7.7960     7.2562
  305.0000    97.1882     6.0880     7.2099     6.8164
  305.5000   100.2958     5.4062     6.7499     6.4033
  306.0000   104.5883     4.8007     6.5493     6.0152
  306.5000   108.4816     4.5775     6.4983     5.7226
  307.0000   109.6340     5.0805     6.4588     5.7226
  307.5000   102.9379     5.6318     6.7691     5.9951
  308.0000    96.5205     6.2628     7.1669     6.5968
  308.5000    92.0866     6.9659     7.6823     7.2454
  309.0000    89.3638     7.7058     8.2359     7.8903
  309.5000    91.6810     7.5649     8.8293     8.3665
  310.0000    93.8203     7.6265     9.4655     8.8715
  310.5000    92.6088     7.6976    10.1475     9.3468
  311.0000    93.3148     7.7791    10.6734     9.8374
  311.5000    96.1926     7.7335    10.8673    10.0270
  312.0000    99.6519     7.6819    11.0507    10.0663
  312.5000   100.6231     7.6357    11.1810    10.1788
  313.0000    98.3055     7.8170    11.6059    10.4692
  313.5000    96.0630     8.0686    12.1217    10.7205
  314.0000    93.9546     8.7959    12.8561    11.1818
  314.5000    86.4555    10.3917    13.8069    11.8695
  315.0000    78.9200    12.0419    15.2322    13.0898
  315.5000    71.4515    12.9653    16.8046    14.4308
  316.0000    65.0524    13.7883    19.3592    15.9091
  316.5000    61.6815    14.6635    19.2076    17.5389
  317.0000    59.2995    15.1596    21.5176    19.1978
  317.5000    55.4915    15.3383    23.1506    20.6294
  318.0000    53.1738    15.5192    24.4745    21.5419
  318.5000    54.5925    16.0724    25.6385    22.8884
  319.0000    58.2163    16.0283    25.8310    22.8390
  319.5000    61.8348    15.9841    25.9041    22.7568
  320.0000    63.5013    15.9236    25.9770    22.6749
  320.5000    63.1699    16.0533    26.0502    22.5932
  321.0000    65.9423    16.2638    26.1236    22.5119
  321.5000    69.3368    16.4770    26.1972    22.4665
  322.0000    69.4775    16.6818    26.2710    22.4665
  322.5000    67.4249    16.4484    26.3450    22.4665
  323.0000    65.3665    16.2295    26.4192    22.7661
  323.5000    63.3140    16.0724    26.4938    23.0525
  324.0000    61.2729    16.0724    26.5621    23.3183
  324.5000    59.8941    16.3754    26.9396    23.8917
  325.0000    63.6405    17.4659    27.2927    24.4335
  325.5000    68.1492    18.3216    27.6505    24.9877
  326.0000    70.4776    18.3014    27.9845    25.5508
  326.5000    69.3396    18.3111    28.2949    25.9626
  327.0000    67.5114    18.1334    28.6088    26.2006
  327.5000    67.8048    17.9473    28.9262    26.3161
  328.0000    68.4480    17.8043    29.2474    26.3161
  328.5000    67.1689    18.0107    29.5713    26.1042
  329.0000    65.6288    18.1943    29.9770    25.8828
  329.5000    64.6448    18.3072    29.8658    25.6629
  330.0000    64.7074    18.1142    29.7213    25.4450
  330.5000    66.7903    17.9724    29.5775    25.2290
  331.0000    66.7297    17.8325    29.4343    25.0149
  331.5000    66.5354    17.6716    29.2919    24.8026
  332.0000    65.3428    17.5067    29.1519    24.5920
  332.5000    63.9448    17.3433    28.4048    24.3699
  333.0000    61.1418    17.1814    27.6853    24.1025
  333.5000    58.4188    16.8143    26.9840    23.8380
  334.0000    57.8263    16.4136    26.3005    23.5765
  334.5000    63.7038    16.0226    25.6343    23.0952
  335.0000    70.4645    15.6408    24.9850    22.5841
  335.5000    71.5662    15.2680    24.3521    22.0843
  336.0000    67.7208    14.9036    23.7351    21.5956
  336.5000    64.5048    14.5493    23.1333    21.1177
  337.0000    65.6173    14.3855    22.5505    20.6503
  337.5000    69.6916    14.2473    22.0728    20.1933
  338.0000    74.5635    14.1104    21.7141    19.7465
  338.5000    78.9071    13.9749    21.3577    19.3527
  339.0000    78.5273    13.8406    21.0500    19.2961
  339.5000    75.6699    13.7077    21.1334    19.2396
