~VERSION INFORMATION
 VERS.                2.0:   CWLS LOG ASCII STANDARD - VERSION 2.0
 WRAP.                 NO:   ONE LINE PER DEPTH STEP
~WELL INFORMATION
#MNEM.UNIT      DATA TYPE    INFORMATION
#----------   ------------   ------------------------------
 STRT.F          100.0000:   START DEPTH
 STOP.F          874.0000:   STOP DEPTH
 STEP.F            0.5000:   STEP LENGTH
 NULL.          -999.2500:   NO VALUE
 COMP. U S NAVY-INTEX OIL:   COMPANY
 WELL.     NPR #3 #45-S-2:   WELL
 FLD .             TEAPOT:   FIELD
 LOC .       S2 T38N R78W:   LOCATION
 CNTY.            NATRONA:   COUNTY
 STAT.            WYOMING:   STATE
 CTRY. UNITED STATES OF AMERICA:   COUNTRY
 SRVC.       Schlumberger:   SERVICE COMPANY
 DATE.        15-JUL-1962:   LOGDATE
 API .       490250642400:   API NUMBER
~CURVE INFORMATION
#MNEM.UNIT       API CODE    CURVE DESCRIPTION
#----------   ------------   ------------------------------
 DEPT.F                  :   
 ASN .OHMM   05 041 16 00:   AMPLIFIED SHORT NORMAL 16"
 CILD.MMHO   05 110 46 00:   CONDUCTIVITY INDUCTION LOG DEEP
 ILD .OHMM   05 120 46 00:   INDUCTION LOG DEEP
 SPR .MV     05 010 01 00:   SPONTANEOUS POTENTIAL FROM RES.
 GR  .GAPI   30 310 01 00:   GAMMA RAY
~PARAMETER INFORMATION
#MNEM.UNIT          VALUE    DESCRIPTION
#----------   ------------   ------------------------------
 LMF .                 KB:   LOG MEASURED FROM
 DMF .                 KB:   DRILLING MEASURED FROM
 EKB .F              5149:   KELLING BUSHING
 EGL .F              5144:   GROUND LEVEL
 DATE.        15-JUL-1962:   RUN DATE
 RUN .                  1:   RUN NUMBER
 DD  .F               875:   DEPTH DRILLER
 DL  .F               875:   DEPTH LOGGER
 BLI .F               874:   BOTTOM LOG INTERVAL
 TLI .F               100:   TOP LOG INTERVAL
 BS  .IN             6.75:   BIT SIZE
 BSD .F               875:   BIT SIZE AT DEPTH
 DFT .           OIL EMUL:   DRILLING FLUID TYPE
 DFD .               10.2:   DRILLING FLUID DENSITY
 DFV .                 42:   DRILLING FLUID VISCOSITY
 DFL .                4.6:   DRILLING FLUID LOSS
 RMS .OHMM            6.0:   RESISTIVITY MUD SAMPLE
 MST .F                64:   MUD SAMPLE TEMPERATURE
 RMF .OHMM            5.8:   RESISTIVITY MUD FILTRATE SAMPLE
 MFST.F                64:   MUD FILTRATE SAMPLE TEMPERATURE
 RMC .OHMM            5.2:   RESISTIVITY MUD CAKE
 MCST.F                66:   MUD CAKE SAMPLE TEMPERATURE
 TCS .HRS             0.5:   TIME CURCULATED STOPPED
 LUN .               2503:   LOGGING UNIT NUMBER
 LUL .               CSPR:   LOGGING UNIT LOCATION
 ENGI.           ELLERMAN:   RECORDING ENGINEER
 WITN.          JORGENSON:   WITNESSED BY
 CLNT.            A2DTECH:   CLIENT CODE
 ORIG.           5" PRINT:   ORIGIN OF DATA
 UWI .       490250642400:   UNIQUE WELL ID
 DICO. A2D Technologies, Inc.:   DIGITIZING COMPANY
~OTHER INFORMATION
~A   DEPT        ASN      CILD       ILD        SPR         GR   
# ...
  771.0000    15.0208    66.5909    13.8787   -50.0983    38.8554
  771.5000    15.0993    65.6355    14.0293   -50.0954    44.3203
  772.0000    15.1771    64.2400    14.1798   -49.9430    55.1205
  772.5000    15.1800    63.4454    14.2553   -49.9401    47.1386
  773.0000    15.1829    63.4085    14.2561   -50.0877    46.3855
  773.5000    15.1858    62.6136    14.2568   -50.5322    44.1265
  774.0000    15.1887    63.3346    14.2575   -50.5286    49.6988
  774.5000    15.1916    63.2884    14.1834   -49.9278    42.4699
  775.0000    15.1196    64.7666    14.0344   -49.4765    40.6627
  775.5000    14.8987    65.4872    13.8856   -49.3241    44.1265
  776.0000    14.6771    66.2170    13.7365   -49.1717    40.2417
  776.5000    14.4554    67.6860    13.5128   -49.0193    26.8072
  777.0000    14.2338    68.4159    13.3638   -49.0164    31.6265
  777.5000    14.0870    68.3697    13.2149   -48.8465    32.8313
  778.0000    13.8653    69.0909    13.0659   -48.1131    40.3614
  778.5000    13.7163    69.0533    12.9918   -47.8112    34.9398
  779.0000    13.4969    70.5303    12.9176   -47.5093    47.5904
  779.5000    13.2760    71.2522    12.7687   -47.2075    49.6988
  780.0000    13.1292    71.9728    12.7696   -47.2046    52.7108
  780.5000    13.0565    72.6934    12.6206   -47.2017    46.3750
  781.0000    12.9097    74.1624    12.5463   -47.1988    43.6747
  781.5000    12.7636    74.8922    12.4723   -47.1958    37.9804
  782.0000    12.7665    75.8838    12.3234   -46.7438    41.5663
  782.5000    12.6946    77.0818    12.2405   -46.1430    39.0060
  783.0000    12.6227    77.8030    12.1003   -45.7138    44.5783
  783.5000    12.6257    79.2806    12.0261   -45.2404    37.1988
  784.0000    12.6028    79.2424    11.8772   -45.0880    33.7349
  784.5000    12.4824    79.6275    11.8781   -44.7861    39.7590
  785.0000    12.4853    79.9273    11.8788   -44.6338    50.9036
  785.5000    12.4880    79.7222    11.8795   -44.4813    51.8072
  786.0000    12.4911    78.8888    11.8802   -44.3283    48.4940
  786.5000    12.4192    77.5345    11.8810   -44.1759    45.4394
  787.0000    12.4222    76.7400    11.8817   -44.1562    42.0995
  787.5000    12.4257    75.9454    11.9574   -43.9773    44.5783
  788.0000    12.4286    74.3933    11.9582   -43.8685    45.9337
  788.5000    12.4315    73.5985    12.0337   -43.7159    41.7169
  789.0000    12.5093    73.5606    12.0345   -43.5635    32.8313
  789.5000    12.4373    75.0308    11.9603   -43.5491    30.8735
  790.0000    12.3654    77.2666    11.9561   -43.2586    40.5120
  790.5000    12.2186    77.9964    11.7372   -43.2556    37.0482
  791.0000    12.0718    79.4654    11.4387   -42.9533    31.3253
  791.5000    11.9250    80.1952    11.2896   -42.8724    34.7306
  792.0000    11.7041    80.1491    11.0659   -42.7464    58.8193
  792.5000    11.5573    81.3342    10.9916   -42.6456    64.4578
  793.0000    11.4105    81.9445    10.9177   -42.3438    53.0120
  793.5000    11.3378    83.0685    10.9184   -42.3408    49.6988
  794.0000    11.1917    83.1315    10.8443   -42.1878    53.0120
  794.5000    11.1946    84.5097    10.8452   -42.6333    41.2651
  795.0000    11.1976    85.2303    10.8459   -43.2283    46.6867
  795.5000    11.2012    86.1111    10.8466   -43.5243    52.8614
  796.0000    11.2041    86.6716    10.8474   -43.2225    52.7108
  796.5000    11.2070    87.3922    10.8481   -42.6217    50.6024
  797.0000    11.2847    87.3460    10.8488   -42.0209    51.7739
  797.5000    11.2876    87.3091    10.7747   -41.7115    48.7952
  798.0000    11.2905    87.2721    10.8503   -41.5665    40.5120
  798.5000    11.3683    87.2098    10.8512   -41.5630    48.1928
  799.0000    11.3713    85.6818    10.9268   -41.7103    50.3012
  799.5000    11.3748    84.8793    11.0023   -41.8569    51.0542
  800.0000    11.4526    84.8423    11.0031   -42.3017    53.3133
  800.5000    11.2289    85.5688    11.0790   -43.6409    54.3644
  801.0000    11.2307    85.5129    11.0800   -43.9340    51.7995
  801.5000    11.2322    86.2273    11.1559   -43.7787    45.4705
  802.0000    11.1584    86.9394    11.0821   -42.8720    30.1880
  802.5000    11.1603    88.4091    11.0832   -42.5710    33.4181
  803.0000    11.1617    89.1716    11.0843   -42.8628    32.3018
  803.5000    11.0883    90.6920    10.9358   -43.1574    32.8747
  804.0000    11.0898    91.3053    10.8618   -43.0006    35.6629
  804.5000    11.0164    92.0181    10.7880   -42.5463    38.2185
  805.0000    10.9431    91.9697    10.6393   -41.9426    42.7329
  805.5000    10.9449    92.0568    10.5655   -41.4883    56.2834
  806.0000    10.8711    92.3965    10.4917   -41.0340    66.6712
  806.5000    10.8730    92.5969    10.4182   -40.5792    69.8302
  807.0000    10.8744    92.5410    10.3441   -40.4244    65.4590
  807.5000    10.8007    93.2650    10.1957   -40.1196    60.9372
  808.0000    10.8024    93.9779    10.1219   -39.9641    57.0188
  808.5000    10.8040    94.6908    10.1230   -39.8075    61.0805
  809.0000    10.8055    95.3939    10.1240   -39.8016    60.6249
  809.5000    10.8818    96.1053    10.1253   -39.7958    56.3857
  810.0000    10.9581    96.0606    10.1262   -39.9409    47.9166
  810.5000    11.0407    96.0152    10.1274   -40.0845    44.0471
  811.0000    11.1981    95.1110    10.2033   -40.3776    41.6333
  811.5000    11.4868    92.1274    10.2044   -40.6693    40.7260
  812.0000    11.8625    89.0524    10.5048   -40.9624    38.1621
  812.5000    12.1634    85.2198    10.9550   -41.2556    35.2978
  813.0000    12.7637    82.1448    11.8542   -41.5486    43.2751
  813.5000    13.5136    78.3122    12.9032   -41.8417    39.6579
  814.0000    14.4881    72.2069    14.4761   -41.9853    27.3039
  814.5000    16.6603    64.5864    16.1281   -44.2202    20.3725
  815.0000    18.3833    55.4508    17.7898   -47.8018    12.5375
  815.5000    21.3039    47.8303    21.0966   -53.9245     3.7988
  816.0000    24.6737    42.4826    23.6871   -57.3566     8.3132
  816.5000    26.2657    38.6500    24.6612   -57.9501     2.7258
  817.0000    27.1717    35.5750    24.8868   -56.7470    -4.9472
  817.5000    27.4475    33.2576    24.2891   -55.8443    -0.5178
  818.0000    26.2517    31.6970    23.7661   -55.0910     2.7252
  818.5000    25.5047    32.5102    23.2432   -56.7294    17.6311
  819.0000    25.0571    35.3850    22.6455   -57.9194    27.4166
  819.5000    24.9085    36.8666    22.0477   -57.7374    30.1237
  820.0000    24.7602    38.3371    21.3751   -56.5610    23.4935
  820.5000    24.3130    39.7963    20.8522   -55.2098    19.5742
  821.0000    23.7905    41.2668    20.5439   -54.0082    13.6970
  821.5000    23.1183    42.7372    20.0948   -53.1054     3.1511
  822.0000    22.5210    44.2188    19.5083   -52.5017     7.5149
  822.5000    21.9922    45.6893    19.0603   -51.8994    10.0714
  823.0000    21.8378    47.1485    18.6122   -53.6858    10.0677
  823.5000    21.7024    47.8726    18.2390   -52.1852    10.0640
  824.0000    21.3296    48.5758    17.7910   -50.6846    24.5998
  824.5000    20.0586    50.0455    17.3429   -50.7246    28.8819
  825.0000    19.6110    51.5152    16.8949   -51.7192    21.0469
  825.5000    19.3130    52.2777    16.5965   -50.6656    27.9700
  826.0000    19.0151    53.6985    16.2982   -49.4639    35.1952
  826.5000    18.7172    55.1577    15.9998   -48.4117    25.8541
  827.0000    18.4941    56.6282    15.6209   -49.1533    27.8083
  827.5000    18.1213    57.3522    15.2445   -51.0906    33.3769
  828.0000    17.8234    58.0651    15.0302   -50.3374    37.7416
  828.5000    17.7500    58.0092    15.0312   -49.2852    30.2077
  829.0000    17.7765    57.2069    15.1819   -48.2330    35.3236
  829.5000    18.3517    56.4046    15.3327   -47.3303    38.1813
  830.0000    17.5302    56.3599    15.4834   -46.7265    29.4427
  830.5000    17.7562    55.2828    15.7090   -47.5147    27.9274
  831.0000    18.6559    53.9978    15.7849   -50.1514    26.9643
  831.5000    18.8815    53.9531    15.9357   -51.7912    23.6307
