~VERSION INFORMATION
 VERS.                2.0:   CWLS LOG ASCII STANDARD - VERSION 2.0
 WRAP.                 NO:   ONE LINE PER DEPTH STEP
~WELL INFORMATION
#MNEM.UNIT      DATA TYPE    INFORMATION
#----------   ------------   ------------------------------
 STRT.F          190.0000:   START DEPTH
 STOP.F         3246.0000:   STOP DEPTH
 STEP.F            0.5000:   STEP LENGTH
 NULL.          -999.2500:   NO VALUE
 COMP. BROWN JOHN E&C INC:   COMPANY
 WELL.      STX-15 #84-15:   WELL
 FLD .             TEAPOT:   FIELD
 LOC .      S15 T38N R78W:   LOCATION
 CNTY.            NATRONA:   COUNTY
 STAT.            WYOMING:   STATE
 CTRY. UNITED STATES OF AMERICA:   COUNTRY
 SRVC.           BIRDWELL:   SERVICE COMPANY
 DATE.        17-MAR-1978:   LOGDATE
 API .       490251111600:   API NUMBER
~CURVE INFORMATION
#MNEM.UNIT       API CODE    CURVE DESCRIPTION
#----------   ------------   ------------------------------
 DEPT.F                  :   
 ILD .OHMM   05 120 46 00:   INDUCTION LOG DEEP
 SN  .OHMM   05 040 16 00:   SHORT NORMAL 16"
 SPR .MV     05 010 01 00:   SPONTANEOUS POTENTIAL FROM RES.
 GRD .GAPI   45 310 01 00:   GAMMA RAY FROM DENSITY LOG
 CALD.IN     45 280 60 00:   CALIPER
 RHOB.G/C3   45 350 01 00:   BULK DENSITY
 CORR.G/C3   45 356 01 00:   DENSITY CORRECTION
 DPHI.DEC    45 890 12 00:   DENSITY POROSITY SANDSTONE
~PARAMETER INFORMATION
#MNEM.UNIT          VALUE    DESCRIPTION
#----------   ------------   ------------------------------
 PD  .                 GL:   PERMANENT DATUM
 EPD .F              5241:   ELEVATION PERMANENT DATUM
 LMF .                 KB:   LOG MEASURED FROM
 DAPD.F                10:   FEET ABOVE PERMANENT DATUM
 DMF .                 KB:   DRILLING MEASURED FROM
 EKB .F              5251:   KELLING BUSHING
 EGL .F              5241:   GROUND LEVEL
 DATE.            3-17-78:   RUN DATE
 RUN .                  1:   RUN NUMBER
 DD  .F              3250:   DEPTH DRILLER
 DL  .F              3250:   DEPTH LOGGER
 BLI .F              3244:   BOTTOM LOG INTERVAL
 TLI .F               224:   TOP LOG INTERVAL
 CS  .IN            8.625:   CASING SIZE
 CBL .F               224:   CASING BOTTOM LOGGER
 BS  .IN            7.875:   BIT SIZE
 BSD .F              3250:   BIT SIZE AT DEPTH
 DFD .                8.9:   DRILLING FLUID DENSITY
 DFV .                 31:   DRILLING FLUID VISCOSITY
 DFPH.               10.5:   DRILLING FLUID PH
 DFL .                  8:   DRILLING FLUID LOSS
 MSS .           FLOWLINE:   MUD SAMPLE SOURCE
 RMS .OHMM            1.3:   RESISTIVITY MUD SAMPLE
 MST .F                70:   MUD SAMPLE TEMPERATURE
 RMF .OHMM            1.1:   RESISTIVITY MUD FILTRATE SAMPLE
 MFST.F                70:   MUD FILTRATE SAMPLE TEMPERATURE
 RMC .OHMM            1.4:   RESISTIVITY MUD CAKE
 MCST.F                70:   MUD CAKE SAMPLE TEMPERATURE
 MFSS.               MEAS:   MUD FILTRATE SAMPLE SOURCE
 MCSS.               MEAS:   MUD CAKE SAMPLE SOURCE
 RMB .OHMM            .77:   RESISTIVITY MUD AT BHT
 BHT .F               118:   BOTTOM HOLE TEMPERATURE
 TCS .HRS               6:   TIME CURCULATED STOPPED
 MRT .F               118:   MAXIMUM RECORDED TEMPERATURE
 LUN .               2958:   LOGGING UNIT NUMBER
 LUL .               CASP:   LOGGING UNIT LOCATION
 ENGI.             MILLER:   RECORDING ENGINEER
 WITN.           MCGINLEY:   WITNESSED BY
 CLNT.            A2DTECH:   CLIENT CODE
 ORIG.     1", 2.5" PRINT:   ORIGIN OF DATA
 UWI .       490251111600:   UNIQUE WELL ID
 DICO. A2D Technologies, Inc.:   DIGITIZING COMPANY
~OTHER INFORMATION
~A   DEPT      ILD         SN        SPR         GRD      CALD       RHOB       CORR       DPHI   
# ...
 2215.0000    10.3302    12.4852   -31.3714   107.5493     8.4780     2.4462     0.0020     0.1278
 2215.5000    10.3298    12.6565   -31.5723   114.3358     8.4780     2.4342    -0.0035     0.1315
 2216.0000    10.3292    12.4233   -31.7735   118.4079     8.4780     2.4238     0.0006     0.1323
 2216.5000    10.3297    12.1081   -31.9755   117.2158     8.4780     2.4240     0.0060     0.1323
 2217.0000    10.2722    11.8007   -32.1174   117.4570     8.4780     2.4251     0.0116     0.1311
 2217.5000    10.1927    11.5421   -32.2182   119.3810     8.4780     2.4347     0.0169     0.1296
 2218.0000    10.1138    11.6209   -32.3195   119.6943     8.4780     2.4508     0.0226     0.1282
 2218.5000    10.0363    11.7291   -32.4194   117.6139     8.4780     2.4533     0.0227     0.1267
 2219.0000     9.9592    11.8384   -32.5223   116.6872     8.4780     2.4486     0.0198     0.1274
 2219.5000     9.8825    11.9487   -32.6220   117.3307     8.4780     2.4449     0.0172     0.1291
 2220.0000     9.8064    11.8238   -32.7190   117.7930     8.4780     2.4435     0.0149     0.1278
 2220.5000     9.7309    11.6261   -32.8372   118.1432     8.4780     2.4487     0.0121     0.1254
 2221.0000     9.6560    11.4317   -32.7487   117.5626     8.4780     2.4533     0.0134     0.1229
 2221.5000     9.5943    11.2405   -32.5109   115.0837     8.4780     2.4581     0.0162     0.1205
 2222.0000     9.5775    11.1226   -32.2926   110.1472     8.4780     2.4629     0.0191     0.1180
 2222.5000     9.5632    11.1226   -32.0757   105.8752     8.4780     2.4676     0.0218     0.1155
 2223.0000     9.5487    11.4025   -31.8548   101.2751     8.4780     2.4726     0.0237     0.1131
 2223.5000     9.5344    11.6454   -31.6338    97.6024     8.4780     2.4772     0.0195     0.1116
 2224.0000     9.5203    11.8935   -31.4170    94.1372     8.4780     2.4804     0.0160     0.1150
 2224.5000     9.5061    12.1990   -31.1988    91.6593     8.4780     2.4723     0.0121     0.1186
 2225.0000     9.4919    12.1581   -30.9600    91.3383     8.4780     2.4654     0.0082     0.1221
 2225.5000     9.4777    12.0560   -30.8853    94.3767     8.4780     2.4579     0.0047     0.1257
 2226.0000     9.4635    11.9548   -31.0378   102.6583     8.4780     2.4509     0.0004     0.1299
 2226.5000     9.4495    11.8544   -31.1694   115.3067     8.4780     2.4433     0.0033     0.1319
 2227.0000     9.4357    11.7549   -31.3014   120.4470     8.4780     2.4364     0.0074     0.1339
 2227.5000     9.4199    11.6562   -31.4377   123.2026     8.4780     2.4303     0.0113     0.1331
 2228.0000     9.4188    11.5583   -31.5802   120.7034     8.4780     2.4407     0.0157     0.1323
 2228.5000     9.4184    11.4613   -31.6603   117.4724     8.4780     2.4515     0.0155     0.1314
 2229.0000     9.4188    11.3651   -31.6519   114.2831     8.4780     2.4527     0.0150     0.1305
 2229.5000     9.4186    11.2696   -31.6535   112.4427     8.4780     2.4382     0.0142     0.1296
 2230.0000     9.4187    11.1750   -31.6542   110.7415     8.4780     2.4423     0.0137     0.1288
 2230.5000     9.4187    11.0812   -31.6531   108.9955     8.4780     2.4506     0.0130     0.1279
 2231.0000     9.4187    10.9881   -31.6535   107.4166     8.4780     2.4468     0.0121     0.1270
 2231.5000     9.4187    10.9391   -31.6533   107.1970     8.4780     2.4438     0.0154     0.1261
 2232.0000     9.4187    11.0195   -31.6532   111.2909     8.4780     2.4522     0.0234     0.1267
 2232.5000     9.4187    11.1004   -31.6532   116.9807     8.4780     2.4529     0.0223     0.1278
 2233.0000     9.4188    11.1820   -31.6532   117.3627     8.4780     2.4475     0.0207     0.1289
 2233.5000     9.4187    11.2642   -31.6530   117.1091     8.4780     2.4426     0.0295     0.1299
 2234.0000     9.4187    11.3470   -31.6532   115.6772     8.4780     2.4415     0.0395     0.1244
 2234.5000     9.4189    11.4304   -31.6533   111.9688     8.4780     2.4488     0.0499     0.1196
 2235.0000     9.4186    11.5413   -31.6521   106.9593     8.4780     2.4566     0.0598     0.1148
 2235.5000     9.4182    11.4094   -31.6658   102.0992     8.4780     2.4648     0.0696     0.1101
 2236.0000     9.4012    11.2186   -31.7005   100.9352     8.4780     2.4727     0.0728     0.1052
 2236.5000     9.3817    11.0310   -31.7337   102.9074     8.4780     2.4785     0.0572     0.1063
 2237.0000     9.3616    10.8466   -31.7673   107.8636     8.4781     2.4709     0.0361     0.1083
 2237.5000     9.3423    10.7191   -31.8011   112.0967     8.4795     2.4603     0.0203     0.1099
 2238.0000     9.3226    10.7191   -31.8346   115.1422     8.4809     2.4671     0.0204     0.1066
 2238.5000     9.3021    10.7191   -31.8682   113.9121     8.4823     2.4818     0.0199     0.1048
 2239.0000     9.2821    10.7191   -31.9018   110.8169     8.4837     2.4777     0.0199     0.1068
 2239.5000     9.2623    10.7191   -31.9353   107.5903     8.4851     2.4716     0.0166     0.1088
 2240.0000     9.2450    10.7191   -31.9690   107.1216     8.4865     2.4656     0.0133     0.1100
 2240.5000     9.1117    10.7191   -32.0032   106.7750     8.4879     2.4713     0.0113     0.1089
 2241.0000     8.9944    10.7191   -32.0359   105.9251     8.4893     2.4771     0.0102     0.1079
 2241.5000     8.8786    10.6797   -32.0886   104.4338     8.4907     2.4778     0.0092     0.1069
 2242.0000     8.7643    10.5615   -32.1674   103.0505     8.4921     2.4750     0.0077     0.1060
 2242.5000     8.6516    10.4446   -32.2396   101.6089     8.4935     2.4720     0.0120     0.1081
 2243.0000     8.5400    10.3290   -32.3290   100.9298     8.4949     2.4742     0.0195     0.1068
 2243.5000     8.4298    10.2147   -32.3942   102.3906     8.4963     2.4821     0.0261     0.1019
 2244.0000     8.3211    10.1016   -32.4193   104.9650     8.4977     2.4890     0.0316     0.0971
 2244.5000     8.2137     9.9898   -31.9287   107.5919     8.4991     2.4963     0.0280     0.0975
 2245.0000     8.1246     9.8793   -31.5150   107.0032     8.5005     2.4917     0.0245     0.1002
 2245.5000     8.1733     9.7699   -31.0733   106.2658     8.5019     2.4862     0.0207     0.1029
 2246.0000     8.2155     9.6618   -30.6538   105.4151     8.5033     2.4812     0.0171     0.1052
 2246.5000     8.2579     9.5943   -30.1817   104.6407     8.5047     2.4856     0.0183     0.1049
 2247.0000     8.3006     9.6423   -30.2447   104.3445     8.5061     2.4800     0.0215     0.1046
 2247.5000     8.3435     9.7265   -30.6907   104.0520     8.5075     2.4785     0.0246     0.1053
 2248.0000     8.3866     9.8115   -31.0854   103.7898     8.5089     2.4808     0.0277     0.1076
 2248.5000     8.4299     9.8972   -31.5024   103.5046     8.5104     2.4830     0.0309     0.1062
 2249.0000     8.4734     9.9832   -31.6096   103.3995     8.5118     2.4852     0.0320     0.1044
 2249.5000     8.5172    10.0707   -31.4799   103.3729     8.5131     2.4873     0.0295     0.1026
 2250.0000     8.5611    10.1412   -31.3741   103.6280     8.5146     2.4884     0.0274     0.1012
 2250.5000     8.6052    10.1647   -31.2719   104.0378     8.5158     2.4809     0.0252     0.1051
 2251.0000     8.6494    10.1942   -31.1659   104.4010     8.5174     2.4746     0.0233     0.1084
 2251.5000     8.6940    10.2239   -31.0504   104.9770     8.5109     2.4673     0.0202     0.1117
 2252.0000     8.7472    10.2536   -30.9589   103.7282     8.5029     2.4688     0.0263     0.1150
 2252.5000     8.7638    10.2834   -30.8828   101.2414     8.4941     2.4765     0.0397     0.1183
 2253.0000     8.7842    10.3136   -31.5165    99.4685     8.4860     2.4715     0.0500     0.1235
 2253.5000     8.8048    10.3425   -32.0941   101.4086     8.4807     2.4661     0.0636     0.1174
 2254.0000     8.8257    10.3696   -32.8058   103.8673     8.4904     2.4602     0.0782     0.1021
 2254.5000     8.8462    10.3968   -32.5351   106.4686     8.5059     2.4606     0.1566     0.0869
 2255.0000     8.8667    10.4244   -32.1606   107.3838     8.5357     2.5384     0.1762     0.0685
