~VERSION INFORMATION
 VERS.                2.0:   CWLS LOG ASCII STANDARD - VERSION 2.0
 WRAP.                 NO:   ONE LINE PER DEPTH STEP
~WELL INFORMATION
#MNEM.UNIT      DATA TYPE    INFORMATION
#----------   ------------   ------------------------------
 STRT.F            2.0000:   START DEPTH
 STOP.F          670.5000:   STOP DEPTH
 STEP.F            0.5000:   STEP LENGTH
 NULL.          -999.2500:   NO VALUE
 COMP. BROWN JOHN E&C INC:   COMPANY
 WELL. 27-26 STX-11 #26-11:   WELL
 FLD .             TEAPOT:   FIELD
 LOC .      S11 T38N R78W:   LOCATION
 CNTY.            NATRONA:   COUNTY
 STAT.            WYOMING:   STATE
 CTRY. UNITED STATES OF AMERICA:   COUNTRY
 SRVC.           Gearhart:   SERVICE COMPANY
 DATE.        07-JUL-1987:   LOGDATE
 API .       490251114800:   API NUMBER
~CURVE INFORMATION
#MNEM.UNIT       API CODE    CURVE DESCRIPTION
#----------   ------------   ------------------------------
 DEPT.F                  :   
 GRR .GAPI   07 310 01 00:   GAMMA RAY FROM RES. LOG
 RILD.OHMM   07 120 46 00:   INDUCTION LOG DEEP RESISTIVITY
 RILM.OHMM   07 120 44 00:   INDUCTION LOG MEDIUM RESISTIVITY
~PARAMETER INFORMATION
#MNEM.UNIT          VALUE    DESCRIPTION
#----------   ------------   ------------------------------
 PD  .                 GL:   PERMANENT DATUM
 EPD .F              5199:   ELEVATION PERMANENT DATUM
 LMF .                 KB:   LOG MEASURED FROM
 DAPD.F                 8:   FEET ABOVE PERMANENT DATUM
 DMF .                 KB:   DRILLING MEASURED FROM
 EKB .F              5207:   KELLING BUSHING
 EDF .F              5205:   DRILLING FLOOR
 EGL .F              5199:   GROUND LEVEL
 DATE.             7-7-87:   RUN DATE
 RUN .                  1:   RUN NUMBER
 DD  .F               680:   DEPTH DRILLER
 DL  .F               679:   DEPTH LOGGER
 BLI .F               671:   BOTTOM LOG INTERVAL
 CS  .IN            8.625:   CASING SIZE
 CBD .F                50:   CASING BOTTOM DRILLER
 CBL .F                50:   CASING BOTTOM LOGGER
 BS  .IN             7.87:   BIT SIZE
 BSD .F               680:   BIT SIZE AT DEPTH
 DFT .                AIR:   DRILLING FLUID TYPE
 TCS .HRS            1800:   TIME CURCULATED STOPPED
 TLAB.HRS            1954:   TIME LOGGER AT BOTTOM
 LUN .               7597:   LOGGING UNIT NUMBER
 LUL .           GILLETTE:   LOGGING UNIT LOCATION
 ENGI. JOHNSTON/HUCKFELDT:   RECORDING ENGINEER
 WITN.             STRONG:   WITNESSED BY
 CLNT.            A2DTECH:   CLIENT CODE
 ORIG.       2", 5" PRINT:   ORIGIN OF DATA
 UWI .       490251114800:   UNIQUE WELL ID
 DICO. A2D Technologies, Inc.:   DIGITIZING COMPANY
~OTHER INFORMATION
~A    DEPT      GRR      RILD       RILM   
# ...
  275.0000   107.2426    11.8746    12.5087
  275.5000   108.1591    11.7426    12.3351
  276.0000   109.0329    11.6121    12.1641
  276.5000   109.1149    11.4831    12.0360
  277.0000   107.5573    11.3555    11.9186
  277.5000   106.4357    11.2293    11.8024
  278.0000   107.1794    11.0597    11.6913
  278.5000   109.5020    11.0871    11.7189
  279.0000   112.2095    11.1302    11.7455
  279.5000   112.0424    11.1735    11.7722
  280.0000   109.1971    11.2169    11.7990
  280.5000   105.8206    11.2605    11.8258
  281.0000   104.2999    11.3043    11.8527
  281.5000   103.4612    11.3483    11.8794
  282.0000   103.1052    11.3711    11.9096
  282.5000   103.2938    11.0182    11.6900
  283.0000   103.3647    10.7848    11.4487
  283.5000   105.8404    10.5576    11.2113
  284.0000   108.6729    10.3316    10.9578
  284.5000   111.6391    10.2502    10.9176
  285.0000   112.1031    10.2079    10.8613
  285.5000   110.7001    10.1673    10.8053
  286.0000   109.2984    10.1266    10.7495
  286.5000   108.4140    10.0860    10.6940
  287.0000   109.4641    10.0456    10.6389
  287.5000   110.5170    10.0054    10.5840
  288.0000   109.5259     9.9653    10.5294
  288.5000   107.6390     9.9254    10.4749
  289.0000   105.7652     9.8856    10.4160
  289.5000   105.4325     9.8460    10.3555
  290.0000   106.4262     9.8058    10.2952
  290.5000   107.3869     9.5700    10.1871
  291.0000   108.3944     9.3353    10.0458
  291.5000   107.4339     9.1059     9.9201
  292.0000   106.0538     9.1059     9.8058
  292.5000   104.6545     9.1059     9.7968
  293.0000   103.2476     9.1059     9.7879
  293.5000   102.3034     9.1059     9.7789
  294.0000   103.0221     9.1059     9.7700
  294.5000   101.4510     9.1059     9.7611
  295.0000   100.1681     9.1059     9.7522
  295.5000   101.2599     9.1061     9.7433
  296.0000   102.6252     9.1072     9.7345
  296.5000   104.0113     9.0578     9.7244
  297.0000   103.7390     9.0017     9.7166
  297.5000   103.0581     8.9460     9.5044
  298.0000   103.8851     8.6154     9.2660
  298.5000   105.9813     8.2583     9.0337
  299.0000   108.0212     8.0838     8.8071
  299.5000   110.0001     7.9520     8.5863
  300.0000   111.1521     7.8231     8.3710
  300.5000   111.2180     7.7068     8.2243
  301.0000   111.3117     7.7071     8.2243
  301.5000   111.4051     7.7082     8.2243
  302.0000   111.3896     7.7083     8.2243
  302.5000   111.2761     7.7136     8.2484
  303.0000   111.8032     7.7555     8.3222
  303.5000   112.3389     7.7977     8.3968
  304.0000   112.8664     7.8400     8.4720
  304.5000   112.4126     7.8826     8.5479
  305.0000   110.4813     7.9254     8.6244
  305.5000   108.5533     7.9684     8.7017
  306.0000   106.7552     8.0117     8.7796
  306.5000   108.1112     8.0552     8.8582
  307.0000   109.5965     8.1521     8.9388
  307.5000   109.8922     8.3614     9.1127
  308.0000   107.8002     8.5770     9.2935
  308.5000   105.8929     8.7985     9.4772
  309.0000   106.0399     9.0220     9.6259
  309.5000   106.5165     8.9964     9.5897
  310.0000   106.9527     8.9546     9.5452
  310.5000   108.4914     8.9130     9.5002
  311.0000   110.1594     8.8716     9.4600
  311.5000   111.8344     8.6974     9.2403
  312.0000   113.5054     8.5216     9.0558
  312.5000   115.1380     8.3500     8.8731
  313.0000   116.0169     8.2235     8.7749
  313.5000   116.0199     8.2236     8.7749
  314.0000   116.1435     8.2243     8.7749
  314.5000   116.2499     8.2243     8.7749
  315.0000   115.9526     8.2243     8.7749
  315.5000   114.7774     8.2630     8.8323
  316.0000   113.6004     8.3435     8.9192
  316.5000   113.1552     8.4249     9.0063
  317.0000   115.0534     8.5069     9.0939
  317.5000   117.0957     8.6137     9.1905
  318.0000   119.1433     8.4972     9.0315
  318.5000   121.1011     8.3358     8.8600
  319.0000   120.9600     8.1775     8.6139
  319.5000   120.7225     8.0735     8.6246
  320.0000   120.4814     8.0985     8.6446
  320.5000   119.6010     8.1174     8.6650
  321.0000   117.7755     8.1363     8.6939
  321.5000   115.9642     8.1484     8.6424
  322.0000   114.1479     8.0819     8.5500
  322.5000   112.3272     8.0329     8.4586
  323.0000   110.5155     7.9842     8.3682
  323.5000   110.1959     7.9367     8.2788
  324.0000   110.0751     7.7676     8.1459
  324.5000   109.9667     7.5709     7.9464
  325.0000   110.1894     7.3792     7.7513
  325.5000   112.0344     7.1923     7.5611
  326.0000   113.9775     7.0101     7.3757
  326.5000   115.9273     6.8325     7.1948
  327.0000   117.8511     6.6595     7.0183
  327.5000   118.9980     6.4906     6.8462
  328.0000   117.7459     6.3259     6.6774
  328.5000   113.6724     6.1715     6.5848
  329.0000   109.8882     6.1712     6.5834
  329.5000   109.4708     6.1727     6.5828
  330.0000   109.1521     6.4644     6.9821
  330.5000   110.7124     6.7542     7.3148
  331.0000   112.8342     7.0563     7.6373
  331.5000   114.9565     7.1954     7.7055
  332.0000   117.0861     7.2700     7.7844
  332.5000   119.1056     7.3469     7.8641
  333.0000   118.8451     7.4245     7.9446
  333.5000   118.3308     7.5030     8.0259
  334.0000   117.8195     7.5831     8.1486
  334.5000   117.5573     7.6368     8.1378
  335.0000   117.9668     7.6118     8.1168
  335.5000   118.3295     7.5918     8.0958
  336.0000   117.7389     7.5721     8.0735
  336.5000   116.4455     7.4829     7.9508
  337.0000   115.5118     7.3284     7.7866
  337.5000   115.5120     7.1770     7.6257
  338.0000   114.4745     7.0287     7.4682
  338.5000   110.7617     6.8836     7.3140
  339.0000   109.6234     6.7414     7.1581
  339.5000   110.9942     6.4449     6.8316
  340.0000   112.4252     6.1171     6.5100
  340.5000   112.0264     5.8059     6.2035
  341.0000   111.5135     5.5106     5.9114
  341.5000   111.5118     5.2303     5.6331
  342.0000   112.5441     4.9643     5.4729
  342.5000   113.6423     4.7634     5.4225
  343.0000   114.2427     4.7634     5.3230
  343.5000   113.0228     4.8609     5.5075
  344.0000   111.9357     5.0620     5.7421
  344.5000   112.3647     5.3370     5.9867
  345.0000   113.5629     5.6270     6.2417
  345.5000   114.7993     5.9327     6.5075
  346.0000   114.5143     6.2588     6.7847
  346.5000   113.5838     6.6146     7.0738
  347.0000   112.6670     6.9907     7.3752
  347.5000   114.5377     7.3597     7.6897
  348.0000   116.7022     7.2933     7.9392
  348.5000   118.8453     7.2319     7.9898
  349.0000   119.1150     7.1581     8.0407
  349.5000   117.2347     7.3910     8.0919
  350.0000   116.3105     7.5474     8.1486
  350.5000   116.3881     7.7070     8.2113
  351.0000   116.4729     7.9254     8.2816
  351.5000   116.5486     7.9991     8.3524
  352.0000   116.6235     8.0845     8.4239
  352.5000   116.6991     8.1060     8.4959
  353.0000   116.6994     8.1275     8.5686
  353.5000   116.6367     8.1491     8.6419
  354.0000   116.5734     8.1708     8.7159
  354.5000   116.5103     8.1925     8.7904
  355.0000   116.4493     8.2143     8.8656
  355.5000   116.3845     8.2362     8.9415
  356.0000   116.1270     8.2581     9.0220
  356.5000   114.8331     8.2800     8.9477
  357.0000   113.5485     8.3020     8.9595
  357.5000   112.2805     8.3241     8.9714
  358.0000   111.7471     8.3462     8.9834
  358.5000   112.4578     8.3683     8.9955
  359.0000   113.0996     8.3789     9.0073
  359.5000   112.4152     8.2423     9.0220
  360.0000   111.9895     8.1282     8.8522
  360.5000   115.0313     8.0157     8.6383
  361.0000   118.1540     7.9254     8.4296
  361.5000   121.2391     7.7998     8.2243
  362.0000   123.3855     7.5884     8.1614
  362.5000   122.0844     7.3840     8.0984
  363.0000   120.8599     7.2244     8.0359
  363.5000   119.6396     6.9964     7.9739
  364.0000   118.4241     6.7238     7.7714
  364.5000   117.5478     6.4611     7.0817
  365.0000   118.1279     6.2087     6.6957
  365.5000   118.6868     5.8116     6.4771
