~VERSION INFORMATION
 VERS.                2.0:   CWLS LOG ASCII STANDARD - VERSION 2.0
 WRAP.                 NO:   ONE LINE PER DEPTH STEP
~WELL INFORMATION
#MNEM.UNIT      DATA TYPE    INFORMATION
#----------   ------------   ------------------------------
 STRT.F          160.0000:   START DEPTH
 STOP.F         1181.5000:   STOP DEPTH
 STEP.F            0.5000:   STEP LENGTH
 NULL.          -999.2500:   NO VALUE
 COMP.            US NAVY:   COMPANY
 WELL. RES 3 TEAPOT DOM #71-SX-14:   WELL
 FLD .             TEAPOT:   FIELD
 LOC .      S14 T38N R78W:   LOCATION
 CNTY.            NATRONA:   COUNTY
 STAT.            WYOMING:   STATE
 CTRY. UNITED STATES OF AMERICA:   COUNTRY
 SRVC.       Schlumberger:   SERVICE COMPANY
 DATE.        23-AUG-1959:   LOGDATE
 API .       490250632200:   API NUMBER
~CURVE INFORMATION
#MNEM.UNIT       API CODE    CURVE DESCRIPTION
#----------   ------------   ------------------------------
 DEPT.F                  :   
 SPR .MV     05 010 01 00:   SPONTANEOUS POTENTIAL FROM RES.
 IL  .OHMM   05 120 00 00:   INDUCTION LOG
 ASN .OHMM   05 041 16 00:   AMPLIFIED SHORT NORMAL 16"
 CIL .MMHO   05 110 00 00:   CONDUCTIVITY INDUCTION LOG
~PARAMETER INFORMATION
#MNEM.UNIT          VALUE    DESCRIPTION
#----------   ------------   ------------------------------
 PD  .                 GL:   PERMANENT DATUM
 EPD .F              5259:   ELEVATION PERMANENT DATUM
 LMF .                 KB:   LOG MEASURED FROM
 DAPD.F                 4:   FEET ABOVE PERMANENT DATUM
 DMF .                 KB:   DRILLING MEASURED FROM
 EKB .F              5263:   KELLING BUSHING
 EGL .F              5259:   GROUND LEVEL
 DATE.            8-23-59:   RUN DATE
 RUN .                  1:   RUN NUMBER
 DD  .F              1190:   DEPTH DRILLER
 DL  .F              1186:   DEPTH LOGGER
 BLI .F              1180:   BOTTOM LOG INTERVAL
 TLI .F               150:   TOP LOG INTERVAL
 CBD .F                17:   CASING BOTTOM DRILLER
 BS  .IN             6.75:   BIT SIZE
 BSD .F              1190:   BIT SIZE AT DEPTH
 DFT .                GEL:   DRILLING FLUID TYPE
 DFD .                9.5:   DRILLING FLUID DENSITY
 DFV .                 52:   DRILLING FLUID VISCOSITY
 MSS .           FLOWLINE:   MUD SAMPLE SOURCE
 RMS .OHMM            2.6:   RESISTIVITY MUD SAMPLE
 MST .F                62:   MUD SAMPLE TEMPERATURE
 MFSS.                  M:   MUD FILTRATE SAMPLE SOURCE
 MCSS.                  M:   MUD CAKE SAMPLE SOURCE
 RMB .OHMM            2.2:   RESISTIVITY MUD AT BHT
 BHT .F                80:   BOTTOM HOLE TEMPERATURE
 TCS .HRS               1:   TIME CURCULATED STOPPED
 MRT .F                80:   MAXIMUM RECORDED TEMPERATURE
 LUN .               2523:   LOGGING UNIT NUMBER
 LUL .               CSPR:   LOGGING UNIT LOCATION
 ENGI.             ATWOOD:   RECORDING ENGINEER
 WITN.             MARTIN:   WITNESSED BY
 CLNT.            A2DTECH:   CLIENT CODE
 ORIG.     1", 2.5" PRINT:   ORIGIN OF DATA
 UWI .       490250632200:   UNIQUE WELL ID
 DICO. A2D Technologies, Inc.:   DIGITIZING COMPANY
~OTHER INFORMATION
~A   DEPT      SPR           IL        ASN      CIL   
# ...
 1036.0000   -38.0969    12.2585    14.1910    84.9289
 1036.5000   -37.7931    12.1332    13.9997    86.0587
 1037.0000   -37.5190    12.0816    13.9287    87.1885
 1037.5000   -37.3325    12.0187    13.7760    87.9134
 1038.0000   -36.8565    11.9713    13.7392    87.0347
 1038.5000   -36.5019    12.0016    13.6953    86.3189
 1039.0000   -36.8662    12.1629    13.6653    86.3189
 1039.5000   -37.1409    12.1375    13.6197    86.3241
 1040.0000   -37.1674    12.1466    13.5805    86.3246
 1040.5000   -36.9215    12.1472    13.5626    86.1494
 1041.0000   -36.7839    12.1394    13.5934    85.8341
 1041.5000   -37.1139    12.1966    13.6335    85.5190
 1042.0000   -37.8510    12.3056    13.6733    85.2044
 1042.5000   -38.5003    12.4083    13.7167    84.8898
 1043.0000   -39.2620    12.5114    13.7436    84.5751
 1043.5000   -39.1898    12.6159    13.7405    84.2613
 1044.0000   -38.9252    12.7181    13.7414    83.9474
 1044.5000   -38.6428    12.8228    13.7417    83.6336
 1045.0000   -38.3809    12.8575    13.7407    83.3197
 1045.5000   -38.1088    12.8567    13.7426    83.0059
 1046.0000   -37.8370    12.8269    13.7404    82.7756
 1046.5000   -37.5695    12.7229    13.7358    82.7756
 1047.0000   -37.2961    12.6202    13.6467    83.5524
 1047.5000   -37.0241    12.5159    13.5611    84.2877
 1048.0000   -36.8246    12.4120    13.4711    85.0230
 1048.5000   -36.8103    12.3082    13.3834    85.7583
 1049.0000   -36.8261    12.2043    13.2951    86.4936
 1049.5000   -36.8567    12.1004    13.2067    87.2289
 1050.0000   -37.5672    11.9964    13.1184    87.9642
 1050.5000   -38.3052    11.8929    13.0300    88.6995
 1051.0000   -38.5982    11.7886    12.9423    89.4349
 1051.5000   -38.2259    11.6849    12.8525    90.1702
 1052.0000   -37.9501    11.5822    12.7663    90.9055
 1052.5000   -37.6514    11.4752    12.6818    91.6408
 1053.0000   -37.3326    11.4329    12.6780    92.3761
 1053.5000   -37.1604    11.4361    12.6763    93.1114
 1054.0000   -37.1741    11.4372    12.6776    93.4055
 1054.5000   -37.1798    11.4352    12.6769    93.4055
 1055.0000   -37.1786    11.4313    12.6790    93.4055
 1055.5000   -37.5785    11.3679    12.6565    93.4055
 1056.0000   -38.0890    11.3154    12.5993    93.4055
 1056.5000   -38.5672    11.2584    12.5445    93.4055
 1057.0000   -38.5527    11.2030    12.4892    93.4055
 1057.5000   -38.0529    11.1485    12.4332    93.4055
 1058.0000   -37.6289    11.0913    12.3779    93.6471
 1058.5000   -37.1866    11.0367    12.3232    94.0435
 1059.0000   -36.9739    10.9841    12.2653    94.4444
 1059.5000   -36.7879    10.9156    12.2132    94.8450
 1060.0000   -36.5700    10.9956    12.1516    95.1656
 1060.5000   -36.3822    11.1830    12.1396    95.1656
 1061.0000   -36.0775    11.3558    12.2084    93.3942
 1061.5000   -36.1183    11.5274    12.3354    91.6234
 1062.0000   -36.0739    11.7027    12.4541    89.8530
 1062.5000   -35.7143    11.8772    12.5707    88.0807
 1063.0000   -35.4165    12.0477    12.6868    86.3051
 1063.5000   -35.0865    12.2253    12.8184    84.5260
 1064.0000   -34.7736    12.4045    12.7751    82.7427
 1064.5000   -34.4570    12.4954    12.6050    80.9536
 1065.0000   -34.2300    12.2186    12.4507    82.7935
 1065.5000   -34.0692    11.9499    12.2980    85.8704
 1066.0000   -33.9075    11.6688    12.1398    88.9490
 1066.5000   -33.7429    11.3917    11.9857    92.1654
 1067.0000   -33.6136    11.1151    11.8324    96.9488
 1067.5000   -33.5489    10.8400    11.6699    97.2441
 1068.0000   -33.4939    10.6239    11.6256    97.9823
 1068.5000   -33.4386    10.4385    11.6651    98.7205
 1069.0000   -33.3811    10.3661    11.6954    98.7205
 1069.5000   -33.3304    10.3727    11.7282    98.7205
 1070.0000   -33.2678    10.3725    11.7581    98.7205
 1070.5000   -33.3639    10.3707    11.7839    98.7218
 1071.0000   -33.4858    10.3717    11.6948    98.7206
 1071.5000   -33.6163    10.3213    11.6017    98.7211
 1072.0000   -33.6089    10.2591    11.5055    98.7215
 1072.5000   -33.6085    10.1981    11.4118    98.7218
 1073.0000   -33.2769    10.1958    11.3097    98.7224
 1073.5000   -32.9161    10.1942    11.2544    98.7225
 1074.0000   -32.4606    10.1953    11.2606    99.0157
 1074.5000   -32.0081    10.1949    11.3094    99.3110
 1075.0000   -31.8228    10.1949    11.3714    99.6063
 1075.5000   -31.8437    10.1950    11.4333    99.9016
 1076.0000   -31.8358    10.1950    11.4352   100.1969
 1076.5000   -31.8124    10.1950    11.4371   100.4921
 1077.0000   -31.4401    10.1950    11.4362   100.4921
 1077.5000   -31.0542    10.1950    11.4359   100.4921
 1078.0000   -30.6246    10.1950    11.4375   100.4921
 1078.5000   -30.3967    10.1950    11.4357   100.4921
 1079.0000   -30.4145    10.1950    11.4309   100.4921
 1079.5000   -30.4168    10.1950    11.3619   100.4921
 1080.0000   -30.4391    10.1951    11.3045   100.4921
 1080.5000   -30.7800    10.1951    11.2423   100.4921
 1081.0000   -31.0606    10.1952    11.1825   100.8948
 1081.5000   -31.3663    10.1952    11.1214   101.2974
 1082.0000   -31.6586    10.1949    11.0615   101.7037
 1082.5000   -31.9619    10.1958    11.0015   102.1060
 1083.0000   -32.2508    10.1946    10.9357   102.2665
 1083.5000   -32.5332    10.1924    10.9130   102.8913
 1084.0000   -32.5606    10.1424    10.9495   103.6719
 1084.5000   -32.3971    10.0914    10.9798   104.4520
 1085.0000   -31.9652    10.0382    11.0121   105.2316
 1085.5000   -31.5526     9.9866    11.0428   106.0114
 1086.0000   -31.1412     9.9340    11.0784   106.7971
 1086.5000   -30.7254     9.8811    11.0809   107.5787
 1087.0000   -30.2833     9.8410    11.0822   107.5787
 1087.5000   -30.0362     9.8408    11.0803   107.5787
 1088.0000   -30.0611     9.8384    11.0816   107.5787
 1088.5000   -30.0644     9.8423    11.0819   107.5787
 1089.0000   -30.0443     9.8413    11.0749   107.5787
 1089.5000   -30.0616     9.9915    11.1575   107.5787
 1090.0000   -30.1186    10.1808    11.3680   107.5787
 1090.5000   -30.7656    10.3573    11.5744   107.5787
 1091.0000   -31.4224    10.3726    11.7680   107.5787
 1091.5000   -31.4517    10.3940    11.9869   107.5787
 1092.0000   -31.5177    10.7749    12.1828   104.0354
 1092.5000   -31.5803    11.1606    12.6829   100.4921
 1093.0000   -34.0062    11.5740    13.1156    96.9488
 1093.5000   -36.2776    11.9842    13.5913    93.4055
 1094.0000   -39.0484    12.6957    14.4549    88.3436
 1094.5000   -39.7989    13.4177    15.3249    83.2818
 1095.0000   -41.2271    14.1445    16.2447    79.2323
 1095.5000   -42.3871    14.8649    17.0843    73.0315
 1096.0000   -42.8688    15.3972    18.0920    66.8307
 1096.5000   -43.6664    15.7548    18.1692    65.8183
 1097.0000   -44.2891    16.1966    18.2015    64.5529
 1097.5000   -44.9234    16.2175    18.3298    63.2874
 1098.0000   -44.1930    16.2025    18.4543    63.2874
 1098.5000   -43.4115    15.8098    18.4521    63.2874
 1099.0000   -42.5998    15.5014    18.2361    63.2874
 1099.5000   -41.8324    15.1604    18.0262    64.8685
 1100.0000   -41.5510    14.8048    17.8248    66.8448
 1100.5000   -41.2884    14.6141    17.6136    68.8212
 1101.0000   -41.0359    14.6292    17.3976    70.3740
 1101.5000   -40.7683    14.6165    17.2789    70.3740
 1102.0000   -40.5681    14.4282    17.2896    70.3740
 1102.5000   -39.7197    14.2407    17.2847    70.3740
 1103.0000   -38.0853    14.0923    17.3017    71.2924
 1103.5000   -36.5172    14.1100    17.1173    72.7211
 1104.0000   -34.7489    13.9717    16.6937    74.1498
 1104.5000   -34.3854    13.7449    16.2915    75.5784
 1105.0000   -35.8566    13.5356    15.8837    77.0071
 1105.5000   -36.5226    13.3287    15.5103    78.4358
 1106.0000   -36.4327    13.1122    15.2052    79.8644
 1106.5000   -36.4534    12.9099    14.9367    81.2931
 1107.0000   -36.7326    12.6920    14.6462    82.7217
 1107.5000   -37.7425    12.6799    14.6313    84.1504
 1108.0000   -38.7986    12.6726    14.6214    84.5472
 1108.5000   -39.4051    12.6823    14.6286    84.1516
