~VERSION INFORMATION
 VERS.                2.0:   CWLS LOG ASCII STANDARD - VERSION 2.0
 WRAP.                 NO:   ONE LINE PER DEPTH STEP
~WELL INFORMATION
#MNEM.UNIT      DATA TYPE    INFORMATION
#----------   ------------   ------------------------------
 STRT.F            9.5000:   START DEPTH
 STOP.F          640.5000:   STOP DEPTH
 STEP.F            0.5000:   STEP LENGTH
 NULL.          -999.2500:   NO VALUE
 COMP. FENIX & SCISSON INC:   COMPANY
 WELL. 27-32 SX 11 WI #27-32 SX:   WELL
 FLD .            WILDCAT:   FIELD
 LOC .      S11 T38N R78W:   LOCATION
 CNTY.            NATRONA:   COUNTY
 STAT.            WYOMING:   STATE
 CTRY. UNITED STATES OF AMERICA:   COUNTRY
 SRVC.      Dresser Atlas:   SERVICE COMPANY
 DATE.        01-AUG-1980:   LOGDATE
 API .       490251083700:   API NUMBER
~CURVE INFORMATION
#MNEM.UNIT       API CODE    CURVE DESCRIPTION
#----------   ------------   ------------------------------
 DEPT.F                  :   
 SPR .MV     07 010 01 00:   SPONTANEOUS POTENTIAL
 SFL .OHMM   07 220 01 00:   SHALLOW FOCUSED LOG RESISTIVITY
 ILD .OHMM   07 120 46 00:   INDUCTION LOG DEEP
 ILM .OHMM   07 120 44 00:   INDUCTION LOG MEDIUM
 GRD .GAPI   45 310 01 00:   GAMMA RAY FROM DENSITY LOG
 CALD.IN     45 280 60 00:   CALIPER
 RHOB.G/C3   45 350 01 00:   BULK DENSITY
 CORR.G/C3   45 356 01 00:   DENSITY CORRECTION
 DPHI.DEC    45 890 12 00:   DENSITY POROSITY SANDSTONE
 NPHI.DEC    42 890 03 00:   NEUTRON POROSITY SANDSTONE
~PARAMETER INFORMATION
#MNEM.UNIT          VALUE    DESCRIPTION
#----------   ------------   ------------------------------
 PD  .                 GL:   PERMANENT DATUM
 EPD .F              5189:   ELEVATION PERMANENT DATUM
 LMF .                 KB:   LOG MEASURED FROM
 DAPD.F                 5:   FEET ABOVE PERMANENT DATUM
 DMF .                 KB:   DRILLING MEASURED FROM
 EKB .F              5194:   KELLING BUSHING
 EGL .F              5189:   GROUND LEVEL
 DATE.             8-1-80:   RUN DATE
 RUN .                  1:   RUN NUMBER
 DD  .F               625:   DEPTH DRILLER
 DL  .F               634:   DEPTH LOGGER
 BLI .F               632:   BOTTOM LOG INTERVAL
 TLI .F                12:   TOP LOG INTERVAL
 BS  .IN            7.875:   BIT SIZE
 BSD .F               625:   BIT SIZE AT DEPTH
 DFT .           CHEM GEL:   DRILLING FLUID TYPE
 DFD .                9.1:   DRILLING FLUID DENSITY
 DFV .                 44:   DRILLING FLUID VISCOSITY
 DFPH.                9.5:   DRILLING FLUID PH
 DFL .                7.6:   DRILLING FLUID LOSS
 MSS .           FLOWLINE:   MUD SAMPLE SOURCE
 RMS .OHMM            .27:   RESISTIVITY MUD SAMPLE
 MST .F                70:   MUD SAMPLE TEMPERATURE
 RMF .OHMM            .16:   RESISTIVITY MUD FILTRATE SAMPLE
 MFST.F                65:   MUD FILTRATE SAMPLE TEMPERATURE
 MFSS.               MEAS:   MUD FILTRATE SAMPLE SOURCE
 MCSS.               MEAS:   MUD CAKE SAMPLE SOURCE
 RMB .OHMM            .21:   RESISTIVITY MUD AT BHT
 BHT .F                94:   BOTTOM HOLE TEMPERATURE
 TCS .HRS            0040:   TIME CURCULATED STOPPED
 MRT .F                94:   MAXIMUM RECORDED TEMPERATURE
 LUN .               6145:   LOGGING UNIT NUMBER
 LUL .              GLTTE:   LOGGING UNIT LOCATION
 ENGI.              HENRY:   RECORDING ENGINEER
 WITN.              AMEND:   WITNESSED BY
 CLNT.            A2DTECH:   CLIENT CODE
 ORIG.     1", 2.5" PRINT:   ORIGIN OF DATA
 UWI .       490251083700:   UNIQUE WELL ID
 DICO. A2D Technologies, Inc.:   DIGITIZING COMPANY
~OTHER INFORMATION
~A    DEPT     SPR         SFL         ILD        ILM      GRD       CALD       RHOB       CORR       DPHI       NPHI   
# ...
  210.5000   -58.4761    10.2199     8.0519     8.5682    89.2578     8.1490     2.5089     0.0223     0.1010     0.2665
  211.0000   -58.2934    10.2730     8.0693     8.6019    88.3909     8.1408     2.5114     0.0217     0.1024     0.2704
  211.5000   -58.1104    10.3263     8.0867     8.6356    90.9514     8.1326     2.5158     0.0212     0.1012     0.2744
  212.0000   -57.9251    10.3815     8.0973     8.6695    97.1160     8.1243     2.5172     0.0206     0.1001     0.2784
  212.5000   -57.7415    10.4359     8.0974     8.7238    98.6196     8.1161     2.5170     0.0201     0.0989     0.2812
  213.0000   -57.5580    10.4905     8.0974     8.6870    95.5395     8.1079     2.5169     0.0194     0.0976     0.2812
  213.5000   -57.3713    10.6129     8.0972     8.5968    93.0379     8.0997     2.5140     0.0184     0.0976     0.2812
  214.0000   -57.1910    10.7804     8.0965     8.5075    90.4760     8.0914     2.5105     0.0174     0.1002     0.2758
  214.5000   -57.0067    10.9506     8.0954     8.4045    90.3624     8.0832     2.5070     0.0165     0.1028     0.2701
  215.0000   -56.8050    11.1234     8.0953     8.5288    92.2699     8.0750     2.5050     0.0155     0.1055     0.2635
  215.5000   -56.7576    11.3257     8.1609     8.6804    93.6223     8.0667     2.5093     0.0145     0.1080     0.2661
  216.0000   -56.9516    11.2199     8.2643     8.8347    90.7525     8.0585     2.5140     0.0135     0.1019     0.2717
  216.5000   -57.1258    11.0965     8.3694     8.8954    90.7583     8.0502     2.5104     0.0125     0.0968     0.2773
  217.0000   -57.3016    10.9746     8.4759     8.9067    90.5753     8.0417     2.5020     0.0120     0.1021     0.2795
  217.5000   -57.4816    10.8539     8.5837     8.9180    90.2989     8.0383     2.4930     0.0121     0.1068     0.2805
  218.0000   -57.6585    10.7346     8.7221     8.9294    90.8932     8.0456     2.4909     0.0121     0.1105     0.2816
  218.5000   -57.8371    10.6166     8.6396     8.9407    92.0704     8.0526     2.4921     0.0120     0.1128     0.2826
  219.0000   -58.0142    10.5118     8.5151     8.9521    92.8486     8.0598     2.4957     0.0120     0.1112     0.2836
  219.5000   -58.1925    10.7104     8.3921     8.9635    90.6026     8.0671     2.5000     0.0121     0.1094     0.2844
  220.0000   -58.3722    10.6872     8.2709     8.9748    89.1635     8.0742     2.4968     0.0120     0.1076     0.2818
  220.5000   -58.5423    10.6635     8.1515     8.9862    88.0338     8.0814     2.4873     0.0121     0.1089     0.2766
  221.0000   -58.7374    10.6398     8.0884     8.9977    90.2605     8.0886     2.4896     0.0121     0.1157     0.2715
  221.5000   -58.6543    10.6168     8.0737     9.0091    93.7379     8.0958     2.4989     0.0118     0.1124     0.2643
  222.0000   -58.4683    10.5947     8.0593     9.0205    92.7891     8.1030     2.5001     0.0143     0.1072     0.2666
  222.5000   -58.2839    10.5732     8.0456     9.0320    91.8278     8.1102     2.5017     0.0182     0.1072     0.2704
  223.0000   -58.1043    10.5520     8.0312     9.0435    92.2561     8.1174     2.5041     0.0220     0.1072     0.2742
  223.5000   -57.9204    10.5294     8.0166     9.0553    93.4424     8.1245     2.5224     0.0260     0.1017     0.2778
  224.0000   -57.7413    10.5118     8.0020     8.8924    94.7467     8.1319     2.5428     0.0276     0.0907     0.2820
  224.5000   -57.5600    10.6475     7.9875     8.6182    94.4402     8.1389     2.5377     0.0252     0.0816     0.2866
  225.0000   -57.5176    10.7635     7.9730     8.4045    92.9465     8.1460     2.5302     0.0231     0.0860     0.2911
  225.5000   -57.5186    10.8809     7.9587     8.3414    92.0248     8.1543     2.5282     0.0210     0.0904     0.2964
  226.0000   -57.5200    10.9995     7.9474     8.2634    92.6338     8.1508     2.5310     0.0188     0.0901     0.2970
  226.5000   -57.5193    11.1165     7.9474     8.1870    93.2563     8.1326     2.5309     0.0167     0.0897     0.2939
  227.0000   -57.5190    10.9238     7.9472     8.1104    92.2841     8.1157     2.5238     0.0145     0.0915     0.2890
  227.5000   -57.5199    10.7387     7.9473     8.0346    89.3862     8.0984     2.5153     0.0124     0.0952     0.2868
  228.0000   -57.5203    10.5568     7.9473     7.9482    90.7232     8.0814     2.5060     0.0103     0.0990     0.2858
  228.5000   -57.5157    10.3780     7.9473     7.9636    92.8071     8.0642     2.5003     0.0080     0.1028     0.2864
  229.0000   -57.5662    10.1271     7.9473     7.9817    94.5838     8.0458     2.5028     0.0102     0.1072     0.2897
  229.5000   -57.6738    10.1749     7.9472     7.9998    93.5436     8.0364     2.5097     0.0146     0.1080     0.2916
  230.0000   -57.7762    10.2779     7.9473     8.0179    94.3500     8.0407     2.5187     0.0190     0.1021     0.2896
  230.5000   -57.8784    10.3819     7.9473     8.0360    97.7766     8.0436     2.5280     0.0230     0.0964     0.2822
  231.0000   -57.9820    10.4869     7.9471     8.0545    96.7026     8.0466     2.5366     0.0278     0.0907     0.2772
  231.5000   -58.0852    10.5930     7.9474     8.0730    95.3114     8.0499     2.5445     0.0266     0.0851     0.2752
  232.0000   -58.1885    10.7096     7.9477     8.0916    93.9272     8.0530     2.5392     0.0251     0.0808     0.2732
  232.5000   -58.2908    10.3176     7.9604     8.1101    91.7819     8.0561     2.5341     0.0233     0.0840     0.2711
  233.0000   -58.3963    10.3968     7.9746     8.1286    92.8578     8.0593     2.5285     0.0216     0.0873     0.2681
  233.5000   -58.4973    10.7096     7.9893     8.1471    95.6087     8.0624     2.5230     0.0199     0.0905     0.2651
  234.0000   -58.5974    10.5816     8.0038     8.1661    98.4432     8.0655     2.5175     0.0181     0.0938     0.2672
  234.5000   -58.7177    10.2152     8.0182     8.1848   100.3861     8.0686     2.5131     0.0164     0.0964     0.2713
  235.0000   -58.6173    10.1271     8.0327     8.2036    98.9883     8.0717     2.5123     0.0147     0.0975     0.2754
  235.5000   -58.3750    10.1271     8.0472     8.2224    96.1923     8.0748     2.5116     0.0130     0.0987     0.2795
  236.0000   -58.1504    10.2994     8.0616     8.2413    93.1749     8.0780     2.5111     0.0113     0.0993     0.2844
  236.5000   -57.9301    10.5278     8.0763     8.3244    92.9224     8.0811     2.5120     0.0096     0.0996     0.2848
  237.0000   -57.7036    10.7612     8.0911     8.4558    94.4644     8.0842     2.5131     0.0079     0.1000     0.2857
  237.5000   -57.4790    10.9997     8.0971     8.6227    93.7242     8.0873     2.5132     0.0062     0.1000     0.2867
  238.0000   -57.2572    11.2435     8.0969     9.0540    91.9196     8.0904     2.5205     0.0045     0.0968     0.2876
  238.5000   -57.0311    11.5389     8.0969     9.0119    91.0313     8.0935     2.5283     0.0028     0.0940     0.2884
  239.0000   -56.8024    11.3484     8.0970     8.7219    93.0139     8.0967     2.5344     0.0009     0.0911     0.2860
  239.5000   -56.7075    11.1233     8.0969     8.7260    95.5908     8.0998     2.5266     0.0002     0.0898     0.2829
  240.0000   -56.8642    10.9109     8.0969     8.7220    92.5827     8.1029     2.5217     0.0011     0.0944     0.2798
  240.5000   -56.9922    10.9599     8.0969     8.9853    88.6051     8.1060     2.5229     0.0019     0.0948     0.2767
  241.0000   -57.1279    11.0066     8.0969     9.2249    89.2959     8.1091     2.5195     0.0026     0.0952     0.2737
  241.5000   -57.2639    11.0535     8.0970     9.1560    90.8416     8.1122     2.5162     0.0034     0.0970     0.2726
  242.0000   -57.3973    11.1010     8.0970     9.0485    90.2257     8.1153     2.5162     0.0042     0.0984     0.2759
  242.5000   -57.5314    11.2505     8.0968     8.9426    88.6803     8.1185     2.5204     0.0050     0.0966     0.2792
  243.0000   -57.6693    11.4494     8.0976     8.8380    88.1933     8.1216     2.5251     0.0058     0.0950     0.2825
  243.5000   -57.7993    11.7560     8.0991     8.7346    88.7537     8.1247     2.5220     0.0066     0.0934     0.2836
