~VERSION INFORMATION
 VERS.                2.0:   CWLS LOG ASCII STANDARD - VERSION 2.0
 WRAP.                 NO:   ONE LINE PER DEPTH STEP
~WELL INFORMATION
#MNEM.UNIT      DATA TYPE    INFORMATION
#----------   ------------   ------------------------------
 STRT.F            0.0000:   START DEPTH
 STOP.F         1027.0000:   STOP DEPTH
 STEP.F            0.1000:   STEP LENGTH
 NULL.          -999.2500:   NO VALUE
 COMP.       F D SERV INC:   COMPANY
 WELL.   77-1 X 27 #77-27:   WELL
 FLD .             TEAPOT:   FIELD
 LOC .      S27 T39N R78W:   LOCATION
 CNTY.            NATRONA:   COUNTY
 STAT.            WYOMING:   STATE
 CTRY. UNITED STATES OF AMERICA:   COUNTRY
 SRVC.      Western Atlas:   SERVICE COMPANY
 DATE.        04-NOV-1991:   LOGDATE
 API .       490252248600:   API NUMBER
~CURVE INFORMATION
#MNEM.UNIT       API CODE    CURVE DESCRIPTION
#----------   ------------   ------------------------------
 DEPT.F                  :   
 GRR .GAPI   07 310 01 00:   GAMMA RAY
 RILD.OHMM   07 120 46 00:   INDUCTION LOG DEEP RESISTIVITY
 RFOC.OHMM   07 220 04 00:   RESISTIVITY FOCUSED LOG
 RILM.OHMM   07 120 44 00:   INDUCTION LOG MEDIUM RESISTIVITY
 SPR .MV     07 010 01 00:   SPONTANEOUS POTENTIAL
~PARAMETER INFORMATION
#MNEM.UNIT          VALUE    DESCRIPTION
#----------   ------------   ------------------------------
 PD  .                 GL:   PERMANENT DATUM
 EPD .F              5077:   ELEVATION PERMANENT DATUM
 LMF .                 KB:   LOG MEASURED FROM
 DAPD.F                10:   FEET ABOVE PERMANENT DATUM
 DMF .                 KB:   DRILLING MEASURED FROM
 EKB .F              5087:   KELLING BUSHING
 EDF .F              5086:   DRILLING FLOOR
 EGL .F              5077:   GROUND LEVEL
 DATE.        04-NOV-1991:   RUN DATE
 RUN .                  1:   RUN NUMBER
 DD  .F              1030:   DEPTH DRILLER
 DL  .F              1030:   DEPTH LOGGER
 BLI .F              1027:   BOTTOM LOG INTERVAL
 CS  .IN            9.625:   CASING SIZE
 CBD .F                50:   CASING BOTTOM DRILLER
 CBL .F                52:   CASING BOTTOM LOGGER
 BS  .IN             8.75:   BIT SIZE
 BSD .F              1030:   BIT SIZE AT DEPTH
 DFT .          KCL WATER:   DRILLING FLUID TYPE
 MSS .           FLOWLINE:   MUD SAMPLE SOURCE
 RMS .OHMM            .24:   RESISTIVITY MUD SAMPLE
 MST .F                72:   MUD SAMPLE TEMPERATURE
 RMB .OHMM            .19:   RESISTIVITY MUD AT BHT
 BHT .F                90:   BOTTOM HOLE TEMPERATURE
 TCS .HRS               2:   TIME CURCULATED STOPPED
 MRT .F                90:   MAXIMUM RECORDED TEMPERATURE
 LUN .            HL-6274:   LOGGING UNIT NUMBER
 LUL .             CASPER:   LOGGING UNIT LOCATION
 ENGI.             RAUTIO:   RECORDING ENGINEER
 WITN.             STRONG:   WITNESSED BY
 CLNT.            A2DTECH:   CLIENT CODE
 ORIG.           5" PRINT:   ORIGIN OF DATA
 UWI .       490252248600:   UNIQUE WELL ID
 DICO. A2D Technologies, Inc.:   DIGITIZING COMPANY
~OTHER INFORMATION
~A    DEPT      GRR      RILD       RFOC       RILM        SPR   
# ...
  622.2000   110.9197     7.1783     7.7874     7.0913   -32.5850
  622.3000   111.1071     7.1434     7.7729     7.0525   -32.5841
  622.4000   111.3074     7.1433     7.7336     7.0121   -32.5832
  622.5000   111.4820     7.1053     7.7336     6.9720   -32.5823
  622.6000   111.6695     7.0937     7.7336     6.9444   -32.5814
  622.7000   111.9494     7.0734     7.7336     6.9405   -32.5805
  622.8000   112.2162     7.0445     7.7129     6.8960   -32.5796
  622.9000   112.2317     7.0444     7.6801     6.8613   -32.5787
  623.0000   112.4465     7.0443     7.6801     6.8479   -32.5777
  623.1000   112.4488     7.0100     7.6801     6.8302   -32.5769
  623.2000   112.4515     6.9954     7.6801     6.7912   -32.5760
  623.3000   112.4542     6.9953     7.6801     6.7530   -32.5751
  623.4000   112.4186     6.9952     7.6801     6.7527   -32.5743
  623.5000   112.2351     6.9951     7.6801     6.7526   -32.5733
  623.6000   111.8713     6.9950     7.6801     6.7524   -32.4503
  623.7000   111.3612     6.9949     7.6801     6.7666   -32.4219
  623.8000   110.6026     6.9948     7.6801     6.7991   -32.4210
  623.9000   109.8090     6.9947     7.6801     6.7989   -32.4201
  624.0000   109.2098     6.9946     7.6801     6.8353   -32.4192
  624.1000   108.2095     6.9945     7.6753     6.8458   -32.4182
  624.2000   107.1989     6.9944     7.6270     6.8456   -32.4174
  624.3000   106.3512     6.9943     7.5882     6.8455   -32.4165
  624.4000   105.9719     6.9942     7.5450     6.8453   -32.3561
  624.5000   106.0239     6.9941     7.5220     6.8450   -32.2650
  624.6000   106.2304     6.9941     7.5112     6.8449   -32.2577
  624.7000   106.8786     6.9939     7.4700     6.8701   -32.1133
  624.8000   107.3442     6.9939     7.4700     6.8922   -32.0096
  624.9000   107.9012     6.9938     7.4700     6.8920   -31.9620
  625.0000   108.3832     7.0099     7.4700     6.8918   -31.9112
  625.1000   108.8254     7.0423     7.4700     6.8916   -31.8105
  625.2000   109.5863     7.0421     7.4700     6.8914   -31.8096
  625.3000   110.3087     7.0420     7.4700     6.8912   -31.6887
  625.4000   111.1902     7.0419     7.4700     6.8910   -31.6581
  625.5000   112.0163     7.0418     7.4700     6.8908   -31.5903
  625.6000   112.7580     7.0417     7.4928     6.8906   -31.4663
  625.7000   113.4789     7.0417     7.5357     6.8905   -31.3422
  625.8000   114.0937     7.0415     7.5743     6.9182   -31.2053
  625.9000   114.5928     7.0415     7.5743     6.9381   -31.2045
  626.0000   114.8982     7.0414     7.5743     6.9379   -31.1197
  626.1000   115.0856     7.0600     7.5743     6.9377   -30.9384
  626.2000   115.3191     7.0902     7.5743     6.9375   -30.7220
  626.3000   115.6850     7.0901     7.5743     6.9373   -30.5979
  626.4000   115.9065     7.0900     7.5743     6.9371   -30.4513
  626.5000   115.9087     7.1231     7.5743     6.9369   -30.3498
  626.6000   116.1341     7.1638     7.5743     6.9367   -30.2257
  626.7000   116.4347     7.1887     7.5743     6.9365   -30.0540
  626.8000   116.6221     7.1957     7.5743     6.9363   -29.8280
  626.9000   116.8178     7.2385     7.5668     6.9361   -29.6985
  627.0000   116.8204     7.2781     7.5220     6.9578   -29.5798
  627.1000   116.8231     7.2887     7.5220     6.9975   -29.3645
  627.2000   116.7288     7.2886     7.4901     7.0325   -29.1820
  627.3000   116.4895     7.3014     7.4700     7.0323   -29.0580
  627.4000   116.1228     7.3391     7.4700     7.0686   -28.9455
  627.5000   115.7114     7.3390     7.4700     7.1088   -28.9445
  627.6000   115.2270     7.3758     7.4700     7.1300   -28.8355
  627.7000   114.5532     7.3899     7.4700     7.1403   -28.7115
  627.8000   113.3215     7.3898     7.4987     7.1810   -28.5874
  627.9000   111.6478     7.3995     7.5220     7.2290   -28.4634
  628.0000   110.5540     7.4417     7.5220     7.2631   -28.3413
  628.1000   110.1140     7.4927     7.5232     7.3045   -28.3402
  628.2000   109.8204     7.4926     7.5743     7.3295   -28.3395
  628.3000   109.6698     7.5176     7.5743     7.3369   -28.3386
  628.4000   109.6725     7.5605     7.6003     7.3801   -28.3377
  628.5000   109.6751     7.5970     7.6438     7.4207   -28.3368
  628.6000   109.6780     7.5968     7.6951     7.4311   -28.3359
  628.7000   109.6805     7.6375     7.7874     7.4536   -28.3350
  628.8000   109.6832     7.6812     7.8300     7.4961   -28.3341
  628.9000   109.5923     7.7026     7.8749     7.5344   -28.2708
  629.0000   109.4641     7.7154     7.8962     7.5342   -28.1826
  629.1000   109.4527     7.7594     7.9102     7.6108   -28.1912
  629.2000   109.2453     7.8099     7.9555     7.6391   -28.3304
  629.3000   109.2476     7.8098     8.0064     7.6588   -28.3296
  629.4000   109.1312     7.8676     8.0064     7.7024   -28.3287
  629.5000   109.0284     7.9186     8.0371     7.7452   -28.3278
  629.6000   109.0311     7.9282     8.0831     7.7450   -28.3269
  629.7000   109.0338     7.9735     8.1183     7.8168   -28.3260
  629.8000   108.8521     8.0190     8.1183     7.8795   -28.3251
  629.9000   108.6701     8.0648     8.1183     7.9244   -28.4207
  630.0000   108.4880     8.1372     8.1559     7.9695   -28.4731
  630.1000   108.3060     8.1974     8.1748     8.0174   -28.4722
  630.2000   108.1240     8.2037     8.1926     8.0606   -28.4713
  630.3000   107.9419     8.2542     8.2317     8.1066   -28.4703
  630.4000   107.7599     8.2541     8.2317     8.1528   -28.4695
  630.5000   107.5779     8.2873     8.2317     8.2134   -28.4686
  630.6000   107.3959     8.3346     8.2317     8.3034   -28.5280
  630.7000   107.2138     8.3690     8.2563     8.3569   -28.5827
  630.8000   107.0318     8.3717     8.2890     8.3983   -28.4659
  630.9000   106.8498     8.4270     8.2934     8.4146   -28.4648
  631.0000   106.6677     8.4676     8.3466     8.4355   -28.4641
  631.1000   106.4857     8.4854     8.3466     8.4836   -28.5404
  631.2000   106.3796     8.4853     8.3784     8.5316   -28.6120
  631.3000   106.3461     8.4852     8.4047     8.5313   -28.6111
  631.4000   106.1605     8.4851     8.4160     8.5697   -28.6102
  631.5000   106.1632     8.4850     8.4632     8.6186   -28.7300
  631.6000   106.0246     8.4849     8.4632     8.6499   -28.8523
  631.7000   105.9440     8.4847     8.4632     8.6496   -28.9069
  631.8000   105.8851     8.5008     8.4919     8.6494   -28.9060
  631.9000   105.7030     8.5436     8.5221     8.6952   -28.9051
  632.0000   105.5033     8.5434     8.5300     8.7447   -28.9041
  632.1000   105.3390     8.5875     8.5814     8.7695   -29.0145
  632.2000   105.1569     8.6027     8.5814     8.7835   -29.0521
  632.3000   104.8878     8.6258     8.6175     8.8335   -29.0512
  632.4000   104.5210     8.6623     8.6412     8.8914   -29.0503
  632.5000   104.1543     8.6642     8.6562     8.8911   -29.0494
  632.6000   103.7232     8.7223     8.7057     8.9233   -29.0483
  632.7000   103.5731     8.7222     8.7619     8.9741   -29.0476
  632.8000   103.2785     8.7525     8.8057     9.0252   -29.1218
  632.9000   102.9845     8.8025     8.8228     9.0772   -29.1955
  633.0000   102.8024     8.8618     8.8228     9.1284   -29.1946
  633.1000   102.6136     8.9671     8.8345     9.1399   -29.1937
  633.2000   102.4383     9.0164     8.8850     9.1689   -29.1928
  633.3000   102.2563     9.0679     8.9461     9.2031   -29.1919
  633.4000   101.9762     9.1475     8.9871     9.2095   -29.2565
  633.5000   101.7261     9.2188     9.0386     9.2666   -29.3398
  633.6000   101.6917     9.2293     9.0904     9.2664   -29.3513
  633.7000   101.2826     9.3473     9.1424     9.3031   -29.4876
  633.8000   101.2850     9.3472     9.1977     9.3304   -29.4868
  633.9000   101.0405     9.3829     9.2474     9.3443   -29.4859
  634.0000   100.8413     9.4364     9.3004     9.3949   -29.5409
  634.1000   100.7562     9.4903     9.3537     9.3946   -29.6338
  634.2000   100.3975     9.5444     9.4072     9.4392   -29.6357
  634.3000   100.4008     9.6094     9.4611     9.4930   -29.7816
