~VERSION INFORMATION
 VERS.                2.0:   CWLS LOG ASCII STANDARD - VERSION 2.0
 WRAP.                 NO:   ONE LINE PER DEPTH STEP
~WELL INFORMATION
#MNEM.UNIT      DATA TYPE    INFORMATION
#----------   ------------   ------------------------------
 STRT.F            4.0000:   START DEPTH
 STOP.F          516.5000:   STOP DEPTH
 STEP.F            0.5000:   STEP LENGTH
 NULL.          -999.2500:   NO VALUE
 COMP. BROWN JOHN E&C INC:   COMPANY
 WELL. NAVAL PETROLEUM RESERVE 3 SX-1 #72-1-10:   WELL
 FLD .             TEAPOT:   FIELD
 LOC .      S10 T38N R78W:   LOCATION
 CNTY.            NATRONA:   COUNTY
 STAT.            WYOMING:   STATE
 CTRY. UNITED STATES OF AMERICA:   COUNTRY
 SRVC.     Atlas Wireline:   SERVICE COMPANY
 DATE.        19-SEP-1991:   LOGDATE
 API .       490252244600:   API NUMBER
~CURVE INFORMATION
#MNEM.UNIT       API CODE    CURVE DESCRIPTION
#----------   ------------   ------------------------------
 DEPT.F                  :   
 GRR .GAPI   07 310 01 00:   GAMMA RAY FROM RESISTIVITY
 RILD.OHMM   07 120 46 00:   RESISTIVITY INDUCTION LOG DEEP
 RILM.OHMM   07 120 44 00:   RESISTIVITY INDUCTION LOG MEDIUM
~PARAMETER INFORMATION
#MNEM.UNIT          VALUE    DESCRIPTION
#----------   ------------   ------------------------------
 PD  .                 GL:   PERMANENT DATUM
 EPD .F              5140:   ELEVATION PERMANENT DATUM
 LMF .                 KB:   LOG MEASURED FROM
 DAPD.F                10:   FEET ABOVE PERMANENT DATUM
 DMF .                 KB:   DRILLING MEASURED FROM
 EKB .F              5150:   KELLING BUSHING
 EGL .F              5140:   GROUND LEVEL
 DATE.        19-SEP-1991:   RUN DATE
 RUN .                  1:   RUN NUMBER
 DD  .F               530:   DEPTH DRILLER
 DL  .F               527:   DEPTH LOGGER
 BLI .F                55:   BOTTOM LOG INTERVAL
 CS  .IN                7:   CASING SIZE
 CBD .F                80:   CASING BOTTOM DRILLER
 CBL .F                90:   CASING BOTTOM LOGGER
 BS  .IN             8.75:   BIT SIZE
 BSD .F               530:   BIT SIZE AT DEPTH
 DFT .                AIR:   DRILLING FLUID TYPE
 LUN .            HL/6272:   LOGGING UNIT NUMBER
 LUL .          CASPER/WY:   LOGGING UNIT LOCATION
 ENGI.            KINNETT:   RECORDING ENGINEER
 WITN.     STRONG/HERMANN:   WITNESSED BY
 CLNT.            A2DTECH:   CLIENT CODE
 ORIG.           5" PRINT:   ORIGIN OF DATA
 UWI .       490252244600:   UNIQUE WELL ID
 DICO. A2D Technologies, Inc.:   DIGITIZING COMPANY
~OTHER INFORMATION
~A    DEPT      GRR      RILD       RILM   
# ...
  277.0000   137.8582     8.1748     8.9983
  277.5000   137.4661     8.1748     8.9332
  278.0000   133.3333     8.1748     8.8691
  278.5000   132.1267     8.1748     8.8054
  279.0000   133.0317     8.1748     8.8030
  279.5000   135.1433     8.2317     8.8006
  280.0000   136.6516     8.1748     8.7982
  280.5000   138.7632     8.1748     8.8576
  281.0000   139.6682     8.1789     8.8546
  281.5000   139.6682     8.2317     8.9139
  282.0000   139.9698     8.2890     8.9734
  282.5000   139.3665     8.3466     9.1015
  283.0000   138.1438     8.5221     9.2208
  283.5000   136.5670     8.6412     9.4115
  284.0000   131.5234     8.6380     9.6736
  284.5000   134.5400     8.3391     9.8067
  285.0000   135.7466     8.0064     9.9410
  285.5000   135.7466     7.5743     8.8941
  286.0000   131.8250     6.7788     6.9753
  286.5000   133.0317     6.0668     6.1019
  287.0000   136.9532     5.7793     5.8144
  287.5000   146.0030     5.6997     5.7790
  288.0000   154.7511     5.6997     5.8585
  288.5000   159.8793     5.7393     6.1906
  289.0000   152.6316     5.7793     6.8200
  289.5000   141.0978     5.9075     7.8327
  290.0000   126.9985     6.2374     8.7495
  290.5000   127.6018     7.1160     9.5063
  291.0000   130.9201     8.3466    10.1862
  291.5000   132.7300     9.2617    10.7644
  292.0000   131.8250     9.8583    11.0642
  292.5000   130.6184    10.0655    10.9025
  293.0000   130.9201    10.2772    10.6074
  293.5000   130.9201    10.2772    10.5306
  294.0000   129.4118    10.4275    10.6017
  294.5000   123.6380    10.7139    10.9721
  295.0000   122.4736    10.9391    11.4352
  295.5000   123.0769    11.4833    12.1684
  296.0000   123.3786    12.4799    13.6874
  296.5000   108.2956    13.8481    16.3876
  297.0000    97.1342    16.9333    20.0331
  297.5000    86.8778    19.0522    23.1677
  298.0000    66.9683    21.2882    24.9976
  298.5000    57.3152    23.6337    26.6312
  299.0000    57.0136    25.3634    27.7550
  299.5000    57.0136    26.7631    29.0924
  300.0000    66.3658    27.7074    29.4927
  300.5000    78.4411    28.4869    29.2860
  301.0000    80.5618    29.0858    29.2840
  301.5000    80.8724    29.2882    29.2820
  302.0000    79.6748    29.4920    29.2800
  302.5000    77.2706    29.2882    29.0756
  303.0000    73.3580    29.0858    29.0736
  303.5000    70.0488    28.4869    28.6711
  304.0000    72.7727    27.7074    28.0788
  304.5000    78.5132    26.7631    27.1199
  305.0000    79.1256    26.2120    26.3761
  305.5000    77.6263    26.0308    26.0049
  306.0000    79.4452    26.2120    25.8294
  306.5000    83.6775    26.5781    26.0254
  307.0000    87.0048    26.9493    26.5769
  307.5000    86.4104    27.1369    27.1401
  308.0000    81.5928    27.5159    27.6768
  308.5000    81.6019    27.7074    27.8675
  309.0000    81.6109    28.2900    28.2548
  309.5000    80.1116    28.6851    28.4495
  310.0000    78.6124    28.8847    28.4470
  310.5000    79.2298    28.6851    28.6435
  311.0000    81.3655    28.6851    28.6411
  311.5000    86.4840    29.2882    29.0391
  312.0000    86.7947    29.4920    29.0371
  312.5000    87.1054    29.4920    29.2372
  313.0000    86.2072    29.4920    29.2352
  313.5000    84.7101    29.6973    29.2332
  314.0000    85.0208    30.1121    29.2312
  314.5000    87.4431    29.9040    29.0271
  315.0000    88.6587    29.6904    28.6253
  315.5000    87.7628    29.4920    28.2291
  316.0000    83.8502    29.4920    28.4236
  316.5000    82.3487    29.4920    28.8186
  317.0000    84.7732    29.4920    29.2196
  317.5000    88.4021    29.4920    29.4205
  318.0000    90.8244    29.4567    29.4184
  318.5000    93.2467    28.4869    28.8107
  319.0000    95.0657    27.5159    28.0205
  319.5000    94.4714    26.9493    27.0636
  320.0000    95.6870    26.2120    26.3213
  320.5000    99.0143    25.3186    25.7716
  321.0000    97.8167    24.2866    25.0590
  321.5000    96.9184    23.1352    24.1976
  322.0000    98.4380    22.8170    23.5284
  322.5000    99.3520    22.5027    22.9042
  323.0000    99.6627    22.3472    22.7440
  323.5000    98.1634    22.0393    22.7425
  324.0000    96.3624    21.7357    22.7409
  324.5000    95.1648    21.7357    22.7393
  325.0000    92.4589    21.7357    22.7378
  325.5000    89.7530    21.7357    22.7362
  326.0000    92.4769    21.7357    22.7346
  326.5000    94.8992    21.8870    22.8917
  327.0000    94.9082    22.0393    22.7315
  327.5000    94.9172    22.3472    22.7300
  328.0000    96.1329    22.9758    22.7284
  328.5000    97.9519    23.7865    23.2046
  329.0000    99.7708    24.4557    24.6975
  329.5000    99.7798    24.9698    26.4694
  330.0000    98.2805    25.3186    28.1723
  330.5000    89.1644    25.4948    28.9633
  331.0000    78.3791    25.4948    27.7804
  331.5000    78.7300    25.4948    26.4621
  332.0000    81.4641    24.9698    25.9154
  332.5000    85.7567    24.1188    24.8574
  333.0000    90.3409    23.2967    24.0086
  333.5000    94.7944    22.3472    23.1887
  334.0000    96.8848    21.7357    22.5527
  334.5000    97.1554    21.5855    21.7825
  335.0000    97.1644    21.1410    21.3325
  335.5000    97.8874    20.9949    20.7426
  336.0000   103.8208    20.5607    20.3094
  336.5000   104.4331    20.0000    19.8990
  337.0000   102.3305    19.8535    19.8793
  337.5000    97.8147    19.4528    19.7587
  338.0000    97.5198    19.4528    19.8949
  338.5000    99.0393    19.4528    20.1711
  339.0000   100.2550    19.4528    20.4514
  339.5000   101.1690    19.7245    20.4500
  340.0000    99.6697    20.0000    20.5913
  340.5000    95.1538    20.0000    20.7328
  341.0000    93.0490    20.0000    20.7314
  341.5000    95.7751    19.8618    20.4444
  342.0000   102.4207    19.4528    20.4430
  342.5000   103.3324    19.4528    20.3003
  343.0000    98.8188    19.3183    19.6070
  343.5000    95.2079    19.1848    19.4702
  344.0000    94.3097    18.9205    19.6047
  344.5000    96.1309    18.7898    19.4675
  345.0000    97.9498    18.6599    19.3316
  345.5000   100.0705    18.6599    18.9323
  346.0000   100.3789    18.4029    18.5411
  346.5000    97.9769    18.1494    18.1581
  347.0000    98.2876    17.7756    18.1569
  347.5000    99.2015    17.4096    18.0301
  348.0000   101.3222    17.2893    18.0289
  348.5000    99.2196    17.1698    17.7793
  349.0000    95.0053    16.9333    17.5332
  349.5000    93.5061    16.8162    17.0523
  350.0000    95.3243    16.2425    16.5846
  350.5000    99.2691    16.2392    16.2407
  351.0000   100.7803    16.2359    16.2384
  351.5000   100.4615    16.2325    16.2362
  352.0000    99.5193    16.1170    16.3470
  352.5000    98.9592    16.0023    16.3447
  353.0000   100.7729    16.2225    16.5708
  353.5000   103.7924    16.2192    16.5685
  354.0000   105.9070    16.2158    16.5662
  354.5000   105.3067    16.2125    16.3357
  355.0000   102.8964    15.9859    16.2094
  355.5000    99.8828    15.7625    15.8844
  356.0000    96.2659    15.4347    15.7520
  356.5000    94.4582    15.2190    15.4451
  357.0000    95.3669    15.0062    15.2302
  357.5000    98.0848    14.9944    15.0183
  358.0000   101.1044    14.6911    15.0163
  358.5000   101.7105    14.5681    14.8074
  359.0000   102.3168    14.2826    14.7030
  359.5000   102.3198    14.0830    14.4985
  360.0000   102.9261    13.9828    14.3963
  360.5000   103.2307    13.7873    14.1961
  361.0000   103.2539    13.5946    14.0960
  361.5000   104.5037    13.3119    13.8999
  362.0000   106.5581    13.1259    13.8020
  362.5000   106.2593    13.1232    13.7047
  363.0000   105.3581    13.1205    13.7028
  363.5000   104.7570    13.1178    13.7009
  364.0000   103.5541    13.1151    13.7944
  364.5000   101.4447    13.1124    13.7925
  365.0000   102.6551    13.2929    13.9833
  365.5000   104.1664    13.5695    14.0796
  366.0000   104.1694    13.6612    14.2786
  366.5000   103.2674    13.6583    14.4707
  367.0000   105.6837    13.7537    14.4686
  367.5000   107.1949    14.0368    14.4666
