~VERSION INFORMATION
 VERS.                2.0:   CWLS LOG ASCII STANDARD - VERSION 2.0
 WRAP.                 NO:   ONE LINE PER DEPTH STEP
~WELL INFORMATION
#MNEM.UNIT      DATA TYPE    INFORMATION
#----------   ------------   ------------------------------
 STRT.F           30.0000:   START DEPTH
 STOP.F          634.0000:   STOP DEPTH
 STEP.F            0.5000:   STEP LENGTH
 NULL.          -999.2500:   NO VALUE
 COMP. FENIX & SCISSON INC:   COMPANY
 WELL.     26-S-11 #26-11:   WELL
 FLD .             TEAPOT:   FIELD
 LOC .      S11 T38N R78W:   LOCATION
 CNTY.            NATRONA:   COUNTY
 STAT.            WYOMING:   STATE
 CTRY. UNITED STATES OF AMERICA:   COUNTRY
 SRVC.              Welex:   SERVICE COMPANY
 DATE.        26-APR-1977:   LOGDATE
 API .       490251034300:   API NUMBER
~CURVE INFORMATION
#MNEM.UNIT       API CODE    CURVE DESCRIPTION
#----------   ------------   ------------------------------
 DEPT.F                  :   
 SPR .MV     07 010 01 00:   SPONTANEOUS POTENTIAL
 ILD .OHMM   07 120 46 00:   INDUCTION LOG DEEP
 ILM .OHMM   07 120 44 00:   INDUCTION LOG MEDIUM
 SGRD.OHMM   07 221 05 00:   SHALLOW SHORT GUARD RESISTIVITY
 CALD.IN     45 280 60 00:   CALIPER FROM DENSITY LOG
 GRD .GAPI   45 310 01 00:   GAMMA RAY FROM DENSITY LOG
 CORR.G/C3   45 356 01 00:   DENSITY CORRECTION
 DPHI.DEC    45 890 12 00:   DENSITY POROSITY SANDSTONE
 RHOB.G/C3   45 350 01 00:   BULK DENSITY
~PARAMETER INFORMATION
#MNEM.UNIT          VALUE    DESCRIPTION
#----------   ------------   ------------------------------
 PD  .                 GL:   PERMANENT DATUM
 EPD .F              5179:   ELEVATION PERMANENT DATUM
 LMF .                 GL:   LOG MEASURED FROM
 DMF .                 GL:   DRILLING MEASURED FROM
 EGL .F              5179:   GROUND LEVEL
 DATE.          4-24-1977:   RUN DATE
 RUN .                  1:   RUN NUMBER
 DD  .F               645:   DEPTH DRILLER
 DL  .F               634:   DEPTH LOGGER
 BLI .F               632:   BOTTOM LOG INTERVAL
 TLI .F                40:   TOP LOG INTERVAL
 CS  .IN            8.625:   CASING SIZE
 CBD .F                40:   CASING BOTTOM DRILLER
 CBL .F                42:   CASING BOTTOM LOGGER
 BS  .IN            7.875:   BIT SIZE
 BSD .F               645:   BIT SIZE AT DEPTH
 DFT .            KCL MUD:   DRILLING FLUID TYPE
 DFD .                8.8:   DRILLING FLUID DENSITY
 DFV .                 33:   DRILLING FLUID VISCOSITY
 DFPH.                7.5:   DRILLING FLUID PH
 DFL .                 96:   DRILLING FLUID LOSS
 MSS .           FLOWLINE:   MUD SAMPLE SOURCE
 RMS .OHMM            .17:   RESISTIVITY MUD SAMPLE
 MST .F                81:   MUD SAMPLE TEMPERATURE
 RMF .OHMM            .16:   RESISTIVITY MUD FILTRATE SAMPLE
 MFST.F                81:   MUD FILTRATE SAMPLE TEMPERATURE
 RMC .OHMM            .21:   RESISTIVITY MUD CAKE
 MCST.F                81:   MUD CAKE SAMPLE TEMPERATURE
 MFSS.           FANN KIT:   MUD FILTRATE SAMPLE SOURCE
 MCSS.           FANN KIT:   MUD CAKE SAMPLE SOURCE
 RMB .OHMM            .19:   RESISTIVITY MUD AT BHT
 BHT .F                72:   BOTTOM HOLE TEMPERATURE
 TCS .HRS             1.5:   TIME CURCULATED STOPPED
 MRT .F                72:   MAXIMUM RECORDED TEMPERATURE
 LUN .                861:   LOGGING UNIT NUMBER
 LUL .           GILLETTE:   LOGGING UNIT LOCATION
 ENGI.             JOYNER:   RECORDING ENGINEER
 WITN.           ROB LYON:   WITNESSED BY
 CLNT.            A2DTECH:   CLIENT CODE
 ORIG.         2.5" PRINT:   ORIGIN OF DATA
 UWI .       490251034300:   UNIQUE WELL ID
 DICO. A2D Technologies, Inc.:   DIGITIZING COMPANY
~OTHER INFORMATION
~A   DEPT      SPR        ILD        ILM       SGRD       CALD        GRD       CORR       DPHI       RHOB   
# ...
  103.0000   -30.8429     6.1148     6.7987    14.7351     7.9622   118.3103    -0.0493     0.1588     2.3874
  103.5000   -31.1504     6.1144     6.9932    14.3199     7.9617   119.7737    -0.0494     0.1564     2.3834
  104.0000   -31.1548     6.0288     7.0925    13.7214     7.9613   120.6510    -0.0494     0.1570     2.3789
  104.5000   -31.4614     6.0284     7.1933    13.5241     7.9609   119.4746    -0.0554     0.1612     2.3724
  105.0000   -31.4658     6.0280     7.1933    13.3082     7.9604   118.2986    -0.0585     0.1683     2.3646
  105.5000   -31.7724     6.0276     7.3991    12.9541     7.9600   116.2429    -0.0615     0.1725     2.3596
  106.0000   -31.7768     6.0271     7.3991    12.6138     7.9595   113.8939    -0.0615     0.1767     2.3566
  106.5000   -31.7813     6.0267     7.5042    12.2604     7.9591   118.2898    -0.0616     0.1790     2.3532
  107.0000   -32.0879     6.0263     7.6108    12.0861     7.9587   119.4599    -0.0587     0.1713     2.3632
  107.5000   -32.0923     6.0259     7.8285    11.9143     7.9582   120.0435    -0.0588     0.1636     2.3774
  108.0000   -32.0967     6.0255     7.8285    11.7450     7.9578   120.3343    -0.0588     0.1571     2.3882
  108.5000   -32.1012     6.0250     7.9397    11.5780     7.9573   120.0376    -0.0559     0.1530     2.3935
  109.0000   -32.1057     6.0246     8.0525    11.5755     7.9569   118.8616    -0.0560     0.1500     2.3974
  109.5000   -32.1103     6.0242     8.1669    11.5731     7.9565   117.0992    -0.0560     0.1500     2.3939
  110.0000   -32.1148     6.1089     8.2829    11.7739     7.9560   118.2693    -0.0561     0.1542     2.3879
  110.5000   -31.8168     6.1946     8.2829    12.0685     7.9556   120.6124    -0.0561     0.1553     2.3901
  111.0000   -31.8218     6.1942     8.2829    12.3269     7.9551   121.7824    -0.0532     0.1495     2.3984
  111.5000   -31.8263     6.2813     8.2829    12.5848     7.9547   119.1402    -0.0533     0.1423     2.4068
  112.0000   -31.8308     6.3695     8.2829    12.2318     7.9543   116.7912    -0.0534     0.1364     2.4137
  112.5000   -31.8353     6.3690     8.1669    12.2799     7.9538   115.6153    -0.0534     0.1341     2.4225
  113.0000   -31.8399     6.3685     8.0525    12.5769     7.9534   116.1989    -0.0505     0.1323     2.4212
  113.5000   -31.8444     6.3681     8.0525    12.5739     7.9529   117.0757    -0.0506     0.1370     2.4126
  114.0000   -31.8489     6.2790     7.9397    12.5712     7.9525   117.0728    -0.0477     0.1379     2.4015
  114.5000   -31.8535     6.1912     7.8285    12.5090     7.9521   114.4305    -0.0447     0.1317     2.4197
  115.0000   -31.8580     6.0196     7.8285    12.1565     7.9516   111.4950    -0.0418     0.1311     2.4281
  115.5000   -31.8626     5.9353     7.6108    11.9817     7.9512   109.4393    -0.0449     0.1341     2.4223
  116.0000   -31.8679     5.8523     7.5042    11.6440     7.9507   110.9027    -0.0479     0.1400     2.4039
  116.5000   -31.8724     5.7704     7.4493    11.4766     7.9503   110.6065    -0.0509     0.1549     2.3902
  117.0000   -31.8768     5.7700     7.3396    11.2155     7.9499   110.8968    -0.0539     0.1668     2.3783
  117.5000   -31.8813     5.7696     7.2298    10.9929     7.9494   113.2399    -0.0570     0.1709     2.3697
  118.0000   -31.8857     5.8507     7.1933    10.6831     7.9490   111.1842    -0.0570     0.1721     2.3643
  118.5000   -31.8901     5.8503     7.2273    10.3821     7.9485   110.0082    -0.0541     0.1638     2.3731
  119.0000   -31.8946     5.8498     7.3991    10.2967     7.9481   109.5159    -0.0512     0.1549     2.3858
  119.5000   -31.8990     5.9321     7.4341    10.5083     7.9477   109.8326    -0.0513     0.1431     2.3962
  120.0000   -31.9035     6.0154     7.6108    10.6570     7.9472   110.5864    -0.0454     0.1366     2.4074
  120.5000   -31.9079     6.1860     7.7554    11.0364     7.9468   112.3430    -0.0425     0.1324     2.4177
  121.0000   -31.9124     6.2728     7.8285    11.2745     7.9463   109.4075    -0.0396     0.1295     2.4287
  121.5000   -31.6147     6.3610     7.9397    11.6797     7.9459   103.8327    -0.0367     0.1265     2.4375
  122.0000   -31.6193     6.4503     7.9397    12.9132     7.9455   101.4838    -0.0367     0.1206     2.4514
  122.5000   -31.6239     6.6332     7.9397    14.7507     7.9450   100.3469    -0.0368     0.1129     2.4662
  123.0000   -31.6284     6.7264     7.9397    15.9168     7.9446    99.7945    -0.0369     0.1087     2.4791
  123.5000   -31.5685     6.8209     7.9397    13.6847     7.9441    99.2422    -0.0369     0.1074     2.4835
  124.0000   -31.0327     6.9168     7.9397    12.0408     7.9437    98.3675    -0.0370     0.1182     2.4534
  124.5000   -30.7350     6.9162     7.9397    10.8482     7.9433    99.5161    -0.0370     0.1283     2.4352
  125.0000   -30.6394     6.8195     7.9397    10.8668     7.9428   102.1505    -0.0371     0.1289     2.4320
  125.5000   -30.4418     6.7241     7.9026    11.1753     7.9424   106.5176    -0.0372     0.1206     2.4338
  126.0000   -30.4471     6.6300     7.8285    11.3316     7.9419   111.9120    -0.0372     0.1266     2.4410
  126.5000   -30.4517     6.6295     7.8285    11.3288     7.9415   114.2371    -0.0373     0.1290     2.4327
  127.0000   -30.4562     6.5368     7.8285    11.3264     7.9411   113.3881    -0.0373     0.1272     2.4325
  127.5000   -30.4607     6.5363     7.8285    11.1654     7.9406   110.4546    -0.0404     0.1266     2.4339
  128.0000   -30.4653     6.5359     7.8285    11.0067     7.9402   109.7028    -0.0404     0.1266     2.4362
  128.5000   -30.4706     6.4444     7.8285    11.0044     7.9397   110.7463    -0.0405     0.1284     2.4341
  129.0000   -30.4751     6.3543     7.7189    11.0021     7.9393   112.7097    -0.0405     0.1308     2.4298
  129.5000   -30.4795     6.3538     7.6108    10.8457     7.9389   115.8895    -0.0406     0.1326     2.4230
  130.0000   -30.1813     6.2649     7.5042    10.8434     7.9384   118.2307    -0.0407     0.1355     2.4141
  130.5000   -30.1863     6.2645     7.4691    10.6893     7.9380   116.6965    -0.0407     0.1397     2.4060
  131.0000   -30.1907     6.1769     7.3991    10.5374     7.9375   116.4614    -0.0408     0.1457     2.3999
  131.5000   -29.8931     6.1764     7.3991    10.5352     7.9371   119.5537    -0.0408     0.1498     2.3975
  132.0000   -29.8975     6.1760     7.2954    10.5329     7.9367   117.7067    -0.0409     0.1546     2.3941
  132.5000   -29.9020     6.1756     7.2954    10.5307     7.9362   116.4125    -0.0410     0.1587     2.3888
  133.0000   -29.9064     6.1751     7.2954    10.3811     7.9358   117.5816    -0.0440     0.1599     2.3850
  133.5000   -29.9108     6.1747     7.3300    10.3789     7.9353   118.9135    -0.0470     0.1605     2.3805
  134.0000   -29.9154     6.1743     7.3991    10.2314     7.9349   120.2131    -0.0500     0.1564     2.3810
  134.5000   -29.9199     6.1738     7.3991    10.2292     7.9345   120.1486    -0.0412     0.1511     2.3933
  135.0000   -29.9245     6.1734     7.5042    10.2271     7.9340   118.5191    -0.0383     0.1469     2.4059
  135.5000   -29.9290     6.1730     7.5042    10.2249     7.9336   116.4648    -0.0383     0.1428     2.4106
  136.0000   -29.9336     6.1725     7.5042    10.2228     7.9331   114.9971    -0.0384     0.1424     2.4071
  136.5000   -29.9381     6.1721     7.4691    10.2206     7.9327   113.1026    -0.0414     0.1469     2.3989
  137.0000   -29.8540     6.1717     7.3991    10.2185     7.9323   111.6344    -0.0445     0.1511     2.3893
  137.5000   -29.6443     6.1712     7.3991    10.2163     7.9318   110.7527    -0.0475     0.1553     2.3847
  138.0000   -29.6495     6.1708     7.3991    10.3593     7.9314   112.1760    -0.0505     0.1582     2.3802
  138.5000   -29.6541     6.1704     7.3991    10.5043     7.9309   114.6285    -0.0535     0.1618     2.3765
  139.0000   -29.6586     6.2570     7.3991    10.5020     7.9305   116.2258    -0.0536     0.1648     2.3734
