~VERSION INFORMATION
 VERS.                2.0:   CWLS LOG ASCII STANDARD - VERSION 2.0
 WRAP.                 NO:   ONE LINE PER DEPTH STEP
~WELL INFORMATION
#MNEM.UNIT      DATA TYPE    INFORMATION
#----------   ------------   ------------------------------
 STRT.F           30.0000:   START DEPTH
 STOP.F         2423.0000:   STOP DEPTH
 STEP.F            0.5000:   STEP LENGTH
 NULL.          -999.2500:   NO VALUE
 COMP. DEPARTMENT OF ENERGY:   COMPANY
 WELL.   NPR-3 #35-1 X 10:   WELL
 FLD .        TEAPOT DOME:   FIELD
 LOC .      S10 T38N R78W:   LOCATION
 CNTY.            NATRONA:   COUNTY
 STAT.            WYOMING:   STATE
 CTRY. UNITED STATES OF AMERICA:   COUNTRY
 SRVC.       Schlumberger:   SERVICE COMPANY
 DATE.        15-JAN-1999:   LOGDATE
 API .       490252282200:   API NUMBER
~CURVE INFORMATION
#MNEM.UNIT       API CODE    CURVE DESCRIPTION
#----------   ------------   ------------------------------
 DEPT.F                  :   
 GRR .GAPI   06 310 01 00:   GAMMA RAY FROM RESISTIVITY
 SPR .MV     06 010 01 00:   SPONTANEOUS POTENTIAL FROM RES.
 HD  .IN     06 280 01 00:   HOLE DIAMETER
 AT90.OHMM   06 120 90 00:   90-IN. RESISTIVITY, 2-FT RESOLUTION
 AT30.OHMM   06 120 30 00:   30-IN. RESISTIVITY, 2-FT RESOLUTION
 AT10.OHMM   06 120 10 00:   10-IN. RESISTIVITY, 2-FT RESOLUTION
~PARAMETER INFORMATION
#MNEM.UNIT          VALUE    DESCRIPTION
#----------   ------------   ------------------------------
 PD  .                 GL:   PERMANENT DATUM
 EPD .F              5228:   ELEVATION PERMANENT DATUM
 LMF .                 KB:   LOG MEASURED FROM
 DAPD.F                10:   FEET ABOVE PERMANENT DATUM
 DMF .                 KB:   DRILLING MEASURED FROM
 EKB .F              5238:   KELLING BUSHING
 EDF .F              5237:   DRILLING FLOOR
 EGL .F              5228:   GROUND LEVEL
 DATE.        15-JAN-1999:   RUN DATE
 RUN .                  1:   RUN NUMBER
 DD  .F              2400:   DEPTH DRILLER
 DL  .F              2421:   DEPTH LOGGER
 BLI .F              2393:   BOTTOM LOG INTERVAL
 TLI .F                30:   TOP LOG INTERVAL
 CS  .IN            9.625:   CASING SIZE
 CBD .F               778:   CASING BOTTOM DRILLER
 CBL .F               773:   CASING BOTTOM LOGGER
 BS  .IN              8.5:   BIT SIZE
 BSD .F              2400:   BIT SIZE AT DEPTH
 DFT .            GEL/KCL:   DRILLING FLUID TYPE
 DFD .                8.9:   DRILLING FLUID DENSITY
 DFV .                 39:   DRILLING FLUID VISCOSITY
 DFPH.                  9:   DRILLING FLUID PH
 DFL .                8.8:   DRILLING FLUID LOSS
 MSS .            MUD PIT:   MUD SAMPLE SOURCE
 RMS .OHMM            .29:   RESISTIVITY MUD SAMPLE
 MST .F                65:   MUD SAMPLE TEMPERATURE
 RMF .OHMM            .22:   RESISTIVITY MUD FILTRATE SAMPLE
 MFST.F                65:   MUD FILTRATE SAMPLE TEMPERATURE
 RMC .OHMM            .43:   RESISTIVITY MUD CAKE
 MCST.F                65:   MUD CAKE SAMPLE TEMPERATURE
 MFSS.          MUD PRESS:   MUD FILTRATE SAMPLE SOURCE
 MCSS.         CALCULATED:   MUD CAKE SAMPLE SOURCE
 RMB .OHMM           .195:   RESISTIVITY MUD AT BHT
 BHT .F               100:   BOTTOM HOLE TEMPERATURE
 TCS .HRS            2015:   TIME CURCULATED STOPPED
 TLAB.HRS            2315:   TIME LOGGER AT BOTTOM
 MRT .F               100:   MAXIMUM RECORDED TEMPERATURE
 LUN .               2102:   LOGGING UNIT NUMBER
 LUL .             CASPER:   LOGGING UNIT LOCATION
 ENGI.    TISOVEC/PIERSON:   RECORDING ENGINEER
 WITN.           ESMERSON:   WITNESSED BY
 CLNT.            A2DTECH:   CLIENT CODE
 ORIG.       2", 5" PRINT:   ORIGIN OF DATA
 UWI .       490252282200:   UNIQUE WELL ID
 DICO. A2D Technologies, Inc.:   DIGITIZING COMPANY
~OTHER INFORMATION
~A   DEPT       GRR       SPR         HD       AT90       AT30       AT10   
# ...
  966.0000   101.6704    14.6253     8.8788     9.6282     9.1173     7.9106
  966.5000   104.0564    14.2787     8.8788     9.9021     9.2617     7.5521
  967.0000   104.8173    13.8318     8.8788     9.9750     9.1314     8.0490
  967.5000   105.0493    13.3928     8.8788    10.1671     9.0075     8.6795
  968.0000   106.0896    13.0226     8.8788    10.4486     9.3480     8.5523
  968.5000   108.1215    12.7321     8.8788    10.3950     9.2971     8.3847
  969.0000   108.8713    12.4025     8.8788    10.2549     9.1762     8.2861
  969.5000   108.7326    12.1045     8.8788    10.1167     9.2751     8.4298
  970.0000   108.1664    11.7569     8.8788     9.9803     9.5230     8.5199
  970.5000   110.3948    11.6486     8.8788     9.7904     9.4016     8.5199
  971.0000   113.2574    11.7914     8.8788     9.4639     9.1499     8.4231
  971.5000   113.8287    11.8942     8.8788     9.0075     8.8420     8.2096
  972.0000   109.9685    12.0156     8.8787     9.0775     8.8648     8.1300
  972.5000   104.5988    12.1305     8.8787     9.2617     8.9243     8.0587
  973.0000   105.2989    12.2192     8.8787     9.2350     8.8910     7.9099
  973.5000   108.6938    12.2215     8.8786     9.1678     8.8069     7.6225
  974.0000   111.9214    12.2237     8.8789     9.0914     8.7603     7.7352
  974.5000   111.0542    12.2230     8.8784     9.0992     8.7603     8.1338
  975.0000   108.6160    12.2233     8.8821     9.1281     8.7603     8.0962
  975.5000   108.5690    12.2320     8.9147     9.1511     8.6415     7.9685
  976.0000   111.1600    12.3493     8.9549     9.1777     8.2763     7.0703
  976.5000   112.7599    12.4951     8.9987     8.6748     7.9843     7.0945
  977.0000   113.4199    12.5912     8.9923     8.2645     7.2962     6.3431
  977.5000   112.9841    12.2763     8.9864     7.9577     7.0774     5.7757
  978.0000   110.3033    11.9131     8.9286    12.2694    11.4641    10.0399
  978.5000   107.4699    11.5545     8.8414    11.9908    11.1018    10.0038
  979.0000   106.4166    11.1964     8.8380    11.0022     9.9014     8.8802
  979.5000   108.0133    10.8310     8.8341    10.1650     8.6527     7.9106
  980.0000   113.8091    10.6327     8.8333     9.3914     8.4099     7.7400
  980.5000   114.8929    10.4201     8.8305     8.6768     8.0944     7.5521
  981.0000   114.1727    10.2161     8.8288     8.1338     7.8477     7.5521
  981.5000   111.6236     9.9579     8.8267     7.9843     7.7687     7.5521
  982.0000   109.2718     9.7289     8.8248     8.4395     8.0954     7.5521
  982.5000   107.7588     9.4529     8.8228     9.1762     8.4362     7.7935
  983.0000   109.3828     9.5266     8.8208     9.1622     8.8346     8.0587
  983.5000   112.2371    10.0031     8.8187     9.1122     8.6608     7.9536
  984.0000   115.7094    10.5203     8.8188     9.0624     8.4697     7.7652
  984.5000   114.8512    10.8985     8.8203     9.0128     8.2152     7.8872
  985.0000   111.8260    11.0359     8.8214     8.9636     8.2662     8.0587
  985.5000   110.5401    11.2381     8.8226     8.9243     8.4446     8.1338
  986.0000   108.8185    11.4002     8.8238     8.9358     8.4415     7.0774
  986.5000   108.9691    11.5966     8.8250     8.9499     8.2109     8.0066
  987.0000   110.7955    11.7476     8.8262     8.9730     8.3196     7.9604
  987.5000   112.7937    11.9871     8.8273     8.9722     8.4256     8.0051
  988.0000   111.9910    11.8992     8.8285     8.9811     8.5199     7.0860
  988.5000   106.6631    11.5830     8.8297     9.0120     8.2294     7.4502
  989.0000   102.8977    10.8725     8.8309     8.4936     7.8478     7.7084
  989.5000   103.2002    10.3158     8.8321     7.8488     7.3449     7.0863
  990.0000   103.3909    10.3643     8.8333     8.4859     8.0066     6.6219
  990.5000   101.8767    10.1428     8.8345    10.4486     9.2325     9.7013
  991.0000   100.2956    10.0954     8.8357    10.4334     9.9750     9.5518
  991.5000   100.5894    10.0169     8.8369    10.4005     9.9750     9.0013
  992.0000   102.9839     9.9372     8.8380    10.3676     9.9750     8.4413
  992.5000   105.3357     9.8212     8.8384    10.3348     9.9750     8.7919
  993.0000   108.8117     9.9195     8.8384    10.3021     9.9750     9.5230
  993.5000   112.8444    10.0998     8.8384    10.2565     9.9750     9.3750
  994.0000   115.4398    10.2704     8.8384    10.2922     9.9750     9.1861
  994.5000   115.3357    10.4432     8.8384    10.3815     9.9914     9.0075
  995.0000   115.0807    10.6187     8.8384    10.4715    10.0178     9.1749
  995.5000   116.7202    10.7862     8.8384    10.5623    10.0443     9.5230
  996.0000   115.5221    10.9661     8.8384    10.6442    10.0680     9.4351
  996.5000   109.7580    10.9678     8.8384    10.4929    10.0460     9.2985
  997.0000   104.6281    10.8708     8.8384    10.3521    10.0261     9.1766
  997.5000   103.4781    10.7977     8.8384    10.5002    10.0063     9.0075
  998.0000   108.7374    10.7154     8.8384    10.6572     9.9750     9.1564
  998.5000   110.8179    10.6352     8.8384    10.8422    10.0460     9.6117
  999.0000   107.4438    10.5590     8.8384    10.8072    10.2178     9.5927
  999.5000   101.0776    10.4709     8.8384    10.7662    10.4486     9.5699
 1000.0000    98.3546    10.4185     8.8384    10.7256    10.3599     9.5472
 1000.5000   101.8579    10.3055     8.8384    10.6851    10.2315     9.5230
 1001.0000   104.2692    10.1240     8.8384    10.6430    10.1047     9.3821
 1001.5000   104.0968     9.9708     8.8384    10.4394     9.9794     9.2337
 1002.0000    97.7542     9.8061     8.8384    10.2328     9.8830     9.0875
 1002.5000    92.8769     9.6460     8.8384    10.1618     9.8830     8.9553
 1003.0000    93.5689     9.4867     8.8384    10.1618     9.8830     8.8391
 1003.5000    97.2629     9.3189     8.8384    10.0276     9.6419     8.7603
 1004.0000   101.9910     9.2094     8.8384     9.8797     9.4258     8.5745
 1004.5000   107.2023     9.3266     8.8384     9.7341     9.2145     8.4119
 1005.0000   109.6401     9.4412     8.8384     9.5906     9.0457     8.2524
 1005.5000   109.5588     9.5598     8.8384     9.4492     8.9341     8.0959
 1006.0000   108.4936     9.6753     8.8384     9.3480     8.8239     7.9785
 1006.5000   107.4398     9.7877     8.8384     9.3041     8.7151     7.9544
 1007.0000   107.9086     9.7789     8.8384     9.2617     8.6076     7.9346
 1007.5000   108.6687     9.7473     8.8384     8.9243     8.5199     7.9100
 1008.0000   108.9149     9.7194     8.8384     9.0519     8.6882     7.9337
 1008.5000   108.4720     9.6895     8.8384     9.2617     8.9243     7.9633
 1009.0000   108.7406     9.6615     8.8384     9.2221     8.8822     7.9852
 1009.5000   109.4891     9.6307     8.8384     9.1758     8.7916     7.9855
 1010.0000   108.8426     9.6033     8.8384     9.1297     8.7019     7.9829
 1010.5000   107.0740     9.5695     8.8384     9.0914     8.7537     7.9843
 1011.0000   105.5523     9.5173     8.8384     9.2336     8.8541     7.9843
 1011.5000   106.3333     9.4664     8.8381     9.3571     8.9556     8.0906
 1012.0000   109.0770     9.4214     8.8369     9.5230     9.1762     8.2096
 1012.5000   110.0618     9.3242     8.8358     9.4351     9.0354     8.0962
 1013.0000   107.9494     9.1090     8.8346     9.1106     8.6795     7.9843
 1013.5000   104.5906     8.9114     8.8334     8.9243     8.7103     8.0241
 1014.0000   101.3539     8.6808     8.8323     9.0914     8.7603     8.0571
 1014.5000   102.4776     8.5788     8.8311     8.9600     8.6489     7.7583
 1015.0000   105.6728     8.5787     8.8299     8.7603     8.4413     7.4830
 1015.5000   107.4921     8.6810     8.8288     8.8163     8.4654     7.6498
 1016.0000   104.0900     8.8658     8.8276     8.8814     8.5162     7.8456
 1016.5000   100.4215     9.0125     8.8265     8.9471     8.5993     8.0656
 1017.0000    99.8194     9.1803     8.8253     9.0132     8.5749     8.0199
 1017.5000   102.6260     9.3294     8.8241     9.0914     8.5104     7.9751
