~VERSION INFORMATION
 VERS.                2.0:   CWLS LOG ASCII STANDARD - VERSION 2.0
 WRAP.                 NO:   ONE LINE PER DEPTH STEP
~WELL INFORMATION
#MNEM.UNIT      DATA TYPE    INFORMATION
#----------   ------------   ------------------------------
 STRT.F            8.5000:   START DEPTH
 STOP.F         2140.0000:   STOP DEPTH
 STEP.F            0.5000:   STEP LENGTH
 NULL.          -999.2500:   NO VALUE
 COMP. LAWRENCE/ALLISON INC:   COMPANY
 WELL.   11-61 SHX #61-11:   WELL
 FLD .             TEAPOT:   FIELD
 LOC .      S11 T38N R78W:   LOCATION
 CNTY.            NATRONA:   COUNTY
 STAT.            WYOMING:   STATE
 CTRY. UNITED STATES OF AMERICA:   COUNTRY
 SRVC.      NL McCullough:   SERVICE COMPANY
 DATE.        04-MAY-1988:   LOGDATE
 API .       490251115600:   API NUMBER
~CURVE INFORMATION
#MNEM.UNIT       API CODE    CURVE DESCRIPTION
#----------   ------------   ------------------------------
 DEPT.F                  :   
 GRR .GAPI   81 310 01 00:   GAMMY RAY
 ROP .FT/HR  91 810 01 00:   RAT OF DRILLING PENETRATION
 TGAS.TC/CC  91 830 01 00:   TOTAL GAS UNIT
~PARAMETER INFORMATION
#MNEM.UNIT          VALUE    DESCRIPTION
#----------   ------------   ------------------------------
 PD  .                 GL:   PERMANENT DATUM
 EPD .F              5135:   ELEVATION PERMANENT DATUM
 LMF .                 KB:   LOG MEASURED FROM
 DAPD.F                 8:   FEET ABOVE PERMANENT DATUM
 DMF .                 KB:   DRILLING MEASURED FROM
 EKB .F              5143:   KELLING BUSHING
 EGL .F              5135:   GROUND LEVEL
 DATE.        04-MAY-1988:   RUN DATE
 RUN .                  1:   RUN NUMBER
 DD  .F              2140:   DEPTH DRILLER
 DL  .F               572:   DEPTH LOGGER
 BLI .F               568:   BOTTOM LOG INTERVAL
 CS  .IN              5.5:   CASING SIZE
 CBD .F               622:   CASING BOTTOM DRILLER
 BSD .F              2140:   BIT SIZE AT DEPTH
 DFT .         KCL/ WATER:   DRILLING FLUID TYPE
 TCS .HRS               1:   TIME CURCULATED STOPPED
 ENGI.               DALY:   RECORDING ENGINEER
 WITN.           MR. LOWL:   WITNESSED BY
 CLNT.            A2DTECH:   CLIENT CODE
 ORIG.           5" PRINT:   ORIGIN OF DATA
 UWI .       490251115600:   UNIQUE WELL ID
 DICO. A2D Technologies, Inc.:   DIGITIZING COMPANY
~OTHER INFORMATION
~A    DEPT      GRR       ROP       TGAS   
# ...
 1555.5000  -999.2500     0.5069     2.9454
 1556.0000  -999.2500     0.5065     2.9444
 1556.5000  -999.2500     0.5061     2.9435
 1557.0000  -999.2500     0.5057     2.9425
 1557.5000  -999.2500     0.5053     2.9415
 1558.0000  -999.2500     0.5049     2.9405
 1558.5000  -999.2500     0.5045     2.9395
 1559.0000  -999.2500     0.5041     2.9385
 1559.5000  -999.2500     0.5037     2.9375
 1560.0000  -999.2500     0.5033     2.9366
 1560.5000  -999.2500     0.5029     2.9356
 1561.0000  -999.2500     0.5025     2.9346
 1561.5000  -999.2500     0.5021     2.9336
 1562.0000  -999.2500     0.5018     2.9326
 1562.5000  -999.2500     0.5014     2.9316
 1563.0000  -999.2500     0.5010     2.9306
 1563.5000  -999.2500     0.5006     2.9297
 1564.0000  -999.2500     0.5002     2.9287
 1564.5000  -999.2500     0.4623     2.9277
 1565.0000  -999.2500     0.4340     2.9267
 1565.5000  -999.2500     0.4151     2.9257
 1566.0000  -999.2500     0.4057     2.9247
 1566.5000  -999.2500     0.4057     2.9238
 1567.0000  -999.2500     0.3962     2.9228
 1567.5000  -999.2500     0.3868     2.9218
 1568.0000  -999.2500     0.3774     2.9208
 1568.5000  -999.2500     0.3774     2.9198
 1569.0000  -999.2500     0.3774     2.9188
 1569.5000  -999.2500     0.3774     2.9178
 1570.0000  -999.2500     0.3774     2.9169
 1570.5000  -999.2500     0.3774     2.9159
 1571.0000  -999.2500     0.3774     2.9149
 1571.5000  -999.2500     0.3774     2.9139
 1572.0000  -999.2500     0.3774     2.9129
 1572.5000  -999.2500     0.3774     2.9119
 1573.0000  -999.2500     0.3868     2.9109
 1573.5000  -999.2500     0.3868     2.9100
 1574.0000  -999.2500     0.3962     2.9090
 1574.5000  -999.2500     0.4245     2.9080
 1575.0000  -999.2500     0.4528     2.9070
 1575.5000  -999.2500     0.4811     2.9060
 1576.0000  -999.2500     0.4906     2.9050
 1576.5000  -999.2500     0.5000     2.9040
 1577.0000  -999.2500     0.5189     2.9031
 1577.5000  -999.2500     0.5189     2.9021
 1578.0000  -999.2500     0.5283     2.9011
 1578.5000  -999.2500     0.5283     2.9001
 1579.0000  -999.2500     0.5283     2.8991
 1579.5000  -999.2500     0.5283     2.8981
 1580.0000  -999.2500     0.5189     2.8971
 1580.5000  -999.2500     0.5189     2.8962
 1581.0000  -999.2500     0.5189     2.8952
 1581.5000  -999.2500     0.5189     2.8942
 1582.0000  -999.2500     0.5189     2.8932
 1582.5000  -999.2500     0.5189     2.8922
 1583.0000  -999.2500     0.5189     2.8912
 1583.5000  -999.2500     0.5189     2.8902
 1584.0000  -999.2500     0.5189     2.8984
 1584.5000  -999.2500     0.5189     2.9070
 1585.0000  -999.2500     0.5189     2.9157
 1585.5000  -999.2500     0.5189     2.9243
 1586.0000  -999.2500     0.5094     2.9329
 1586.5000  -999.2500     0.5088     2.9416
 1587.0000  -999.2500     0.5000     2.9502
 1587.5000  -999.2500     0.5000     2.9588
 1588.0000  -999.2500     0.5000     2.9675
 1588.5000  -999.2500     0.5000     2.9761
 1589.0000  -999.2500     0.5000     2.9848
 1589.5000  -999.2500     0.4972     2.9934
 1590.0000  -999.2500     0.4906     3.0020
 1590.5000  -999.2500     0.4906     3.0107
 1591.0000  -999.2500     0.4906     3.0193
 1591.5000  -999.2500     0.4906     3.0279
 1592.0000  -999.2500     0.4906     3.0366
 1592.5000  -999.2500     0.4906     3.0452
 1593.0000  -999.2500     0.5000     3.0538
 1593.5000  -999.2500     0.5000     3.0625
 1594.0000  -999.2500     0.5000     3.0711
 1594.5000  -999.2500     0.5000     3.0797
 1595.0000  -999.2500     0.5000     3.0884
 1595.5000  -999.2500     0.5000     3.0970
 1596.0000  -999.2500     0.5000     3.1056
 1596.5000  -999.2500     0.5094     3.1143
 1597.0000  -999.2500     0.5189     3.1229
 1597.5000  -999.2500     0.5283     3.1315
 1598.0000  -999.2500     0.5283     3.1402
 1598.5000  -999.2500     0.5189     3.1488
 1599.0000  -999.2500     0.4623     3.1574
 1599.5000  -999.2500     0.4434     3.1661
 1600.0000  -999.2500     0.4340     3.1747
 1600.5000  -999.2500     0.4245     3.1834
 1601.0000  -999.2500     0.4245     3.1920
 1601.5000  -999.2500     0.4245     3.2006
 1602.0000  -999.2500     0.4245     3.2093
 1602.5000  -999.2500     0.4245     3.2179
 1603.0000  -999.2500     0.4245     3.2265
 1603.5000  -999.2500     0.4245     3.2352
 1604.0000  -999.2500     0.4245     3.2438
 1604.5000  -999.2500     0.4245     3.2524
 1605.0000  -999.2500     0.4245     3.2611
 1605.5000  -999.2500     0.4245     3.2697
 1606.0000  -999.2500     0.4245     3.2783
 1606.5000  -999.2500     0.4245     3.2870
 1607.0000  -999.2500     0.4245     3.2938
 1607.5000  -999.2500     0.4245     3.2967
 1608.0000  -999.2500     0.4245     3.2996
 1608.5000  -999.2500     0.4245     3.3025
 1609.0000  -999.2500     0.4245     3.3053
 1609.5000  -999.2500     0.4245     3.3082
 1610.0000  -999.2500     0.4245     3.3111
 1610.5000  -999.2500     0.4245     3.3140
 1611.0000  -999.2500     0.4245     3.3169
 1611.5000  -999.2500     0.4245     3.3197
 1612.0000  -999.2500     0.4245     3.3226
 1612.5000  -999.2500     0.4245     3.3255
 1613.0000  -999.2500     0.4434     3.3284
 1613.5000  -999.2500     0.4906     3.3313
 1614.0000  -999.2500     0.4906     3.3341
 1614.5000  -999.2500     0.4906     3.3370
 1615.0000  -999.2500     0.4906     3.3399
 1615.5000  -999.2500     0.4906     3.3428
 1616.0000  -999.2500     0.4906     3.3457
 1616.5000  -999.2500     0.4906     3.3485
 1617.0000  -999.2500     0.4906     3.3514
 1617.5000  -999.2500     0.4906     3.3543
 1618.0000  -999.2500     0.4906     3.3572
 1618.5000  -999.2500     0.5000     3.3601
 1619.0000  -999.2500     0.5000     3.3629
 1619.5000  -999.2500     0.5000     3.3658
 1620.0000  -999.2500     0.4906     3.3687
 1620.5000  -999.2500     0.4906     3.3716
 1621.0000  -999.2500     0.4906     3.3745
 1621.5000  -999.2500     0.4906     3.3773
 1622.0000  -999.2500     0.4906     3.3802
 1622.5000  -999.2500     0.4906     3.3831
 1623.0000  -999.2500     0.4906     3.3860
 1623.5000  -999.2500     0.4906     3.3889
 1624.0000  -999.2500     0.4906     3.3917
 1624.5000  -999.2500     0.4906     3.3946
 1625.0000  -999.2500     0.4906     3.3971
 1625.5000  -999.2500     0.4906     3.3887
 1626.0000  -999.2500     0.4906     3.3811
 1626.5000  -999.2500     0.4906     3.3736
 1627.0000  -999.2500     0.4906     3.3660
 1627.5000  -999.2500     0.4906     3.3585
 1628.0000  -999.2500     0.5202     3.3509
 1628.5000  -999.2500     0.5849     3.3434
 1629.0000  -999.2500     0.6415     3.3358
 1629.5000  -999.2500     0.7075     3.3283
 1630.0000  -999.2500     0.7453     3.3208
 1630.5000  -999.2500     0.6981     3.3132
 1631.0000  -999.2500     0.6415     3.3057
 1631.5000  -999.2500     0.5849     3.2981
 1632.0000  -999.2500     0.5283     3.2906
 1632.5000  -999.2500     0.4906     3.2830
 1633.0000  -999.2500     0.4811     3.2755
 1633.5000  -999.2500     0.4811     3.2679
 1634.0000  -999.2500     0.4811     3.2604
 1634.5000  -999.2500     0.4811     3.2528
 1635.0000  -999.2500     0.4906     3.2453
 1635.5000  -999.2500     0.4906     3.2377
 1636.0000  -999.2500     0.4906     3.2302
 1636.5000  -999.2500     0.5094     3.2226
 1637.0000  -999.2500     0.5566     3.2151
 1637.5000  -999.2500     0.6226     3.2075
 1638.0000  -999.2500     0.6981     3.2000
 1638.5000  -999.2500     0.7264     3.1925
 1639.0000  -999.2500     0.7358     3.1849
 1639.5000  -999.2500     0.7453     3.1774
 1640.0000  -999.2500     0.7453     3.1698
 1640.5000  -999.2500     0.7547     3.1623
 1641.0000  -999.2500     0.7547     3.1547
 1641.5000  -999.2500     0.7642     3.1472
 1642.0000  -999.2500     0.7547     3.1396
 1642.5000  -999.2500     0.7547     3.1321
 1643.0000  -999.2500     0.7453     3.1245
 1643.5000  -999.2500     0.7170     3.1170
 1644.0000  -999.2500     0.6887     3.1094
 1644.5000  -999.2500     0.6321     3.1019
 1645.0000  -999.2500     0.6332     3.0943
 1645.5000  -999.2500     0.6368     3.0868
 1646.0000  -999.2500     0.6405     3.0792
