~VERSION INFORMATION
 VERS.                2.0:   CWLS LOG ASCII STANDARD - VERSION 2.0
 WRAP.                 NO:   ONE LINE PER DEPTH STEP
~WELL INFORMATION
#MNEM.UNIT      DATA TYPE    INFORMATION
#----------   ------------   ------------------------------
 STRT.F           34.0000:   START DEPTH
 STOP.F          534.0000:   STOP DEPTH
 STEP.F            0.5000:   STEP LENGTH
 NULL.          -999.2500:   NO VALUE
 COMP.    FENIX & SCISSON:   COMPANY
 WELL.      33 SX 3 #33-3:   WELL
 FLD .             TEAPOT:   FIELD
 LOC .       S3 T38N R78W:   LOCATION
 CNTY.            NATRONA:   COUNTY
 STAT.            WYOMING:   STATE
 CTRY. UNITED STATES OF AMERICA:   COUNTRY
 SRVC.       Schlumberger:   SERVICE COMPANY
 DATE.        23-FEB-1977:   LOGDATE
 API .       490251028500:   API NUMBER
~CURVE INFORMATION
#MNEM.UNIT       API CODE    CURVE DESCRIPTION
#----------   ------------   ------------------------------
 DEPT.F                  :   
 SPR .MV     07 010 01 00:   SPONTANEOUS POTENTIAL
 LL8 .OHMM   07 220 08 00:   LATEROLOG-8 RES.
 ILD .OHMM   07 120 46 00:   INDUCTION LOG DEEP
 ILM .OHMM   07 120 44 00:   INDUCTION LOG MEDIUM
 CALD.IN     45 280 60 00:   CALIPER
 GRD .GAPI   45 310 01 00:   GAMMA RAY FROM DENSITY LOG
 RHOB.G/C3   45 350 01 00:   BULK DENSITY
 DPOR.DEC    45 890 12 00:   DENSITY POROSITY SANDSTONE
 CORR.G/C3   45 356 01 00:   DENSITY CORRECTION
~PARAMETER INFORMATION
#MNEM.UNIT          VALUE    DESCRIPTION
#----------   ------------   ------------------------------
 PD  .                 GL:   PERMANENT DATUM
 EPD .F              5170:   ELEVATION PERMANENT DATUM
 LMF .                 KB:   LOG MEASURED FROM
 DAPD.F                 5:   FEET ABOVE PERMANENT DATUM
 DMF .                 KB:   DRILLING MEASURED FROM
 EKB .F              5175:   KELLING BUSHING
 EGL .F              5170:   GROUND LEVEL
 DATE.            2-23-77:   RUN DATE
 RUN .                  1:   RUN NUMBER
 DD  .F               550:   DEPTH DRILLER
 DL  .F               535:   DEPTH LOGGER
 BLI .F               525:   BOTTOM LOG INTERVAL
 TLI .F                47:   TOP LOG INTERVAL
 CS  .IN            8.625:   CASING SIZE
 CBD .F                40:   CASING BOTTOM DRILLER
 CBL .F                47:   CASING BOTTOM LOGGER
 BS  .IN            7.875:   BIT SIZE
 BSD .F               550:   BIT SIZE AT DEPTH
 DFT .                KCL:   DRILLING FLUID TYPE
 DFD .                  9:   DRILLING FLUID DENSITY
 DFV .                 36:   DRILLING FLUID VISCOSITY
 MSS .            MUDTANK:   MUD SAMPLE SOURCE
 RMS .OHMM           .255:   RESISTIVITY MUD SAMPLE
 MST .F                74:   MUD SAMPLE TEMPERATURE
 RMF .OHMM           .246:   RESISTIVITY MUD FILTRATE SAMPLE
 MFST.F                74:   MUD FILTRATE SAMPLE TEMPERATURE
 RMC .OHMM            .38:   RESISTIVITY MUD CAKE
 MCST.F                74:   MUD CAKE SAMPLE TEMPERATURE
 MFSS.                  M:   MUD FILTRATE SAMPLE SOURCE
 MCSS.                  C:   MUD CAKE SAMPLE SOURCE
 RMB .OHMM            .34:   RESISTIVITY MUD AT BHT
 BHT .F                55:   BOTTOM HOLE TEMPERATURE
 TCS .HRS            0600:   TIME CURCULATED STOPPED
 TLAB.HRS            0730:   TIME LOGGER AT BOTTOM
 MRT .F                55:   MAXIMUM RECORDED TEMPERATURE
 LUN .               5642:   LOGGING UNIT NUMBER
 LUL .               CSPR:   LOGGING UNIT LOCATION
 ENGI.                FIX:   RECORDING ENGINEER
 WITN.         STUEBINGER:   WITNESSED BY
 CLNT.            A2DTECH:   CLIENT CODE
 ORIG.       2", 5" PRINT:   ORIGIN OF DATA
 UWI .       490251028500:   UNIQUE WELL ID
 DICO. A2D Technologies, Inc.:   DIGITIZING COMPANY
~OTHER INFORMATION
~A   DEPT      SPR        LL8        ILD        ILM       CALD         GRD      RHOB       DPOR       CORR   
# ...
  143.5000   -66.7789    10.4036     8.4033     9.7723     8.4204   100.8767     2.4781     0.1100     0.0389
  144.0000   -66.4509    10.7273     8.3613     9.9284     8.4181   100.9462     2.4721     0.1148     0.0364
  144.5000   -66.1195    10.6909     8.4372    10.0562     8.4158   103.3867     2.4658     0.1192     0.0203
  145.0000   -65.7878    10.6299     8.5670     9.7870     8.4229   105.2244     2.4605     0.1199     0.0172
  145.5000   -65.8971    10.5693     8.6987     9.5145     8.4316   105.1522     2.4522     0.1204     0.0190
  146.0000   -66.0346    10.5311     8.8373     9.6456     8.4403   104.6924     2.4486     0.1292     0.0079
  146.5000   -66.1694    10.6366     8.8579     9.7825     8.4490   104.2465     2.4426     0.1301     0.0048
  147.0000   -66.3039    10.7766     8.8792     9.9214     8.4577   103.7127     2.4329     0.1357     0.0105
  147.5000   -66.3083    10.9185     8.9007    10.0639     8.4663   101.9596     2.4121     0.1468     0.0051
  148.0000   -66.1951    11.0622     8.9217    10.2088     8.4750   100.4227     2.4197     0.1399     0.0015
  148.5000   -66.0814    11.2078     8.9403    10.3385     8.4837   100.9071     2.4281     0.1384     0.0166
  149.0000   -65.9667    11.3380     8.9590    10.3292     8.4927    99.9974     2.4372     0.1323     0.0282
  149.5000   -65.8550    11.1869     8.9777    10.2504     8.4917    99.1944     2.4467     0.1273     0.0296
  150.0000   -65.8270    10.9786     9.0020    10.1721     8.4871   100.1531     2.4509     0.1212     0.0292
  150.5000   -66.0399    10.7742     8.9847    10.0944     8.4824   101.2090     2.4665     0.1208     0.0433
  151.0000   -66.2445    10.5736     8.9503    10.0174     8.4777   102.1851     2.4504     0.1291     0.0224
  151.5000   -66.4488    10.4343     8.9160     9.9409     8.4752   103.7445     2.4459     0.1312     0.0189
  152.0000   -66.6527    10.4080     8.8819     9.8650     8.4752   105.0317     2.4662     0.1211     0.0344
  152.5000   -66.8562    10.3543     8.8479     9.7897     8.4751   103.9995     2.4862     0.1115     0.0481
  153.0000   -66.9634    10.3012     8.8140     9.7150     8.4752   102.8351     2.4981     0.1080     0.0462
  153.5000   -66.9643    10.2453     8.7802     9.6917     8.4752   102.3085     2.4713     0.1157     0.0423
  154.0000   -66.9663    10.4587     8.7561     9.7413     8.4752   101.9897     2.4576     0.1232     0.0329
  154.5000   -66.9558    10.6287     8.7389     9.7975     8.4752   101.9861     2.4487     0.1305     0.0202
  155.0000   -66.7392    10.5370     8.7033     9.8723     8.4752   102.1966     2.4291     0.1373     0.0112
  155.5000   -66.5300    10.4529     8.6679     9.8414     8.4751   103.3857     2.4278     0.1405     0.0155
  156.0000   -66.4781    10.3696     8.6326     9.7962     8.4751   105.1871     2.4345     0.1361     0.0232
  156.5000   -66.9959    10.2868     8.5974     9.7778     8.4752   105.8699     2.4504     0.1289     0.0340
  157.0000   -67.0000    10.2435     8.5624     9.7642     8.4752   107.2767     2.4611     0.1212     0.0401
  157.5000   -66.7569    10.3778     8.5275     9.7506     8.4831   111.2428     2.4575     0.1300     0.0302
  158.0000   -66.5123    10.4353     8.4928     9.7370     8.4971   104.9151     2.4511     0.1272     0.0404
  158.5000   -66.4408    10.4010     8.4582     9.7234     8.5112   102.9561     2.4446     0.1260     0.0313
  159.0000   -66.6730    10.3312     8.4238     9.7096     8.5249   101.8515     2.4396     0.1304     0.0180
  159.5000   -67.1667    10.2615     8.3895     9.6958     8.5264   101.9591     2.4346     0.1353     0.0105
  160.0000   -67.9100    10.1922     8.3553     9.5894     8.4943   100.9994     2.4331     0.1372     0.0045
  160.5000   -68.7912    10.1234     8.3213     9.3711     8.4635    99.9400     2.4387     0.1343     0.0013
  161.0000   -69.0408    10.0551     8.2874     9.1578     8.4357   100.1558     2.4439     0.1304     0.0061
  161.5000   -69.1572     9.9872     8.2537     8.9958     8.4352   102.2845     2.4452     0.1252     0.0171
  162.0000   -69.2701     9.9638     8.2200     8.9714     8.4330   101.0824     2.4467     0.1262     0.0198
  162.5000   -69.3828    10.0198     8.1330     8.9471     8.4307    98.3253     2.4485     0.1276     0.0080
  163.0000   -69.4974    10.0859     7.9682     8.9229     8.4285    96.1548     2.4506     0.1243     0.0045
  163.5000   -69.4508    10.1494     7.7385     8.6257     8.4263    96.6502     2.4828     0.1196     0.0300
  164.0000   -69.3009    10.0271     7.4795     8.2919     8.4241    96.4797     2.4743     0.1116     0.0366
  164.5000   -69.1496     9.6115     7.2292     7.9710     8.4218    96.5924     2.4506     0.1221     0.0229
  165.0000   -68.9975     8.9318     6.9873     7.6625     8.4196    99.8547     2.4439     0.1310     0.0146
  165.5000   -68.8457     8.2998     6.7622     7.3659     8.4173   101.6355     2.4374     0.1345     0.0251
  166.0000   -68.7076     7.7133     6.6952     7.0816     8.4153   100.8818     2.4290     0.1354     0.0084
  166.5000   -68.5973     7.1684     6.6313     7.0165     8.4186   100.0030     2.4207     0.1411     0.0155
  167.0000   -68.3302     6.9520     6.5678     7.0668     8.4225   100.2995     2.4121     0.1484     0.0088
  167.5000   -67.9486     8.5226     6.5055     7.2871     8.4264   101.3230     2.4101     0.1437     0.0019
  168.0000   -67.5628     9.1697     6.4560     7.5143     8.4304   102.5711     2.4293     0.1340     0.0185
  168.5000   -67.1750     8.9645     6.6684     7.7485     8.4344   101.3166     2.4473     0.1299     0.0287
  169.0000   -67.1043     8.8373     6.8797     7.9109     8.4354    99.5968     2.4503     0.1282     0.0226
  169.5000   -67.0490     9.2156     7.0981     7.9842     8.4354    98.1985     2.4548     0.1268     0.0309
  170.0000   -66.9915     9.5145     7.3234     8.1274     8.4354    99.2228     2.4334     0.1307     0.0040
  170.5000   -67.0151     9.3719     7.5559     8.2128     8.4354   100.6512     2.4287     0.1362     0.0088
  171.0000   -67.1070     9.1697     7.6948     8.2983     8.4354   102.0877     2.4332     0.1384     0.0196
  171.5000   -67.1992     9.3210     7.6698     8.3851     8.4354   103.5120     2.4485     0.1384     0.0261
  172.0000   -67.2918     9.6917     7.6391     8.4726     8.4354   104.6015     2.4311     0.1340     0.0143
  172.5000   -67.3840     9.6005     7.6086     8.5846     8.4354   104.5709     2.4411     0.1316     0.0267
  173.0000   -67.4765     9.3819     7.5782     8.5328     8.4354   104.5839     2.4701     0.1181     0.0501
  173.5000   -67.6092     9.1684     7.5541     8.4300     8.4354   104.9106     2.4894     0.1084     0.0553
  174.0000   -68.0394     8.8373     7.4265     8.3294     8.4354   105.1782     2.4744     0.1132     0.0390
  174.5000   -68.4775     8.8578     7.2205     8.2295     8.4354   105.1741     2.4529     0.1196     0.0204
  175.0000   -68.9194     8.9090     7.0201     8.0346     8.4354   105.1492     2.4485     0.1245     0.0103
  175.5000   -69.3934     9.0020     6.8249     7.8206     8.4354   104.3041     2.4313     0.1344     0.0181
  176.0000   -70.0138     8.5710     6.5987     7.6133     8.4354   103.0812     2.4217     0.1420     0.0120
  176.5000   -70.4147     8.2845     6.3796     7.4115     8.4354   101.8143     2.4302     0.1236     0.0312
  177.0000   -70.5791     8.2084     6.1677     7.2135     8.4354   102.8837     2.4307     0.1352     0.0158
  177.5000   -70.7445     8.1330     5.9629     6.8242     8.4354   104.2718     2.4245     0.1424     0.0171
  178.0000   -71.0878     7.2484     5.7649     6.4531     8.4354   102.8656     2.4182     0.1428     0.0252
  178.5000   -71.7389     6.2648     5.5693     6.1661     8.4354   101.0432     2.4119     0.1454     0.0225
  179.0000   -71.9613     5.6225     5.5716     6.1661     8.4354    99.8929     2.4080     0.1508     0.0294
  179.5000   -71.9504     6.4849     5.5714     6.2846     8.4354   103.0200     2.4189     0.1472     0.0203
