~VERSION INFORMATION
 VERS.                2.0:   CWLS LOG ASCII STANDARD - VERSION 2.0
 WRAP.                 NO:   ONE LINE PER DEPTH STEP
~WELL INFORMATION
#MNEM.UNIT      DATA TYPE    INFORMATION
#----------   ------------   ------------------------------
 STRT.F          550.0000:   START DEPTH
 STOP.F         2078.5000:   STOP DEPTH
 STEP.F            0.5000:   STEP LENGTH
 NULL.          -999.2500:   NO VALUE
 COMP. BROWN JOHN E&C INC:   COMPANY
 WELL. 58-61 STX-10 #58-10:   WELL
 FLD .             TEAPOT:   FIELD
 LOC .      S10 T38N R78W:   LOCATION
 CNTY.            NATRONA:   COUNTY
 STAT.            WYOMING:   STATE
 CTRY. UNITED STATES OF AMERICA:   COUNTRY
 SRVC.            Unknown:   SERVICE COMPANY
 DATE.        07-SEP-1991:   LOGDATE
 API .       490251108000:   API NUMBER
~CURVE INFORMATION
#MNEM.UNIT       API CODE    CURVE DESCRIPTION
#----------   ------------   ------------------------------
 DEPT.F                  :   
 ROP .MIN/FT 91 810 01 00:   RAT OF DRILLING PENETRATION
 TGAS.UNITS  91 830 01 00:   TOTAL GAS FROM HOTWIRE
~PARAMETER INFORMATION
#MNEM.UNIT          VALUE    DESCRIPTION
#----------   ------------   ------------------------------
 EKB .F              5216:   KELLING BUSHING
 EGL .F              5206:   GROUND LEVEL
 DATE.             9-7-91:   RUN DATE
 DD  .F              2079:   DEPTH DRILLER
 TCS .HRS            1815:   TIME CURCULATED STOPPED
 TLAB.HRS            1930:   TIME LOGGER AT BOTTOM
 ENGI.         HUSK/TOWER:   RECORDING ENGINEER
 WITN.             HENDRY:   WITNESSED BY
 CLNT.            A2DTECH:   CLIENT CODE
 ORIG.           5" PRINT:   ORIGIN OF DATA
 UWI .       490251108000:   UNIQUE WELL ID
 DICO. A2D Technologies, Inc.:   DIGITIZING COMPANY
~OTHER INFORMATION
~A   DEPT        ROP       TGAS 
# ...
 1157.5000     0.3959     4.2718
 1158.0000     0.3974     4.2785
 1158.5000     0.3989     4.2851
 1159.0000     0.4004     4.2918
 1159.5000     0.4019     4.2984
 1160.0000     0.4034     4.3051
 1160.5000     0.4049     4.3117
 1161.0000     0.4063     4.3184
 1161.5000     0.4078     4.3250
 1162.0000     0.4094     4.3317
 1162.5000     0.4108     4.3383
 1163.0000     0.4123     4.3450
 1163.5000     0.4138     4.3516
 1164.0000     0.4153     4.3583
 1164.5000     0.4168     4.3650
 1165.0000     0.4184     4.3716
 1165.5000     0.4187     4.3783
 1166.0000     0.4187     4.3849
 1166.5000     0.4187     4.3916
 1167.0000     0.4187     4.3982
 1167.5000     0.4187     4.4049
 1168.0000     0.4187     4.4115
 1168.5000     0.4187     4.4182
 1169.0000     0.4187     4.4248
 1169.5000     0.4187     4.4315
 1170.0000     0.4187     4.4381
 1170.5000     0.4187     4.4448
 1171.0000     0.4187     4.4514
 1171.5000     0.4187     4.4581
 1172.0000     0.4187     4.4647
 1172.5000     0.4187     4.4714
 1173.0000     0.4187     4.4781
 1173.5000     0.4187     4.4847
 1174.0000     0.4187     4.4914
 1174.5000     0.4187     4.4980
 1175.0000     0.4187     4.5047
 1175.5000     0.4187     4.5113
 1176.0000     0.4187     4.5180
 1176.5000     0.4187     4.5246
 1177.0000     0.4187     4.5313
 1177.5000     0.4187     4.5379
 1178.0000     0.4187     4.5446
 1178.5000     0.4187     4.5512
 1179.0000     0.4187     4.5579
 1179.5000     0.4187     4.5645
 1180.0000     0.4187     4.5712
 1180.5000     0.4187     4.5778
 1181.0000     0.4187     4.5845
 1181.5000     0.4187     4.5912
 1182.0000     0.4187     4.5978
 1182.5000     0.4187     4.6045
 1183.0000     0.4187     4.6111
 1183.5000     0.4187     4.6178
 1184.0000     0.4187     4.6244
 1184.5000     0.4187     4.6311
 1185.0000     0.4187     4.6377
 1185.5000     0.4187     4.6444
 1186.0000     0.4187     4.6510
 1186.5000     0.4187     4.6577
 1187.0000     0.4187     4.6644
 1187.5000     0.4187     4.6710
 1188.0000     0.4187     4.6776
 1188.5000     0.4187     4.6843
 1189.0000     0.4187     4.6910
 1189.5000     0.4187     4.6976
 1190.0000     0.4187     4.7043
 1190.5000     0.4187     4.7109
 1191.0000     0.4190     4.7176
 1191.5000     0.4188     4.7242
 1192.0000     0.4336     4.7309
 1192.5000     0.4351     4.7376
 1193.0000     0.4376     4.7442
 1193.5000     0.4404     4.7477
 1194.0000     0.4430     4.7295
 1194.5000     0.4497     4.7112
 1195.0000     0.4566     4.6930
 1195.5000     0.4615     4.6747
 1196.0000     0.4670     4.6565
 1196.5000     0.4725     4.6382
 1197.0000     0.4780     4.6200
 1197.5000     0.4834     4.6018
 1198.0000     0.4889     4.5835
 1198.5000     0.4937     4.5653
 1199.0000     0.4922     4.5470
 1199.5000     0.4893     4.5288
 1200.0000     0.4863     4.5106
 1200.5000     0.4834     4.4923
 1201.0000     0.4812     4.4741
 1201.5000     0.4812     4.4558
 1202.0000     0.4812     4.4376
 1202.5000     0.4812     4.4193
 1203.0000     0.4812     4.4011
 1203.5000     0.4812     4.3829
 1204.0000     0.4812     4.3646
 1204.5000     0.4812     4.3464
 1205.0000     0.4812     4.3281
 1205.5000     0.4812     4.3099
 1206.0000     0.4812     4.2916
 1206.5000     0.4812     4.2734
 1207.0000     0.4811     4.2551
 1207.5000     0.4807     4.2369
 1208.0000     0.4836     4.2187
 1208.5000     0.5474     4.2004
 1209.0000     0.6105     4.1822
 1209.5000     0.6678     4.1639
 1210.0000     0.6690     4.1457
 1210.5000     0.6480     4.1275
 1211.0000     0.6184     4.1092
 1211.5000     0.5885     4.0910
 1212.0000     0.5584     4.0727
 1212.5000     0.5283     4.0545
 1213.0000     0.4993     4.0363
 1213.5000     0.4581     4.0180
 1214.0000     0.4061     3.9998
 1214.5000     0.3541     3.9815
 1215.0000     0.3019     3.9633
 1215.5000     0.2494     3.9450
 1216.0000     0.2166     3.9268
 1216.5000     0.2655     3.9086
 1217.0000     0.3456     3.8903
 1217.5000     0.4254     3.8721
 1218.0000     0.5053     3.8538
 1218.5000     0.5856     3.8356
 1219.0000     0.7416     3.8173
 1219.5000     1.0029     3.7991
 1220.0000     1.2216     3.7808
 1220.5000     1.1733     3.7626
 1221.0000     1.1263     3.7444
 1221.5000     1.1069     3.7261
 1222.0000     1.0713     3.7079
 1222.5000     1.1380     3.6896
 1223.0000     1.2081     3.6714
 1223.5000     1.2775     3.6532
 1224.0000     1.3469     3.6349
 1224.5000     1.4163     3.6167
 1225.0000     1.4856     3.5984
 1225.5000     1.5551     3.5802
 1226.0000     1.5071     3.5619
 1226.5000     1.3484     3.5437
 1227.0000     1.1902     3.5255
 1227.5000     1.0334     3.5072
 1228.0000     0.9396     3.4890
 1228.5000     0.8478     3.4707
 1229.0000     0.7565     3.4525
 1229.5000     0.6774     3.4343
 1230.0000     0.7548     3.4160
 1230.5000     0.9504     3.3978
 1231.0000     1.1478     3.3795
 1231.5000     1.3440     3.3613
 1232.0000     1.5051     3.3430
 1232.5000     1.4004     3.3248
 1233.0000     1.2619     3.3063
 1233.5000     1.1236     3.2874
 1234.0000     0.9853     3.2643
 1234.5000     0.8472     3.2582
 1235.0000     0.7090     4.3370
 1235.5000     0.5708     5.5505
 1236.0000     0.4331     6.7647
 1236.5000     0.3421     7.9768
 1237.0000     0.3300     9.1888
 1237.5000     0.3340    10.4182
 1238.0000     0.3538    11.6762
 1238.5000     0.3734    11.7746
 1239.0000     0.3930    11.7807
 1239.5000     0.4126    11.7932
 1240.0000     0.4323    11.8092
 1240.5000     0.4518    11.8253
 1241.0000     0.4687    11.8413
 1241.5000     0.4587    11.8573
 1242.0000     0.4400    11.8733
 1242.5000     0.4214    11.8893
 1243.0000     0.4027    11.9053
 1243.5000     0.3952    11.9213
 1244.0000     0.4000    11.9374
 1244.5000     0.4046    11.9534
 1245.0000     0.4093    11.9694
 1245.5000     0.4140    11.9854
 1246.0000     0.4187    12.0014
 1246.5000     0.4234    12.0174
 1247.0000     0.4281    12.0335
 1247.5000     0.4327    12.0495
 1248.0000     0.4374    12.0655
 1248.5000     0.4421    12.0815
 1249.0000     0.4468    12.0975
 1249.5000     0.4514    12.1135
 1250.0000     0.4561    12.1295
 1250.5000     0.4609    12.1455
 1251.0000     0.4656    12.1616
 1251.5000     0.4687    12.1776
 1252.0000     0.4617    12.1936
 1252.5000     0.4352    12.2096
 1253.0000     0.4096    12.2256
 1253.5000     0.3838    12.2416
 1254.0000     0.3574    12.2577
 1254.5000     0.3706    12.2737
 1255.0000     0.3985    12.2897
 1255.5000     0.4266    12.3057
 1256.0000     0.4551    12.3217
 1256.5000     0.4533    12.3377
 1257.0000     0.4416    12.3537
 1257.5000     0.4304    12.3698
 1258.0000     0.4191    12.3858
 1258.5000     0.4218    12.4018
 1259.0000     0.4453    12.4178
 1259.5000     0.4691    12.4338
 1260.0000     0.4930    12.4498
 1260.5000     0.4936    12.4658
 1261.0000     0.4711    12.4818
 1261.5000     0.4472    12.4979
 1262.0000     0.4322    12.5139
 1262.5000     0.4178    12.5299
 1263.0000     0.4145    12.5459
 1263.5000     0.4108    12.5619
 1264.0000     0.4078    12.5779
 1264.5000     0.3920    12.5939
 1265.0000     0.3649    12.6100
 1265.5000     0.3348    12.6260
 1266.0000     0.3045    12.6420
 1266.5000     0.2744    12.6580
 1267.0000     0.2441    12.6740
 1267.5000     0.2315    12.6900
 1268.0000     0.2356    12.7043
 1268.5000     0.2400    12.7189
 1269.0000     0.2445    12.7589
 1269.5000     0.2490    13.1556
 1270.0000     0.2535    13.2393
 1270.5000     0.2580    13.2069
 1271.0000     0.2624    13.1801
 1271.5000     0.2669    13.1579
 1272.0000     0.2714    13.1352
 1272.5000     0.2761    13.1124
 1273.0000     0.2804    13.0897
 1273.5000     0.2950    13.0670
 1274.0000     0.2881    13.0443
 1274.5000     0.2731    13.0216
 1275.0000     0.2583    12.9989
 1275.5000     0.2444    12.9761
 1276.0000     0.2561    12.9534
 1276.5000     0.2688    12.9307
 1277.0000     0.2814    12.9080
 1277.5000     0.2940    12.8853
 1278.0000     0.3057    12.8626
 1278.5000     0.2959    12.8399
