~VERSION INFORMATION
 VERS.                2.0:   CWLS LOG ASCII STANDARD - VERSION 2.0
 WRAP.                 NO:   ONE LINE PER DEPTH STEP
~WELL INFORMATION
#MNEM.UNIT      DATA TYPE    INFORMATION
#----------   ------------   ------------------------------
 STRT.F           33.0000:   START DEPTH
 STOP.F         1310.0000:   STOP DEPTH
 STEP.F            0.5000:   STEP LENGTH
 NULL.          -999.2500:   NO VALUE
 COMP. FENIX & SCISSON INC:   COMPANY
 WELL.    NPR-3 #76-14 SX:   WELL
 FLD .        TEAPOT DOME:   FIELD
 LOC .      S14 T38N R78W:   LOCATION
 CNTY.            NATRONA:   COUNTY
 STAT.            WYOMING:   STATE
 CTRY. UNITED STATES OF AMERICA:   COUNTRY
 SRVC.            Unknown:   SERVICE COMPANY
 DATE.        12-APR-1978:   LOGDATE
 API .       490251061200:   API NUMBER
~CURVE INFORMATION
#MNEM.UNIT       API CODE    CURVE DESCRIPTION
#----------   ------------   ------------------------------
 DEPT.F                  :   
 SPR .MV     05 010 01 00:   SPONTANEOUS POTENTIAL FROM RES.
 SN  .OHMM   05 040 16 00:   SHORT NORMAL 16"
 ILD .OHMM   05 120 46 00:   INDUCTION LOG DEEP
 CALD.IN     45 280 60 00:   CALIPER FROM DENSITY LOG
 GRD .GAPI   45 310 01 00:   GAMMA RAY FROM DENSITY LOG
 DPOR.DEC    45 890 12 00:   DENSITY POROSITY SANDSTONE
 CORR.G/C3   45 356 01 00:   DENSITY CORRECTION
 RHOB.G/C3   45 350 01 00:   BULK DENSITY
~PARAMETER INFORMATION
#MNEM.UNIT          VALUE    DESCRIPTION
#----------   ------------   ------------------------------
 PD  .                 GL:   PERMANENT DATUM
 EPD .F              5332:   ELEVATION PERMANENT DATUM
 LMF .                 KB:   LOG MEASURED FROM
 DMF .                 KB:   DRILLING MEASURED FROM
 EKB .F              5336:   KELLING BUSHING
 EGL .F              5332:   GROUND LEVEL
 DATE.          4-12-1978:   RUN DATE
 RUN .                  1:   RUN NUMBER
 DD  .F              1300:   DEPTH DRILLER
 DL  .F              1302:   DEPTH LOGGER
 BLI .F              1298:   BOTTOM LOG INTERVAL
 TLI .F                50:   TOP LOG INTERVAL
 CS  .IN            8.625:   CASING SIZE
 CBD .F                40:   CASING BOTTOM DRILLER
 CBL .F                46:   CASING BOTTOM LOGGER
 BS  .IN            7.875:   BIT SIZE
 BSD .F              1300:   BIT SIZE AT DEPTH
 DFT .                KCL:   DRILLING FLUID TYPE
 DFD .                8.5:   DRILLING FLUID DENSITY
 DFV .                 28:   DRILLING FLUID VISCOSITY
 MSS .            MUD PIT:   MUD SAMPLE SOURCE
 RMS .OHMM           1.45:   RESISTIVITY MUD SAMPLE
 MST .F                50:   MUD SAMPLE TEMPERATURE
 RMF .OHMM           1.25:   RESISTIVITY MUD FILTRATE SAMPLE
 MFST.F                62:   MUD FILTRATE SAMPLE TEMPERATURE
 RMC .OHMM           1.65:   RESISTIVITY MUD CAKE
 MCST.F                61:   MUD CAKE SAMPLE TEMPERATURE
 MFSS.           MEASURED:   MUD FILTRATE SAMPLE SOURCE
 MCSS.           MEASURED:   MUD CAKE SAMPLE SOURCE
 RMB .OHMM            .93:   RESISTIVITY MUD AT BHT
 BHT .F                78:   BOTTOM HOLE TEMPERATURE
 TCS .HRS               6:   TIME CURCULATED STOPPED
 MRT .F                78:   MAXIMUM RECORDED TEMPERATURE
 LUN .               2958:   LOGGING UNIT NUMBER
 LUL .                CAS:   LOGGING UNIT LOCATION
 ENGI.             MILLER:   RECORDING ENGINEER
 WITN.           MCGINLEY:   WITNESSED BY
 CLNT.            A2DTECH:   CLIENT CODE
 ORIG.      2" , 5" PRINT:   ORIGIN OF DATA
 UWI .       490251061200:   UNIQUE WELL ID
 DICO. A2D Technologies, Inc.:   DIGITIZING COMPANY
~OTHER INFORMATION
~A   DEPT      SPR         SN        ILD       CALD         GRD      DPOR       CORR       RHOB   
# ...
  114.0000    -9.5914     4.5536     6.1094     7.9766    43.5207     0.1458     0.0433     2.3986
  114.5000    -9.5887     4.5595     6.0533     7.9898    42.3981     0.1469     0.0478     2.4025
  115.0000    -9.5860     4.5654     6.0596     8.0019    41.3686     0.1465     0.0537     2.3993
  115.5000    -9.5833     4.5714     6.0684     7.9889    40.8787     0.1403     0.0681     2.3967
  116.0000    -9.5806     4.5773     6.0773     7.9900    40.8477     0.1340     0.0826     2.4086
  116.5000    -9.5780     4.5832     6.0862     7.9852    40.8067     0.1277     0.0921     2.4233
  117.0000    -9.5753     4.5895     6.0950     7.9470    40.7641     0.1214     0.0874     2.4382
  117.5000    -9.5726     4.5888     6.1036     7.8326    40.7240     0.1188     0.0692     2.4527
  118.0000    -9.5699     4.7046     6.1474     7.7162    40.8007     0.1341     0.0482     2.4381
  118.5000    -9.5672     4.7906     6.2414     7.5995    41.3742     0.1353     0.0437     2.4250
  119.0000    -9.5645     4.8506     6.3379     7.4838    42.3651     0.1358     0.0434     2.4237
  119.5000    -9.5618     4.8506     6.4358     7.4673    42.3152     0.1362     0.0429     2.4219
  120.0000    -9.5592     4.8506     6.5351     7.4641    40.6805     0.1399     0.0424     2.4203
  120.5000    -9.5565     4.9507     6.6359     7.4609    39.6984     0.1457     0.0419     2.4111
  121.0000    -9.5538     5.0469     6.7383     7.4576    39.1376     0.1461     0.0414     2.4016
  121.5000    -9.5511     5.1451     6.8423     7.4542    37.8776     0.1493     0.0409     2.3997
  122.0000    -9.5484     5.2055     6.9479     7.4509    36.6017     0.1520     0.0404     2.3964
  122.5000    -9.5457     5.2500     7.0551     7.4484    35.3277     0.1509     0.0399     2.3900
  123.0000    -9.5430     5.2948     7.1635     7.4696    34.0364     0.1505     0.0394     2.3902
  123.5000    -9.5404     5.3401     7.2190     7.5207    33.5588     0.1505     0.0389     2.3913
  124.0000    -9.5377     5.3689     7.2268     7.5767    35.5639     0.1530     0.0384     2.3923
  124.5000    -9.5350     5.3689     7.2354     7.6325    37.6090     0.1545     0.0379     2.3893
  125.0000    -9.5323     5.3686     7.2440     7.6880    36.5585     0.1533     0.0391     2.3839
  125.5000    -9.5296     5.3991     7.2526     7.7435    34.0757     0.1505     0.0407     2.3838
  126.0000    -9.5269     5.4502     7.2613     7.7991    31.6119     0.1457     0.0423     2.3951
  126.5000    -9.5243     5.5015     7.2699     7.8547    30.8399     0.1408     0.0439     2.4116
  127.0000    -9.5216     5.5532     7.2786     7.9107    32.5505     0.1360     0.0455     2.4216
  127.5000    -9.5189     5.6054     7.2872     7.9353    35.0980     0.1353     0.0471     2.4218
  128.0000    -9.5162     5.6225     7.2959     7.9439    37.4530     0.1345     0.0488     2.4220
  128.5000    -9.5135     5.6225     7.3046     7.9446    37.2951     0.1316     0.0507     2.4261
  129.0000    -9.5108     5.6225     7.3133     7.9193    37.0745     0.1287     0.0526     2.4312
  129.5000    -9.5081     5.6224     7.3220     7.8950    36.8638     0.1259     0.0540     2.4392
  130.0000    -9.5055     5.6222     7.3307     7.8707    36.6562     0.1230     0.0538     2.4471
  130.5000    -9.5027     5.6225     7.3394     7.8468    36.4501     0.1200     0.0489     2.4552
  131.0000    -9.5001     5.6219     7.3481     7.8317    36.2407     0.1184     0.0436     2.4580
  131.5000    -9.5018     5.7437     7.3569     7.8488    35.8623     0.1187     0.0382     2.4571
  132.0000    -9.5038     5.8499     7.3657     7.8663    33.9888     0.1195     0.0328     2.4562
  132.5000    -9.5057     5.9580     7.3744     7.8553    31.1943     0.1219     0.0318     2.4554
  133.0000    -9.5077     6.0681     7.3832     7.8285    31.4964     0.1264     0.0386     2.4464
  133.5000    -9.5096     6.1094     7.3921     7.8016    33.7803     0.1310     0.0496     2.4350
  134.0000    -9.5115     6.0585     7.4010     7.7600    35.8390     0.1353     0.0608     2.4323
  134.5000    -9.5134     6.0231     7.4129     7.7080    36.2929     0.1338     0.0719     2.4189
  135.0000    -9.5154     5.9360     7.4167     7.6558    36.6147     0.1315     0.0805     2.4260
  135.5000    -9.5173     5.7179     7.2040     7.6037    38.0688     0.1233     0.0746     2.4537
  136.0000    -9.5192     5.5079     7.0421     7.5515    41.0094     0.1194     0.0593     2.4546
  136.5000    -9.5211     5.3055     6.8839     7.4995    42.0464     0.1273     0.0510     2.4384
  137.0000    -9.5231     5.1498     6.7292     7.4661    42.2839     0.1271     0.0487     2.4364
  137.5000    -9.5250     5.0766     6.5780     7.4579    44.0772     0.1288     0.0466     2.4402
  138.0000    -9.5269     5.0044     6.4302     7.4500    46.5127     0.1367     0.0444     2.4419
  138.5000    -9.5288     4.9332     6.3018     7.4501    47.5412     0.1445     0.0423     2.4272
  139.0000    -9.5308     4.8631     6.2009     7.4507    45.8879     0.1511     0.0416     2.4119
  139.5000    -9.5327     4.7939     6.1024     7.4716    43.8248     0.1519     0.0413     2.3970
  140.0000    -9.5346     4.7257     6.0053     7.4690    41.7283     0.1527     0.0411     2.3923
  140.5000    -9.5366     4.6585     5.9097     7.4910    40.7015     0.1533     0.0408     2.3881
  141.0000    -9.5385     4.5922     5.8157     7.5043    42.0516     0.1528     0.0405     2.3858
  141.5000    -9.5404     4.5270     5.7228     7.5572    44.3039     0.1508     0.0402     2.3867
  142.0000    -9.5423     4.5054     5.6750     7.6109    46.5614     0.1488     0.0399     2.3911
  142.5000    -9.5443     4.4640     5.6771     7.6642    48.8194     0.1467     0.0392     2.3955
  143.0000    -9.5462     4.4661     5.6798     7.7174    50.9138     0.1449     0.0384     2.3977
  143.5000    -9.5481     4.4704     5.6823     7.7705    50.8733     0.1452     0.0377     2.3995
  144.0000    -9.5501     4.4748     5.6848     7.8236    49.2382     0.1457     0.0369     2.4006
  144.5000    -9.5520     4.4791     5.6874     7.8769    47.5374     0.1450     0.0361     2.4000
  145.0000    -9.5539     4.4835     5.6899     7.9343    46.7736     0.1441     0.0354     2.4014
  145.5000    -9.5558     4.4878     5.6924     7.9699    46.1004     0.1445     0.0346     2.4042
  146.0000    -9.5578     4.4921     5.6949     7.9918    42.9399     0.1449     0.0338     2.4048
  146.5000    -9.5597     4.4965     5.6974     7.9896    39.2721     0.1501     0.0352     2.4023
  147.0000    -9.5616     4.5009     5.7000     7.9634    38.6722     0.1527     0.0370     2.3946
  147.5000    -9.5635     4.5052     5.7025     7.9354    39.0230     0.1533     0.0388     2.3869
  148.0000    -9.5655     4.5096     5.7050     7.9012    42.2081     0.1506     0.0406     2.3855
  148.5000    -9.5674     4.5139     5.7075     7.8672    45.6223     0.1471     0.0420     2.3924
  149.0000    -9.5693     4.5183     5.7100     7.8226    48.1002     0.1462     0.0423     2.3997
  149.5000    -9.5713     4.5226     5.7126     7.7646    45.8731     0.1449     0.0427     2.4020
  150.0000    -9.5732     4.5270     5.7151     7.7045    42.4949     0.1431     0.0430     2.4041
  150.5000    -9.5751     4.5314     5.7176     7.6901    39.1759     0.1414     0.0434     2.4063
  151.0000    -9.5771     4.5358     5.7202     7.6898    36.8746     0.1424     0.0437     2.4086
  151.5000    -9.5790     4.5403     5.7233     7.6900    36.6927     0.1444     0.0441     2.4077
  152.0000    -9.5809     4.5442     5.7225     7.6900    36.6971     0.1465     0.0444     2.4043
  152.5000    -9.5828     4.5472     5.7271     7.6900    36.9058     0.1493     0.0448     2.4010
  153.0000    -9.5848     4.4557     5.6215     7.6900    37.8609     0.1534     0.0451     2.3977
  153.5000    -9.5867     4.3915     5.6241     7.6900    40.7983     0.1561     0.0455     2.3921
  154.0000    -9.5886     4.2554     5.4035     7.6900    43.6936     0.1570     0.0459     2.3807
