~VERSION INFORMATION
 VERS.                2.0:   CWLS LOG ASCII STANDARD - VERSION 2.0
 WRAP.                 NO:   ONE LINE PER DEPTH STEP
~WELL INFORMATION
#MNEM.UNIT      DATA TYPE    INFORMATION
#----------   ------------   ------------------------------
 STRT.F            0.0000:   START DEPTH
 STOP.F         2660.0000:   STOP DEPTH
 STEP.F            0.5000:   STEP LENGTH
 NULL.          -999.2500:   NO VALUE
 COMP. FENIX & SCISSON INC:   COMPANY
 WELL.     101-20 #101-20:   WELL
 FLD .        TEAPOT DOME:   FIELD
 LOC .      S20 T39N R78W:   LOCATION
 CNTY.            NATRONA:   COUNTY
 STAT.            WYOMING:   STATE
 CTRY. UNITED STATES OF AMERICA:   COUNTRY
 SRVC.      NL McCullough:   SERVICE COMPANY
 DATE.        19-SEP-1965:   LOGDATE
 API .       490251022100:   API NUMBER
~CURVE INFORMATION
#MNEM.UNIT       API CODE    CURVE DESCRIPTION
#----------   ------------   ------------------------------
 DEPT.F                  :   
 GR  .GAPI   30 310 01 00:   GAMMA RAY
 CALI.IN     30 280 01 00:   CALIPER
~PARAMETER INFORMATION
#MNEM.UNIT          VALUE    DESCRIPTION
#----------   ------------   ------------------------------
 PD  .                 GL:   PERMANENT DATUM
 LMF .                 GL:   LOG MEASURED FROM
 DMF .                 GL:   DRILLING MEASURED FROM
 DATE.          9-19-1965:   RUN DATE
 RUN .                  1:   RUN NUMBER
 DD  .F              2661:   DEPTH DRILLER
 DL  .F              2659:   DEPTH LOGGER
 BLI .F              2657:   BOTTOM LOG INTERVAL
 TLI .F              2000:   TOP LOG INTERVAL
 CS  .IN              6.5:   CASING SIZE
 CBD .F              2619:   CASING BOTTOM DRILLER
 BSD .F              2661:   BIT SIZE AT DEPTH
 DFT .              WATER:   DRILLING FLUID TYPE
 TCS .HRS               1:   TIME CURCULATED STOPPED
 ENGI.        FITZSIMMONS:   RECORDING ENGINEER
 WITN.          JORGENSEN:   WITNESSED BY
 CLNT.            A2DTECH:   CLIENT CODE
 ORIG.           5" PRINT:   ORIGIN OF DATA
 UWI .       490251022100:   UNIQUE WELL ID
 DICO. A2D Technologies, Inc.:   DIGITIZING COMPANY
~OTHER INFORMATION
~A    DEPT      GR         CALI 
# ...
 1822.5000  -999.2500     6.4962
 1823.0000  -999.2500     6.4962
 1823.5000  -999.2500     6.4962
 1824.0000  -999.2500     6.4962
 1824.5000  -999.2500     6.4994
 1825.0000  -999.2500     6.5051
 1825.5000  -999.2500     6.5108
 1826.0000  -999.2500     6.5170
 1826.5000  -999.2500     6.5342
 1827.0000  -999.2500     6.5518
 1827.5000  -999.2500     6.5326
 1828.0000  -999.2500     6.5068
 1828.5000  -999.2500     6.5095
 1829.0000  -999.2500     6.5128
 1829.5000  -999.2500     6.5162
 1830.0000  -999.2500     6.5195
 1830.5000  -999.2500     6.5229
 1831.0000  -999.2500     6.5263
 1831.5000  -999.2500     6.5299
 1832.0000  -999.2500     6.5335
 1832.5000  -999.2500     6.5364
 1833.0000  -999.2500     6.5363
 1833.5000  -999.2500     6.5363
 1834.0000  -999.2500     6.5363
 1834.5000  -999.2500     6.5363
 1835.0000  -999.2500     6.5364
 1835.5000  -999.2500     6.5333
 1836.0000  -999.2500     6.5284
 1836.5000  -999.2500     6.5235
 1837.0000  -999.2500     6.5186
 1837.5000  -999.2500     6.5152
 1838.0000  -999.2500     6.5131
 1838.5000  -999.2500     6.5110
 1839.0000  -999.2500     6.5088
 1839.5000  -999.2500     6.5067
 1840.0000  -999.2500     6.5046
 1840.5000  -999.2500     6.5025
 1841.0000  -999.2500     6.5004
 1841.5000  -999.2500     6.4983
 1842.0000  -999.2500     6.4964
 1842.5000  -999.2500     6.4995
 1843.0000  -999.2500     6.5028
 1843.5000  -999.2500     6.5061
 1844.0000  -999.2500     6.5073
 1844.5000  -999.2500     6.5085
 1845.0000  -999.2500     6.5096
 1845.5000  -999.2500     6.5107
 1846.0000  -999.2500     6.5119
 1846.5000  -999.2500     6.5131
 1847.0000  -999.2500     6.5142
 1847.5000  -999.2500     6.5154
 1848.0000  -999.2500     6.5127
 1848.5000  -999.2500     6.4900
 1849.0000  -999.2500     6.4862
 1849.5000  -999.2500     6.4862
 1850.0000  -999.2500     6.4862
 1850.5000  -999.2500     6.4862
 1851.0000  -999.2500     6.4862
 1851.5000  -999.2500     6.4862
 1852.0000  -999.2500     6.4862
 1852.5000  -999.2500     6.4862
 1853.0000  -999.2500     6.4862
 1853.5000  -999.2500     6.4862
 1854.0000  -999.2500     6.4862
 1854.5000  -999.2500     6.4862
 1855.0000  -999.2500     6.4862
 1855.5000  -999.2500     6.4862
 1856.0000  -999.2500     6.4862
 1856.5000  -999.2500     6.4862
 1857.0000  -999.2500     6.4862
 1857.5000  -999.2500     6.4862
 1858.0000  -999.2500     6.4862
 1858.5000  -999.2500     6.4862
 1859.0000  -999.2500     6.4862
 1859.5000  -999.2500     6.4862
 1860.0000  -999.2500     6.4862
 1860.5000  -999.2500     6.4862
 1861.0000  -999.2500     6.4862
 1861.5000  -999.2500     6.4862
 1862.0000  -999.2500     6.4862
 1862.5000  -999.2500     6.4862
 1863.0000  -999.2500     6.4862
 1863.5000  -999.2500     6.4862
 1864.0000  -999.2500     6.4861
 1864.5000  -999.2500     6.4865
 1865.0000  -999.2500     6.5025
 1865.5000  -999.2500     6.5200
 1866.0000  -999.2500     6.5357
 1866.5000  -999.2500     6.5270
 1867.0000  -999.2500     6.5178
 1867.5000  -999.2500     6.5088
 1868.0000  -999.2500     6.4997
 1868.5000  -999.2500     6.4963
 1869.0000  -999.2500     6.4962
 1869.5000  -999.2500     6.4962
 1870.0000  -999.2500     6.4962
 1870.5000  -999.2500     6.4962
 1871.0000  -999.2500     6.4984
 1871.5000  -999.2500     6.5011
 1872.0000  -999.2500     6.5039
 1872.5000  -999.2500     6.5063
 1873.0000  -999.2500     6.5063
 1873.5000  -999.2500     6.5063
 1874.0000  -999.2500     6.5063
 1874.5000  -999.2500     6.5063
 1875.0000  -999.2500     6.5063
 1875.5000  -999.2500     6.5063
 1876.0000  -999.2500     6.5062
 1876.5000  -999.2500     6.5065
 1877.0000  -999.2500     6.5158
 1877.5000  -999.2500     6.5253
 1878.0000  -999.2500     6.5249
 1878.5000  -999.2500     6.5233
 1879.0000  -999.2500     6.5216
 1879.5000  -999.2500     6.5200
 1880.0000  -999.2500     6.5184
 1880.5000  -999.2500     6.5167
 1881.0000  -999.2500     6.5187
 1881.5000  -999.2500     6.5222
 1882.0000  -999.2500     6.5257
 1882.5000  -999.2500     6.5255
 1883.0000  -999.2500     6.5236
 1883.5000  -999.2500     6.5216
 1884.0000  -999.2500     6.5197
 1884.5000  -999.2500     6.5178
 1885.0000  -999.2500     6.5176
 1885.5000  -999.2500     6.5250
 1886.0000  -999.2500     6.5321
 1886.5000  -999.2500     6.5393
 1887.0000  -999.2500     6.5464
 1887.5000  -999.2500     6.5539
 1888.0000  -999.2500     6.5288
 1888.5000  -999.2500     6.4937
 1889.0000  -999.2500     6.4852
 1889.5000  -999.2500     6.4765
 1890.0000  -999.2500     6.4761
 1890.5000  -999.2500     6.4762
 1891.0000  -999.2500     6.4762
 1891.5000  -999.2500     6.4762
 1892.0000  -999.2500     6.4762
 1892.5000  -999.2500     6.4762
 1893.0000  -999.2500     6.4773
 1893.5000  -999.2500     6.4785
 1894.0000  -999.2500     6.4797
 1894.5000  -999.2500     6.4809
 1895.0000  -999.2500     6.4820
 1895.5000  -999.2500     6.4832
 1896.0000  -999.2500     6.4844
 1896.5000  -999.2500     6.4856
 1897.0000  -999.2500     6.4868
 1897.5000  -999.2500     6.4879
 1898.0000  -999.2500     6.4891
 1898.5000  -999.2500     6.4903
 1899.0000  -999.2500     6.4915
 1899.5000  -999.2500     6.4927
 1900.0000  -999.2500     6.4938
 1900.5000  -999.2500     6.4950
 1901.0000  -999.2500     6.4963
 1901.5000  -999.2500     6.5010
 1902.0000  -999.2500     6.5060
 1902.5000  -999.2500     6.5110
 1903.0000  -999.2500     6.5160
 1903.5000  -999.2500     6.5150
 1904.0000  -999.2500     6.5135
 1904.5000  -999.2500     6.5120
 1905.0000  -999.2500     6.5105
 1905.5000  -999.2500     6.5090
 1906.0000  -999.2500     6.5075
 1906.5000  -999.2500     6.5061
 1907.0000  -999.2500     6.5123
 1907.5000  -999.2500     6.5201
 1908.0000  -999.2500     6.5281
 1908.5000  -999.2500     6.5357
 1909.0000  -999.2500     6.5101
 1909.5000  -999.2500     6.4856
 1910.0000  -999.2500     6.4862
 1910.5000  -999.2500     6.4862
 1911.0000  -999.2500     6.4862
 1911.5000  -999.2500     6.4862
 1912.0000  -999.2500     6.4862
 1912.5000  -999.2500     6.4862
 1913.0000  -999.2500     6.4862
 1913.5000  -999.2500     6.4862
 1914.0000  -999.2500     6.4862
 1914.5000  -999.2500     6.4862
 1915.0000  -999.2500     6.4862
 1915.5000  -999.2500     6.4862
 1916.0000  -999.2500     6.4862
 1916.5000  -999.2500     6.4862
 1917.0000  -999.2500     6.4862
 1917.5000  -999.2500     6.4862
 1918.0000  -999.2500     6.4862
 1918.5000  -999.2500     6.4862
 1919.0000  -999.2500     6.4875
 1919.5000  -999.2500     6.4890
 1920.0000  -999.2500     6.4905
 1920.5000  -999.2500     6.4920
 1921.0000  -999.2500     6.4935
 1921.5000  -999.2500     6.4950
 1922.0000  -999.2500     6.4965
 1922.5000  -999.2500     6.4980
 1923.0000  -999.2500     6.4995
 1923.5000  -999.2500     6.5010
 1924.0000  -999.2500     6.5025
 1924.5000  -999.2500     6.5040
 1925.0000  -999.2500     6.5055
 1925.5000  -999.2500     6.5077
 1926.0000  -999.2500     6.5122
 1926.5000  -999.2500     6.5168
 1927.0000  -999.2500     6.5213
 1927.5000  -999.2500     6.5256
 1928.0000  -999.2500     6.5377
 1928.5000  -999.2500     6.5379
 1929.0000  -999.2500     6.4956
 1929.5000  -999.2500     6.4949
 1930.0000  -999.2500     6.4937
 1930.5000  -999.2500     6.4927
 1931.0000  -999.2500     6.4916
 1931.5000  -999.2500     6.4905
 1932.0000  -999.2500     6.4895
 1932.5000  -999.2500     6.4884
 1933.0000  -999.2500     6.4873
 1933.5000  -999.2500     6.4863
 1934.0000  -999.2500     6.4865
 1934.5000  -999.2500     6.4869
 1935.0000  -999.2500     6.4873
 1935.5000  -999.2500     6.4877
 1936.0000  -999.2500     6.4880
 1936.5000  -999.2500     6.4884
 1937.0000  -999.2500     6.4888
 1937.5000  -999.2500     6.4892
 1938.0000  -999.2500     6.4895
 1938.5000  -999.2500     6.4899
 1939.0000  -999.2500     6.4903
 1939.5000  -999.2500     6.4906
 1940.0000  -999.2500     6.4910
 1940.5000  -999.2500     6.4914
 1941.0000  -999.2500     6.4917
 1941.5000  -999.2500     6.4921
 1942.0000  -999.2500     6.4925
 1942.5000  -999.2500     6.4929
 1943.0000  -999.2500     6.4932
 1943.5000  -999.2500     6.4936
