~VERSION INFORMATION
 VERS.                2.0:   CWLS LOG ASCII STANDARD - VERSION 2.0
 WRAP.                 NO:   ONE LINE PER DEPTH STEP
~WELL INFORMATION
#MNEM.UNIT      DATA TYPE    INFORMATION
#----------   ------------   ------------------------------
 STRT.F           34.5000:   START DEPTH
 STOP.F          665.5000:   STOP DEPTH
 STEP.F            0.5000:   STEP LENGTH
 NULL.          -999.2500:   NO VALUE
 COMP. FENIX & SCISSON INC:   COMPANY
 WELL.    NPR-3 SX #14-14:   WELL
 FLD .        TEAPOT DOME:   FIELD
 LOC .      S14 T38N R78W:   LOCATION
 CNTY.            NATRONA:   COUNTY
 STAT.            WYOMING:   STATE
 CTRY. UNITED STATES OF AMERICA:   COUNTRY
 SRVC.            Unknown:   SERVICE COMPANY
 DATE.        01-JUN-1978:   LOGDATE
 API .       490251063100:   API NUMBER
~CURVE INFORMATION
#MNEM.UNIT       API CODE    CURVE DESCRIPTION
#----------   ------------   ------------------------------
 DEPT.F                  :   
 SPR .MV     05 010 01 00:   SPONTANEOUS POTENTIAL FROM RES.
 SN  .OHMM   05 040 16 00:   SHORT NORMAL 16"
 IL  .OHMM   05 120 00 00:   INDUCTION LOG
 GRD .GAPI   45 310 01 00:   GAMMA RAY FROM DENSITY LOG
 RHOB.G/C3   45 350 01 00:   BULK DENSITY
 DPHI.DEC    45 890 12 00:   DENSITY POROSITY SANDSTONE
 CORR.G/C3   45 356 01 00:   DENSITY CORRECTION
 CALD.IN     45 280 60 00:   CALIPER FROM DENSITY LOG
~PARAMETER INFORMATION
#MNEM.UNIT          VALUE    DESCRIPTION
#----------   ------------   ------------------------------
 PD  .                 GL:   PERMANENT DATUM
 EPD .F              5212:   ELEVATION PERMANENT DATUM
 LMF .                 KB:   LOG MEASURED FROM
 DAPD.F                 4:   FEET ABOVE PERMANENT DATUM
 DMF .                 KB:   DRILLING MEASURED FROM
 EKB .F              5216:   KELLING BUSHING
 EGL .F              5212:   GROUND LEVEL
 DATE.           6-1-1978:   RUN DATE
 RUN .                  1:   RUN NUMBER
 DD  .F               670:   DEPTH DRILLER
 DL  .F               670:   DEPTH LOGGER
 BLI .F               664:   BOTTOM LOG INTERVAL
 TLI .F                40:   TOP LOG INTERVAL
 CS  .IN            8.625:   CASING SIZE
 CBD .F                40:   CASING BOTTOM DRILLER
 BS  .IN            7.875:   BIT SIZE
 BSD .F               670:   BIT SIZE AT DEPTH
 DFT .                KCL:   DRILLING FLUID TYPE
 DFD .                8.7:   DRILLING FLUID DENSITY
 DFV .                 32:   DRILLING FLUID VISCOSITY
 DFPH.                 10:   DRILLING FLUID PH
 RMS .OHMM            .30:   RESISTIVITY MUD SAMPLE
 MST .F                66:   MUD SAMPLE TEMPERATURE
 BHT .F                75:   BOTTOM HOLE TEMPERATURE
 TCS .HRS               2:   TIME CURCULATED STOPPED
 MRT .F                75:   MAXIMUM RECORDED TEMPERATURE
 LUN .               2958:   LOGGING UNIT NUMBER
 LUL .              CSPR.:   LOGGING UNIT LOCATION
 ENGI.             MILLER:   RECORDING ENGINEER
 WITN.           MCGINLEY:   WITNESSED BY
 CLNT.            A2DTECH:   CLIENT CODE
 ORIG.      2" , 5" PRINT:   ORIGIN OF DATA
 UWI .       490251063100:   UNIQUE WELL ID
 DICO. A2D Technologies, Inc.:   DIGITIZING COMPANY
~OTHER INFORMATION
~A   DEPT      SPR         SN         IL         GRD      RHOB       DPHI       CORR       CALD   
# ...
  642.0000   -27.3328    10.2977    10.6815    62.9558     2.5130     0.1084     0.0213     7.6594
  642.5000   -27.0390    10.4354    11.6090    63.8221     2.5027     0.1060     0.0218     7.6523
  643.0000   -27.0649    10.5823    11.5188    67.6265     2.5050     0.1036     0.0255     7.6452
  643.5000   -27.0844    10.7314    11.3969    71.5629     2.5108     0.1014     0.0290     7.6381
  644.0000   -27.1027    10.8825    11.4335    75.4894     2.5165     0.0992     0.0326     7.6310
  644.5000   -27.1210    11.0358    11.4785    76.3861     2.5222     0.0970     0.0370     7.6239
  645.0000   -27.1393    11.1912    11.5433    76.4252     2.5279     0.0942     0.0426     7.6166
  645.5000   -27.1576    11.3489    11.6935    75.5008     2.5336     0.0913     0.0481     7.6096
  646.0000   -27.1759    11.5087    11.8457    73.1858     2.5393     0.0884     0.0537     7.6245
  646.5000   -27.1942    11.6708    11.9999    71.1902     2.5450     0.0855     0.0585     7.6415
  647.0000   -27.2125    11.8352    12.1561    71.5007     2.5501     0.0826     0.0582     7.6584
  647.5000   -27.2307    12.0019    12.3144    71.8453     2.5507     0.0811     0.0579     7.6753
  648.0000   -27.2459    12.1709    12.4746    72.1840     2.5501     0.0813     0.0576     7.6922
  648.5000   -27.2456    12.2976    12.6370    72.4998     2.5482     0.0820     0.0574     7.7080
  649.0000   -27.2455    12.3648    12.8015    72.9023     2.5464     0.0828     0.0571     7.7065
  649.5000   -27.2455    12.4321    12.9682    73.3142     2.5448     0.0835     0.0569     7.7045
  650.0000   -27.2455    12.4998    13.0872    73.4246     2.5470     0.0837     0.0566     7.7025
  650.5000  -999.2500    12.5679    13.0874    72.8475     2.5517     0.0822     0.0576     7.7006
  651.0000  -999.2500    12.6176    13.0873    70.9165     2.5538     0.0804     0.0616     7.6987
  651.5000  -999.2500    12.6302    13.0872    69.6455     2.5556     0.0785     0.0657     7.6968
  652.0000  -999.2500    12.6429    13.0872    69.6660     2.5607     0.0767     0.0654     7.6949
  652.5000  -999.2500    12.6556    13.0872    69.6639     2.5626     0.0763     0.0634     7.6930
  653.0000  -999.2500    12.6683    13.0872    69.6557     2.5560     0.0795     0.0578     7.6910
  653.5000  -999.2500    12.6810    13.0872    69.1765     2.5495     0.0826     0.0523     7.6892
  654.0000  -999.2500    12.6937    13.0872    67.8738     2.5429     0.0858     0.0497     7.6823
  654.5000  -999.2500    12.7064    13.0872    66.5650     2.5348     0.0889     0.0485     7.6732
  655.0000  -999.2500    12.7191    13.0872    66.5154     2.5267     0.0915     0.0474     7.6640
  655.5000  -999.2500    12.7290    13.0872    68.7691     2.5299     0.0903     0.0462     7.6547
  656.0000  -999.2500    12.6387    13.0886    71.9961     2.5331     0.0899     0.0450     7.6455
  656.5000  -999.2500    12.5590    13.0488    75.1291     2.5258     0.0927     0.0439     7.6363
  657.0000  -999.2500    12.4798    12.9485    75.7395     2.5241     0.0924     0.0427     7.6309
  657.5000  -999.2500    12.4010    12.8487    76.2087     2.5256     0.0911     0.0429     7.6433
  658.0000  -999.2500    12.3228    12.7497    76.3312     2.5206     0.0939     0.0434     7.6553
  658.5000  -999.2500    12.2451    12.6515    76.3784     2.5160     0.0963     0.0439     7.6673
  659.0000  -999.2500    12.1678    12.5540    75.0505     2.5197     0.0939     0.0444     7.6644
  659.5000  -999.2500    12.0911    12.4572    71.2905     2.5280     0.0919     0.0450     7.6594
  660.0000  -999.2500    12.0148    12.3613    67.6236     2.5265     0.0938     0.0455     7.6544
  660.5000  -999.2500    11.9390    12.2660    64.0576     2.5218     0.0967     0.0460     7.6495
  661.0000  -999.2500    11.8637    12.1715    64.4609     2.5210     0.0934     0.0465     7.6445
  661.5000  -999.2500    11.7888    12.0777    67.0701     2.5245     0.0883     0.0470     7.6396
  662.0000  -999.2500    11.7165    11.9847    69.2261     2.5282     0.0852     0.0475     7.6347
  662.5000  -999.2500    11.5794    11.8923    71.0271     2.5319     0.0835     0.0480     7.6303
  663.0000  -999.2500    11.4474    11.7891    71.2515     2.5357     0.0817     0.0483     7.6082
  663.5000  -999.2500    11.3170    11.6497    71.2514     2.5378     0.0800     0.0454     7.5837
  664.0000  -999.2500    11.1880    11.5136    71.2446     2.5385     0.0810     0.0425     7.5592
  664.5000  -999.2500    11.0606    11.3788  -999.2500     2.5363  -999.2500  -999.2500  -999.2500
  665.0000  -999.2500    10.9345    11.2455  -999.2500  -999.2500  -999.2500  -999.2500  -999.2500
  665.5000  -999.2500    10.8099    11.1139  -999.2500  -999.2500  -999.2500  -999.2500  -999.2500
