~VERSION INFORMATION
 VERS.                2.0:   CWLS LOG ASCII STANDARD - VERSION 2.0
 WRAP.                 NO:   ONE LINE PER DEPTH STEP
~WELL INFORMATION
#MNEM.UNIT      DATA TYPE    INFORMATION
#----------   ------------   ------------------------------
 STRT.F            4.0000:   START DEPTH
 STOP.F          564.0000:   STOP DEPTH
 STEP.F            0.1000:   STEP LENGTH
 NULL.          -999.2500:   NO VALUE
 COMP.       F D SERV INC:   COMPANY
 WELL. NAVAL PETROLEUM RESERVE 3 SX-3 #88-4-3:   WELL
 FLD .             TEAPOT:   FIELD
 LOC .       S3 T38N R78W:   LOCATION
 CNTY.            NATRONA:   COUNTY
 STAT.            WYOMING:   STATE
 CTRY. UNITED STATES OF AMERICA:   COUNTRY
 SRVC.      Western Atlas:   SERVICE COMPANY
 DATE.        15-OCT-1992:   LOGDATE
 API .       490252255000:   API NUMBER
~CURVE INFORMATION
#MNEM.UNIT       API CODE    CURVE DESCRIPTION
#----------   ------------   ------------------------------
 DEPT.F                  :   
 GRR .GAPI   07 310 01 00:   GAMMA RAY
 RILD.OHMM   07 120 46 00:   INDUCTION LOG DEEP RESISTIVITY
 RILM.OHMM   07 120 44 00:   INDUCTION LOG MEDIUM RESISTIVITY
~PARAMETER INFORMATION
#MNEM.UNIT          VALUE    DESCRIPTION
#----------   ------------   ------------------------------
 PD  .                 GL:   PERMANENT DATUM
 EPD .F              5129:   ELEVATION PERMANENT DATUM
 LMF .                 KB:   LOG MEASURED FROM
 DAPD.F                10:   FEET ABOVE PERMANENT DATUM
 DMF .                 KB:   DRILLING MEASURED FROM
 EKB .F              5139:   KELLING BUSHING
 EGL .F              5129:   GROUND LEVEL
 DATE.        15-OCT-1992:   RUN DATE
 RUN .                  1:   RUN NUMBER
 DD  .F               570:   DEPTH DRILLER
 DL  .F               570:   DEPTH LOGGER
 BLI .F               564:   BOTTOM LOG INTERVAL
 TLI .F               564:   TOP LOG INTERVAL
 CS  .IN            8.625:   CASING SIZE
 CBL .F                94:   CASING BOTTOM LOGGER
 BS  .IN            7.875:   BIT SIZE
 BSD .F               570:   BIT SIZE AT DEPTH
 DFT .           AIR FOAM:   DRILLING FLUID TYPE
 TCS .HRS               4:   TIME CURCULATED STOPPED
 MRT .F                72:   MAXIMUM RECORDED TEMPERATURE
 LUN .            HL-6345:   LOGGING UNIT NUMBER
 LUL .          FT.MORGAN:   LOGGING UNIT LOCATION
 ENGI.             BURLEY:   RECORDING ENGINEER
 WITN.        DARY STRONG:   WITNESSED BY
 CLNT.            A2DTECH:   CLIENT CODE
 ORIG.           5" PRINT:   ORIGIN OF DATA
 UWI .       490252255000:   UNIQUE WELL ID
 DICO. A2D Technologies, Inc.:   DIGITIZING COMPANY
~OTHER INFORMATION
~A    DEPT      GRR      RILD       RILM   
# ...
   95.0000   124.3008     2.3171     4.2301
   95.1000   124.7970     2.3169     4.4054
   95.2000   125.3799     2.3286     4.5829
   95.3000   125.6692     2.3514     4.8768
   95.4000   126.4843     2.3854     5.3169
   95.5000   127.3654     2.4639     5.9211
   95.6000   128.5221     2.6463     6.6356
   95.7000   129.8761     2.9402     7.2487
   95.8000   131.0905     3.2095     7.5392
   95.9000   131.5477     3.5168     8.0218
   96.0000   131.5354     3.8165     8.8658
   96.1000   131.3137     4.1231     9.9808
   96.2000   130.7320     4.4664    10.7478
   96.3000   130.0842     4.8051    11.1971
   96.4000   129.5470     5.2403    11.3610
   96.5000   128.9143     6.0068    11.8242
   96.6000   128.1653     6.9092    12.4941
   96.7000   126.6932     7.9306    13.3372
   96.8000   124.5357     9.3338    14.5475
   96.9000   122.3265    11.6382    16.1234
   97.0000   120.9123    12.0518    16.7620
   97.1000   120.5006    12.2691    18.3162
   97.2000   120.2863    12.3398    20.6297
   97.3000   120.2758    12.3756    23.0422
   97.4000   120.7503    12.2934    24.4131
   97.5000   122.1904    11.9629    25.7954
   97.6000   123.6459    11.3404    26.6809
   97.7000   124.8808    10.7112    27.6919
   97.8000   126.1510    10.1609    27.4603
   97.9000   127.7329     9.6630    25.6215
   98.0000   128.6536     9.2783    24.0085
   98.1000   130.1821     9.0268    21.7866
   98.2000   131.5276     8.8109    20.6867
   98.3000   132.5135     8.6187    19.3320
   98.4000   133.4480     8.5099    17.9377
   98.5000   133.9869     8.4485    16.6561
   98.6000   134.4237     8.3504    15.9787
   98.7000   134.7402     8.2921    14.5957
   98.8000   134.8596     8.1734    13.9920
   98.9000   134.7816     8.0884    13.2291
   99.0000   134.4902     8.0211    12.5625
   99.1000   133.6244     7.9270    12.0850
   99.2000   132.7623     7.8346    11.7351
   99.3000   131.7560     7.7794    11.3315
   99.4000   130.8595     7.6693    11.1204
   99.5000   129.9860     7.5888    10.8628
   99.6000   128.7177     7.5438    10.6355
   99.7000   126.6454     7.4991    10.4742
   99.8000   125.2111     7.4548    10.4125
   99.9000   124.5215     7.4539    10.4850
  100.0000   124.5113     7.4883    10.6834
  100.1000   124.4791     7.5315    10.8968
  100.2000   124.3563     7.5749    11.0626
  100.3000   124.2335     7.6362    11.1787
  100.4000   124.1107     7.7711    11.2437
  100.5000   123.9879     7.8157    11.3086
  100.6000   123.9134     7.9353    11.3213
  100.7000   123.8667     8.0747    11.2423
  100.8000   123.6138     8.2730    11.1108
  100.9000   123.6144     8.5572    10.9686
  101.0000   123.4185     8.8135    10.7754
  101.1000   123.1689     9.1233    10.5891
  101.2000   122.9193     9.3616    10.3569
  101.3000   122.7145     9.6153    10.1170
  101.4000   122.7152     9.8109     9.9045
  101.5000   122.4712     9.8880     9.7314
  101.6000   121.8334    10.0661     9.5592
  101.7000   121.3704    10.2977     9.3948
  101.8000   121.0278    10.4927     9.3158
  101.9000   120.5704    10.5704     9.2294
  102.0000   120.3128    10.5694     9.1214
  102.1000   119.5868    10.5684     9.0339
  102.2000   119.2201    10.5673     9.0333
  102.3000   118.9704    10.4480     8.9810
  102.4000   118.8114    10.3715     8.9689
  102.5000   118.8120    10.2432     8.9682
  102.6000   118.8127    10.1060     8.9478
  102.7000   119.0530    10.0279     8.9042
  102.8000   119.1146     9.8446     8.9036
  102.9000   119.2539     9.7345     8.8523
  103.0000   119.5930     9.5785     8.8401
  103.1000   120.1317     9.4715     8.8098
  103.2000   120.9215     9.3773     8.7770
  103.3000   121.3969     9.2211     8.7675
  103.4000   122.2717     9.1070     8.7144
  103.5000   123.1368     8.9568     8.6644
  103.6000   123.7165     8.8004     8.6133
  103.7000   124.0026     8.7011     8.5625
  103.8000   124.5342     8.6495     8.5120
  103.9000   124.7697     8.6051     8.4701
  104.0000   124.2827     8.6042     8.4695
  104.1000   123.6666     8.6034     8.4212
  104.2000   123.0833     8.6396     8.3715
  104.3000   122.3003     8.6624     8.3497
  104.4000   121.2295     8.6615     8.3491
  104.5000   120.7649     8.6607     8.3566
  104.6000   120.4471     8.6598     8.4067
  104.7000   120.3290     8.6590     8.4061
  104.8000   120.3296     8.6216     8.4056
  104.9000   120.3302     8.5967     8.4050
  105.0000   120.3309     8.5798     8.3867
  105.1000   120.5616     8.5348     8.3450
  105.2000   120.9921     8.5339     8.3444
  105.3000   121.2349     8.5331     8.3438
  105.4000   121.3141     8.4968     8.3432
  105.5000   121.5649     8.4717     8.3427
  105.6000   121.8382     8.4709     8.3248
  105.7000   122.0666     8.4700     8.2831
  105.8000   122.3174     8.4691     8.2825
  105.9000   122.5682     8.4684     8.2820
  106.0000   122.7429     8.4675     8.2814
  106.1000   122.7691     8.4419     8.2808
  106.2000   123.0449     8.4066     8.2802
  106.3000   123.4962     8.4058     8.2796
  106.4000   123.8224     8.4049     8.2790
  106.5000   124.1975     8.4041     8.2785
  106.6000   124.6248     8.4033     8.2779
  106.7000   124.9221     8.3783     8.2773
  106.8000   125.7553     8.3287     8.2767
  106.9000   126.2017     8.2836     8.2762
  107.0000   126.8752     8.2827     8.2755
  107.1000   127.5046     8.2392     8.2295
  107.2000   128.0770     8.2232     8.1810
  107.3000   128.8491     8.2224     8.1327
  107.4000   129.9694     8.2081     8.0847
  107.5000   130.6316     8.1632     8.0436
  107.6000   131.0428     8.1623     8.0430
  107.7000   131.2936     8.0784     7.9985
  107.8000   131.4755     8.0469     7.9513
  107.9000   131.4761     8.0239     7.9044
  108.0000   131.4768     7.9890     7.8732
  108.1000   131.2591     7.9883     7.8665
  108.2000   131.1771     7.9874     7.8170
  108.3000   131.1777     7.9867     7.8165
  108.4000   131.1783     7.9859     7.8159
  108.5000   131.1790     7.9851     7.8154
  108.6000   131.1796     7.9843     7.8148
  108.7000   131.1802     7.9835     7.8143
  108.8000   131.1808     7.9826     7.8137
  108.9000   131.1814     7.9420     7.8132
  109.0000   131.1820     7.9253     7.8126
  109.1000   131.1962     7.9245     7.8121
  109.2000   131.4840     7.9238     7.8116
  109.3000   131.6978     7.9230     7.8110
  109.4000   131.9487     7.9221     7.8104
  109.5000   132.0872     7.9609     7.8099
  109.6000   132.1496     7.9765     7.8094
  109.7000   132.3892     7.9757     7.8088
  109.8000   132.3899     7.9749     7.8083
  109.9000   132.6013     7.9741     7.8132
  110.0000   132.6917     7.9732     7.8621
  110.1000   132.8022     8.0118     7.8616
  110.2000   132.9937     8.0280     7.8611
  110.3000   132.9855     8.0272     7.8605
  110.4000   132.6942     8.0264     7.8454
  110.5000   132.4862     8.0256     7.8044
  110.6000   132.2366     8.0813     7.8038
  110.7000   131.8795     8.0806     7.8452
  110.8000   131.4366     8.0798     7.8578
  110.9000   131.1870     8.0790     7.8572
  111.0000   130.8933     8.0888     7.8566
  111.1000   130.2755     8.1344     7.8561
  111.2000   129.9922     8.1334     7.8555
  111.3000   129.7826     8.1328     7.8550
  111.4000   129.2828     8.1320     7.8544
  111.5000   128.7870     8.1312     7.8773
  111.6000   128.4909     8.1304     7.9229
  111.7000   128.2877     8.1296     7.9639
  111.8000   127.8849     8.1859     7.9632
  111.9000   127.5904     8.1853     7.9627
  112.0000   127.5389     8.2420     7.9621
  112.1000   127.2908     8.2414     7.9851
  112.2000   127.2915     8.2405     8.0171
  112.3000   127.2920     8.2397     8.0165
  112.4000   126.9911     8.2487     8.0159
  112.5000   126.5915     8.2962     8.0154
  112.6000   126.3419     8.3440     8.0149
  112.7000   126.0914     8.3530     8.0143
  112.8000   125.5932     8.3522     8.0277
  112.9000   125.0933     8.3514     8.0697
  113.0000   124.5935     8.3600     8.0690
  113.1000   124.0936     8.4086     8.1109
