~VERSION INFORMATION
 VERS.                2.0:   CWLS LOG ASCII STANDARD - VERSION 2.0
 WRAP.                 NO:   ONE LINE PER DEPTH STEP
~WELL INFORMATION
#MNEM.UNIT      DATA TYPE    INFORMATION
#----------   ------------   ------------------------------
 STRT.F          714.0000:   START DEPTH
 STOP.F         1640.0000:   STOP DEPTH
 STEP.F            0.5000:   STEP LENGTH
 NULL.          -999.2500:   NO VALUE
 COMP. BROWN JOHN E&C INC:   COMPANY
 WELL. NPR 3 STX-15 #83-15:   WELL
 FLD .             TEAPOT:   FIELD
 LOC .      S15 T38N R78W:   LOCATION
 CNTY.            NATRONA:   COUNTY
 STAT.            WYOMING:   STATE
 CTRY. UNITED STATES OF AMERICA:   COUNTRY
 SRVC.            Unknown:   SERVICE COMPANY
 DATE.        30-AUG-1991:   LOGDATE
 API .       490251111300:   API NUMBER
~CURVE INFORMATION
#MNEM.UNIT       API CODE    CURVE DESCRIPTION
#----------   ------------   ------------------------------
 DEPT.F                  :   
 TGAS.UNITS  91 830 01 00:   TOTAL GAS FROM HOTWIRE
 C1  .VF     91 831 01 00:   METHANE
 C2  .VF     91 832 01 00:   ETHANE
 C3  .VF     91 833 01 00:   PROPANE
 C4  .VF     91 834 01 00:   BUTANE
 ROP .MIN/FT 91 810 01 00:   RAT OF DRILLING PENETRATION
~PARAMETER INFORMATION
#MNEM.UNIT          VALUE    DESCRIPTION
#----------   ------------   ------------------------------
 EKB .F              5265:   KELLING BUSHING
 EGL .F              5255:   GROUND LEVEL
 DATE.            5-30-91:   RUN DATE
 DD  .F              1626:   DEPTH DRILLER
 TCS .HRS            1200:   TIME CURCULATED STOPPED
 TLAB.HRS            1815:   TIME LOGGER AT BOTTOM
 ENGI.               HUSK:   RECORDING ENGINEER
 WITN.              TOWER:   WITNESSED BY
 CLNT.            A2DTECH:   CLIENT CODE
 ORIG.           5" PRINT:   ORIGIN OF DATA
 UWI .       490251111300:   UNIQUE WELL ID
 DICO. A2D Technologies, Inc.:   DIGITIZING COMPANY
~OTHER INFORMATION
~A   DEPT     TGAS         C1         C2         C3         C4          ROP 
# ...
 1546.0000   347.6907   222.4797    36.9083  -999.2500    20.0000     0.9957
 1546.5000   345.4555   218.6046    36.9045  -999.2500    20.0000     0.9844
 1547.0000   342.5092   214.7287    36.9064  -999.2500    20.0000     0.9730
 1547.5000   338.3495   210.4651    36.9045  -999.2500    20.0000     0.9617
 1548.0000   334.1871   207.6536    36.9059  -999.2500    20.0000     0.9503
 1548.5000   330.0273   204.5297    36.9045  -999.2500    20.0000     0.9391
 1549.0000   325.8650   201.4058    36.5595  -999.2500    20.0000     0.9277
 1549.5000   321.7052   198.2818    35.8666  -999.2500    20.0000     0.9164
 1550.0000   317.5429   195.1579    35.1748  -999.2500    20.0000     0.9050
 1550.5000   313.3829   192.0340    34.4819  -999.2500    20.0000     0.8910
 1551.0000   309.2209   188.9101    33.7897  -999.2500    20.0000     0.8910
 1551.5000   305.0607   185.7862    33.0971  -999.2500    20.0000     0.8910
 1552.0000   300.8989   182.6623    32.4051  -999.2500    20.0000     0.8910
 1552.5000   296.7384   179.5383    31.7133  -999.2500    20.0000     0.8910
 1553.0000   292.5769   176.4144    31.0213  -999.2500    20.0000     0.8910
 1553.5000   288.4157   173.2905    30.3295  -999.2500    20.0000     0.8910
 1554.0000   284.3997   170.1666    29.6375  -999.2500    20.0000     0.8910
 1554.5000   280.4666   166.5440    28.9457  -999.2500    20.0000     0.8910
 1555.0000   276.5336   162.4248    28.2537  -999.2500    20.0000     0.8910
 1555.5000   272.5997   158.3062    27.5620  -999.2500    20.0000     0.8910
 1556.0000   268.6670   154.1872    26.8699  -999.2500    20.0000     0.8877
 1556.5000   264.7351   150.0686    26.1782  -999.2500    20.0000     0.8789
 1557.0000   260.8025   145.9494    25.4860  -999.2500    20.0000     0.8701
 1557.5000   256.8711   141.8311    25.0017  -999.2500    20.0000     0.8613
 1558.0000   252.9374   137.7116    24.8248  -999.2500    20.0000     0.8525
 1558.5000   249.0076   133.5937    24.6654  -999.2500    20.0000     0.8437
 1559.0000   245.0718   129.4737    24.5041  -999.2500    20.0000     0.8349
 1559.5000   241.1445   125.3562    24.3453  -999.2500    20.0000     0.8261
 1560.0000   237.2060   121.2358    24.1834  -999.2500    20.0000     0.8173
 1560.5000   233.2816   117.1188    24.0259  -999.2500    20.0000     0.8085
 1561.0000   228.0064   112.9847    23.8630  -999.2500    20.0000     0.8041
 1561.5000   222.2139   108.8422    23.7068  -999.2500    20.0000     0.8049
 1562.0000   216.3989   104.6938    23.5425  -999.2500    20.0000     0.8056
 1562.5000   210.6087   101.1656    23.3876  -999.2500    20.0000     0.8064
 1563.0000   204.7920   100.6248    23.2221  -999.2500    16.9491     0.8072
 1563.5000   198.8306   100.1561    23.0684  -999.2500    13.1079     0.8079
 1564.0000   198.8156    99.6851    22.9018  -999.2500    12.9509     0.8087
 1564.5000   198.7842    99.2162    22.7489  -999.2500    12.7694     0.8094
 1565.0000   198.6931    98.7454    22.6133  -999.2500    12.5688     0.8102
 1565.5000   198.6288    98.2763    20.3167  -999.2500    12.3869     0.8109
 1566.0000   198.5394    97.8057    18.3862  -999.2500    12.1873     0.8117
 1566.5000   198.4729    97.3364    16.4702  -999.2500    12.0038     0.8125
 1567.0000   198.3860    96.8660    14.5403  -999.2500    11.8052     0.8132
 1567.5000   198.3168    96.3965    13.0995  -999.2500    11.6196     0.8140
 1568.0000   198.2328    95.9263    12.7279  -999.2500    11.4233     0.8147
 1568.5000   198.1607    95.4566    12.4398  -999.2500    11.2355     0.8155
 1569.0000   198.0789    94.9866    12.1421  -999.2500    11.0412     0.8161
 1569.5000   198.0041    94.5167    11.8525  -999.2500    10.8517     0.7949
 1570.0000   197.9243    94.1877    11.5563  -999.2500    10.6884     0.7760
 1570.5000   197.8481    94.1871    11.2654  -999.2500    10.5973     0.7571
 1571.0000   197.7692    94.1875    10.9709  -999.2500    10.5044     0.7382
 1571.5000   197.6926    94.1870    10.7165  -999.2500    10.4129     0.7194
 1572.0000   197.6160    94.1873    10.3051  -999.2500    10.3214     0.7005
 1572.5000   197.5394    94.1868     9.9407  -999.2500    10.2298     0.6816
 1573.0000   197.4628    94.1871     9.5771  -999.2500    10.1384     0.6667
 1573.5000   197.3862    94.1867     9.2111  -999.2500    10.0469     0.6602
 1574.0000   197.3096    94.1869     8.8483  -999.2500     9.9554     0.6548
 1574.5000   197.2330    94.1866     8.4816  -999.2500     9.8638     0.6494
 1575.0000   197.1564    94.1868     8.1195  -999.2500     9.7724     0.6440
 1575.5000   197.0798    94.1865     7.7523  -999.2500     9.6809     0.6386
 1576.0000   197.0032    94.1867     7.3913  -999.2500     9.5894     0.6332
 1576.5000   196.9266    94.1864     7.0236  -999.2500     9.4979     0.6258
 1577.0000   196.8500    94.1866     6.6630  -999.2500     9.4065     0.6133
 1577.5000   196.7734    94.1863     6.2949  -999.2500     9.3150     0.6007
 1578.0000   196.6968    94.1866     5.9563  -999.2500     9.2236     0.5881
 1578.5000   196.6202    94.1863     6.8618  -999.2500     9.1321     0.5755
 1579.0000   196.5436    94.1868     7.7242  -999.2500     9.0407     0.5629
 1579.5000   196.4670    94.1864     8.3712  -999.2500     8.9492     0.5546
 1580.0000   196.3470    94.1869     8.5101  -999.2500     8.8579     0.5546
 1580.5000   196.1824    94.1865     8.6420  -999.2500     8.7663     0.5545
 1581.0000   196.0181    94.1870     8.7805  -999.2500     8.6750     0.5546
 1581.5000   195.8534    94.3937     8.9130  -999.2500     8.5834     0.5655
 1582.0000   195.6892    94.6244     9.0508  -999.2500     8.4921     0.5781
 1582.5000   195.5243    94.8541     9.1840  -999.2500     8.4005     0.5907
 1583.0000   195.3604    95.0848     9.3212  -999.2500     8.3647     0.6033
 1583.5000   195.1952    95.3146     9.4551  -999.2500     8.4772     0.6158
 1584.0000   195.0316    95.5454     9.5917  -999.2500     8.5902     0.6284
 1584.5000   194.8661    95.7754     9.7260  -999.2500     8.7028     0.6410
 1585.0000   194.7027    96.0061     9.8622  -999.2500     8.8158     0.6536
 1585.5000   194.5371    96.2361     9.9968  -999.2500     8.9283     0.6661
 1586.0000   194.3738    96.4669    10.1329  -999.2500     9.0413     0.6787
 1586.5000   194.2155    96.6968    10.2681  -999.2500     9.1541     0.6915
 1587.0000   194.0485    96.9277    10.4041  -999.2500     9.2669     0.6895
 1587.5000   194.4149    97.1576    10.5392  -999.2500     9.3799     0.6874
 1588.0000   194.7537    97.3886    10.6750  -999.2500     9.4925     0.6853
 1588.5000   195.1198    97.6184    11.0736  -999.2500     9.6058     0.6832
 1589.0000   195.4463    97.8504    11.5859  -999.2500     9.7181     0.6811
 1589.5000   195.8226    98.0803    12.0976  -999.2500     9.8317     0.6790
 1590.0000   196.1369    98.3127    12.6098  -999.2500     9.9437     0.6769
 1590.5000   196.5263    98.5422    13.1223  -999.2500    10.0576     0.6748
 1591.0000   196.8299    98.7752    13.6343  -999.2500    10.1692     0.6727
 1591.5000   197.2298    99.5613    14.1472  -999.2500    10.2835     0.6706
 1592.0000   197.5245   100.5902    14.6582  -999.2500    10.3949     0.6686
 1592.5000   197.9314   101.6145    15.1721  -999.2500    10.5097     0.6664
 1593.0000   198.2214   102.6376    15.6819  -999.2500    10.6213     0.6643
 1593.5000   198.6304   103.6628    16.1968  -999.2500    10.7176     0.6622
 1594.0000   217.8350   104.6902    16.7051  -999.2500    11.3736     0.6602
 1594.5000   217.3366   105.8179    17.2215  -999.2500    11.9397     0.6581
 1595.0000   210.6979   107.1274    17.7283  -999.2500    12.5022     0.6560
 1595.5000   217.1949   108.5801    18.2466  -999.2500    13.0682     0.6538
 1596.0000   225.7615   110.0348    18.7526  -999.2500    13.6310     0.6518
 1596.5000   230.2067   113.4295    19.2722  -999.2500    14.1967     0.6496
 1597.0000   230.9641   117.6582    19.7774  -999.2500    14.7597     0.6476
 1597.5000   231.7818   121.8854    20.2464  -999.2500    15.3252     0.6454
