~VERSION INFORMATION
 VERS.                2.0:   CWLS LOG ASCII STANDARD - VERSION 2.0
 WRAP.                 NO:   ONE LINE PER DEPTH STEP
~WELL INFORMATION
#MNEM.UNIT      DATA TYPE    INFORMATION
#----------   ------------   ------------------------------
 STRT.F           19.5000:   START DEPTH
 STOP.F         1292.5000:   STOP DEPTH
 STEP.F            0.5000:   STEP LENGTH
 NULL.          -999.2500:   NO VALUE
 COMP. FENIX & SCISSON INC:   COMPANY
 WELL.  NPR-3 "SX" #74-14:   WELL
 FLD .             TEAPOT:   FIELD
 LOC .      S14 T38N R78W:   LOCATION
 CNTY.            NATRONA:   COUNTY
 STAT.            WYOMING:   STATE
 CTRY. UNITED STATES OF AMERICA:   COUNTRY
 SRVC.            Unknown:   SERVICE COMPANY
 DATE.        22-MAR-1978:   LOGDATE
 API .       490251060300:   API NUMBER
~CURVE INFORMATION
#MNEM.UNIT       API CODE    CURVE DESCRIPTION
#----------   ------------   ------------------------------
 DEPT.F                  :   
 SPR .MV     05 010 01 00:   SPONTANEOUS POTENTIAL
 SN  .OHMM   05 040 16 00:   SHORT NORMAL 16'
 ILD .OHMM   05 120 46 00:   INDUCTION LOG DEEP
 CALD.IN     45 280 60 00:   CALIPER
 GRD .GAPI   45 310 01 00:   GAMMA RAY FROM DENSITY LOG
 CORR.G/C3   45 356 01 00:   DENSITY CORRECTION
 RHOB.G/C3   45 350 01 00:   BULK DENSITY
 DPHI.DEC    45 890 12 00:   DENSITY POROSITY SANDSTONE
~PARAMETER INFORMATION
#MNEM.UNIT          VALUE    DESCRIPTION
#----------   ------------   ------------------------------
 PD  .                 GL:   PERMANENT DATUM
 EPD .F              5312:   ELEVATION PERMANENT DATUM
 LMF .                 KB:   LOG MEASURED FROM
 DMF .                 KB:   DRILLING MEASURED FROM
 EKB .F              5316:   KELLING BUSHING
 EGL .F              5312:   GROUND LEVEL
 DATE.          3-22-1978:   RUN DATE
 RUN .                  1:   RUN NUMBER
 DD  .F              1280:   DEPTH DRILLER
 DL  .F              1292:   DEPTH LOGGER
 BLI .F              1286:   BOTTOM LOG INTERVAL
 TLI .F                50:   TOP LOG INTERVAL
 CS  .IN            8.625:   CASING SIZE
 CBD .F                50:   CASING BOTTOM DRILLER
 CBL .F                50:   CASING BOTTOM LOGGER
 BS  .IN            7.875:   BIT SIZE
 BSD .F              1280:   BIT SIZE AT DEPTH
 DFT .                KCL:   DRILLING FLUID TYPE
 DFD .                8.6:   DRILLING FLUID DENSITY
 DFV .                 31:   DRILLING FLUID VISCOSITY
 DFPH.               10.5:   DRILLING FLUID PH
 DFL .               11.6:   DRILLING FLUID LOSS
 MSS .            MUD PIT:   MUD SAMPLE SOURCE
 RMS .OHMM            .38:   RESISTIVITY MUD SAMPLE
 MST .F                52:   MUD SAMPLE TEMPERATURE
 RMF .OHMM            .32:   RESISTIVITY MUD FILTRATE SAMPLE
 MFST.F                66:   MUD FILTRATE SAMPLE TEMPERATURE
 RMC .OHMM             .4:   RESISTIVITY MUD CAKE
 MCST.F                68:   MUD CAKE SAMPLE TEMPERATURE
 MFSS.           MEASURED:   MUD FILTRATE SAMPLE SOURCE
 RMB .OHMM            .24:   RESISTIVITY MUD AT BHT
 BHT .F                82:   BOTTOM HOLE TEMPERATURE
 TCS .HRS               4:   TIME CURCULATED STOPPED
 MRT .F                82:   MAXIMUM RECORDED TEMPERATURE
 LUN .               2958:   LOGGING UNIT NUMBER
 LUL .               CASP:   LOGGING UNIT LOCATION
 ENGI.            POINTER:   RECORDING ENGINEER
 WITN.           MCGINLEY:   WITNESSED BY
 CLNT.            A2DTECH:   CLIENT CODE
 ORIG.        2" 5" PRINT:   ORIGIN OF DATA
 UWI .       490251060300:   UNIQUE WELL ID
 DICO. A2D Technologies, Inc.:   DIGITIZING COMPANY
~OTHER INFORMATION
~A   DEPT      SPR         SN        ILD       CALD         GRD      CORR       RHOB       DPHI   
# ...
  141.0000   -48.3460     7.5083     8.1078     8.2737    71.4742     0.0458     2.4158     0.1173
  141.5000   -48.4249     7.7074     8.2243     8.2740    80.7975     0.0676     2.4273     0.1035
  142.0000   -48.5058     7.9118     8.3424     8.2743    81.7442     0.0766     2.4478     0.0990
  142.5000   -48.3879     8.1794     8.4621     8.2747    83.4472     0.0646     2.4659     0.1034
  143.0000   -48.2249     8.1792     8.5836     8.2750    86.1946     0.0540     2.4605     0.1279
  143.5000   -48.0616     8.1502     8.6430     8.2753    88.6916     0.0536     2.4287     0.1405
  144.0000   -47.9044     8.1192     8.5698     8.2757    88.7405     0.0533     2.3966     0.1355
  144.5000   -47.7433     8.1028     8.5144     8.2760    83.8391     0.0531     2.3931     0.1340
  145.0000   -47.5876     7.8618     8.3278     8.2764    81.1374     0.0528     2.4040     0.1345
  145.5000   -47.4324     7.5947     8.0011     8.2767    86.1190     0.0525     2.4042     0.1341
  146.0000   -47.2772     7.3367     7.6872     8.2770    87.2406     0.0523     2.4048     0.1321
  146.5000   -47.1212     7.0876     7.3892     8.2772    85.0079     0.0520     2.4053     0.1322
  147.0000   -46.9665     6.9708     7.2764     8.2772    80.7749     0.0517     2.4053     0.1330
  147.5000   -46.8203     6.8660     7.1393     8.2772    82.5574     0.0515     2.4041     0.1338
  148.0000   -47.2162     6.7627     7.0047     8.2772    93.7893     0.0512     2.4030     0.1350
  148.5000   -48.6593     6.6611     6.8728     8.2772    92.6769     0.0509     2.3995     0.1379
  149.0000   -48.9042     6.5611     6.7433     8.2772    89.7498     0.0507     2.3966     0.1397
  149.5000   -48.7123     6.4625     6.6162     8.2772    85.2870     0.0504     2.3963     0.1385
  150.0000   -48.4968     6.3654     6.5356     8.2772    82.0956     0.0502     2.3960     0.1388
  150.5000   -48.3192     6.2698     6.4985     8.2772    84.2800     0.0498     2.3956     0.1396
  151.0000   -48.5405     6.2448     6.4615     8.2772    87.0127     0.0461     2.3953     0.1397
  151.5000   -48.6566     6.2285     6.4247     8.2772    91.8070     0.0425     2.3949     0.1397
  152.0000   -48.4370     6.2123     6.3882     8.2772    95.2435     0.0397     2.3935     0.1428
  152.5000   -48.2269     6.1961     6.3519     8.2772    92.6077     0.0390     2.3887     0.1457
  153.0000   -48.1207     6.1800     6.3172     8.2772    90.0976     0.0382     2.3856     0.1473
  153.5000   -48.1479     6.1639     6.3262     8.2772    87.0790     0.0363     2.3826     0.1488
  154.0000   -48.1744     6.1479     6.3369     8.2772    82.3241     0.0339     2.3797     0.1529
  154.5000   -48.2018     6.1449     6.3476     8.2772    83.2787     0.0324     2.3771     0.1577
  155.0000   -48.2293     6.1449     6.3584     8.2772    88.5144     0.0351     2.3669     0.1593
  155.5000   -48.2567     6.1449     6.3692     8.2772    87.0888     0.0377     2.3646     0.1578
  156.0000   -48.2840     6.1449     6.3799     8.2772    84.8315     0.0398     2.3637     0.1531
  156.5000   -48.3180     6.1449     6.3907     8.2772    85.1602     0.0388     2.3691     0.1499
  157.0000   -48.3804     6.1449     6.4015     8.2772    84.8290     0.0383     2.3740     0.1495
  157.5000   -48.4434     6.1449     6.4123     8.2772    80.5108     0.0410     2.3755     0.1491
  158.0000   -48.5064     6.1450     6.4232     8.2772    81.5930     0.0493     2.3776     0.1465
  158.5000   -48.5693     6.1449     6.4348     8.2772    83.5141     0.0519     2.3835     0.1420
  159.0000   -48.6323     6.1444     6.4875     8.2772    83.7783     0.0485     2.3895     0.1387
  159.5000   -48.6954     6.1528     6.5447     8.2772    83.7629     0.0449     2.3933     0.1435
  160.0000   -48.7584     6.1807     6.6024     8.2772    83.7593     0.0424     2.3824     0.1483
  160.5000   -48.8202     6.2080     6.6606     8.2772    83.7669     0.0402     2.3811     0.1532
  161.0000   -48.8840     6.2355     6.7384     8.2772    83.8583     0.0399     2.3779     0.1563
  161.5000   -48.6896     6.2631     6.6763     8.2772    85.6681     0.0409     2.3709     0.1588
  162.0000   -48.2439     6.2908     6.5855     8.2772    88.6020     0.0428     2.3639     0.1599
  162.5000   -47.8643     6.3173     6.4959     8.2772    89.2941     0.0469     2.3577     0.1594
  163.0000   -47.7186     6.1676     6.4076     8.2772    92.0614     0.0536     2.3611     0.1583
  163.5000   -47.5647     5.9143     6.1694     8.2772    95.5244     0.0567     2.3649     0.1573
  164.0000   -47.5760     5.6501     5.8584     8.2772    97.4191     0.0572     2.3717     0.1569
  164.5000   -47.6791     5.3953     5.5631     8.2772    91.1598     0.0546     2.3687     0.1580
  165.0000   -47.7821     5.2011     5.3895     8.2772    81.4982     0.0482     2.3642     0.1615
  165.5000   -47.8772     5.1157     5.2899     8.2772    84.4358     0.0419     2.3613     0.1666
  166.0000   -48.2587     5.0542     5.1920     8.2772    88.9795     0.0379     2.3531     0.1697
  166.5000   -48.6905     4.9906     5.0960     8.2772    89.6982     0.0379     2.3468     0.1653
  167.0000   -48.6903     4.9252     5.0168     8.2772    89.7468     0.0379     2.3510     0.1593
  167.5000   -48.6654     4.8800     4.9708     8.2772    88.7570     0.0379     2.3591     0.1537
  168.0000   -48.6417     4.9148     5.1288     8.2772    86.8300     0.0398     2.3652     0.1513
  168.5000   -48.6188     4.9844     5.3007     8.2772    82.3742     0.0430     2.3696     0.1494
  169.0000   -48.5959     5.0888     5.4783     8.2772    83.1469     0.0457     2.3741     0.1468
  169.5000   -48.5729     5.2053     5.6619     8.2772    85.9311     0.0437     2.3786     0.1436
  170.0000   -48.5498     5.4419     5.8520     8.2772    88.8594     0.0418     2.3854     0.1393
  170.5000   -48.5263     5.7146     6.0488     8.2772    87.6790     0.0383     2.3936     0.1407
  171.0000   -48.5097     5.9773     6.2522     8.2772    86.1893     0.0349     2.3917     0.1419
  171.5000   -48.5939     5.9959     6.3261     8.2772    86.3602     0.0348     2.3893     0.1431
  172.0000   -48.6770     6.0647     6.3352     8.2772    88.6440     0.0359     2.3870     0.1443
  172.5000   -48.7595     6.1343     6.3459     8.2772    90.1153     0.0371     2.3854     0.1446
  173.0000   -48.8407     6.2018     6.3566     8.2772    91.0005     0.0383     2.3845     0.1448
  173.5000   -48.8922     6.1649     6.3676     8.2772    90.5799     0.0394     2.3839     0.1442
  174.0000   -48.8223     6.1301     6.3756     8.2772    91.2083     0.0406     2.3875     0.1425
  174.5000   -48.7584     6.0952     6.3317     8.2772    91.5831     0.0418     2.3913     0.1408
  175.0000   -48.7223     6.0605     6.2956     8.2772    87.8228     0.0430     2.3950     0.1401
  175.5000   -48.2871     6.0261     6.2594     8.2772    81.0946     0.0439     2.3958     0.1396
  176.0000   -47.9369     5.9918     6.2594     8.2772    83.6296     0.0439     2.3961     0.1390
  176.5000   -47.6403     5.9773     6.2593     8.2772    85.9511     0.0449     2.3962     0.1378
  177.0000   -47.4637     6.0007     6.2593     8.2772    91.1703     0.0467     2.3965     0.1364
  177.5000   -47.3143     6.0249     6.2595     8.2772    94.0953     0.0516     2.3966     0.1349
  178.0000   -47.3812     6.0492     6.2688     8.2772    95.1648     0.0566     2.3996     0.1337
  178.5000   -47.4431     6.0736     6.2854     8.2772    91.6260     0.0615     2.4048     0.1304
  179.0000   -47.5101     6.0981     6.3023     8.2772    87.5120     0.0634     2.4100     0.1253
  179.5000   -47.7681     6.1233     6.3264     8.2772    84.5856     0.0627     2.4152     0.1297
  180.0000   -47.9530     6.1458     6.4095     8.2772    87.0848     0.0615     2.4142     0.1358
  180.5000   -48.0415     6.2742     6.4936     8.2772    84.2248     0.0529     2.4052     0.1401
  181.0000   -48.0720     6.3932     6.5788     8.2772    79.3167     0.0500     2.3964     0.1404
