~VERSION INFORMATION
 VERS.                2.0:   CWLS LOG ASCII STANDARD - VERSION 2.0
 WRAP.                 NO:   ONE LINE PER DEPTH STEP
~WELL INFORMATION
#MNEM.UNIT      DATA TYPE    INFORMATION
#----------   ------------   ------------------------------
 STRT.F           42.0000:   START DEPTH
 STOP.F          612.0000:   STOP DEPTH
 STEP.F            0.5000:   STEP LENGTH
 NULL.          -999.2500:   NO VALUE
 COMP. FENIX AND SCISSON INCORPORATED:   COMPANY
 WELL. RES 3 TEAPOT DOM #25SX11-11:   WELL
 FLD .             TEAPOT:   FIELD
 LOC .      S11 T38N R78W:   LOCATION
 CNTY.            NATRONA:   COUNTY
 STAT.            WYOMING:   STATE
 CTRY. UNITED STATES OF AMERICA:   COUNTRY
 SRVC.            Unknown:   SERVICE COMPANY
 DATE.        16-FEB-1978:   LOGDATE
 API .       490251058000:   API NUMBER
~CURVE INFORMATION
#MNEM.UNIT       API CODE    CURVE DESCRIPTION
#----------   ------------   ------------------------------
 DEPT.F                  :   
 ILD .OHMM   05 120 46 00:   INDUCTION LOG DEEP
 SN  .OHMM   05 040 16 00:   SHORT NORMAL 16"
 SPR .MV     05 010 01 00:   SPONTANEOUS POTENTIAL FROM RES.
 CALD.IN     45 280 60 00:   CALIPER FROM DENSITY LOG
 CORR.G/C3   45 356 01 00:   DENSITY CORRECTION
 DPHI.DEC    45 890 12 00:   DENSITY POROSITY SANDSTONE
 GRD .GAPI   45 310 01 00:   GAMMA RAY FROM DENSITY LOG
 RHOB.G/C3   45 350 01 00:   BULK DENSITY
~PARAMETER INFORMATION
#MNEM.UNIT          VALUE    DESCRIPTION
#----------   ------------   ------------------------------
 PD  .                 GL:   PERMANENT DATUM
 EPD .F              5167:   ELEVATION PERMANENT DATUM
 LMF .                 KB:   LOG MEASURED FROM
 DAPD.F                 3:   FEET ABOVE PERMANENT DATUM
 DMF .                 KB:   DRILLING MEASURED FROM
 EKB .F              5170:   KELLING BUSHING
 EGL .F              5167:   GROUND LEVEL
 DATE.        16-FEB-1978:   RUN DATE
 RUN .                  1:   RUN NUMBER
 DD  .F               610:   DEPTH DRILLER
 DL  .F               615:   DEPTH LOGGER
 BLI .F               610:   BOTTOM LOG INTERVAL
 TLI .F                40:   TOP LOG INTERVAL
 CS  .IN            8.625:   CASING SIZE
 CBD .F                40:   CASING BOTTOM DRILLER
 CBL .F                40:   CASING BOTTOM LOGGER
 BS  .IN            7.875:   BIT SIZE
 BSD .F               610:   BIT SIZE AT DEPTH
 DFT .        LIGNO/ SULF:   DRILLING FLUID TYPE
 DFD .                8.7:   DRILLING FLUID DENSITY
 DFV .                 30:   DRILLING FLUID VISCOSITY
 DFPH.                 10:   DRILLING FLUID PH
 DFL .                4.6:   DRILLING FLUID LOSS
 MSS .           FLOWLINE:   MUD SAMPLE SOURCE
 RMS .OHMM            1.7:   RESISTIVITY MUD SAMPLE
 MST .F                69:   MUD SAMPLE TEMPERATURE
 RMF .OHMM            1.5:   RESISTIVITY MUD FILTRATE SAMPLE
 MFST.F                70:   MUD FILTRATE SAMPLE TEMPERATURE
 RMC .OHMM            2.5:   RESISTIVITY MUD CAKE
 MCST.F                70:   MUD CAKE SAMPLE TEMPERATURE
 MFSS.               MEAS:   MUD FILTRATE SAMPLE SOURCE
 RMB .OHMM            1.6:   RESISTIVITY MUD AT BHT
 BHT .F                70:   BOTTOM HOLE TEMPERATURE
 TCS .HRS               3:   TIME CURCULATED STOPPED
 MRT .F                70:   MAXIMUM RECORDED TEMPERATURE
 LUN .               2958:   LOGGING UNIT NUMBER
 LUL .             CASPER:   LOGGING UNIT LOCATION
 ENGI.            POINTER:   RECORDING ENGINEER
 WITN.           MCGINLEY:   WITNESSED BY
 CLNT.            A2DTECH:   CLIENT CODE
 ORIG.           5" PRINT:   ORIGIN OF DATA
 UWI .       490251058000:   UNIQUE WELL ID
 DICO. A2D Technologies, Inc.:   DIGITIZING COMPANY
~OTHER INFORMATION
~A   DEPT      ILD         SN         SPR      CALD       CORR       DPHI        GRD       RHOB   
# ...
  447.0000    20.8102    25.9681   -22.0303     7.8445     0.0229     0.1604    70.0595     2.3698
  447.5000    20.2235    25.2396   -22.0484     7.8133     0.0243     0.1650    72.3146     2.3848
  448.0000    19.9279    24.6862   -22.2145     7.7975     0.0242     0.1713    72.4600     2.3938
  448.5000    19.4979    24.5110   -22.5321     7.7817     0.0227     0.1710    71.9984     2.3817
  449.0000    19.3473    24.4945   -23.3042     7.7356     0.0226     0.1713    71.0357     2.3727
  449.5000    19.3316    24.9935   -23.6218     7.6744     0.0225     0.1726    64.1388     2.3727
  450.0000    18.7880    25.1531   -23.7879     7.6435     0.0225     0.1750    63.2284     2.3719
  450.5000    18.9102    25.1405   -23.8047     7.6749     0.0193     0.1904    64.7275     2.3666
  451.0000    19.1635    25.1305   -23.5125     7.7025     0.0222     0.2045    65.9269     2.3568
  451.5000    19.4226    25.2955   -23.5306     7.7168     0.0266     0.2003    67.4297     2.3418
  452.0000    19.8223    25.8178   -23.7131     7.7008     0.0295     0.2078    66.2200     2.3252
  452.5000    20.3713    26.7470   -24.0177     7.7001     0.0060     0.2183    64.4042     2.3244
  453.0000    21.2460    27.8426   -24.0321     7.6842     0.0293     0.2388    63.1574     2.3094
  453.5000    22.2756    28.2208   -23.5920     7.6684     0.0307     0.2472    62.5826     2.2898
  454.0000    22.8925    28.6070   -23.7580     7.6068     0.0291     0.2283    63.4802     2.2545
  454.5000    23.5238    28.9927   -24.6818     7.5612     0.0290     0.1787    64.8319     2.2515
  455.0000    23.8417    29.1831   -25.4572     8.0286     0.0334     0.1655    66.6360     2.3153
  455.5000    23.9967    28.9431   -25.9226     8.0884     0.0393     0.1523    66.3285     2.3604
  456.0000    23.9856    28.7546   -25.3310     8.1028     0.0376     0.1559    66.4734     2.3989
  456.5000    24.1415    28.3465   -24.8939     8.0415     0.0405     0.1556    66.7693     2.4047
  457.0000    23.9605    27.9443   -24.7574     7.9954     0.0494     0.1560    67.0651     2.4024
  457.5000    23.4554    27.1677   -24.7755     7.9494     0.0568     0.1593    67.9628     2.4001
  458.0000    22.6442    26.5968   -24.6348     7.8727     0.0492     0.1680    69.7669     2.3971
  458.5000    21.7087    26.5455   -24.4978     7.7794     0.0326     0.1764    71.5710     2.3903
  459.0000    20.2413    24.2785   -24.3643     7.7355     0.0265     0.1830    71.8668     2.3745
  459.5000    19.8146    23.9340   -24.2272     7.7197     0.0249     0.1849    71.5593     2.3546
  460.0000    19.9457    23.7588   -24.2453     7.7794     0.0248     0.1741    71.4026     2.3504
  460.5000    19.7962    23.4216   -24.2598     7.8542     0.0262     0.1669    71.5666     2.3639
  461.0000    19.5140    22.7707   -24.1191     7.8838     0.0261     0.1657    72.4453     2.3782
  461.5000    19.2272    22.1102   -23.8341     7.8980     0.0275     0.1660    73.6461     2.3812
  462.0000    18.5684    21.0767   -23.6970     7.8967     0.0304     0.1669    74.9977     2.3811
  462.5000    18.1770    20.4910   -23.7151     7.8663     0.0303     0.1666    75.7475     2.3819
  463.0000    17.7939    20.0604   -23.7296     7.8503     0.0287     0.1655    76.6451     2.3842
  463.5000    17.4188    19.5029   -23.7440     7.7933     0.0256     0.1652    78.4492     2.3841
  464.0000    17.1705    19.2261   -23.7585     7.8230     0.0195     0.1661    79.4992     2.3848
  464.5000    16.6920    18.8128   -23.6212     7.8375     0.0117     0.1689    79.9459     2.3810
  465.0000    16.5670    18.4247   -23.6364     7.8671     0.0058     0.1860    80.3925     2.3780
  465.5000    16.5593    18.1633   -23.8055     7.8843     0.0132     0.1920    80.5375     2.3689
  466.0000    16.7832    18.0303   -23.8199     7.8961     0.0206     0.1929    80.2285     2.3463
  466.5000    17.1306    17.8983   -23.8344     7.8803     0.0250     0.1917    78.1111     2.3449
  467.0000    17.2407    17.8912   -23.8488     7.8495     0.0234     0.1863    77.3511     2.3463
  467.5000    17.4730    17.8840   -23.8636     7.8167     0.0233     0.1824    76.8927     2.3493
  468.0000    17.4628    18.0015   -23.8813     7.7727     0.0232     0.1809    77.3433     2.3568
  468.5000    17.4547    18.1197   -23.8958     7.7872     0.0246     0.1803    80.3716     2.3598
  469.0000    17.3258    18.1106   -23.9102     7.7866     0.0245     0.1816    80.9476     2.3605
  469.5000    17.0788    18.1034   -23.9247     7.8164     0.0259     0.1822    81.0926     2.3597
  470.0000    17.0707    17.9709   -24.3939     7.8439     0.0287     0.1714    79.8787     2.3642
  470.5000    17.1798    18.2150   -24.7148     7.8706     0.0304     0.1744    77.1579     2.3710
  471.0000    17.0530    18.0798   -24.5777     7.8912     0.0345     0.1759    77.4537     2.3732
  471.5000    17.0450    17.8233   -24.1376     7.9195     0.0359     0.1735    78.2020     2.3687
  472.0000    16.9192    17.5703   -23.8485     7.9341     0.0343     0.1719    78.7995     2.3656
  472.5000    16.7942    17.3210   -23.5556     7.9335     0.0312     0.1705    78.9445     2.3686
  473.0000    16.5546    17.3141   -23.4234     7.9178     0.0296     0.1730    78.7863     2.3756
  473.5000    16.5452    17.1861   -23.4415     7.8870     0.0280     0.1784    78.4788     2.3814
  474.0000    16.4230    16.9417   -23.4559     7.8863     0.0249     0.1790    77.4172     2.3731
  474.5000    16.3018    16.9350   -23.4704     7.8706     0.0263     0.1757    76.2047     2.3640
  475.0000    16.4096    16.8110   -23.4848     7.8550     0.0277     0.1721    75.5955     2.3625
  475.5000    16.4001    16.9231   -23.3478     7.8241     0.0276     0.1696    77.0980     2.3730
  476.0000    16.2771    16.7975   -23.3659     7.8084     0.0260     0.1685    77.5446     2.3790
  476.5000    16.1569    16.6746   -23.3803     7.8078     0.0241     0.1695    78.5931     2.3766
  477.0000    16.0376    16.5347   -23.3948     7.8072     0.0198     0.1659    81.3022     2.3759
  477.5000    16.0301    16.2031   -23.5607     7.8066     0.0182     0.1641    81.5995     2.3774
  478.0000    15.9118    15.9731   -23.5758     7.8059     0.0181     0.1638    80.0839     2.3834
  478.5000    15.5762    15.8562   -23.7448     7.8206     0.0165     0.1686    76.0057     2.3856
  479.0000    15.3525    15.7402   -23.6041     7.8350     0.0164     0.1790    74.4915     2.3849
  479.5000    15.1337    15.8436   -23.6222     7.8797     0.0193     0.1843    76.1478     2.3796
  480.0000    14.9180    15.8370   -23.6366     8.0302     0.0222     0.1891    82.1820     2.3567
  480.5000    14.8078    15.7197   -23.4995     8.1585     0.0236     0.1882    84.4273     2.3480
  481.0000    14.9042    15.4966   -23.6691     7.9204     0.0219     0.1759    84.1198     2.3465
  481.5000    14.8971    15.3832   -24.1381     7.8319     0.0203     0.1687    83.3598     2.3630
  482.0000    14.9940    15.4858   -24.3041     7.8464     0.0202     0.1657    81.2423     2.3697
  482.5000    14.9853    15.6945   -24.3185     7.8912     0.0186     0.1670    76.7116     2.3742
  483.0000    14.9783    15.6881   -24.1815     7.9361     0.0185     0.1667    74.5941     2.3794
  483.5000    14.8677    15.4641   -24.1995     7.9506     0.0169     0.1622    74.1357     2.3832
  484.0000    14.7579    15.3509   -24.3655     7.9045     0.0183     0.1631    75.5918     2.3846
  484.5000    14.6472    15.1331   -24.5315     7.8888     0.0182     0.1652    77.8934     2.3831
  485.0000    14.6404    14.9183   -24.3939     7.9183     0.0181     0.1658    79.0942     2.3853
  485.5000    14.6336    14.8091   -24.2574     7.9481     0.0230     0.1655    79.6917     2.3883
  486.0000    14.5255    14.8031   -24.1239     7.9626     0.0314     0.1532    79.9889     2.3800
  486.5000    14.5188    14.9004   -23.9868     7.9468     0.0313     0.1574    80.2848     2.3914
  487.0000    14.6132    14.8929   -23.8462     7.9311     0.0312     0.1617    79.9758     2.4010
