~VERSION INFORMATION
 VERS.                2.0:   CWLS LOG ASCII STANDARD - VERSION 2.0
 WRAP.                 NO:   ONE LINE PER DEPTH STEP
~WELL INFORMATION
#MNEM.UNIT      DATA TYPE    INFORMATION
#----------   ------------   ------------------------------
 STRT.F           34.0000:   START DEPTH
 STOP.F          604.0000:   STOP DEPTH
 STEP.F            0.5000:   STEP LENGTH
 NULL.          -999.2500:   NO VALUE
 COMP. FENIX & SCISSON INC:   COMPANY
 WELL.       NPR #17 SX-2:   WELL
 FLD .             TEAPOT:   FIELD
 LOC .       S2 T38N R78W:   LOCATION
 CNTY.            NATRONA:   COUNTY
 STAT.            WYOMING:   STATE
 CTRY. UNITED STATES OF AMERICA:   COUNTRY
 SRVC.       Schlumberger:   SERVICE COMPANY
 DATE.        18-MAR-1977:   LOGDATE
 API .       490251032700:   API NUMBER
~CURVE INFORMATION
#MNEM.UNIT       API CODE    CURVE DESCRIPTION
#----------   ------------   ------------------------------
 DEPT.F                  :   
 SPR .MV     07 010 01 00:   SPONTANEOUS POTENTIAL
 ILD .OHMM   07 120 46 00:   INDUCTION LOG DEEP
 ILM .OHMM   07 120 44 00:   INDUCTION LOG MEDIUM
 LL8 .OHMM   07 220 08 00:   LATEROLOG-8 RES.
 CALD.IN     45 280 60 00:   CALIPER FROM DENSITY LOG
 GRD .GAPI   45 310 01 00:   GAMMA RAY FROM DENSITY LOG
 CORR.G/C3   45 356 01 00:   DENSITY CORRECTION
 DPHI.DEC    45 890 12 00:   DENSITY POROSITY SANDSTONE
 RHOB.G/C3   45 350 01 00:   BULK DENSITY
~PARAMETER INFORMATION
#MNEM.UNIT          VALUE    DESCRIPTION
#----------   ------------   ------------------------------
 PD  .                 GL:   PERMANENT DATUM
 EPD .F              5122:   ELEVATION PERMANENT DATUM
 LMF .                 KB:   LOG MEASURED FROM
 DAPD.F                 4:   FEET ABOVE PERMANENT DATUM
 DMF .                 KB:   DRILLING MEASURED FROM
 EKB .F              5126:   KELLING BUSHING
 EGL .F              5122:   GROUND LEVEL
 DATE.        18-MAR-1977:   RUN DATE
 RUN .                  1:   RUN NUMBER
 DD  .F               600:   DEPTH DRILLER
 DL  .F               605:   DEPTH LOGGER
 BLI .F               604:   BOTTOM LOG INTERVAL
 TLI .F                44:   TOP LOG INTERVAL
 CS  .IN            8.625:   CASING SIZE
 CBD .F                40:   CASING BOTTOM DRILLER
 CBL .F                44:   CASING BOTTOM LOGGER
 BS  .IN            7.875:   BIT SIZE
 BSD .F               600:   BIT SIZE AT DEPTH
 DFT .            KCL MUD:   DRILLING FLUID TYPE
 DFD .                8.9:   DRILLING FLUID DENSITY
 DFV .                 39:   DRILLING FLUID VISCOSITY
 DFPH.                8.5:   DRILLING FLUID PH
 DFL .                6.1:   DRILLING FLUID LOSS
 MSS .                PIT:   MUD SAMPLE SOURCE
 RMS .OHMM           0.26:   RESISTIVITY MUD SAMPLE
 MST .F                52:   MUD SAMPLE TEMPERATURE
 RMF .OHMM           0.24:   RESISTIVITY MUD FILTRATE SAMPLE
 MFST.F                52:   MUD FILTRATE SAMPLE TEMPERATURE
 MFSS.               MEAS:   MUD FILTRATE SAMPLE SOURCE
 TCS .HRS            0230:   TIME CURCULATED STOPPED
 LUN .               7711:   LOGGING UNIT NUMBER
 LUL .               CSPR:   LOGGING UNIT LOCATION
 ENGI.             SAYLER:   RECORDING ENGINEER
 WITN.         STUEBINGER:   WITNESSED BY
 CLNT.            A2DTECH:   CLIENT CODE
 ORIG.           5" PRINT:   ORIGIN OF DATA
 UWI .       490251032700:   UNIQUE WELL ID
 DICO. A2D Technologies, Inc.:   DIGITIZING COMPANY
~OTHER INFORMATION
~A   DEPT      SPR        ILD        ILM        LL8       CALD        GRD       CORR       DPHI       RHOB   
# ...
  362.5000   -45.7157     5.5544     5.9107     5.6604     7.8324   130.6682     0.0289     0.1295     2.4380
  363.0000   -45.1103     5.7873     6.2078     6.8280     8.0552   125.4919     0.0206     0.1313     2.4388
  363.5000   -44.3577     6.0783     6.7034     8.0110     8.1297   122.3897     0.0184     0.1193     2.4567
  364.0000   -44.3504     6.4285     7.0894     8.1817     8.1745   121.5075     0.0168     0.1107     2.4694
  364.5000   -44.6410     6.8461     7.2417     8.2409     8.1897   125.2223     0.0211     0.1053     2.4892
  365.0000   -44.3356     7.1407     7.3972     8.2431     8.1900   128.7868     0.0260     0.0984     2.4919
  365.5000   -44.1792     7.4479     7.5561     8.2454     8.1903   129.5365     0.0273     0.0963     2.4911
  366.0000   -44.0227     7.6083     7.9359     8.2477     8.1757   129.8417     0.0273     0.0987     2.4886
  366.5000   -43.8663     7.7184     7.9945     8.2553     8.1760   129.4062     0.0289     0.1076     2.4762
  367.0000   -43.5609     7.7759     8.1097     8.5018     8.1614   126.6003     0.0311     0.1037     2.4778
  367.5000   -43.2554     7.8884     8.2838     8.7260     8.1469   123.8814     0.0341     0.1052     2.4777
  368.0000   -42.9500     7.9471     8.4618     8.7283     8.1176   120.3388     0.0385     0.1121     2.4721
  368.5000   -42.1974     7.9510     8.4653     8.7307     8.0882   121.3036     0.0461     0.1088     2.4658
  369.0000   -41.5939     8.0660     8.2367     8.7331     8.0143   127.8546     0.0550     0.1061     2.4771
  369.5000   -41.4375     8.1261     8.2401     8.7963     7.9849   133.4182     0.0557     0.1073     2.4732
  370.0000   -41.7281     8.0179     8.2435     8.7987     7.9555   134.3553     0.0422     0.1079     2.4749
  370.5000   -42.0207     7.9112     8.1332     8.8011     7.9558   133.5703     0.0272     0.1004     2.4868
  371.0000   -42.3095     7.9150     8.0802     8.6823     7.9738   130.5212     0.0166     0.0995     2.4830
  371.5000   -42.8982     7.9188     8.1456     8.3301     8.0009   130.2202     0.0181     0.1004     2.4854
  372.0000   -43.6360     7.9226     8.2573     8.4493     8.0485   129.3304     0.0234     0.0959     2.4967
  372.5000   -44.0757     7.9817     8.2034     8.6293     8.1053   127.1012     0.0203     0.0884     2.5041
  373.0000   -44.2176     7.9855     8.0936     8.7523     8.1231   124.9195     0.0166     0.0836     2.5115
  373.5000   -44.5082     7.9894     8.2683     8.8156     8.1504   124.6399     0.0128     0.0856     2.5078
  374.0000   -44.7987     7.9932     8.3293     8.5767     8.1507   125.2494     0.0075     0.0894     2.4981
  374.5000   -44.7913     7.9417     8.3328     8.5198     8.1214   125.9931     0.0090     0.0963     2.4869
  375.0000   -44.7839     7.9456     8.3362     8.5814     8.1068   126.1481     0.0150     0.1008     2.4810
  375.5000   -44.7765     7.9494     8.3397     8.6436     8.1071   125.1200     0.0158     0.1056     2.4735
  376.0000   -44.7690     7.9532     8.2854     8.6460     8.1223   124.2401     0.0157     0.1093     2.4705
  376.5000   -44.5976     7.8967     8.2314     8.6388     8.1226   123.9526     0.0165     0.1111     2.4691
  377.0000   -44.1580     7.6824     7.7897     8.5315     8.1377   124.9986     0.0180     0.1113     2.4683
  377.5000   -44.0015     7.4740     7.5269     8.5344     8.1358   126.1927     0.0270     0.1076     2.4780
  378.0000   -43.9926     7.3828     7.2227     8.4771     8.0894   127.0905     0.0480     0.0941     2.4967
  378.5000   -43.8361     7.2855     6.9790     8.1910     8.0474   130.6550     0.0600     0.0852     2.5065
  379.0000   -43.5307     7.1388     6.7906     7.5390     8.0053   135.9973     0.0712     0.0904     2.5005
  379.5000   -43.2252     6.8986     6.7457     6.8432     8.0056   138.6729     0.0652     0.0935     2.4968
  380.0000   -42.6217     6.8060     6.7024     6.5203     8.0059   138.7210     0.0764     0.1030     2.4878
  380.5000   -42.3163     6.6689     6.6588     7.4412     7.9914   136.0240     0.0689     0.1117     2.4707
  381.0000   -41.8618     6.4902     6.5697     7.2900     7.9917   131.8848     0.0494     0.1172     2.4572
  381.5000   -41.2583     6.3595     6.4368     7.4453     7.9902   129.5233     0.0576     0.1094     2.4722
  382.0000   -41.2509     6.1884     6.1339     7.8178     7.9312   127.4582     0.0876     0.0987     2.4871
  382.5000   -41.5415     5.9388     5.7646     7.8738     7.8887   125.3930     0.0891     0.1059     2.4722
  383.0000   -41.9831     5.5819     4.9155     7.2980     7.8890   124.5108     0.0816     0.1163     2.4543
  383.5000   -42.7190     5.2464     4.7827     6.2670     7.8893   124.3738     0.0718     0.1345     2.4162
  384.0000   -43.3078     5.1760     4.4328     4.7500     7.8748   124.3828     0.0635     0.1563     2.3886
  384.5000   -44.1946     5.1426     4.2222     3.9399     7.8602   124.5398     0.0695     0.1632     2.3827
  385.0000   -44.3380     5.1457     5.2412     4.5718     7.8591   124.8450     0.0778     0.1649     2.3789
  385.5000   -43.7327     5.2202     6.0291     5.8895     7.8312   126.6317     0.0485     0.1661     2.3730
  386.0000   -43.1292     5.3697     6.3276     7.8991     7.8018   125.8999     0.0417     0.1389     2.4148
  386.5000   -42.5257     5.7186     6.5132     7.9471     7.8169   121.9088     0.0507     0.1186     2.4537
  387.0000   -42.5183     6.2616     6.7477     7.8938     7.8320   119.5474     0.0537     0.1156     2.4589
  387.5000   -42.5109     6.7149     7.0477     7.8965     7.8336   119.2578     0.0664     0.1043     2.4895
  388.0000   -42.5035     7.2009     7.4367     7.7360     7.8783   119.2689     0.0792     0.0911     2.5001
  388.5000   -42.3471     7.6158     7.4917     7.5259     7.8934   119.1275     0.0807     0.0938     2.4985
  389.0000   -42.4888     7.6760     7.4421     7.5809     7.9371   118.8423     0.0889     0.0881     2.5038
  389.5000   -42.6304     7.4660     7.2419     7.7424     7.9522   118.5549     0.1047     0.0866     2.5113
  390.0000   -43.0700     7.0662     7.0955     7.9624     7.9525   118.4135     0.1234     0.0842     2.5183
  390.5000   -43.8127     6.3711     6.3961     8.0758     7.9528   118.8691     0.1227     0.0833     2.5076
  391.0000   -44.3965     5.9882     5.5688     7.7487     7.9531   121.8410     0.1001     0.0934     2.4911
  391.5000   -44.8363     5.7467     5.3432     6.8454     7.9682   125.2573     0.0851     0.1123     2.4695
  392.0000   -45.2956     5.5149     5.3832     4.9985     7.9834   126.7477     0.0896     0.1152     2.4650
  392.5000   -46.0137     5.4039     5.5757     4.5462     7.9985   126.9047     0.0986     0.1173     2.4576
  393.0000   -45.8555     5.4065     5.8559     4.8072     7.9988   127.3581     0.1031     0.1200     2.4494
  393.5000   -45.5500     5.5229     6.3235     6.1297     7.9843   127.8115     0.1015     0.1224     2.4412
  394.0000   -44.9465     5.6811     6.7812     7.2922     7.9846   128.2648     0.0816     0.1265     2.4636
  394.5000   -44.3430     5.8846     7.3226     7.8180     7.9695   126.1997     0.0853     0.1038     2.4853
  395.0000   -44.0375     6.2669     7.5845     8.2663     7.9407   124.1345     0.0857     0.0978     2.4875
  395.5000   -43.7321     6.7206     7.8014     8.4424     7.9108   123.2545     0.0825     0.0981     2.4883
  396.0000   -43.2776     7.2573     7.9690     8.4447     7.8815   122.5227     0.0644     0.1086     2.4674
  396.5000   -43.1212     8.0017     8.0838     8.5650     7.8377   120.7539     0.0467     0.1146     2.4599
  397.0000   -42.9647     8.7009     8.3730     8.8084     7.8083   120.7628     0.0391     0.1157     2.4629
  397.5000   -42.8083     8.9501     8.4936     9.0586     7.7938   120.9199     0.0429     0.1118     2.4704
  398.0000   -42.8009     9.0168     8.6160     8.9363     7.7941   120.9288     0.0352     0.1160     2.4607
  398.5000   -42.6445     8.9587     8.6195     8.8155     7.7944   121.0858     0.0392     0.1097     2.4742
