~VERSION INFORMATION
 VERS.                2.0:   CWLS LOG ASCII STANDARD - VERSION 2.0
 WRAP.                 NO:   ONE LINE PER DEPTH STEP
~WELL INFORMATION
#MNEM.UNIT      DATA TYPE    INFORMATION
#----------   ------------   ------------------------------
 STRT.F            6.0000:   START DEPTH
 STOP.F          606.0000:   STOP DEPTH
 STEP.F            0.5000:   STEP LENGTH
 NULL.          -999.2500:   NO VALUE
 COMP. LAWRENCE/ALLISON INC:   COMPANY
 WELL.       61 STX #15-3:   WELL
 FLD .             TEAPOT:   FIELD
 LOC .       S3 T38N R78W:   LOCATION
 CNTY.            NATRONA:   COUNTY
 STAT.            WYOMING:   STATE
 CTRY. UNITED STATES OF AMERICA:   COUNTRY
 SRVC.      Dresser Atlas:   SERVICE COMPANY
 DATE.        23-SEP-1987:   LOGDATE
 API .       490251115900:   API NUMBER
~CURVE INFORMATION
#MNEM.UNIT       API CODE    CURVE DESCRIPTION
#----------   ------------   ------------------------------
 DEPT.F                  :   
 GRR .GAPI   07 310 01 00:   GAMMA RAY
 RILD.OHMM   07 120 46 00:   INDUCTION LOG DEEP RESISTIVITY
 RILM.OHMM   07 120 44 00:   INDUCTION LOG MEDIUM RESISTIVITY
~PARAMETER INFORMATION
#MNEM.UNIT          VALUE    DESCRIPTION
#----------   ------------   ------------------------------
 PD  .                 GL:   PERMANENT DATUM
 EPD .F              5230:   ELEVATION PERMANENT DATUM
 LMF .                 KB:   LOG MEASURED FROM
 DAPD.F                 8:   FEET ABOVE PERMANENT DATUM
 DMF .                 KB:   DRILLING MEASURED FROM
 EKB .F              5238:   KELLING BUSHING
 EGL .F              5230:   GROUND LEVEL
 DATE.        23-SEP-1987:   RUN DATE
 RUN .                  1:   RUN NUMBER
 DD  .F               618:   DEPTH DRILLER
 DL  .F               614:   DEPTH LOGGER
 BLI .F               612:   BOTTOM LOG INTERVAL
 TLI .F                 8:   TOP LOG INTERVAL
 CS  .IN            9.625:   CASING SIZE
 CBD .F                50:   CASING BOTTOM DRILLER
 CBL .F                49:   CASING BOTTOM LOGGER
 BS  .IN             8.75:   BIT SIZE
 BSD .F               618:   BIT SIZE AT DEPTH
 DFT .                AIR:   DRILLING FLUID TYPE
 TCS .HRS               1:   TIME CURCULATED STOPPED
 LUN .            HL-6274:   LOGGING UNIT NUMBER
 LUL .           GILLETTE:   LOGGING UNIT LOCATION
 ENGI.            PANASUK:   RECORDING ENGINEER
 WITN.             STRONG:   WITNESSED BY
 CLNT.            A2DTECH:   CLIENT CODE
 ORIG.       2", 5" PRINT:   ORIGIN OF DATA
 UWI .       490251115900:   UNIQUE WELL ID
 DICO. A2D Technologies, Inc.:   DIGITIZING COMPANY
~OTHER INFORMATION
~A    DEPT      GRR      RILD       RILM   
# ...
  461.0000    91.8778    20.3169    20.5271
  461.5000    92.7925    20.3274    20.5404
  462.0000    91.9080    20.2871    20.5511
  462.5000    86.9756    20.1737    20.8341
  463.0000    83.1290    20.1855    21.0413
  463.5000    81.8371    20.1948    21.0569
  464.0000    85.0007    20.2042    21.0694
  464.5000    87.2646    20.0719    20.9336
  465.0000    89.9784    19.8075    20.9492
  465.5000    90.2609    19.4043    20.6735
  466.0000    87.2863    18.7604    20.0963
  466.5000    88.4533    18.3834    18.9218
  467.0000    90.9421    17.7665    18.1637
  467.5000    92.9812    17.1703    17.5569
  468.0000    92.5465    16.5941    17.0881
  468.5000    91.2123    16.1398    16.8634
  469.0000    91.0025    15.6084    16.5295
  469.5000    94.1698    15.2948    16.4230
  470.0000    98.4578    15.0916    16.3219
  470.5000    99.8222    14.9928    16.3317
  471.0000    99.3875    14.8979    16.2285
  471.5000    96.0293    14.9052    16.2385
  472.0000    90.4222    14.9136    16.1362
  472.5000    90.6660    14.9205    15.9264
  473.0000    90.6811    14.8228    15.9359
  473.5000    90.6962    14.8314    15.7264
  474.0000    89.5869    14.8383    15.6273
  474.5000    87.1282    14.8455    15.5289
  475.0000    85.7940    14.7514    15.4311
  475.5000    86.4875    14.6564    15.5497
  476.0000    87.6270    14.6283    15.5590
  476.5000    87.4173    14.5686    15.4607
  477.0000    86.5328    14.4725    15.4703
  477.5000    85.8733    14.3823    15.3750
  478.0000    86.1170    14.2717    15.3842
  478.5000    87.0317    14.1012    15.2850
  479.0000    87.0468    14.0100    15.1887
  479.5000    87.2868    13.8773    14.8879
  480.0000    88.2014    13.7018    14.7942
  480.5000    89.5825    13.6470    14.5997
  481.0000    91.8336    13.4673    14.4841
  481.5000    92.9731    13.3799    14.2204
  482.0000    94.3375    13.2929    14.0335
  482.5000    92.1038    13.2088    13.8955
  483.0000    88.5207    13.0334    13.7618
  483.5000    88.3109    12.9496    13.6751
  484.0000    91.2533    12.8669    13.6853
  484.5000    92.8426    12.8737    13.7287
  485.0000    93.0788    12.8797    13.7966
  485.5000    91.7484    12.7968    13.8051
  486.0000    91.5172    12.7900    13.8151
  486.5000    92.2459    12.7204    13.8234
  487.0000    93.5965    12.7270    13.7342
  487.5000    94.7361    12.7337    13.7445
  488.0000    95.2010    12.8022    13.6579
  488.5000    94.0916    12.8340    13.6681
  489.0000    92.5325    12.8400    13.6762
  489.5000    93.7377    12.8181    13.6843
  490.0000    97.5140    12.8534    13.5961
  490.5000    99.5531    12.8589    13.5123
  491.0000    99.3433    12.8653    13.5205
  491.5000    95.7602    12.8718    13.3448
  492.0000    95.0885    12.8788    13.3527
  492.5000    97.4437    12.7959    13.2686
  493.0000    99.1826    12.7136    13.2765
  493.5000    98.0733    12.6303    13.2844
  494.0000    96.7390    12.4639    13.2943
  494.5000    98.7781    12.3837    13.3022
  495.0000   100.5923    12.2931    13.3102
  495.5000    98.9723    12.2249    13.3181
  496.0000    96.5783    12.2320    13.2342
  496.5000    97.4930    12.2376    13.2422
  497.0000   101.3312    12.1589    13.2519
  497.5000   104.7196    12.1647    13.1665
  498.0000   106.5368    12.1716    13.1763
  498.5000   101.3066    12.0933    13.1842
  499.0000   100.0460    12.0989    13.1011
  499.5000    99.6113    12.1043    13.1092
  500.0000    98.7231    12.1101    13.1187
  500.5000   100.0913    12.0322    13.1265
  501.0000   101.0060    12.0392    13.1343
  501.5000    99.6717    12.0448    13.1421
  502.0000   100.5902    12.0504    13.0593
  502.5000   102.6293    12.0467    12.9790
  503.0000   102.8655    12.0089    12.8973
  503.5000   100.6355    11.9126    12.8141
  504.0000    99.7510    11.8384    12.7334
  504.5000   100.8943    11.7640    12.6494
  505.0000   102.0339    11.6889    12.3938
  505.5000   102.7236    11.5379    12.1457
  506.0000   103.6383    11.4651    11.9851
  506.5000   104.1032    11.3911    11.8282
  507.0000   103.1873    11.2428    11.7529
  507.5000   100.9887    11.2510    11.5990
  508.0000    96.4704    11.2577    11.5236
  508.5000    95.3555    11.1850    11.4516
  509.0000    97.1705    11.0392    11.2239
  509.5000   100.7814    10.8940    11.1516
  510.0000   104.5127    10.7506    11.0799
  510.5000   106.6572    10.6106    10.9349
  511.0000   107.5694    10.4708    10.7903
  511.5000   107.8071    10.3971    10.6491
  512.0000   107.2656    10.1283    10.5069
  512.5000   104.2343     9.9260    10.2270
  513.0000   105.1498     9.7278     9.9487
  513.5000   107.1865     9.5299     9.6213
  514.0000   108.7856     9.0894     9.2992
  514.5000   108.5645     8.4867     8.9259
  515.0000   108.3491     7.8693     8.3918
  515.5000   109.9393     6.6679     7.4660
  516.0000   112.6623     5.8517     6.5865
  516.5000   119.1883     5.4637     5.7031
  517.0000   125.7227     5.2810     5.4408
  517.5000   131.5826     5.2476     5.4815
  518.0000   134.9686     5.2515     5.7563
  518.5000   137.6800     5.3278     6.1291
  519.0000   123.0782     5.5187     6.8034
  519.5000   112.5212     6.0000     7.4989
  520.0000   109.1606     6.8255     8.4972
  520.5000   110.9756     8.1462     9.4963
  521.0000   110.5386     9.3609    10.0511
  521.5000   108.9771     9.8313    10.1179
  522.0000   108.9898     9.9110    10.2641
  522.5000   109.4828    10.0508    10.3408
  523.0000   109.9180    10.1265    10.4952
  523.5000   109.9308    10.2737    10.7171
  524.0000   110.6182    10.4250    10.9475
  524.5000   111.5518    10.6495    11.1828
  525.0000   111.9929    10.7297    11.4232
  525.5000   110.6595    10.8857    11.6702
  526.0000   109.5478    11.0438    11.9211
  526.5000   108.8859    11.2838    12.0934
  527.0000   111.3756    11.3915    12.2682
  527.5000   111.1602    11.6141    12.6205
  528.0000   111.1761    11.7829    12.7147
  528.5000   112.0972    11.9609    12.8372
  529.0000   114.8030    12.1297    12.9948
  529.5000   115.7153    12.3059    13.0040
  530.0000   115.0533    12.3987    13.1144
  530.5000   113.2670    12.5379    13.2333
  531.0000   110.8091    12.6755    13.3890
  531.5000   108.7978    12.6830    13.3991
  532.0000   106.1119    12.7785    13.5914
  532.5000   103.6509    12.8328    13.6212
  533.0000   106.5903    12.9738    13.7000
  533.5000   108.1773    12.9814    13.8023
  534.0000   107.5154    12.9890    13.9071
  534.5000   103.7050    12.9967    13.9144
  535.0000   102.5933    13.0062    13.9217
  535.5000   105.3078    13.0139    13.8328
  536.0000   103.7464    13.0215    13.7448
  536.5000   101.7351    12.9392    13.6573
  537.0000   103.3852    12.7690    13.5702
  537.5000   107.6108    12.6028    13.4855
  538.0000   110.5471    12.4369    13.4927
  538.5000   108.0861    12.3582    13.4071
  539.0000   106.2997    12.2699    13.3218
  539.5000   108.1147    12.1187    13.1474
  540.0000   109.7016    12.0422    13.0636
  540.5000   110.1641    11.8854    12.8910
  541.0000   109.9520    11.7290    12.7206
  541.5000   110.6426    11.5763    12.4675
  542.0000   113.3539    11.5015    12.2180
  542.5000   115.6155    11.2735    12.0549
  543.0000   116.7527    11.0484    11.8917
  543.5000   117.4433    10.8090    11.5801
  544.0000   116.1067    10.5399    11.3483
  544.5000   112.0714    10.4011    11.1211
  545.0000   112.7588    10.2668    10.9741
  545.5000   114.1241    10.0592    10.6817
  546.0000   112.5626     9.8598    10.4679
  546.5000   112.1224     9.7300    10.3998
  547.0000   115.0618     9.6685    10.1930
  547.5000   118.7933     9.6076    10.1280
  548.0000   121.6122     9.5469    10.0635
  548.5000   120.0507     9.4867     9.9994
  549.0000   117.1399     9.4934     9.9368
  549.5000   115.2909     9.4338     9.9423
  550.0000   114.0169     9.3742     9.8792
  550.5000   114.4826     9.3150     9.8172
  551.0000   115.6198     9.2562     9.8223
  551.5000   116.7691     9.2631     9.7816
