~VERSION INFORMATION
 VERS.                2.0:   CWLS LOG ASCII STANDARD - VERSION 2.0
 WRAP.                 NO:   ONE LINE PER DEPTH STEP
~WELL INFORMATION
#MNEM.UNIT      DATA TYPE    INFORMATION
#----------   ------------   ------------------------------
 STRT.F           31.0000:   START DEPTH
 STOP.F          662.0000:   STOP DEPTH
 STEP.F            0.5000:   STEP LENGTH
 NULL.          -999.2500:   NO VALUE
 COMP. FENIX & SCISSON INC:   COMPANY
 WELL.   NPR-3 #83SX15-15:   WELL
 FLD .             TEAPOT:   FIELD
 LOC .      S15 T38N R78W:   LOCATION
 CNTY.            NATRONA:   COUNTY
 STAT.            WYOMING:   STATE
 CTRY. UNITED STATES OF AMERICA:   COUNTRY
 SRVC.            Unknown:   SERVICE COMPANY
 DATE.        17-MAY-1978:   LOGDATE
 API .       490251062500:   API NUMBER
~CURVE INFORMATION
#MNEM.UNIT       API CODE    CURVE DESCRIPTION
#----------   ------------   ------------------------------
 DEPT.F                  :   
 SN  .OHMM   07 040 16 00:   SHORT NORMAL 16'
 ILD .OHMM   07 120 46 00:   INDUCTION LOG DEEP
 CALD.IN     45 280 60 00:   CALIPER
 GRD .GAPI   45 310 01 00:   GAMMA RAY FROM DENSITY LOG
 RHOB.G/C3   45 350 01 00:   BULK DENSITY
 DPHI.DEC    45 890 10 00:   DENSITY POROSITY SANDSTONE
 CORR.G/C3   45 356 01 00:   DENSITY CORRECTION
~PARAMETER INFORMATION
#MNEM.UNIT          VALUE    DESCRIPTION
#----------   ------------   ------------------------------
 PD  .                 GL:   PERMANENT DATUM
 EPD .F              5265:   ELEVATION PERMANENT DATUM
 LMF .                 KB:   LOG MEASURED FROM
 DMF .                 KB:   DRILLING MEASURED FROM
 EKB .F              5269:   KELLING BUSHING
 EGL .F              5265:   GROUND LEVEL
 DATE.          5-17-1978:   RUN DATE
 RUN .                  1:   RUN NUMBER
 DD  .F               670:   DEPTH DRILLER
 DL  .F               668:   DEPTH LOGGER
 BLI .F               662:   BOTTOM LOG INTERVAL
 TLI .F                40:   TOP LOG INTERVAL
 CS  .IN            8.625:   CASING SIZE
 CBD .F                40:   CASING BOTTOM DRILLER
 BS  .IN            7.875:   BIT SIZE
 BSD .F               670:   BIT SIZE AT DEPTH
 DFT .                KCL:   DRILLING FLUID TYPE
 DFD .                8.6:   DRILLING FLUID DENSITY
 DFV .                 31:   DRILLING FLUID VISCOSITY
 DFPH.                 10:   DRILLING FLUID PH
 BHT .F                75:   BOTTOM HOLE TEMPERATURE
 TCS .HRS               2:   TIME CURCULATED STOPPED
 MRT .F                75:   MAXIMUM RECORDED TEMPERATURE
 LUN .               3006:   LOGGING UNIT NUMBER
 LUL .                CPR:   LOGGING UNIT LOCATION
 ENGI.             MILLER:   RECORDING ENGINEER
 WITN.           MCGINLEY:   WITNESSED BY
 CLNT.            A2DTECH:   CLIENT CODE
 ORIG.      2" & 5" PRINT:   ORIGIN OF DATA
 UWI .       490251062500:   UNIQUE WELL ID
 DICO. A2D Technologies, Inc.:   DIGITIZING COMPANY
~OTHER INFORMATION
~A   DEPT       SN        ILD       CALD         GRD      RHOB       DPHI       CORR   
# ...
  167.5000     6.2649     6.6253     7.4856    71.5162     2.4774     0.1230     0.0473
  168.0000     6.2559     6.5879     7.4902    71.9897     2.4728     0.1286     0.0430
  168.5000     6.2469     6.5507     7.5021    73.2843     2.4727     0.1248     0.0430
  169.0000     6.2378     6.5137     7.5142    74.0981     2.4724     0.1245     0.0430
  169.5000     6.2185     6.4769     7.5015    74.4931     2.4722     0.1270     0.0430
  170.0000     6.1990     6.4403     7.4661    76.3795     2.4721     0.1259     0.0430
  170.5000     6.1795     6.4039     7.4305    78.1263     2.4725     0.1218     0.0420
  171.0000     6.1601     6.3677     7.3949    77.9453     2.4720     0.1308     0.0352
  171.5000     6.1407     6.3317     7.3594    77.8078     2.4552     0.1386     0.0326
  172.0000     6.1214     6.2960     7.3237    78.0040     2.4500     0.1386     0.0301
  172.5000     6.1021     6.2604     7.2882    79.7221     2.4509     0.1366     0.0277
  173.0000     6.0829     6.2250     7.2603    80.7242     2.4498     0.1354     0.0252
  173.5000     6.0638     6.1898     7.2620    80.0369     2.4485     0.1385     0.0227
  174.0000     6.0447     6.1806     7.2675    78.6149     2.4472     0.1421     0.0203
  174.5000     6.0258     6.1805     7.2727    75.5742     2.4447     0.1458     0.0190
  175.0000     6.0123     6.1806     7.2780    74.1627     2.4438     0.1416     0.0256
  175.5000     6.0456     6.1806     7.2832    76.1721     2.4508     0.1364     0.0348
  176.0000     6.0718     6.1805     7.2884    78.7301     2.4608     0.1343     0.0380
  176.5000     6.0981     6.1799     7.2937    79.8996     2.4620     0.1332     0.0395
  177.0000     6.1246     6.1952     7.2989    79.1351     2.4620     0.1343     0.0410
  177.5000     6.1511     6.2432     7.3041    78.9635     2.4631     0.1342     0.0448
  178.0000     6.1778     6.2910     7.3093    79.1289     2.4704     0.1253     0.0488
  178.5000     6.2046     6.3391     7.3145    78.0902     2.4778     0.1184     0.0546
  179.0000     6.2315     6.3877     7.3203    77.2834     2.4790     0.1196     0.0525
  179.5000     6.2585     6.4366     7.3427    77.3160     2.4769     0.1215     0.0463
  180.0000     6.2856     6.4859     7.3938    76.6282     2.4743     0.1235     0.0403
  180.5000     6.3128     6.5355     7.4398    75.8903     2.4720     0.1242     0.0371
  181.0000     6.3402     6.5856     7.4389    75.7801     2.4718     0.1242     0.0375
  181.5000     6.3677     6.6360     7.4368    77.2187     2.4717     0.1270     0.0379
  182.0000     6.3955     6.6868     7.4349    76.2434     2.4715     0.1275     0.0383
  182.5000     6.4124     6.7380     7.4331    74.1958     2.4714     0.1252     0.0386
  183.0000     6.3981     6.7769     7.4313    74.4823     2.4713     0.1261     0.0389
  183.5000     6.3878     6.7769     7.4294    75.7094     2.4711     0.1256     0.0371
  184.0000     6.3774     6.7415     7.4276    75.9376     2.4709     0.1247     0.0350
  184.5000     6.3670     6.7033     7.4257    74.5912     2.4682     0.1272     0.0330
  185.0000     6.3567     6.6653     7.4239    74.1966     2.4647     0.1314     0.0309
  185.5000     6.3463     6.6276     7.4220    73.7770     2.4582     0.1367     0.0293
  186.0000     6.3360     6.5901     7.4206    73.3542     2.4587     0.1386     0.0357
  186.5000     6.3257     6.5528     7.4264    73.4336     2.4716     0.1258     0.0422
  187.0000     6.3154     6.5157     7.4323    73.5876     2.4829     0.1210     0.0437
  187.5000     6.3051     6.4788     7.4381    73.5954     2.4830     0.1198     0.0444
  188.0000     6.2961     6.4719     7.4440    73.1479     2.4830     0.1202     0.0451
  188.5000     6.3148     6.4719     7.4498    72.7192     2.4830     0.1207     0.0458
  189.0000     6.3328     6.4844     7.4556    72.7755     2.4830     0.1208     0.0465
  189.5000     6.3510     6.5584     7.4615    72.8589     2.4851     0.1195     0.0473
  190.0000     6.3693     6.6333     7.4673    73.4879     2.4871     0.1182     0.0480
  190.5000     6.3876     6.7090     7.4732    74.5360     2.4874     0.1189     0.0487
  191.0000     6.4059     6.7856     7.4792    73.9463     2.4878     0.1198     0.0501
  191.5000     6.4244     6.8631     7.4749    73.0024     2.4900     0.1148     0.0553
  192.0000     6.4428     6.9415     7.4686    72.1140     2.5005     0.1060     0.0633
  192.5000     6.4614     7.0209     7.4623    72.0722     2.5071     0.1030     0.0624
  193.0000     6.4799     7.0963     7.4559    72.8994     2.4975     0.1138     0.0492
  193.5000     6.4986     7.0963     7.4496    73.8324     2.4822     0.1206     0.0362
  194.0000     6.5173     7.0963     7.4433    73.9532     2.4759     0.1210     0.0269
  194.5000     6.5318     7.0963     7.4459    73.2564     2.4758     0.1217     0.0249
  195.0000     6.4741     7.0963     7.4567    72.5591     2.4714     0.1274     0.0250
  195.5000     6.4191     7.0021     7.4675    71.8557     2.4676     0.1326     0.0264
  196.0000     6.3644     6.9172     7.4783    72.3922     2.4680     0.1317     0.0288
  196.5000     6.3103     6.8333     7.4888    74.3264     2.4709     0.1286     0.0313
  197.0000     6.2566     6.7504     7.5044    75.5002     2.4760     0.1256     0.0337
  197.5000     6.2034     6.6684     7.5257    75.1593     2.4796     0.1225     0.0362
  198.0000     6.1506     6.5874     7.5341    74.9631     2.4824     0.1205     0.0386
  198.5000     6.1239     6.5314     7.5418    75.3324     2.4852     0.1214     0.0411
  199.0000     6.1643     6.5318     7.5496    76.3124     2.4903     0.1141     0.0459
  199.5000     6.1918     6.5629     7.5575    77.9290     2.4955     0.1050     0.0506
  200.0000     6.2194     6.5948     7.5553    76.5462     2.5007     0.1092     0.0462
  200.5000     6.2574     6.6269     7.5491    74.9815     2.4983     0.1153     0.0407
  201.0000     6.3165     6.6591     7.5426    75.1074     2.4845     0.1214     0.0352
  201.5000     6.3761     6.6915     7.5519    75.7951     2.4810     0.1250     0.0347
  202.0000     6.4364     6.7147     7.5736    76.3358     2.4810     0.1232     0.0344
  202.5000     6.4972     6.7482     7.5959    76.4047     2.4810     0.1211     0.0341
  203.0000     6.5585     6.7788     7.5932    76.4718     2.4811     0.1241     0.0338
  203.5000     6.6205     6.8096     7.5851    77.0830     2.4856     0.1168     0.0335
  204.0000     6.6831     6.8406     7.5770    77.7927     2.4965     0.1150     0.0332
  204.5000     6.7462     6.8717     7.5689    78.5081     2.5002     0.1146     0.0340
  205.0000     6.8099     6.9029     7.5609    79.2231     2.5039     0.1107     0.0360
  205.5000     6.8742     7.0048     7.5528    79.6710     2.5122     0.1057     0.0381
  206.0000     6.9392     7.1082     7.5447    76.3686     2.5197     0.0979     0.0425
  206.5000     7.0047     7.2131     7.5367    72.8928     2.5608     0.0901     0.0463
  207.0000     7.0709     7.3196     7.5286    70.7140     2.5581     0.0838     0.0200
  207.5000     7.0963     7.4276     7.5206    68.4604     2.5173     0.1060    -0.0074
  208.0000     7.0963     7.5372     7.5125    65.3577     2.4874     0.1210     0.0041
  208.5000     7.0963     7.5689     7.5043    58.3609     2.4780     0.1285     0.0207
  209.0000     7.0637     7.5133     7.4923    56.1330     2.4681     0.1328     0.0234
  209.5000     7.0064     7.3694     7.4752    63.1976     2.4650     0.1327     0.0255
  210.0000     6.9029     7.2282     7.4609    69.8620     2.4656     0.1312     0.0268
  210.5000     6.8009     7.0897     7.4739    73.2569     2.4670     0.1296     0.0260
  211.0000     6.7005     6.9539     7.4868    73.3033     2.4683     0.1281     0.0252
  211.5000     6.6015     6.7769     7.4996    74.4347     2.4697     0.1266     0.0244
  212.0000     6.5318     6.7889     7.5119    76.4271     2.4691     0.1288     0.0236
  212.5000     6.5404     6.8071     7.5027    77.2459     2.4668     0.1323     0.0231
