~VERSION INFORMATION
 VERS.                2.0:   CWLS LOG ASCII STANDARD - VERSION 2.0
 WRAP.                 NO:   ONE LINE PER DEPTH STEP
~WELL INFORMATION
#MNEM.UNIT      DATA TYPE    INFORMATION
#----------   ------------   ------------------------------
 STRT.F           40.0000:   START DEPTH
 STOP.F          596.0000:   STOP DEPTH
 STEP.F            0.5000:   STEP LENGTH
 NULL.          -999.2500:   NO VALUE
 COMP. FENIX & SCISSON INC:   COMPANY
 WELL. SX-15 N.O.R. #3 #51-15:   WELL
 FLD .             TEAPOT:   FIELD
 LOC .      S15 T38N R78W:   LOCATION
 CNTY.            NATRONA:   COUNTY
 STAT.            WYOMING:   STATE
 CTRY. UNITED STATES OF AMERICA:   COUNTRY
 SRVC.              Welex:   SERVICE COMPANY
 DATE.        12-MAR-1977:   LOGDATE
 API .       490251031100:   API NUMBER
~CURVE INFORMATION
#MNEM.UNIT       API CODE    CURVE DESCRIPTION
#----------   ------------   ------------------------------
 DEPT.F                  :   
 GRD .GAPI   45 310 01 00:   GAMMA RAY FROM DENSITY LOG
 CALD.IN     45 280 60 00:   CALIPER FROM DENSITY LOG
 CORR.G/C3   45 356 01 00:   DENSITY CORRECTION
 RHOB.G/C3   45 350 01 00:   BULK DENSITY
 DPOR.DEC    45 890 12 00:   DENSITY POROSITY SANDSTONE
 SGRD.OHMM   07 220 05 00:   SHALLOW GUARD RESISTIVITY
 ILD .OHMM   07 120 46 00:   INDUCTION LOG DEEP
 ILM .OHMM   07 120 44 00:   INDUCTION LOG MEDIUM
 SPR .MV     07 010 01 00:   SPONTANEOUS POTENTIAL
~PARAMETER INFORMATION
#MNEM.UNIT          VALUE    DESCRIPTION
#----------   ------------   ------------------------------
 PD  .                 GL:   PERMANENT DATUM
 EPD .F              5221:   ELEVATION PERMANENT DATUM
 LMF .                 GL:   LOG MEASURED FROM
 DMF .                 GL:   DRILLING MEASURED FROM
 EGL .F              5221:   GROUND LEVEL
 DATE.            3-12-77:   RUN DATE
 RUN .                  1:   RUN NUMBER
 DD  .F               600:   DEPTH DRILLER
 DL  .F               597:   DEPTH LOGGER
 BLI .F               596:   BOTTOM LOG INTERVAL
 TLI .F                45:   TOP LOG INTERVAL
 CS  .IN            8.625:   CASING SIZE
 CBD .F                46:   CASING BOTTOM DRILLER
 CBL .F                45:   CASING BOTTOM LOGGER
 BS  .IN            7.875:   BIT SIZE
 BSD .F               600:   BIT SIZE AT DEPTH
 DFT .            KCL-MUD:   DRILLING FLUID TYPE
 DFD .                8.9:   DRILLING FLUID DENSITY
 DFV .                 34:   DRILLING FLUID VISCOSITY
 MSS .            MUD PIT:   MUD SAMPLE SOURCE
 RMS .OHMM            .68:   RESISTIVITY MUD SAMPLE
 MST .F                40:   MUD SAMPLE TEMPERATURE
 RMF .OHMM            .57:   RESISTIVITY MUD FILTRATE SAMPLE
 MFST.F                40:   MUD FILTRATE SAMPLE TEMPERATURE
 RMC .OHMM            .78:   RESISTIVITY MUD CAKE
 MCST.F                40:   MUD CAKE SAMPLE TEMPERATURE
 MFSS.           MEASURED:   MUD FILTRATE SAMPLE SOURCE
 MCSS.           MEASURED:   MUD CAKE SAMPLE SOURCE
 RMB .OHMM            .41:   RESISTIVITY MUD AT BHT
 BHT .F                65:   BOTTOM HOLE TEMPERATURE
 TCS .HRS               3:   TIME CURCULATED STOPPED
 MRT .F                65:   MAXIMUM RECORDED TEMPERATURE
 LUN .                716:   LOGGING UNIT NUMBER
 LUL .             VERNAL:   LOGGING UNIT LOCATION
 ENGI.           CALLAHAN:   RECORDING ENGINEER
 WITN.         STUEBINGER:   WITNESSED BY
 CLNT.            A2DTECH:   CLIENT CODE
 ORIG.       2", 5" PRINT:   ORIGIN OF DATA
 UWI .       490251031100:   UNIQUE WELL ID
 DICO. A2D Technologies, Inc.:   DIGITIZING COMPANY
~OTHER INFORMATION
~A   DEPT       GRD        CALD     CORR       RHOB       DPOR       SGRD        ILD        ILM        SPR   
# ...
  441.5000    94.1132     7.8846     0.0504     2.4186     0.1421    18.3445    13.7815    15.0355   -51.1071
  442.0000    94.4639     7.8857     0.0411     2.4094     0.1500    18.0684    13.3792    15.1404   -51.0725
  442.5000    94.8146     7.8867     0.0306     2.3987     0.1556    18.0816    12.9902    15.2474   -51.0379
  443.0000    95.1653     7.8878     0.0298     2.3883     0.1618    18.1034    12.6092    15.3538   -51.0034
  443.5000    95.5160     7.8889     0.0324     2.3972     0.1530    18.1224    12.3108    15.4496   -50.9688
  444.0000    95.8667     7.8899     0.0373     2.4061     0.1471    18.1413    12.0488    16.5863   -50.9343
  444.5000    96.2174     7.8910     0.0421     2.4148     0.1451    18.1604    11.7924    17.5782   -50.8997
  445.0000    96.5679     7.8921     0.0470     2.4236     0.1413    18.1794    11.7165    17.5782   -50.8652
  445.5000    96.9183     7.8932     0.0491     2.4327     0.1362    18.1985    11.7165    17.7819   -50.8306
  446.0000    97.2703     7.8942     0.0503     2.4288     0.1397    18.2171    11.7163    18.1961   -50.7961
  446.5000    97.6223     7.8953     0.0515     2.4335     0.1331    18.2435    11.7163    18.6267   -50.7615
  447.0000    98.2273     7.8964     0.0519     2.4483     0.1237    17.8620    11.7156    19.0906   -50.7270
  447.5000    99.0855     7.8974     0.0503     2.4634     0.1175    17.4575    11.7663    18.4001   -50.6924
  448.0000    99.9436     7.8985     0.0486     2.4595     0.1236    17.0563    11.8393    17.6771   -50.6579
  448.5000   100.8034     7.8996     0.0528     2.4604     0.1218    16.7832    11.9136    16.9825   -50.6233
  449.0000   101.6631     7.9007     0.0591     2.4722     0.1182    17.0567    11.9538    16.3153   -50.5925
  449.5000   102.5225     7.9017     0.0654     2.4834     0.1147    17.2676    11.9814    15.7371   -50.5688
  450.0000   103.3826     7.9028     0.0718     2.4916     0.1111    17.4169    12.0091    15.3078   -50.5456
  450.5000   104.2421     7.9039     0.0780     2.4925     0.1079    16.8493    12.0368    15.1754   -50.5224
  451.0000   105.0998     7.9050     0.0805     2.4920     0.1074    16.6279    12.0645    15.0439   -50.4992
  451.5000   105.9804     7.9060     0.0723     2.4880     0.1081    16.6297    12.0924    13.8795   -50.4759
  452.0000   105.7337     7.9071     0.0644     2.4839     0.1102    16.6322    12.1203    13.0660   -50.4527
  452.5000   104.9080     7.9082     0.0624     2.4799     0.1123    16.6322    12.1482    14.3511   -50.4295
  453.0000   104.0143     7.9092     0.0624     2.4760     0.1145    16.7129    12.1763    14.0183   -50.4063
  453.5000   101.0606     7.9103     0.0624     2.4726     0.1162    16.8289    12.2044    13.3307   -50.3830
  454.0000    97.8337     7.9114     0.0623     2.4692     0.1157    16.9456    12.2326    13.5008   -50.3598
  454.5000    95.0357     7.9125     0.0622     2.4663     0.1152    17.0632    12.2699    13.7046   -50.3366
  455.0000    95.3029     7.9137     0.0487     2.4478     0.1223    17.4169    12.2693    13.4129   -50.3134
  455.5000    95.6090     7.9073     0.0321     2.4333     0.1364    17.7901    12.2692    13.0070   -50.2902
  456.0000    95.9048     7.8983     0.0335     2.4386     0.1335    17.9053    12.2692    12.7302   -50.2669
  456.5000    96.1965     7.8892     0.0351     2.4434     0.1303    17.5306    12.1448    13.1962   -50.2437
  457.0000    96.2687     7.8802     0.0412     2.4482     0.1264    17.2477    11.9693    13.4749   -50.2207
  457.5000    95.2634     7.8712     0.0472     2.4532     0.1222    16.9417    11.7964    13.5441   -50.1971
  458.0000    94.2300     7.8621     0.0526     2.4536     0.1194    16.9417    11.6259    13.6730   -50.1626
  458.5000    93.7754     7.8531     0.0532     2.4527     0.1237    16.8768    11.4579    13.8634   -50.1286
  459.0000    93.3679     7.8441     0.0540     2.4534     0.1264    16.6621    11.2923    13.9596   -50.0947
  459.5000    92.9687     7.8350     0.0501     2.4551     0.1203    16.4501    11.1291    13.5127   -50.0609
  460.0000    92.5354     7.8260     0.0448     2.4508     0.1258    16.2408    10.9683    13.2227   -50.0271
  460.5000    92.0789     7.8170     0.0392     2.4460     0.1304    16.1041    10.8097    12.9671   -49.9932
  461.0000    91.5712     7.8079     0.0432     2.4470     0.1247    15.9984    10.6535    13.3752   -49.9594
  461.5000    89.7174     7.7989     0.0493     2.4492     0.1199    15.8934    10.4996    13.7573   -49.9256
  462.0000    87.7321     7.7899     0.0542     2.4463     0.1279    15.7891    10.3931    14.1504   -49.8918
  462.5000    85.7477     7.7808     0.0526     2.4361     0.1341    15.7371    10.8384    14.7536   -49.8585
  463.0000    83.7651     7.7718     0.0511     2.4261     0.1372    16.1835    11.1938    15.5756   -49.8238
  463.5000    81.7804     7.7627     0.0496     2.4147     0.1435    16.5354    11.5609    16.4698   -49.7420
  464.0000    79.7894     7.7537     0.0485     2.4013     0.1509    16.9529    11.9401    17.3377   -49.5047
  464.5000    77.8221     7.7447     0.0558     2.3896     0.1582    17.5782    12.3316    18.2730   -49.2768
  465.0000    76.0955     7.7355     0.0633     2.3861     0.1637    20.6287    12.7360    19.2557   -49.0493
  465.5000    76.6974     7.7387     0.0707     2.3701     0.1718    23.3099    13.1537    20.1852   -48.8217
  466.0000    78.2806     7.7477     0.0767     2.3521     0.1831    25.4176    13.5851    19.2956   -48.5940
  466.5000    79.8391     7.7568     0.0789     2.3435     0.1881    22.8870    14.0306    18.7500   -48.3664
  467.0000    81.4024     7.7660     0.0811     2.3402     0.1908    20.0000    14.3511    19.8591   -48.1388
  467.5000    82.9692     7.7751     0.0798     2.3367     0.1928    18.1861    14.1976    20.9242   -47.9112
  468.0000    84.5495     7.7842     0.0674     2.3124     0.2006    16.9417    14.0594    21.9316   -47.6834
  468.5000    85.1360     7.7934     0.0653     2.3005     0.2117    18.0712    13.9226    20.1246   -47.4541
  469.0000    85.0229     7.8025     0.0762     2.3182     0.2045    19.6346    13.7872    18.6115   -47.2162
  469.5000    84.1011     7.8117     0.0870     2.3297     0.1965    18.4547    13.6525    17.2065   -47.3008
  470.0000    83.1858     7.8211     0.0979     2.3189     0.2048    17.7410    13.5203    15.9194   -47.4366
  470.5000    82.2692     7.8299     0.1088     2.3269     0.1990    23.3721    13.4532    15.2988   -47.5741
  471.0000    81.3040     7.8114     0.1116     2.3342     0.1940    27.7460    13.5787    16.4615   -47.7064
  471.5000    82.4196     7.6828     0.1051     2.3238     0.1988    30.2487    13.6605    17.2834   -47.7212
  472.0000    83.9994     7.5557     0.0985     2.3521     0.1872    25.7233    13.7768    18.4170   -47.3685
  472.5000    85.6000     7.4520     0.0985     2.3481     0.1822    19.8165    13.9168    17.5008   -47.0219
  473.0000    87.1973     7.5635     0.1016     2.3552     0.1839    19.1578    14.0601    16.2826   -47.0769
  473.5000    88.7945     7.6417     0.0934     2.3426     0.1808    18.5780    14.2194    15.1491   -47.1610
  474.0000    90.4000     7.6611     0.0617     2.3137     0.2047    18.4075    14.2041    14.0946   -47.2439
  474.5000    91.9428     7.6814     0.0709     2.3287     0.2056    19.4634    14.1823    13.2084   -47.3259
  475.0000    91.8390     7.7014     0.0761     2.3503     0.1779    20.3722    14.1606    14.3860   -47.4079
  475.5000    90.9842     7.7215     0.0619     2.3611     0.1835    20.1006    14.1388    15.5474   -47.4899
  476.0000    90.1439     7.7416     0.0602     2.3412     0.1891    19.8030    14.1172    16.8026   -47.5720
  476.5000    89.3064     7.7617     0.0626     2.3535     0.1802    19.5099    14.0947    17.7410   -47.6540
  477.0000    88.4686     7.7818     0.0652     2.3651     0.1744    19.2211    14.0888    16.9417   -47.7360
  477.5000    87.6333     7.8018     0.0677     2.3786     0.1688    18.9365    14.0891    17.3768   -47.8181
