~VERSION INFORMATION
 VERS.                2.0:   CWLS LOG ASCII STANDARD - VERSION 2.0
 WRAP.                 NO:   ONE LINE PER DEPTH STEP
~WELL INFORMATION
#MNEM.UNIT      DATA TYPE    INFORMATION
#----------   ------------   ------------------------------
 STRT.F          660.0000:   START DEPTH
 STOP.F         2899.5000:   STOP DEPTH
 STEP.F            0.5000:   STEP LENGTH
 NULL.          -999.2500:   NO VALUE
 COMP. LAWRENCE/ALLISON INC:   COMPANY
 WELL. NPR #3 22 X 10 #22-10:   WELL
 FLD .             TEAPOT:   FIELD
 LOC .      S10 T38N R78W:   LOCATION
 CNTY.            NATRONA:   COUNTY
 STAT.            WYOMING:   STATE
 CTRY. UNITED STATES OF AMERICA:   COUNTRY
 SRVC.            Unknown:   SERVICE COMPANY
 DATE.        11-SEP-1986:   LOGDATE
 API .       490251106200:   API NUMBER
~CURVE INFORMATION
#MNEM.UNIT       API CODE    CURVE DESCRIPTION
#----------   ------------   ------------------------------
 DEPT.F                  :   
 ROP .MIN/FT 91 810 01 00:   RATE OF DRILLING PENETRATION
 TGAS.UNITS  91 830 01 00:   TOTAL GAS FROM HOTWIRE
~PARAMETER INFORMATION
#MNEM.UNIT          VALUE    DESCRIPTION
#----------   ------------   ------------------------------
 DATE.          9-11-1986:   RUN DATE
 DD  .F              2900:   DEPTH DRILLER
 TLI .F              1380:   TOP LOG INTERVAL
 WITN. R. HUSK/K. FREDERICK:   WITNESSED BY
 CLNT.            A2DTECH:   CLIENT CODE
 ORIG.           5" PRINT:   ORIGIN OF DATA
 UWI .       490251106200:   UNIQUE WELL ID
 DICO. A2D Technologies, Inc.:   DIGITIZING COMPANY
~OTHER INFORMATION
~A   DEPT      ROP         TGAS 
# ...
 2604.0000     2.3280    69.1035
 2604.5000     2.4438    69.2069
 2605.0000     2.5520    69.3103
 2605.5000     2.6780    68.2464
 2606.0000     2.7827    67.4483
 2606.5000     2.7825    66.2020
 2607.0000     2.7814    65.5862
 2607.5000     2.7716    64.1593
 2608.0000     2.7782    63.7241
 2608.5000     2.8256    61.7757
 2609.0000     2.8903    59.8059
 2609.5000     2.9520    59.9050
 2610.0000     2.9920    57.9352
 2610.5000     2.9987    55.9653
 2611.0000     2.9941    56.0690
 2611.5000     2.9926    56.1635
 2612.0000     3.0343    54.1937
 2612.5000     3.1324    54.3103
 2613.0000     3.2452    54.4138
 2613.5000     3.3532    54.5173
 2614.0000     3.4751    54.6207
 2614.5000     3.4648    56.9070
 2615.0000     3.2172    62.6719
 2615.5000     2.8193    68.0060
 2616.0000     2.5488    72.5870
 2616.5000     2.5382    73.7586
 2617.0000     2.5275    73.8621
 2617.5000     2.5273    73.9655
 2618.0000     2.5270    74.0690
 2618.5000     2.5597    74.1724
 2619.0000     2.6036    74.2759
 2619.5000     2.6588    74.3793
 2620.0000     2.7235    74.4993
 2620.5000     2.7904    74.5984
 2621.0000     2.8633    72.6285
 2621.5000     2.9280    70.6587
 2622.0000     2.9754    68.6728
 2622.5000     2.9587    66.7190
 2623.0000     2.8891    66.8181
 2623.5000     2.8131    64.8483
 2624.0000     2.7838    68.1702
 2624.5000     2.8221    74.7533
 2625.0000     2.8699    81.8992
 2625.5000     2.9259    90.6399
 2626.0000     2.9802    97.8964
 2626.5000     2.9764   102.3192
 2627.0000     2.9766   105.8193
 2627.5000     2.9769   107.0690
 2628.0000     2.9771   107.0874
 2628.5000     2.9818   107.0246
 2629.0000     2.9880   106.9617
 2629.5000     2.9883   106.8989
 2630.0000     2.9492   106.8361
 2630.5000     2.8617   106.7732
 2631.0000     2.7582   106.7104
 2631.5000     2.6573   106.6476
 2632.0000     2.5676   106.5847
 2632.5000     2.6274   106.5219
 2633.0000     2.7547   106.4591
 2633.5000     2.9177   106.3962
 2634.0000     3.0531   106.3334
 2634.5000     3.2404   106.2705
 2635.0000     3.3446   106.2077
 2635.5000     3.4488   106.1449
 2636.0000     3.5440   106.0820
 2636.5000     3.6330   106.0192
 2637.0000     3.7629   105.9564
 2637.5000     3.8859   105.8935
 2638.0000     3.9581   105.8307
 2638.5000     4.0013   105.7679
 2639.0000     3.9989   105.7050
 2639.5000     3.9945   101.0853
 2640.0000     4.0575    91.2060
 2640.5000     4.2230    82.9522
 2641.0000     4.3831    77.7757
 2641.5000     4.5563    76.2414
 2642.0000     4.7039    74.8966
 2642.5000     4.8230    74.1593
 2643.0000     4.9302    73.9398
 2643.5000     5.0000    75.2069
 2644.0000     4.9526    75.3103
 2644.5000     4.6730    75.4138
 2645.0000     4.3900    75.5172
 2645.5000     4.1115    75.6207
 2646.0000     3.9927    77.0170
 2646.5000     3.9919    78.0390
 2647.0000     3.9912    78.3664
 2647.5000     3.9904    78.6938
 2648.0000     3.9577    79.0212
 2648.5000     3.8639    79.3486
 2649.0000     3.7696    79.6760
 2649.5000     3.6546    80.0034
 2650.0000     3.5707    80.3307
 2650.5000     3.6958    80.6581
 2651.0000     3.8664    80.9855
 2651.5000     3.9833    81.3129
 2652.0000     4.0666    81.6403
 2652.5000     3.8249    81.9677
 2653.0000     3.6677    82.2951
 2653.5000     3.5903    82.6225
 2654.0000     3.5748    82.9499
 2654.5000     3.5741    83.2772
 2655.0000     3.5778    83.6046
 2655.5000     3.5779    83.9320
 2656.0000     3.4774    84.2594
 2656.5000     3.2552    84.5868
 2657.0000     2.9582    84.9142
 2657.5000     2.6236    85.2416
 2658.0000     2.4433    85.5690
 2658.5000     2.3256    85.8964
 2659.0000     2.1740    86.2237
 2659.5000     2.0589    86.5511
 2660.0000     2.0166    86.9049
 2660.5000     2.0159    86.8571
 2661.0000     2.0151    86.8050
 2661.5000     2.0301    86.7530
 2662.0000     2.0984    86.7009
 2662.5000     2.2046    86.6489
 2663.0000     2.3163    86.5969
 2663.5000     2.4588    86.5448
 2664.0000     2.5555    86.4928
 2664.5000     2.4179    86.4407
 2665.0000     2.2367    86.3887
 2665.5000     2.0895    86.3367
 2666.0000     1.9896    86.2846
 2666.5000     1.9753    86.2326
 2667.0000     1.9745    86.1805
 2667.5000     1.9783    86.1285
 2668.0000     1.9834    86.0765
 2668.5000     1.9877    86.0244
 2669.0000     1.9977    85.9724
 2669.5000     2.0018    85.9204
 2670.0000     2.0010    85.8683
 2670.5000     2.0003    85.8163
 2671.0000     2.0062    85.7642
 2671.5000     2.0091    85.7122
 2672.0000     2.0083    85.6602
 2672.5000     2.0075    85.6081
 2673.0000     2.0068    85.5561
 2673.5000     2.0060    85.5040
 2674.0000     2.0051    85.4520
 2674.5000     2.0043    85.4000
 2675.0000     2.0035    85.3479
 2675.5000     2.0028    85.2959
 2676.0000     2.0020    85.2439
 2676.5000     2.1572    85.1918
 2677.0000     2.3228    85.1398
 2677.5000     2.4480    85.0877
 2678.0000     2.5084    85.0357
 2678.5000     2.3712    84.9837
 2679.0000     2.2162    84.9316
 2679.5000     2.0414    84.8796
 2680.0000     1.9960    84.8359
 2680.5000     1.9961    84.8952
 2681.0000     1.9962    84.9463
 2681.5000     1.9963    84.9974
 2682.0000     1.9965    85.0485
 2682.5000     1.9966    85.0996
 2683.0000     1.9967    85.1507
 2683.5000     1.9968    85.2018
 2684.0000     1.9969    85.2529
 2684.5000     1.9970    85.3040
 2685.0000     1.9972    85.3551
 2685.5000     1.9973    85.4062
 2686.0000     1.9974    85.4573
 2686.5000     1.9975    85.5084
 2687.0000     1.9976    85.5595
 2687.5000     1.9978    85.6106
 2688.0000     1.9979    85.6618
 2688.5000     1.9980    85.7129
 2689.0000     1.9981    85.7640
 2689.5000     1.9982    85.8151
 2690.0000     1.9983    85.8662
 2690.5000     1.9985    85.9173
 2691.0000     1.9986    85.9684
 2691.5000     1.9987    86.0195
 2692.0000     1.9988    86.0706
 2692.5000     1.9989    86.1217
 2693.0000     1.9990    86.1728
 2693.5000     1.9992    86.2239
 2694.0000     1.9993    86.2750
 2694.5000     1.9994    86.3261
 2695.0000     1.9995    86.3772
 2695.5000     1.9996    86.4283
 2696.0000     1.9998    86.4794
 2696.5000     2.4377    86.5305
 2697.0000     3.0376    86.5816
 2697.5000     3.4147    86.6327
 2698.0000     3.4605    86.6838
 2698.5000     3.2098    86.7349
 2699.0000     3.0011    86.7860
 2699.5000     2.6615    86.8371
 2700.0000     2.4531    86.8966
 2700.5000     2.3591    86.8531
 2701.0000     2.2442    86.8012
 2701.5000     2.1190    86.7492
 2702.0000     2.0353    86.6973
 2702.5000     1.9932    86.6453
 2703.0000     1.9822    86.5934
 2703.5000     1.9714    86.5415
 2704.0000     1.9785    86.4895
 2704.5000     2.0996    86.4376
 2705.0000     2.2570    86.3857
 2705.5000     2.3988    86.3337
 2706.0000     2.5302    86.2818
 2706.5000     2.3368    86.2299
 2707.0000     2.2079    86.1779
 2707.5000     2.0903    86.1260
 2708.0000     2.0260    86.0741
 2708.5000     2.0182    86.0221
 2709.0000     2.0177    85.9702
 2709.5000     2.0212    85.9182
 2710.0000     2.0270    85.8663
 2710.5000     2.0265    85.8144
 2711.0000     2.0260    85.7624
 2711.5000     2.0307    85.7105
 2712.0000     2.0409    85.6586
 2712.5000     2.0511    85.6066
 2713.0000     2.0551    85.5547
 2713.5000     2.0546    85.5028
 2714.0000     2.0541    85.4508
 2714.5000     2.0535    85.3989
 2715.0000     2.0530    85.3469
 2715.5000     2.0525    85.2950
 2716.0000     2.0440    85.2431
 2716.5000     2.0410    85.1911
 2717.0000     2.0405    85.1392
 2717.5000     2.0296    85.0873
 2718.0000     2.0290    85.0353
 2718.5000     2.0285    84.9834
 2719.0000     2.0176    84.9315
 2719.5000     2.0171    84.8795
 2720.0000     2.0166    84.8234
 2720.5000     2.1864    84.5383
 2721.0000     2.3237    84.2280
 2721.5000     2.4418    83.9176
 2722.0000     2.5561    83.6072
 2722.5000     2.5559    83.2969
 2723.0000     2.5556    82.9865
 2723.5000     2.5554    82.6762
 2724.0000     2.5357    82.3658
 2724.5000     2.3602    82.0555
 2725.0000     2.1030    81.7451
