~VERSION INFORMATION
 VERS.                2.0:   CWLS LOG ASCII STANDARD - VERSION 2.0
 WRAP.                 NO:   ONE LINE PER DEPTH STEP
~WELL INFORMATION
#MNEM.UNIT      DATA TYPE    INFORMATION
#----------   ------------   ------------------------------
 STRT.F           35.0000:   START DEPTH
 STOP.F          977.0000:   STOP DEPTH
 STEP.F            0.5000:   STEP LENGTH
 NULL.          -999.2500:   NO VALUE
 COMP. FENIX & SCISSON INC:   COMPANY
 WELL.  NPR-3 "SX" #52-14:   WELL
 FLD .             TEAPOT:   FIELD
 LOC .      S14 T38N R78W:   LOCATION
 CNTY.            NATRONA:   COUNTY
 STAT.            WYOMING:   STATE
 CTRY. UNITED STATES OF AMERICA:   COUNTRY
 SRVC.            Unknown:   SERVICE COMPANY
 DATE.        13-MAR-1978:   LOGDATE
 API .       490251059900:   API NUMBER
~CURVE INFORMATION
#MNEM.UNIT       API CODE    CURVE DESCRIPTION
#----------   ------------   ------------------------------
 DEPT.F                  :   
 CALD.IN     45 280 60 00:   CALIPER FROM DENSITY LOG
 GRD .GAPI   45 310 01 00:   GAMMA RAY FROM DENSITY LOG
 CORR.G/C3   45 356 01 00:   DENSITY CORRECTION
 RHOB.G/C3   45 350 01 00:   BULK DENSITY
 DPHI.DEC    45 890 12 00:   DENSITY POROSITY SANDSTONE
 SPR .MV     07 010 01 00:   SPONTANEOUS POTENTIAL FROM RES. LOG
 ILD .OHMM   07 120 46 00:   INDUCTION LOG DEEP
 SN  .OHMM   07 040 16 00:   SHORT NORMAL 16'
~PARAMETER INFORMATION
#MNEM.UNIT          VALUE    DESCRIPTION
#----------   ------------   ------------------------------
 PD  .                 GL:   PERMANENT DATUM
 EPD .F              5223:   ELEVATION PERMANENT DATUM
 LMF .                 KB:   LOG MEASURED FROM
 DAPD.F                 4:   FEET ABOVE PERMANENT DATUM
 DMF .                 KB:   DRILLING MEASURED FROM
 EKB .F              5227:   KELLING BUSHING
 EGL .F              5223:   GROUND LEVEL
 DATE.            3-13-78:   RUN DATE
 RUN .                  1:   RUN NUMBER
 DD  .F               975:   DEPTH DRILLER
 DL  .F               977:   DEPTH LOGGER
 BLI .F               971:   BOTTOM LOG INTERVAL
 TLI .F                50:   TOP LOG INTERVAL
 CS  .IN            8.625:   CASING SIZE
 CBD .F                40:   CASING BOTTOM DRILLER
 CBL .F                40:   CASING BOTTOM LOGGER
 BS  .IN            7.875:   BIT SIZE
 BSD .F               975:   BIT SIZE AT DEPTH
 DFT .                KCL:   DRILLING FLUID TYPE
 DFD .                8.6:   DRILLING FLUID DENSITY
 DFV .                 33:   DRILLING FLUID VISCOSITY
 DFPH.               10.5:   DRILLING FLUID PH
 DFL .               11.6:   DRILLING FLUID LOSS
 MSS .          FLOW LINE:   MUD SAMPLE SOURCE
 RMS .OHMM            .34:   RESISTIVITY MUD SAMPLE
 MST .F                60:   MUD SAMPLE TEMPERATURE
 RMF .OHMM            .36:   RESISTIVITY MUD FILTRATE SAMPLE
 MFST.F                62:   MUD FILTRATE SAMPLE TEMPERATURE
 RMC .OHMM            .75:   RESISTIVITY MUD CAKE
 MCST.F                59:   MUD CAKE SAMPLE TEMPERATURE
 MFSS.               MEAS:   MUD FILTRATE SAMPLE SOURCE
 MCSS.               MEAS:   MUD CAKE SAMPLE SOURCE
 RMB .OHMM            .27:   RESISTIVITY MUD AT BHT
 BHT .F                75:   BOTTOM HOLE TEMPERATURE
 TCS .HRS               4:   TIME CURCULATED STOPPED
 MRT .F                75:   MAXIMUM RECORDED TEMPERATURE
 LUN .               2958:   LOGGING UNIT NUMBER
 LUL .               CASP:   LOGGING UNIT LOCATION
 ENGI.             MILLER:   RECORDING ENGINEER
 WITN.            RHOADES:   WITNESSED BY
 CLNT.            A2DTECH:   CLIENT CODE
 ORIG.       2", 5" PRINT:   ORIGIN OF DATA
 UWI .       490251059900:   UNIQUE WELL ID
 DICO. A2D Technologies, Inc.:   DIGITIZING COMPANY
~OTHER INFORMATION
~A   DEPT     CALD         GRD      CORR       RHOB       DPHI        SPR        ILD         SN   
# ...
  561.5000     8.1666    94.8708     0.0029     2.4688     0.1098   -53.7181     7.4791     8.7042
  562.0000     8.1674    93.2305     0.0012     2.4631     0.1136   -53.4321     7.4719     8.6925
  562.5000     8.1682    88.2752     0.0050     2.4516     0.1106   -53.7378     7.4648     8.6808
  563.0000     8.1690    87.9831     0.0086     2.4503     0.1040   -54.1600     7.4576     8.6691
  563.5000     8.1698    88.3514     0.0122     2.4676     0.1008   -54.5863     7.4505     8.6574
  564.0000     8.1706    90.5816     0.0158     2.4712     0.0976   -55.0116     7.4434     8.6457
  564.5000     8.1713    94.6542     0.0179     2.4760     0.0952   -54.9246     7.4363     8.6341
  565.0000     8.1721    98.1622     0.0146     2.4840     0.0981   -54.2291     7.4292     8.6285
  565.5000     8.1729    95.8384     0.0132     2.4788     0.0969   -53.9248     7.4221     8.6285
  566.0000     8.1737    94.6335     0.0184     2.4732     0.0928   -54.3080     7.4150     8.6285
  566.5000     8.1746    96.1664     0.0193     2.4867     0.0957   -54.6772     7.4079     8.6285
  567.0000     8.1754    96.7490     0.0164     2.4896     0.0984   -55.0452     7.4008     8.6285
  567.5000     8.1770    97.1634     0.0132     2.4804     0.0972   -55.3118     7.3937     8.6285
  568.0000     8.1329    97.3622     0.0167     2.4731     0.0940   -55.5635     7.3867     8.6285
  568.5000     8.0727    93.2112     0.0194     2.4823     0.0904   -54.7681     7.3795     8.6285
  569.0000     8.0311    91.0646     0.0161     2.4920     0.0904   -54.2190     7.3678     8.6285
  569.5000     8.0197    90.9331     0.0079     2.4914     0.0913   -54.4177     7.3437     8.6285
  570.0000     8.0160    93.2024    -0.0069     2.4908     0.0934   -53.8591     7.3197     8.6285
  570.5000     8.0159    95.4685    -0.0163     2.4665     0.0956   -52.9743     7.2957     8.6285
  571.0000     8.0158    95.4079     0.0065     2.4558     0.1011   -52.9943     7.2718     8.6285
  571.5000     8.0169    95.4100     0.0025     2.4772     0.1117   -53.0010     7.2480     8.6285
  572.0000     8.0669    96.0613    -0.0010     2.4806     0.1160   -53.2250     7.2242     8.6285
  572.5000     8.1880    99.2573    -0.0027     2.4655     0.1139   -54.0460     7.2005     8.6285
  573.0000     8.2098    99.6473     0.0010     2.4536     0.1101   -54.5942     7.1729     8.6285
  573.5000     8.1891    97.9116     0.0044     2.4583     0.1066   -54.5054     7.1837     8.6285
  574.0000     8.1680    97.2823     0.0057     2.4603     0.1030   -54.4286     7.1969     8.6283
  574.5000     8.1553    99.4701     0.0036     2.4732     0.1052   -54.3521     7.2102     8.6200
  575.0000     8.1532    96.5338     0.0031     2.4641     0.1099   -54.2774     7.2234     8.5992
  575.5000     8.1511    92.4614     0.0058     2.4621     0.0987   -54.2034     7.2366     8.5784
  576.0000     8.1490    93.7392     0.0199     2.4782     0.0923   -54.5650     7.2510     8.5491
  576.5000     8.1469    95.5240     0.0197     2.4903     0.0927   -55.3147     7.2658     8.5805
  577.0000     8.1447    95.9381     0.0190     2.4871     0.0923   -54.8532     7.2805     8.6344
  577.5000     8.1426    96.3932     0.0060     2.4912     0.0935   -54.0834     7.2953     8.6889
  578.0000     8.1405    97.1907     0.0101     2.4851     0.0968   -54.2977     7.3101     8.7437
  578.5000     8.1387    99.0759     0.0240     2.4823     0.0932   -54.7402     7.3249     8.7889
  579.0000     8.1348   101.1862     0.0239     2.4868     0.0957   -55.1878     7.3398     8.7823
  579.5000     8.0868   101.6322     0.0199     2.4845     0.0998   -55.6709     7.3546     8.7754
  580.0000     8.0377   100.0608     0.0166     2.4754     0.1018   -54.9766     7.3696     8.7691
  580.5000     7.9953    98.4692     0.0181     2.4735     0.1042   -53.7328     7.3845     8.7628
  581.0000     8.0330    98.8675     0.0197     2.4709     0.1066   -53.5535     7.3995     8.7564
  581.5000     8.1385    99.1288     0.0228     2.4648     0.1090   -53.8709     7.4145     8.7500
  582.0000     8.1612    96.1962     0.0285     2.4586     0.1112   -54.2001     7.4295     8.7437
  582.5000     8.1395    93.2155     0.0349     2.4520     0.1100   -54.2725     7.4417     8.7373
  583.0000     8.1167    91.0682     0.0445     2.4526     0.1088   -54.0086     7.4311     8.7309
  583.5000     8.0940    94.2390     0.0473     2.4579     0.1114   -53.7485     7.4204     8.7245
  584.0000     8.0765    97.5355     0.0515     2.4618     0.1086   -53.7007     7.4098     8.7182
  584.5000     8.0814    98.9900     0.0596     2.4615     0.1022   -53.9500     7.3991     8.7112
  585.0000     8.0857   100.6441     0.0683     2.4567     0.0953   -54.0257     7.3885     8.6764
  585.5000     8.0901   105.3352     0.0930     2.4839     0.0922   -54.0677     7.3779     8.6103
  586.0000     8.0941   104.5530     0.0948     2.4998     0.0886   -54.1090     7.3374     8.5447
  586.5000     8.1452   102.1956     0.0905     2.4931     0.0830   -54.1502     7.2826     8.4795
  587.0000     8.2258    97.7383     0.0735     2.5116     0.0788   -54.1916     7.2282     8.4149
  587.5000     8.2378    93.9983     0.0499     2.5099     0.0933   -54.2330     7.1742     8.3507
  588.0000     8.2389    94.9851     0.0350     2.4919     0.0856   -54.2744     7.1207     8.2871
  588.5000     8.2400    93.8042     0.0345     2.4971     0.0747   -54.3158     7.0675     8.2390
  589.0000     8.2413    89.3087     0.0345     2.5159     0.0638   -54.3572     7.0147     8.2578
  589.5000     8.2425    84.7953     0.0299     2.5354     0.0568   -54.3985     6.9623     8.2730
  590.0000     8.2437    83.0535     0.0088     2.5494     0.0558   -54.4399     6.9103     8.2882
  590.5000     8.2450    84.7258    -0.0034     2.5169     0.0692   -54.4813     6.8491     8.3034
  591.0000     8.2462    90.3781     0.0219     2.5131     0.0920   -54.5227     6.8748     8.3159
  591.5000     8.2475    93.6347     0.0243     2.5003     0.0872   -54.5641     6.9170     8.3139
  592.0000     8.2487    94.1737     0.0260     2.4904     0.0900   -54.6055     6.9595     8.5000
  592.5000     8.2500    94.3860     0.0259     2.4915     0.0934   -54.6468     7.0022     8.7387
  593.0000     8.2512    93.5177     0.0249     2.4905     0.0941   -54.6882     7.0452     8.7949
  593.5000     8.2524    92.2598     0.0240     2.4863     0.0924   -54.7296     7.0885     8.8018
  594.0000     8.2537    91.9625     0.0231     2.4907     0.0922   -54.7710     7.1229     8.8088
  594.5000     8.2549    92.3237     0.0221     2.4857     0.0924   -54.8124     7.1657     8.8158
  595.0000     8.2568    93.2989     0.0212     2.4873     0.0926   -54.8538     7.2087     8.8228
  595.5000     8.2255    95.5254     0.0202     2.4868     0.0928   -54.8951     7.2520     8.8297
  596.0000     8.1823    95.5237     0.0193     2.4853     0.0926   -54.9365     7.2956     8.8367
  596.5000     8.1569    94.6542     0.0183     2.4843     0.0924   -54.9779     7.3394     8.8437
  597.0000     8.1852    95.9615     0.0174     2.4859     0.0932   -55.0193     7.3835     8.8507
  597.5000     8.2151    95.5370     0.0164     2.4857     0.0981   -55.0607     7.4278     8.8577
  598.0000     8.2704    95.3148     0.0139     2.4801     0.1029   -55.1021     7.4724     8.8647
  598.5000     8.2961    95.6574     0.0115     2.4718     0.1060   -55.1435     7.5100     8.8717
  599.0000     8.2967    96.3177     0.0124     2.4645     0.1058   -55.1848     7.4932     8.8788
  599.5000     8.2966    99.2492     0.0153     2.4657     0.1049   -55.2262     7.4765     8.8858
  600.0000     8.2966   100.4667     0.0184     2.4698     0.1040   -55.2676     7.4598     8.8928
  600.5000     8.2966    91.1328     0.0215     2.4690     0.1031   -55.3090     7.4431     8.8998
  601.0000     8.2966    90.4300     0.0244     2.4680     0.1022   -55.3504     7.4265     8.9069
  601.5000     8.2966    90.1749     0.0231     2.4701     0.1035   -55.3918     7.4099     8.9139
