~VERSION INFORMATION
 VERS.                2.0:   CWLS LOG ASCII STANDARD - VERSION 2.0
 WRAP.                 NO:   ONE LINE PER DEPTH STEP
~WELL INFORMATION
#MNEM.UNIT      DATA TYPE    INFORMATION
#----------   ------------   ------------------------------
 STRT.F           24.0000:   START DEPTH
 STOP.F          487.5000:   STOP DEPTH
 STEP.F            0.5000:   STEP LENGTH
 NULL.          -999.2500:   NO VALUE
 COMP. FENIX & SCISSON INC:   COMPANY
 WELL.       NPR #35-SX-3:   WELL
 FLD .        TEAPOT DOME:   FIELD
 LOC .       S3 T38N R78W:   LOCATION
 CNTY.            NATRONA:   COUNTY
 STAT.            WYOMING:   STATE
 CTRY. UNITED STATES OF AMERICA:   COUNTRY
 SRVC.       Schlumberger:   SERVICE COMPANY
 DATE.        26-MAR-1977:   LOGDATE
 API .       490251030700:   API NUMBER
~CURVE INFORMATION
#MNEM.UNIT       API CODE    CURVE DESCRIPTION
#----------   ------------   ------------------------------
 DEPT.F                  :   
 SPR .MV     07 010 01 00:   SPONTANEOUS POTENTIAL
 LL8 .OHMM   07 220 08 00:   LATEROLOG-8 RES.
 ILD .OHMM   07 120 46 00:   INDUCTION LOG DEEP
 ILM .OHMM   07 120 44 00:   INDUCTION LOG MEDIUM
 CALD.IN     45 280 60 00:   CALIPER FROM DENSITY LOG
 RHOB.G/C3   45 350 01 00:   BULK DENSITY
 DPOR.DEC    45 890 12 00:   DENSITY POROSITY SANDSTONE
 CORR.G/C3   45 356 01 00:   DENSITY CORRECTION
 GRD .GAPI   45 310 01 00:   GAMMA RAY FROM DENSITY LOG
~PARAMETER INFORMATION
#MNEM.UNIT          VALUE    DESCRIPTION
#----------   ------------   ------------------------------
 PD  .                 GL:   PERMANENT DATUM
 EPD .F          EST 5200:   ELEVATION PERMANENT DATUM
 LMF .                 GL:   LOG MEASURED FROM
 DMF .                 KB:   DRILLING MEASURED FROM
 EKB .F              5205:   KELLING BUSHING
 EGL .F          EST 5200:   GROUND LEVEL
 DATE.            3-26-77:   RUN DATE
 RUN .                  1:   RUN NUMBER
 DD  .F               524:   DEPTH DRILLER
 DL  .F               489:   DEPTH LOGGER
 BLI .F               483:   BOTTOM LOG INTERVAL
 TLI .F                39:   TOP LOG INTERVAL
 CS  .IN            8.625:   CASING SIZE
 CBD .F                40:   CASING BOTTOM DRILLER
 CBL .F                39:   CASING BOTTOM LOGGER
 BS  .IN            7.875:   BIT SIZE
 BSD .F               524:   BIT SIZE AT DEPTH
 DFT .                KCL:   DRILLING FLUID TYPE
 DFD .                8.8:   DRILLING FLUID DENSITY
 DFV .                 31:   DRILLING FLUID VISCOSITY
 DFPH.                  8:   DRILLING FLUID PH
 DFL .                9.1:   DRILLING FLUID LOSS
 MSS .          FLOW LINE:   MUD SAMPLE SOURCE
 RMS .OHMM            .18:   RESISTIVITY MUD SAMPLE
 MST .F                76:   MUD SAMPLE TEMPERATURE
 RMF .OHMM            .15:   RESISTIVITY MUD FILTRATE SAMPLE
 MFST.F                76:   MUD FILTRATE SAMPLE TEMPERATURE
 RMC .OHMM             .1:   RESISTIVITY MUD CAKE
 MCST.F                76:   MUD CAKE SAMPLE TEMPERATURE
 MFSS.                  M:   MUD FILTRATE SAMPLE SOURCE
 MCSS.                  C:   MUD CAKE SAMPLE SOURCE
 RMB .OHMM            .25:   RESISTIVITY MUD AT BHT
 BHT .F                55:   BOTTOM HOLE TEMPERATURE
 TCS .HRS               6:   TIME CURCULATED STOPPED
 MRT .F            EST 55:   MAXIMUM RECORDED TEMPERATURE
 LUN .               5642:   LOGGING UNIT NUMBER
 LUL .               CSPR:   LOGGING UNIT LOCATION
 ENGI.     LOHBECK/MARTIN:   RECORDING ENGINEER
 WITN.         STUEBINGER:   WITNESSED BY
 CLNT.            A2DTECH:   CLIENT CODE
 ORIG.       2", 5" PRINT:   ORIGIN OF DATA
 UWI .       490251030700:   UNIQUE WELL ID
 DICO. A2D Technologies, Inc.:   DIGITIZING COMPANY
~OTHER INFORMATION
~A   DEPT      SPR        LL8        ILD        ILM       CALD       RHOB       DPOR       CORR        GRD   
# ...
  462.0000   -46.0052    13.5352    11.4106    12.3348     8.1528     2.4794     0.1049     0.0369   101.0889
  462.5000   -46.1648    13.2565    11.2322    12.1747     8.1528     2.4928     0.0950     0.0467   101.0437
  463.0000   -46.6841    13.2565    11.0565    12.0167     8.1528     2.4860     0.1002     0.0346   101.1356
  463.5000   -46.9210    13.2565    10.8836    11.8607     8.1528     2.4777     0.1070     0.0282   103.0534
  464.0000   -47.1861    13.1592    10.7134    11.7067     8.1528     2.4802     0.0978     0.0304   103.1108
  464.5000   -47.4450    12.8399    10.5459    11.5396     8.1528     2.4729     0.1055     0.0188   103.7455
  465.0000   -47.8448    12.5289    10.3810    11.3354     8.1528     2.4700     0.1100     0.0195   106.0524
  465.5000   -47.9762    12.2246    10.2186    11.0499     8.1528     2.4723     0.1076     0.0231   107.0648
  466.0000   -48.0160    11.9284     9.9834    10.7716     8.1528     2.4672     0.1073     0.0232   107.0454
  466.5000   -48.0132    11.6384     9.6804    10.5003     8.1528     2.4608     0.1150     0.0204   107.4779
  467.0000   -48.0120    11.3282     9.3883    10.2359     8.1528     2.4601     0.1075     0.0273   108.7915
  467.5000   -48.0115    11.0740     9.0761     9.9527     8.1528     2.4590     0.1151     0.0354   108.7942
  468.0000   -48.0000    10.7982     8.2596     9.3839     8.1528     2.4396     0.1274     0.0410   110.7034
  468.5000   -48.3983    10.5316     7.4380     8.6273     8.1528     2.4177     0.1397     0.0238   119.0317
  469.0000   -48.8876    10.2695     6.6988     7.7544     8.1528     2.4004     0.1519     0.0320   127.4606
  469.5000   -49.4364     9.2472     6.0968     6.8144     8.1528     2.3870     0.1610     0.0476   130.5480
  470.0000   -49.9916     6.1594     6.1567     5.9863     8.1528     2.3884     0.1527     0.0214   129.8416
  470.5000   -50.5445     4.0965     6.2117     5.0674     8.1528     2.4416     0.1304     0.0225  -999.2500
  471.0000   -50.9970     5.2502     6.2671     5.5279     8.1528     2.4960     0.1108     0.0230  -999.2500
  471.5000   -50.4216     8.4657     6.3231     6.2592     8.1528     2.4906     0.1019     0.0181  -999.2500
  472.0000   -49.8323    13.0136     6.3853     7.0873     8.1528     2.4963     0.0929     0.0217  -999.2500
  472.5000   -49.2441    12.6154     6.9132     7.8403     8.1528     2.5018     0.0882     0.0193  -999.2500
  473.0000   -49.0135    12.2640     7.5511     8.4767     8.1528     2.4597     0.1116     0.0101  -999.2500
  473.5000   -48.9720    11.7550     8.2479     9.2380     8.1528     2.4508     0.1191     0.0097  -999.2500
  474.0000   -48.7111    11.8460     9.0090     9.6658     8.1528     2.4610     0.1169     0.0126  -999.2500
  474.5000   -48.5733    12.0300     9.6079    10.1658     8.1528     2.4659     0.1157     0.0157  -999.2500
  475.0000   -48.4432    12.2168    10.0451    10.5424     8.1528     2.4701     0.1146     0.0186  -999.2500
  475.5000   -48.3115    12.3113    10.1598    10.6157     8.1528     2.5108     0.0956     0.0252  -999.2500
  476.0000   -48.2088    12.3113    10.2887    10.6896     8.1528     2.4908     0.0810     0.0408  -999.2500
  476.5000   -47.9833    12.4937    10.3886    10.7640     8.1528     2.4778     0.1074     0.0186  -999.2500
  477.0000   -47.7117    12.8668    10.4768    10.8853     8.1528     2.4678     0.1108     0.0033  -999.2500
  477.5000   -47.4146    13.2510    10.5992    11.1180     8.1528     2.4602     0.1141     0.0059  -999.2500
  478.0000   -47.1202    13.6466    10.7577    11.3558     8.1523     2.4657     0.1115     0.0099  -999.2500
  478.5000   -46.8023    14.0129    10.9187    11.5986     8.1486     2.4753     0.1070     0.0139  -999.2500
  479.0000   -46.2612    14.0129    11.0819    11.8466     8.1448     2.4929     0.0944     0.0262  -999.2500
  479.5000   -46.0168    14.0118    11.2472    12.0999     8.1411     2.5118     0.0825     0.0450  -999.2500
  480.0000   -45.8277    14.5440    11.4352    12.3587     8.1374     2.5194     0.0790     0.0540  -999.2500
  480.5000   -45.8371    15.2266    11.4324    12.6229     8.1336     2.5062     0.0886     0.0505  -999.2500
  481.0000   -45.4147    15.1757    11.4327    12.8929     8.1299     2.5190     0.0807     0.0494  -999.2500
  481.5000   -44.9392    15.1230    11.4344    13.1686     8.1262     2.5082     0.0778     0.0544  -999.2500
  482.0000   -44.6219    15.0910    11.3364    13.4496     8.1224     2.4952     0.0990     0.0408  -999.2500
  482.5000   -44.2686    15.5848    11.2499    13.8839     8.1187     2.5003     0.0936     0.0385  -999.2500
  483.0000   -43.9082    15.9792    11.1636    13.8256     8.1150     2.4921     0.0874     0.0501  -999.2500
  483.5000   -43.4406    16.3988    11.7550    13.7099     8.1112     2.4848     0.1026     0.0254  -999.2500
  484.0000   -43.0474  -999.2500  -999.2500    13.6294     8.1075     2.5142     0.0994     0.0414  -999.2500
  484.5000  -999.2500  -999.2500  -999.2500  -999.2500     8.1038     2.4819     0.1092     0.0244  -999.2500
  485.0000  -999.2500  -999.2500  -999.2500  -999.2500     8.1001     2.4574     0.1163     0.0256  -999.2500
  485.5000  -999.2500  -999.2500  -999.2500  -999.2500     8.0963     2.4312     0.1239     0.0410  -999.2500
  486.0000  -999.2500  -999.2500  -999.2500  -999.2500     8.0856     2.4053     0.1322     0.0649  -999.2500
  486.5000  -999.2500  -999.2500  -999.2500  -999.2500     8.0411     2.3752     0.1670     0.0987  -999.2500
  487.0000  -999.2500  -999.2500  -999.2500  -999.2500  -999.2500     2.3969     0.1503     0.2061  -999.2500
  487.5000  -999.2500  -999.2500  -999.2500  -999.2500  -999.2500     2.4074  -999.2500  -999.2500  -999.2500
