~VERSION INFORMATION
 VERS.                2.0:   CWLS LOG ASCII STANDARD - VERSION 2.0
 WRAP.                 NO:   ONE LINE PER DEPTH STEP
~WELL INFORMATION
#MNEM.UNIT      DATA TYPE    INFORMATION
#----------   ------------   ------------------------------
 STRT.F           70.0000:   START DEPTH
 STOP.F          960.0000:   STOP DEPTH
 STEP.F            0.5000:   STEP LENGTH
 NULL.          -999.2500:   NO VALUE
 COMP. U S NAVY/INTEX OIL CO:   COMPANY
 WELL.      NPR 3 #26S-35:   WELL
 FLD .             TEAPOT:   FIELD
 LOC .      S35 T39N R78W:   LOCATION
 CNTY.            NATRONA:   COUNTY
 STAT.            WYOMING:   STATE
 CTRY. UNITED STATES OF AMERICA:   COUNTRY
 SRVC.         Lane Wells:   SERVICE COMPANY
 DATE.        19-MAR-1960:   LOGDATE
 API .       490250651600:   API NUMBER
~CURVE INFORMATION
#MNEM.UNIT       API CODE    CURVE DESCRIPTION
#----------   ------------   ------------------------------
 DEPT.F                  :   
 ASN .OHMM   05 041 16 00:   AMPLIFIED SHORT NORMAL 16"
 ILD .OHMM   05 120 46 00:   INDUCTION LOG DEEP
 CILD.MMHO   05 110 00 00:   CONDUCTIVITY INDUCTION LOG
 SPR .MV     05 010 01 00:   SPONTANEOUS POTENTIAL FROM RES.
~PARAMETER INFORMATION
#MNEM.UNIT          VALUE    DESCRIPTION
#----------   ------------   ------------------------------
 PD  .                 GL:   PERMANENT DATUM
 EPD .F              5095:   ELEVATION PERMANENT DATUM
 LMF .                 KB:   LOG MEASURED FROM
 DAPD.F                 5:   FEET ABOVE PERMANENT DATUM
 DMF .                 KB:   DRILLING MEASURED FROM
 EKB .F              5101:   KELLING BUSHING
 EGL .F              9096:   GROUND LEVEL
 DATE.          3-19-1960:   RUN DATE
 RUN .                  1:   RUN NUMBER
 DD  .F               977:   DEPTH DRILLER
 DL  .F               959:   DEPTH LOGGER
 BLI .F               957:   BOTTOM LOG INTERVAL
 TLI .F                70:   TOP LOG INTERVAL
 CS  .IN            8.625:   CASING SIZE
 CBD .F                12:   CASING BOTTOM DRILLER
 BS  .IN            7.875:   BIT SIZE
 BSD .F               977:   BIT SIZE AT DEPTH
 DFT .   GEL-OIL EMULSION:   DRILLING FLUID TYPE
 DFD .                9.4:   DRILLING FLUID DENSITY
 DFV .                 40:   DRILLING FLUID VISCOSITY
 DFPH.                7.5:   DRILLING FLUID PH
 DFL .                8.2:   DRILLING FLUID LOSS
 MSS .           FLOWLINE:   MUD SAMPLE SOURCE
 RMS .OHMM            2.2:   RESISTIVITY MUD SAMPLE
 MST .F                64:   MUD SAMPLE TEMPERATURE
 RMF .OHMM            1.5:   RESISTIVITY MUD FILTRATE SAMPLE
 MFST.F                64:   MUD FILTRATE SAMPLE TEMPERATURE
 RMC .OHMM            3.1:   RESISTIVITY MUD CAKE
 MCST.F                64:   MUD CAKE SAMPLE TEMPERATURE
 MFSS.                MUD:   MUD FILTRATE SAMPLE SOURCE
 MCSS.              PRESS:   MUD CAKE SAMPLE SOURCE
 RMB .OHMM            2.0:   RESISTIVITY MUD AT BHT
 BHT .F                71:   BOTTOM HOLE TEMPERATURE
 MRT .F                71:   MAXIMUM RECORDED TEMPERATURE
 LUN .             L-4474:   LOGGING UNIT NUMBER
 LUL .             CASPER:   LOGGING UNIT LOCATION
 ENGI.             NELSON:   RECORDING ENGINEER
 WITN.          JORGENSBN:   WITNESSED BY
 CLNT.            A2DTECH:   CLIENT CODE
 ORIG.      2" & 5" PRINT:   ORIGIN OF DATA
 UWI .       490250651600:   UNIQUE WELL ID
 DICO. A2D Technologies, Inc.:   DIGITIZING COMPANY
~OTHER INFORMATION
~A   DEPT        ASN        ILD      CILD       SPR   
# ...
  581.0000     8.6535     6.7152   161.1692   -38.7340
  581.5000     8.7483     6.7730   160.6202   -38.4048
  582.0000     8.8539     6.8282   160.0712   -38.5013
  582.5000     8.8485     6.8864   159.5222   -38.7489
  583.0000     8.7688     6.9014   159.2328   -38.9501
  583.5000     8.7086     6.8885   159.0753   -39.2100
  584.0000     8.6372     6.8811   158.9178   -39.2858
  584.5000     8.5754     6.8711   158.7602   -39.3085
  585.0000     8.5030     6.8625   158.6027   -39.3577
  585.5000     8.5135     6.8533   158.4451   -39.3945
  586.0000     8.5749     6.8440   158.2876   -39.4369
  586.5000     8.6241     6.8356   158.1300   -39.4764
  587.0000     8.6778     6.8252   157.9725   -39.5162
  587.5000     8.7221     6.8191   157.8150   -39.5582
  588.0000     8.6787     6.7924   157.6574   -39.5951
  588.5000     8.5998     6.7521   157.5301   -39.6467
  589.0000     8.5331     6.7175   158.8420   -39.6007
  589.5000     8.4613     6.6804   159.9239   -39.5131
  590.0000     8.3919     6.6446   161.0046   -39.4429
  590.5000     8.3216     6.6082   162.0869   -39.3651
  591.0000     8.2507     6.5721   163.1727   -39.2913
  591.5000     8.1912     6.5358   164.2621   -39.2154
  592.0000     8.1371     6.4996   165.3540   -39.1406
  592.5000     8.0890     6.4634   166.4465   -39.0649
  593.0000     8.0401     6.4273   167.5223   -38.9902
  593.5000     7.9930     6.3911   168.3735   -38.9140
  594.0000     7.9421     6.3549   169.1901   -38.8406
  594.5000     7.9099     6.3186   169.8611   -38.7619
  595.0000     7.9260     6.2824   170.5321   -38.6931
  595.5000     7.9426     6.2460   171.2032   -38.6024
  596.0000     7.9577     6.2102   171.8742   -38.5691
  596.5000     7.9758     6.1731   172.5452   -38.7033
  597.0000     7.9623     6.1383   173.2162   -38.8139
  597.5000     7.9299     6.1002   173.8872   -38.9319
  598.0000     7.9058     6.1052   174.5582   -39.0446
  598.5000     7.8751     6.1318   175.2292   -39.1628
  599.0000     7.8527     6.1539   175.9003   -39.2727
  599.5000     7.8169     6.1742   176.5713   -39.3970
  600.0000     7.8774     6.2047   177.4096   -39.4949
  600.5000     7.9907     6.2436   174.7118   -39.6405
  601.0000     8.0820     6.2766   171.1176   -39.4201
  601.5000     8.1751     6.3121   167.5235   -39.0018
  602.0000     8.3098     6.3462   165.8333   -38.6598
  602.5000     8.4304     6.3810   164.8343   -38.2877
  603.0000     8.5554     6.4156   163.8353   -37.9363
  603.5000     8.6507     6.4502   162.8363   -37.8084
  604.0000     8.7076     6.4850   161.8374   -37.8045
  604.5000     8.7084     6.5192   160.8124   -37.7793
  605.0000     8.6799     6.5545   159.7989   -37.7649
  605.5000     8.6597     6.5879   158.7835   -37.7454
  606.0000     8.6347     6.6244   157.7707   -37.7276
  606.5000     8.6141     6.6291   159.0063   -37.7108
  607.0000     8.5858     6.5768   161.2658   -37.6902
  607.5000     8.5132     6.5296   163.5316   -37.6772
  608.0000     8.4434     6.4816   165.7971   -37.6487
  608.5000     8.3766     6.4330   168.0580   -37.7237
  609.0000     8.3044     6.3867   170.3137   -37.8612
  609.5000     8.2442     6.3356   172.5657   -37.9758
  610.0000     8.1429     6.2949   174.8170   -38.0998
  610.5000     8.0118     6.2118   177.0673   -38.2202
  611.0000     7.8946     6.0970   179.3190   -38.3395
  611.5000     7.7720     5.9968   181.5706   -38.4649
  612.0000     7.6514     5.8880   183.8200   -38.5770
  612.5000     7.5315     5.7875   184.9613   -38.7132
  613.0000     7.4093     5.6765   185.4750   -38.6377
  613.5000     7.3364     5.6548   185.9888   -38.4266
  614.0000     7.2879     5.6981   186.4458   -38.2596
  614.5000     7.2989     5.7283   185.2476   -38.0702
  615.0000     7.3591     5.7649   184.1687   -38.0090
  615.5000     7.4077     5.7979   183.0898   -38.0159
  616.0000     7.4612     5.8328   182.0108   -38.0124
  616.5000     7.5131     5.8669   181.0147   -38.0143
  617.0000     7.5940     5.9011   179.4536   -38.0132
  617.5000     7.6725     5.9357   178.0171   -38.0140
  618.0000     7.7513     5.9690   176.5798   -38.0139
  618.5000     7.8296     6.0067   175.1426   -38.0141
  619.0000     7.9083     6.0813   173.7044   -38.0143
  619.5000     7.9709     6.1564   172.2668   -38.0141
  620.0000     8.0191     6.2317   170.8313   -38.0146
  620.5000     8.0691     6.3058   169.3928   -38.0138
  621.0000     8.1172     6.3828   167.9542   -38.0155
  621.5000     8.1683     6.4457   166.5663   -38.0126
  622.0000     8.2069     6.4237   167.1868   -38.0187
  622.5000     8.1697     6.3923   167.7861   -37.9708
  623.0000     8.1239     6.3627   168.3855   -37.8849
  623.5000     8.0804     6.3324   168.9849   -37.8098
  624.0000     8.0351     6.3024   169.5843   -37.7319
  624.5000     7.9920     6.2724   170.1837   -37.6517
  625.0000     7.9451     6.2421   170.7831   -37.5795
  625.5000     7.9196     6.2125   171.3825   -37.4906
  626.0000     7.9162     6.1829   171.9879   -37.5317
  626.5000     7.9083     6.1949   170.9199   -37.6692
  627.0000     7.9061     6.2267   169.8410   -37.7827
  627.5000     7.9054     6.2563   168.7621   -37.9075
  628.0000     7.9081     6.2852   167.6831   -38.0262
  628.5000     7.9305     6.3178   166.6042   -38.1481
  629.0000     7.9679     6.3417   165.5253   -38.2685
  629.5000     8.1015     6.4219   164.4464   -38.3899
  630.0000     8.2522     6.5652   163.3675   -38.5106
  630.5000     8.4034     6.7007   162.2885   -38.6321
  631.0000     8.5552     6.8404   161.1446   -38.7517
  631.5000     8.7050     6.9779   157.6243   -38.8751
  632.0000     8.8602     7.1160   153.8780   -38.9918
  632.5000     9.0126     7.2630   150.1318   -39.1072
  633.0000     9.1676     7.4429   146.3855   -39.0020
  633.5000     9.3259     7.6377   142.6393   -38.7848
  634.0000     9.4804     7.8306   138.8931   -38.5951
  634.5000     9.6331     8.0244   135.1468   -38.3927
  635.0000     9.8827     8.2177   131.4006   -38.1964
  635.5000    10.2609     8.4114   127.6544   -38.0191
  636.0000    10.6364     8.6050   123.9081   -38.0685
  636.5000    10.9986     8.7987   120.1619   -38.1924
  637.0000    11.4120     8.9923   115.9639   -38.3000
  637.5000    11.5805     9.1860   113.4337   -38.4153
  638.0000    11.7639     9.3795   110.5566   -38.5264
  638.5000    11.9781     9.5739   108.9748   -38.6398
  639.0000    11.9326     9.7687   109.6287   -38.7520
  639.5000    11.8450     9.7425   110.2826   -38.8648
  640.0000    11.7549     9.6683   110.9365   -38.9776
  640.5000    11.6588     9.6055   111.5904   -39.0899
  641.0000    11.5662     9.5372   112.2442   -39.2033
  641.5000    11.4718     9.4717   112.8981   -39.3142
  642.0000    11.3781     9.4053   113.5520   -39.4299
  642.5000    11.2843     9.3380   114.2059   -39.5374
  643.0000    11.1903     9.2734   114.8598   -39.6514
  643.5000    11.0973     9.2017   115.5137   -39.5429
  644.0000    11.0024     9.1375   116.1676   -39.3009
  644.5000    10.9108     9.0829   116.8215   -39.0867
  645.0000    10.8067     9.0206   117.4754   -38.8577
  645.5000    10.8204     8.9624   118.1292   -38.6390
  646.0000    10.9088     8.9000   118.7831   -38.4099
  646.5000    10.9912     8.9705   119.5783   -38.2137
  647.0000    11.0776     9.0842   118.8094   -38.2197
  647.5000    11.1621     9.1905   117.8286   -38.2515
  648.0000    11.2467     9.2987   116.8477   -38.2781
  648.5000    11.3330     9.4144   115.8669   -38.3070
  649.0000    11.4159     9.3427   114.8861   -38.3349
  649.5000    11.5075     9.2069   114.1566   -38.3629
  650.0000    11.3722     9.0851   116.0702   -38.3967
  650.5000    11.1528     8.9563   118.6088   -38.4390
  651.0000    10.9416     8.8312   121.1474   -38.4775
  651.5000    10.7383     8.7042   123.6860   -38.5215
  652.0000    10.5084     8.5781   126.2247   -38.5421
  652.5000    10.3536     8.4516   128.7633   -38.3827
  653.0000     9.9213     8.3253   131.3019   -38.1978
  653.5000     9.7009     8.1991   133.8405   -38.0176
