~VERSION INFORMATION
 VERS.                2.0:   CWLS LOG ASCII STANDARD - VERSION 2.0
 WRAP.                 NO:   ONE LINE PER DEPTH STEP
~WELL INFORMATION
#MNEM.UNIT      DATA TYPE    INFORMATION
#----------   ------------   ------------------------------
 STRT.F           42.0000:   START DEPTH
 STOP.F          866.0000:   STOP DEPTH
 STEP.F            0.5000:   STEP LENGTH
 NULL.          -999.2500:   NO VALUE
 COMP. FENIX & SCISSON INC:   COMPANY
 WELL.      NPR-SX #47-11:   WELL
 FLD .             TEAPOT:   FIELD
 LOC .      S11 T38N R78W:   LOCATION
 CNTY.            NATRONA:   COUNTY
 STAT.            WYOMING:   STATE
 CTRY. UNITED STATES OF AMERICA:   COUNTRY
 SRVC.            Unknown:   SERVICE COMPANY
 DATE.        25-FEB-1978:   LOGDATE
 API .       490251058700:   API NUMBER
~CURVE INFORMATION
#MNEM.UNIT       API CODE    CURVE DESCRIPTION
#----------   ------------   ------------------------------
 DEPT.F                  :   
 SPR .MV     07 010 01 00:   SPONTANEOUS POTENTIAL
 SN  .OHMM   07 040 16 00:   SHORT NORMAL 16'
 ILD .OHMM   07 120 46 00:   INDUCTION LOG DEEP
 CORR.G/C3   45 356 01 00:   DENSITY CORRECTION
 RHOB.G/C3   45 350 01 00:   BULK DENSITY
 DPHI.DEC    45 890 12 00:   DENSITY POROSITY SANDSTONE
 CALD.IN     45 280 60 00:   CALIPER FROM DENSITY LOG
 GRD .GAPI   45 310 01 00:   GAMMA RAY FROM DENSITY LOG
~PARAMETER INFORMATION
#MNEM.UNIT          VALUE    DESCRIPTION
#----------   ------------   ------------------------------
 PD  .                 GL:   PERMANENT DATUM
 EPD .F              5202:   ELEVATION PERMANENT DATUM
 LMF .                 KB:   LOG MEASURED FROM
 DAPD.F                 4:   FEET ABOVE PERMANENT DATUM
 DMF .                 KB:   DRILLING MEASURED FROM
 EKB .F              5206:   KELLING BUSHING
 EGL .F              5202:   GROUND LEVEL
 DATE.            2-25-78:   RUN DATE
 RUN .                  1:   RUN NUMBER
 DD  .F               870:   DEPTH DRILLER
 DL  .F               870:   DEPTH LOGGER
 BLI .F               865:   BOTTOM LOG INTERVAL
 TLI .F                47:   TOP LOG INTERVAL
 CS  .IN            8.625:   CASING SIZE
 CBD .F                40:   CASING BOTTOM DRILLER
 CBL .F                47:   CASING BOTTOM LOGGER
 BS  .IN            7.875:   BIT SIZE
 BSD .F               870:   BIT SIZE AT DEPTH
 DFT .                KCL:   DRILLING FLUID TYPE
 DFD .                8.7:   DRILLING FLUID DENSITY
 DFV .                 35:   DRILLING FLUID VISCOSITY
 DFL .                4.8:   DRILLING FLUID LOSS
 MSS .         CIRCULATED:   MUD SAMPLE SOURCE
 RMS .OHMM            1.5:   RESISTIVITY MUD SAMPLE
 MST .F                70:   MUD SAMPLE TEMPERATURE
 RMF .OHMM            .75:   RESISTIVITY MUD FILTRATE SAMPLE
 MFST.F                74:   MUD FILTRATE SAMPLE TEMPERATURE
 RMC .OHMM            1.8:   RESISTIVITY MUD CAKE
 MCST.F                68:   MUD CAKE SAMPLE TEMPERATURE
 MFSS.              PRESS:   MUD FILTRATE SAMPLE SOURCE
 RMB .OHMM            1.5:   RESISTIVITY MUD AT BHT
 BHT .F                70:   BOTTOM HOLE TEMPERATURE
 TCS .HRS               2:   TIME CURCULATED STOPPED
 MRT .F                70:   MAXIMUM RECORDED TEMPERATURE
 LUN .               2958:   LOGGING UNIT NUMBER
 LUL .               CASP:   LOGGING UNIT LOCATION
 CLNT.            A2DTECH:   CLIENT CODE
 ORIG.        2" 5" PRINT:   ORIGIN OF DATA
 UWI .       490251058700:   UNIQUE WELL ID
 DICO. A2D Technologies, Inc.:   DIGITIZING COMPANY
~OTHER INFORMATION
~A   DEPT      SPR         SN        ILD       CORR       RHOB       DPHI         CALD      GRD   
# ...
  690.0000   -30.0892    12.3014    11.9635     0.0044     2.3858     0.1732     8.7282    74.3751
  690.5000   -30.1375    12.2243    11.9060    -0.0051     2.3762     0.1815     8.7282    75.7137
  691.0000   -30.1657    12.1428    11.8488    -0.0089     2.3638     0.1771     8.7282    74.6378
  691.5000   -30.0667    12.1428    11.8052    -0.0046     2.3545     0.1785     8.7282    74.6638
  692.0000   -29.9663    12.1428    11.7882    -0.0004     2.3549     0.1723     8.7282    77.5004
  692.5000   -29.8672    12.1430    11.7713     0.0039     2.3571     0.1628     8.7282    75.9888
  693.0000   -29.8157    12.1436    11.7544     0.0083     2.3735     0.1560     8.7282    75.2020
  693.5000   -30.0789    12.1425    11.7378     0.0095     2.3901     0.1494     8.7282    76.1055
  694.0000   -30.3454    12.2469    11.7205     0.0105     2.3975     0.1395     8.7282    79.1292
  694.5000   -30.5876    12.3692    11.7023     0.0108     2.4114     0.1224     8.7282    72.1400
  695.0000   -30.1663    12.4866    11.8327     0.0127     2.4270     0.1113     8.7282    69.8941
  695.5000   -29.5967    12.6152    12.1428     0.0128     2.4471     0.1050     8.7282    68.8876
  696.0000   -29.0095    12.7450    12.4075     0.0013     2.4729     0.1033     8.7282    67.9181
  696.5000   -28.8821    12.9220    12.7862    -0.0114     2.4848     0.1036     8.7282    68.3935
  697.0000   -28.1019    13.7110    13.1764    -0.0129     2.4912     0.1136     8.7282    68.4145
  697.5000   -27.4200    14.5482    13.5786    -0.0111     2.4868     0.1144     8.7282    67.5538
  698.0000   -27.1514    15.4272    13.9475    -0.0058     2.4763     0.1223     8.7282    66.7061
  698.5000   -27.0058    16.4542    13.9475     0.0009     2.4667     0.1431     8.7282    67.2330
  699.0000   -27.2133    16.7613    13.9475     0.0018     2.4483     0.1485     8.7282    69.5099
  699.5000   -27.6475    16.4714    13.9475     0.0037     2.4256     0.1496     8.7282    72.7035
  700.0000   -28.0797    15.7242    13.6493     0.0084     2.4091     0.1454     8.7282    72.8701
  700.5000   -28.3934    14.6006    13.0731     0.0124     2.4120     0.1417     8.7282    73.2141
  701.0000   -28.3864    13.5573    12.5212     0.0112     2.4155     0.1406     8.7282    72.8853
  701.5000   -28.3863    12.5885    11.9925     0.0098     2.4192     0.1398     8.7282    74.2033
  702.0000   -28.3866    11.9357    11.4862     0.0108     2.4191     0.1397     8.7282    75.3088
  702.5000   -28.3864    11.3468    11.0013     0.0125     2.4163     0.1400     8.7282    74.8881
  703.0000   -28.3865    11.0713    10.5716     0.0112     2.4134     0.1414     8.7282    76.5240
  703.5000   -28.3862    11.0713    10.5455     0.0093     2.4101     0.1433     8.7282    77.4067
  704.0000   -28.3852    11.0713    10.5212     0.0075     2.4090     0.1436     8.7282    74.0119
  704.5000   -28.3930    11.0713    10.4971     0.0060     2.4080     0.1443     8.7282    72.5951
  705.0000   -28.5417    11.0713    10.4744     0.0045     2.4058     0.1450     8.7282    74.4040
  705.5000   -28.6854    11.0373    10.4505     0.0028     2.4037     0.1457     8.7282    76.0229
  706.0000   -28.7856    10.9858    10.4279     0.0012     2.4015     0.1464     8.7282    77.0132
  706.5000   -28.5929    10.9345    10.4055     0.0003     2.4032     0.1474     8.7282    77.9563
  707.0000   -28.3796    10.8834    10.3831    -0.0001     2.4040     0.1432     8.7282    79.4704
  707.5000   -28.1900    10.8326    10.3607    -0.0006     2.4025     0.1413     8.7282    74.5952
  708.0000   -28.1838    10.7821    10.3384     0.0027     2.4079     0.1396     8.7282    74.6203
  708.5000   -28.0770    10.7318    10.3161     0.0045     2.4153     0.1379     8.7282    82.1889
  709.0000   -27.6534    10.6817    10.2939     0.0055     2.4202     0.1355     8.7282    79.1459
  709.5000   -27.2387    10.6318    10.2717     0.0082     2.4232     0.1354     8.7282    75.0439
  710.0000   -26.8122    10.5822    10.2496     0.0076     2.4232     0.1420     8.7282    75.4366
  710.5000   -26.8785    10.5328    10.2275     0.0013     2.4143     0.1451     8.7282    75.4454
  711.0000   -26.9812    10.4836    10.2054    -0.0001     2.4067     0.1335     8.7282    76.8610
  711.5000   -27.0832    10.4613    10.1841     0.0110     2.4126     0.1257     8.7282    77.6656
  712.0000   -27.1860    10.4453    10.1667     0.0185     2.4351     0.1193     8.7282    79.6494
  712.5000   -27.1027    10.4293    10.1491     0.0189     2.4574     0.1230     8.7279    83.5649
  713.0000   -27.0023    10.4135    10.1315     0.0173     2.4562     0.1283     8.7276    84.8475
  713.5000   -26.9014    10.3974    10.1139     0.0128     2.4489     0.1336     8.7273    81.9369
  714.0000   -26.7959    10.3814    10.0964     0.0084     2.4417     0.1367     8.7269    76.4222
  714.5000   -26.8555    10.3156    10.0789     0.0041     2.4324     0.1370     8.7266    74.0767
  715.0000   -26.9460    10.2368    10.0614     0.0050     2.4268     0.1368     8.7263    73.1899
  715.5000   -26.9914    10.1880    10.0439     0.0042     2.4274     0.1362     8.7259    76.2207
  716.0000   -26.9907    10.1880    10.0265     0.0025     2.4268     0.1339     8.7256    76.3038
  716.5000   -26.9939    10.1880    10.0091     0.0044     2.4277     0.1322     8.7253    75.6857
  717.0000   -27.2309    10.1881     9.9991     0.0064     2.4340     0.1328     8.7249    79.1834
  717.5000   -27.5007    10.1881     9.9946     0.0045     2.4374     0.1344     8.7246    78.0465
  718.0000   -27.7742    10.1881     9.9902     0.0024     2.4340     0.1356     8.7243    79.0229
  718.5000   -27.4314    10.1881     9.9858     0.0063     2.4306     0.1331     8.7240    80.3900
  719.0000   -27.0227    10.1881     9.9814     0.0110     2.4271     0.1296     8.7236    79.6960
  719.5000   -26.6517    10.1881     9.9770     0.0156     2.4287     0.1261     8.7233    81.8560
  720.0000   -26.8815    10.1881     9.9726     0.0178     2.4383     0.1281     8.7230    79.0957
  720.5000   -26.9881    10.1881     9.9682     0.0139     2.4484     0.1307     8.7226    80.0847
  721.0000   -26.7308    10.1880     9.9638     0.0069     2.4485     0.1382     8.7223    81.3320
  721.5000   -26.4367    10.1841     9.9593    -0.0002     2.4425     0.1462     8.7220    80.0988
  722.0000   -26.1442    10.1707     9.9550    -0.0074     2.4313     0.1462     8.7216    81.6072
  722.5000   -25.9981    10.1578     9.9505    -0.0079     2.4194     0.1398     8.7213    80.9850
  723.0000   -26.0683    10.1448     9.9461    -0.0037     2.4167     0.1326     8.7210    81.8283
  723.5000   -26.1957    10.1319     9.9417     0.0005     2.4204     0.1312     8.7206    82.8831
  724.0000   -26.0975    10.1192     9.9374     0.0048     2.4350     0.1295     8.7203    79.3876
  724.5000   -26.0569    10.1057     9.9330     0.0090     2.4381     0.1305     8.7200    76.7741
  725.0000   -26.3013    10.0944     9.9286     0.0133     2.4401     0.1318     8.7197    76.6584
  725.5000   -26.5381    10.1559     9.9241     0.0149     2.4413     0.1332     8.7193    79.7340
  726.0000   -26.7817    10.2121     9.9199     0.0157     2.4378     0.1356     8.7190    78.2383
  726.5000   -26.7758    10.2687     9.9155     0.0204     2.4357     0.1386     8.7187    77.4936
  727.0000   -26.6990    10.3282     9.9095     0.0195     2.4349     0.1371     8.7183    77.0577
  727.5000   -26.6209    10.3823    10.0402     0.0184     2.4314     0.1379     8.7180    78.6601
  728.0000   -26.6367    10.6396    10.2365     0.0185     2.4279     0.1352     8.7177    80.4044
  728.5000   -27.6216    10.9845    10.3812     0.0254     2.4269     0.1200     8.7173    80.7763
  729.0000   -28.5748    11.3345    10.8358     0.0321     2.4368     0.1096     8.7170    75.6693
  729.5000   -29.5247    12.1170    11.4474     0.0302     2.4692     0.1241     8.7167    69.2419
  730.0000   -30.3598    13.0576    12.2985     0.0202     2.4739     0.1421     8.7163    69.7236
