~VERSION INFORMATION
 VERS.                2.0:   CWLS LOG ASCII STANDARD - VERSION 2.0
 WRAP.                 NO:   ONE LINE PER DEPTH STEP
~WELL INFORMATION
#MNEM.UNIT      DATA TYPE    INFORMATION
#----------   ------------   ------------------------------
 STRT.F            8.0000:   START DEPTH
 STOP.F          513.0000:   STOP DEPTH
 STEP.F            0.5000:   STEP LENGTH
 NULL.          -999.2500:   NO VALUE
 COMP. LAWRENCE-ALLISON &AS:   COMPANY
 WELL. NPR 3 #51-63SX10UP3:   WELL
 FLD .             TEAPOT:   FIELD
 LOC .      S10 T38N R78W:   LOCATION
 CNTY.            NATRONA:   COUNTY
 STAT.            WYOMING:   STATE
 CTRY. UNITED STATES OF AMERICA:   COUNTRY
 SRVC.      Dresser Atlas:   SERVICE COMPANY
 DATE.        09-DEC-1984:   LOGDATE
 API .       490251099400:   API NUMBER
~CURVE INFORMATION
#MNEM.UNIT       API CODE    CURVE DESCRIPTION
#----------   ------------   ------------------------------
 DEPT.F                  :   
 RFOC.OHMM   07 220 01 00:   RESISTIVITY FOCUSED LOG
 RILD.OHMM   07 120 46 00:   INDUCTION LOG DEEP RESISTIVITY
 RILM.OHMM   07 120 44 00:   RESITIVITY LONG MEDIUM
 SPR .MV     07 010 01 00:   SPONTANEOUS POTENTIAL
 CALD.IN     45 280 60 00:   CALIPER FROM DENSITY LOG
 CORR.none               :   
 DEN .G/C3   45 350 01 00:   COMPENSATED BULK DENSTIY
 GRD .GAPI   45 310 01 00:   GAMMA RAY FROM DENSITY LOG
 PORD.DEC    45 890 12 00:   POROSITY DENSITY SANDSTONE
 CNC .DEC    42 890 03 00:   NEUTRON POROSITY SANDSTONE
~PARAMETER INFORMATION
#MNEM.UNIT          VALUE    DESCRIPTION
#----------   ------------   ------------------------------
 PD  .                 GL:   PERMANENT DATUM
 EPD .F              5162:   ELEVATION PERMANENT DATUM
 LMF .                 GL:   LOG MEASURED FROM
 DMF .                 GL:   DRILLING MEASURED FROM
 EGL .F              5162:   GROUND LEVEL
 DATE.        09-DEC-1984:   RUN DATE
 RUN .                  1:   RUN NUMBER
 DD  .F               510:   DEPTH DRILLER
 DL  .F               515:   DEPTH LOGGER
 BLI .F               513:   BOTTOM LOG INTERVAL
 TLI .F                20:   TOP LOG INTERVAL
 CS  .IN            8.625:   CASING SIZE
 CBD .F                20:   CASING BOTTOM DRILLER
 CBL .F                20:   CASING BOTTOM LOGGER
 BS  .IN            7.875:   BIT SIZE
 BSD .F               510:   BIT SIZE AT DEPTH
 DFT .          KCL-WATER:   DRILLING FLUID TYPE
 MSS .            MUDTANK:   MUD SAMPLE SOURCE
 RMS .OHMM           0.41:   RESISTIVITY MUD SAMPLE
 MST .F                45:   MUD SAMPLE TEMPERATURE
 RMF .OHMM           0.31:   RESISTIVITY MUD FILTRATE SAMPLE
 MFST.F                45:   MUD FILTRATE SAMPLE TEMPERATURE
 RMC .OHMM           0.51:   RESISTIVITY MUD CAKE
 MCST.F                45:   MUD CAKE SAMPLE TEMPERATURE
 MFSS.               CALC:   MUD FILTRATE SAMPLE SOURCE
 MCSS.               CALC:   MUD CAKE SAMPLE SOURCE
 RMB .OHMM           0.22:   RESISTIVITY MUD AT BHT
 BHT .F                85:   BOTTOM HOLE TEMPERATURE
 TCS .HRS               2:   TIME CURCULATED STOPPED
 MRT .F               100:   MAXIMUM RECORDED TEMPERATURE
 LUN .               6270:   LOGGING UNIT NUMBER
 LUL .                 FM:   LOGGING UNIT LOCATION
 ENGI.          E. GOVETT:   RECORDING ENGINEER
 WITN.              LUERS:   WITNESSED BY
 CLNT.            A2DTECH:   CLIENT CODE
 ORIG.           5" PRINT:   ORIGIN OF DATA
 UWI .       490251099400:   UNIQUE WELL ID
 DICO. A2D Technologies, Inc.:   DIGITIZING COMPANY
~OTHER INFORMATION
~A    DEPT    RFOC       RILD       RILM        SPR       CALD       CORR        DEN        GRD       PORD          CNC 
# ...
   41.5000     7.8103     6.7894     8.4841   -56.5890     8.2092     0.0472     2.4266   102.5078     0.1493     0.3086
   42.0000     7.6530     6.7482     8.0263   -54.7987     8.2386     0.0489     2.4197   103.4042     0.1566     0.3059
   42.5000     7.4470     6.7532     7.5408   -53.7512     8.2831     0.0288     2.4113   103.6992     0.1629     0.2922
   43.0000     7.2970     6.8052     7.2334   -53.5972     8.3127     0.0090     2.4045   102.4901     0.1675     0.2843
   43.5000     7.2502     6.8577     6.9868   -53.8871     8.2970     0.0029     2.3984   100.0762     0.1703     0.3114
   44.0000     7.2540     6.9599     6.7954   -54.0267     8.2789    -0.0033     2.3930    97.4797     0.1721     0.3093
   44.5000     7.3091     7.0625     6.5628   -54.0192     8.2053    -0.0079     2.3906    99.2256     0.1727     0.3005
   45.0000     7.3639     7.1169     6.3341   -54.1605     8.1445    -0.0095     2.3838   103.9688     0.1749     0.2844
   45.5000     7.5754     7.0726     6.1609   -54.0045     8.0987     0.0026     2.3747   105.1674     0.1807     0.2914
   46.0000     7.7929     7.0777     6.0313   -53.8484     8.0529     0.0146     2.3625   104.8592     0.1913     0.2926
   46.5000     8.0167     7.0186     5.8736   -53.5424     8.0373     0.0237     2.3526   104.8533     0.1958     0.2954
   47.0000     8.2470     6.9895     5.7524   -53.2379     8.0517     0.0084     2.3632   105.4489     0.1898     0.3010
   47.5000     8.6026     6.9461     5.5949   -52.9334     8.0963    -0.0023     2.3791   105.1423     0.1807     0.3176
   48.0000     8.8497     6.9032     5.5945   -52.7775     8.1409     0.0023     2.3935    98.3695     0.1725     0.3000
   48.5000     8.9781     6.9081     5.9128   -52.6216     8.1855     0.0177     2.4041    96.2583     0.1643     0.2957
   49.0000     9.1085     6.8651     6.3804   -52.6143     8.2301     0.0294     2.4117    95.5005     0.1582     0.2979
   49.5000     8.9250     6.8702     6.7434   -52.7574     8.2747     0.0187     2.4207    96.9984     0.1519     0.3137
   50.0000     8.8577     6.8752     7.0778   -52.7482     8.3042     0.0156     2.4313   100.3008     0.1464     0.3076
   50.5000     8.8108     6.8811     7.7754   -52.7369     8.3036     0.0202     2.4418   102.0991     0.1386     0.2948
   51.0000     8.7542     6.8861     8.0545   -52.7228     8.3029     0.0310     2.4509   100.5861     0.1379     0.2821
   51.5000     8.7598     6.9391     8.3436   -52.8627     8.3023     0.0335     2.4464    99.6765     0.1423     0.2976
   52.0000     8.7643     6.9925     8.5238   -52.8481     8.3018     0.0121     2.4395    99.5187     0.1478     0.3028
   52.5000     8.8300     7.0956     8.6475   -52.6880     8.2861     0.0135     2.4349   102.3759     0.1484     0.3007
   53.0000     8.8961     7.2001     8.6519   -52.5278     8.2855     0.0225     2.4349   104.5053     0.1460     0.3011
   53.5000     8.9006     7.2556     8.6564   -52.5161     8.2849     0.0285     2.4380   103.4857     0.1436     0.2938
   54.0000     8.9052     7.3625     8.7212   -52.3560     8.2855     0.0177     2.4363   101.4422     0.1427     0.2826
   54.5000     8.9096     7.4710     8.7865   -52.3443     8.2837     0.0100     2.4309   100.0814     0.1464     0.2774
   55.0000     8.9143     7.5811     8.6107   -52.1842     8.2369     0.0054     2.4263   102.3297     0.1504     0.2849
   55.5000     8.9189     7.6430     8.4950   -52.3211     8.1922     0.0038     2.4210   105.0290     0.1540     0.2830
   56.0000     8.8616     7.7602     8.3250   -52.3091     8.1463     0.0052     2.4179   106.8262     0.1565     0.2790
   56.5000     8.8672     7.8677     8.1574   -52.2972     8.1156     0.0066     2.4141   105.4654     0.1584     0.2754
   57.0000     8.9336     7.9836     8.0478   -52.2853     8.1000     0.0080     2.4110   104.7061     0.1599     0.2733
   57.5000     8.9382     7.8790     7.9962   -52.2734     8.0843     0.0079     2.4087   103.6461     0.1605     0.2718
   58.0000     8.8797     7.8846     7.8908   -52.2602     8.0837     0.0063     2.4125   101.6838     0.1575     0.2785
   58.5000     8.9473     7.8903     7.9499   -52.3972     8.0831     0.0077     2.4230   100.7742     0.1530     0.2825
   59.0000     9.0143     7.8398     8.0653   -52.5342     8.0825     0.0091     2.4321   101.0675     0.1469     0.2853
   59.5000     9.1452     7.8468     8.2969   -52.5226     8.0819     0.0059     2.4382   102.4135     0.1445     0.2648
   60.0000     9.3427     7.9624     8.6029   -52.5110     8.0813     0.0043     2.4357   103.9298     0.1476     0.2568
   60.5000     9.6780     8.0798     8.8514   -52.3507     8.0807     0.0012     2.4328   104.5040     0.1494     0.2592
   61.0000    10.0281     8.1420     9.0337   -52.3388     8.0651     0.0238     2.4312   102.6903     0.1472     0.2653
   61.5000    10.3135     8.2646     9.1013   -52.1761     8.0494     0.0526     2.4350   101.0287     0.1431     0.2684
   62.0000    10.3919     8.3839     9.1695   -52.0159     8.0502     0.0677     2.4410    98.7657     0.1392     0.2660
   62.5000    10.5428     8.4498     9.3675   -52.0042     8.0633     0.0509     2.4470    97.5553     0.1362     0.2608
   63.0000    10.6209     8.5743     9.5035   -51.9926     8.0777     0.0265     2.4500    97.5479     0.1359     0.2572
   63.5000    10.7013     8.7007     9.7087   -51.9810     8.0770     0.0187     2.4508    97.6928     0.1350     0.2568
   64.0000    10.7815     8.8289    10.0572   -51.9694     8.0764     0.0239     2.4560    97.3828     0.1293     0.2615
   64.5000    10.8622     8.9590    10.4182   -51.9578     8.0910     0.0398     2.4659    96.6235     0.1226     0.2661
   65.0000    11.0199     9.2252    10.7922   -51.7976     8.1054     0.0488     2.4765    96.1650     0.1150     0.2552
   65.5000    11.1024     9.7039    11.1812   -51.6374     8.1048     0.0411     2.4893    94.9546     0.1200     0.2588
   66.0000    11.5010    10.2475    11.5896   -51.3284     8.0891     0.0304     2.4794    93.4434     0.1282     0.2731
   66.5000    12.2497    10.6920    11.9981   -51.1656     8.0857     0.0212     2.4648    91.1804     0.1313     0.2759
   67.0000    13.0473    11.3120    12.0864   -50.8568     8.0729     0.0165     2.4611    89.8055     0.1276     0.2620
   67.5000    12.9510    12.1356    11.7610   -50.5480     8.0723     0.0134     2.4702    89.0604     0.1237     0.2535
   68.0000    12.7910    12.9289    11.4458   -50.2392     8.0717     0.0102     2.4762    91.9083     0.1289     0.2498
   68.5000    12.7992    13.6786    11.1376   -50.0790     8.0711     0.0086     2.4625    93.7054     0.1405     0.2596
   69.0000    12.8057    14.2718    10.7626   -50.0674     8.0856     0.0085     2.4481    94.3014     0.1520     0.2669
   69.5000    12.7235    13.5998     9.9064   -49.9072     8.0849     0.0114     2.4328    93.9914     0.1554     0.2634
   70.0000    12.4673    12.9483     9.2458   -49.5984     8.0907     0.0190     2.4237    94.5855     0.1591     0.2591
   70.5000    12.3856    12.3279     8.8727   -49.5154     8.0988     0.0296     2.4123    94.8807     0.1643     0.2536
   71.0000    12.3935    11.7817     8.5146   -49.1991     8.0831     0.0187     2.4039    93.9692     0.1688     0.2515
   71.5000    12.3999    11.2298     8.3363   -48.9688     8.0825     0.0140     2.3993    93.5107     0.1707     0.2579
   72.0000    12.4062    10.8537     8.1185   -48.8062     8.0819     0.0397     2.3962    93.8040     0.1689     0.2625
   72.5000    12.4125    10.4901     8.1803   -48.7945     8.0813     0.0503     2.3977    94.5485     0.1680     0.2649
   73.0000    12.3329    10.2096     8.3570   -48.7829     8.0959     0.0456     2.3992    94.5584     0.1674     0.2559
   73.5000    12.1554     9.9799     8.5374   -48.7713     8.0951     0.0333     2.4016    94.5338     0.1653     0.2571
   74.0000    11.6792     9.7999     8.8439   -48.7597     8.1096     0.0226     2.4097    94.6807     0.1606     0.2578
   74.5000    11.4425     9.8130     9.2896   -48.7481     8.1241     0.0104     2.4203    94.1890     0.1523     0.2538
