~VERSION INFORMATION
 VERS.                2.0:   CWLS LOG ASCII STANDARD - VERSION 2.0
 WRAP.                 NO:   ONE LINE PER DEPTH STEP
~WELL INFORMATION
#MNEM.UNIT      DATA TYPE    INFORMATION
#----------   ------------   ------------------------------
 STRT.F           24.0000:   START DEPTH
 STOP.F          487.5000:   STOP DEPTH
 STEP.F            0.5000:   STEP LENGTH
 NULL.          -999.2500:   NO VALUE
 COMP. FENIX & SCISSON INC:   COMPANY
 WELL.       NPR #35-SX-3:   WELL
 FLD .        TEAPOT DOME:   FIELD
 LOC .       S3 T38N R78W:   LOCATION
 CNTY.            NATRONA:   COUNTY
 STAT.            WYOMING:   STATE
 CTRY. UNITED STATES OF AMERICA:   COUNTRY
 SRVC.       Schlumberger:   SERVICE COMPANY
 DATE.        26-MAR-1977:   LOGDATE
 API .       490251030700:   API NUMBER
~CURVE INFORMATION
#MNEM.UNIT       API CODE    CURVE DESCRIPTION
#----------   ------------   ------------------------------
 DEPT.F                  :   
 SPR .MV     07 010 01 00:   SPONTANEOUS POTENTIAL
 LL8 .OHMM   07 220 08 00:   LATEROLOG-8 RES.
 ILD .OHMM   07 120 46 00:   INDUCTION LOG DEEP
 ILM .OHMM   07 120 44 00:   INDUCTION LOG MEDIUM
 CALD.IN     45 280 60 00:   CALIPER FROM DENSITY LOG
 RHOB.G/C3   45 350 01 00:   BULK DENSITY
 DPOR.DEC    45 890 12 00:   DENSITY POROSITY SANDSTONE
 CORR.G/C3   45 356 01 00:   DENSITY CORRECTION
 GRD .GAPI   45 310 01 00:   GAMMA RAY FROM DENSITY LOG
~PARAMETER INFORMATION
#MNEM.UNIT          VALUE    DESCRIPTION
#----------   ------------   ------------------------------
 PD  .                 GL:   PERMANENT DATUM
 EPD .F          EST 5200:   ELEVATION PERMANENT DATUM
 LMF .                 GL:   LOG MEASURED FROM
 DMF .                 KB:   DRILLING MEASURED FROM
 EKB .F              5205:   KELLING BUSHING
 EGL .F          EST 5200:   GROUND LEVEL
 DATE.            3-26-77:   RUN DATE
 RUN .                  1:   RUN NUMBER
 DD  .F               524:   DEPTH DRILLER
 DL  .F               489:   DEPTH LOGGER
 BLI .F               483:   BOTTOM LOG INTERVAL
 TLI .F                39:   TOP LOG INTERVAL
 CS  .IN            8.625:   CASING SIZE
 CBD .F                40:   CASING BOTTOM DRILLER
 CBL .F                39:   CASING BOTTOM LOGGER
 BS  .IN            7.875:   BIT SIZE
 BSD .F               524:   BIT SIZE AT DEPTH
 DFT .                KCL:   DRILLING FLUID TYPE
 DFD .                8.8:   DRILLING FLUID DENSITY
 DFV .                 31:   DRILLING FLUID VISCOSITY
 DFPH.                  8:   DRILLING FLUID PH
 DFL .                9.1:   DRILLING FLUID LOSS
 MSS .          FLOW LINE:   MUD SAMPLE SOURCE
 RMS .OHMM            .18:   RESISTIVITY MUD SAMPLE
 MST .F                76:   MUD SAMPLE TEMPERATURE
 RMF .OHMM            .15:   RESISTIVITY MUD FILTRATE SAMPLE
 MFST.F                76:   MUD FILTRATE SAMPLE TEMPERATURE
 RMC .OHMM             .1:   RESISTIVITY MUD CAKE
 MCST.F                76:   MUD CAKE SAMPLE TEMPERATURE
 MFSS.                  M:   MUD FILTRATE SAMPLE SOURCE
 MCSS.                  C:   MUD CAKE SAMPLE SOURCE
 RMB .OHMM            .25:   RESISTIVITY MUD AT BHT
 BHT .F                55:   BOTTOM HOLE TEMPERATURE
 TCS .HRS               6:   TIME CURCULATED STOPPED
 MRT .F            EST 55:   MAXIMUM RECORDED TEMPERATURE
 LUN .               5642:   LOGGING UNIT NUMBER
 LUL .               CSPR:   LOGGING UNIT LOCATION
 ENGI.     LOHBECK/MARTIN:   RECORDING ENGINEER
 WITN.         STUEBINGER:   WITNESSED BY
 CLNT.            A2DTECH:   CLIENT CODE
 ORIG.       2", 5" PRINT:   ORIGIN OF DATA
 UWI .       490251030700:   UNIQUE WELL ID
 DICO. A2D Technologies, Inc.:   DIGITIZING COMPANY
~OTHER INFORMATION
~A   DEPT      SPR        LL8        ILD        ILM       CALD       RHOB       DPOR       CORR        GRD   
# ...
   60.5000  -999.2500  1494.6196     8.3604     9.5863     8.8632     2.4304     0.1314     0.0786   143.4277
   61.0000  -999.2500  1494.6196     8.5898     9.5082     8.8578     2.4119     0.1474     0.0422   144.1727
   61.5000  -999.2500  1494.6196     8.8256     9.6980     8.8055     2.4130     0.1410     0.0282   147.0774
   62.0000  -999.2500  1494.6196     8.9894     9.8610     8.7520     2.4026     0.1490     0.0207   151.2817
   62.5000  -999.2500  1494.6196     8.8868     9.8472     8.7141     2.3925     0.1581     0.0132   152.8480
   63.0000  -999.2500  1494.6196     8.8088     9.8276     8.7007     2.3906     0.1619     0.0170   153.0512
   63.5000  -999.2500  1494.6196     8.7314     9.8080     8.6868     2.3943     0.1570     0.0223   150.0109
   64.0000  -999.2500  1494.6196     8.6549     9.7885     8.6731     2.3907     0.1602     0.0229   147.0933
   64.5000  -999.2500  1494.6196     8.5842     9.7703     8.6593     2.3997     0.1509     0.0345   140.5920
   65.0000  -999.2500  1494.6196     8.6287     9.6433     8.6454     2.4128     0.1457     0.0415   130.9289
   65.5000  -999.2500  1494.6348     8.6707     9.4557     8.6316     2.4241     0.1466     0.0446   127.3685
   66.0000  -999.2500  1494.6957     8.7120     9.2716     8.6183     2.4281     0.1338     0.0559   127.0668
   66.5000  -999.2500  1494.1735     8.7441     9.0911     8.6314     2.4011     0.1550     0.0378   126.9026
   67.0000   -97.4508  1496.1176     8.5021     8.9142     8.6942     2.4395     0.1309     0.0741   126.1995
   67.5000   -94.4454  1449.3656     8.1549     8.7441     8.7549     2.4878     0.1098     0.1400   123.6228
   68.0000   -91.4400   858.1824     7.8258     8.1515     9.0102     2.4566     0.1211     0.0970   119.5216
   68.5000   -89.3437  1141.0059     6.6910     7.6095     9.0791     2.4423     0.1286     0.0590   115.4822
   69.0000   -86.0769  1652.1079     5.7314     7.2009     9.0090     2.4797     0.1118     0.1071   113.6085
   69.5000   -84.7860  1921.7010     4.7498     7.3353     9.0161     2.4555     0.1160     0.0965   112.8186
   70.0000   -84.1346  2000.0000     5.7571     7.2256     9.0277     2.4686     0.1214     0.1160   111.4520
   70.5000   -83.7961  2000.0000     6.5070     6.9394     9.0382     2.4764     0.1138     0.1279   110.3082
   71.0000   -83.7992  2000.0000     6.7213     7.2436     8.9429     2.3983     0.1562     0.0152   110.2207
   71.5000   -83.8131  1891.9724     6.9300     7.9395     8.6335     2.4304     0.1250     0.0263   110.2850
   72.0000   -83.3421  1749.0416     7.1439     9.1579     8.5934     2.4613     0.1180     0.0389   110.7735
   72.5000   -82.8027  2000.0000     7.5964     9.1351     8.5731     2.4764     0.1142     0.0507   111.6564
   73.0000   -82.6029  2000.0000     8.1630     9.0736     8.5545     2.4609     0.1180     0.0412   112.1727
   73.5000   -82.8894  2000.0000     8.8311     9.0852     8.4995     2.4623     0.1176     0.0240   112.0753
   74.0000   -83.3447  1999.2938     8.8254     9.1072     8.4359     2.4653     0.1182     0.0319   112.1018
   74.5000   -83.7909  2000.0000     8.8128     9.1292     8.4074     2.4566     0.1224     0.0181   112.6745
   75.0000   -83.9979   967.8000     8.6981     9.1578     8.4008     2.4458     0.1254     0.0151   113.5943
   75.5000   -84.1959  1337.6437     8.5848     9.1439     8.3945     2.4499     0.1236     0.0254   114.5212
   76.0000   -84.3898   932.6576     8.5049     9.1161     8.3884     2.4532     0.1250     0.0315   113.7827
   76.5000   -84.3949    56.6134     8.5548     9.0888     8.3821     2.4515     0.1217     0.0076   113.2464
   77.0000   -84.2979    22.4301     8.6011     9.0730     8.3759     2.4586     0.1186     0.0137   114.8538
   77.5000   -83.7296     9.7703     8.6476     9.1042     8.3733     2.4581     0.1207     0.0191   116.2950
   78.0000   -83.1671     9.5030     8.6858     9.1325     8.3856     2.4578     0.1219     0.0122   115.9302
   78.5000   -82.8402     9.9249     8.7188     9.1611     8.4357     2.4621     0.1171     0.0121   114.8395
   79.0000   -82.9607    10.3409     8.7521     9.1898     8.5071     2.4732     0.1130     0.0124   113.9989
   79.5000   -83.4567    10.7777     8.7856     9.2186     8.5608     2.4595     0.1262     0.0070   114.1843
   80.0000   -84.0581    11.2221     8.8194     9.2474     8.5381     2.4503     0.1221     0.0178   113.1878
   80.5000   -84.6630    11.0592     8.8531     9.2764     8.4886     2.4663     0.1169     0.0300   112.0297
   81.0000   -85.2195    10.9036     8.9040     9.3055     8.4362     2.4685     0.1162     0.0397   112.1419
   81.5000   -85.4606    10.7168     8.7758     9.3288     8.5254     2.4702     0.1155     0.0464   113.0747
   82.0000   -85.6990    11.0866     8.4548     9.2650     8.6392     2.4899     0.1118     0.0689   115.7075
   82.5000   -85.9385    10.9565     8.1455     9.2121     8.7168     2.4614     0.1176     0.0461   118.3895
   83.0000   -86.1781    10.5411     7.8985     9.1594     8.6477     2.4692     0.1201     0.0342   119.0393
   83.5000   -86.4170     9.9555     8.2137     9.1070     8.6350     2.4810     0.1052     0.0531   114.7787
   84.0000   -86.6557    10.0909     8.5049     9.0548     8.7121     2.4927     0.0931     0.0610   112.6050
   84.5000   -86.7784    10.3362     8.4823     8.9899     8.8069     2.4983     0.1014     0.0675   110.8955
   85.0000   -86.7790    10.5878     8.4524     9.0033     8.8422     2.4643     0.1113     0.0622   112.5645
   85.5000   -86.7799    10.9171     8.4301     9.0276     8.8752     2.4504     0.1186     0.0485   115.4929
   86.0000   -86.7809    10.7635     8.5827     9.0520     8.9085     2.4690     0.1065     0.0392   117.6636
   86.5000   -86.7730    10.4788     8.7231     9.0765     8.9242     2.4874     0.0978     0.0453   119.8407
   87.0000   -86.5986    10.2326     8.9074     9.1011     8.8642     2.4890     0.1018     0.0552   119.7820
   87.5000   -86.4257    10.3715     8.8421     9.1260     8.8097     2.4882     0.0945     0.0674   119.2699
   88.0000   -86.2532    10.5716     8.7140     9.1576     8.8330     2.4878     0.0966     0.0643   117.1691
   88.5000   -86.0799    10.7168     8.5877     9.0904     8.8474     2.4968     0.0988     0.0688   115.1652
   89.0000   -85.6426    10.6231     8.4633     8.9924     8.8481     2.4911     0.0874     0.0756   113.9083
   89.5000   -84.8517    10.5375     8.3491     8.8959     8.8175     2.4851     0.1020     0.0614   112.0144
   90.0000   -84.0690    10.4236     8.4459     8.8254     8.7827     2.4784     0.0982     0.0608   112.7250
   90.5000   -83.4662    10.5331     8.5375     8.9901     8.7477     2.4537     0.1185     0.0392   116.9873
   91.0000   -83.1362    10.9148     8.6637     9.0523     8.7126     2.4372     0.1315     0.0305   119.8361
   91.5000   -82.6098    10.8351     8.5984     9.0736     8.7197     2.4395     0.1276     0.0247   120.9077
   92.0000   -81.9670    10.6568     8.4518     8.9976     8.7330     2.4527     0.1218     0.0351   120.2041
   92.5000   -81.3238    10.5202     8.3077     8.9367     8.7465     2.4661     0.1132     0.0568   118.0245
   93.0000   -80.6787    10.7194     8.1961     8.8762     8.7435     2.4701     0.1062     0.0758   117.0379
   93.5000   -80.0059    10.9165     8.1961     8.8161     8.7382     2.4680     0.1110     0.0749   120.9098
   94.0000   -79.6777    10.7841     8.1961     8.7564     8.7328     2.4715     0.1062     0.0528   124.9342
   94.5000   -79.4856    10.6187     8.1961     8.7441     8.7291     2.4818     0.0990     0.0645   125.9937
   95.0000   -79.2968    10.7455     8.1961     8.7441     8.7476     2.4806     0.1070     0.0588   125.3572
   95.5000   -79.1074    10.9155     8.1961     8.7441     8.7660     2.4738     0.1022     0.0624   124.2544
   96.0000   -78.7027    10.8108     8.1962     8.7441     8.7582     2.4542     0.1219     0.0251   123.4760
   96.5000   -78.1302    10.7043     8.1947     9.0298     8.7471     2.4500     0.1266     0.0208   123.3932
