~VERSION INFORMATION
 VERS.                2.0:   CWLS LOG ASCII STANDARD - VERSION 2.0
 WRAP.                 NO:   ONE LINE PER DEPTH STEP
~WELL INFORMATION
#MNEM.UNIT      DATA TYPE    INFORMATION
#----------   ------------   ------------------------------
 STRT.F          148.5000:   START DEPTH
 STOP.F          882.5000:   STOP DEPTH
 STEP.F            0.5000:   STEP LENGTH
 NULL.          -999.2500:   NO VALUE
 COMP.               NAVY:   COMPANY
 WELL. RES 3 TEAPOT DOM #55S-11:   WELL
 FLD .             TEAPOT:   FIELD
 LOC .      S11 T38N R78W:   LOCATION
 CNTY.            NATRONA:   COUNTY
 STAT.            WYOMING:   STATE
 CTRY. UNITED STATES OF AMERICA:   COUNTRY
 SRVC.       Schlumberger:   SERVICE COMPANY
 DATE.        05-AUG-1961:   LOGDATE
 API .       490250634000:   API NUMBER
~CURVE INFORMATION
#MNEM.UNIT       API CODE    CURVE DESCRIPTION
#----------   ------------   ------------------------------
 DEPT.F                  :   
 GR  .GAPI   30 310 01 00:   GAMMA RAY
 SPR .MV     05 010 01 00:   SPONTANEOUS POTENTIAL FROM RES.
 CILD.MMHO   05 110 46 00:   CONDUCTIVITY INDUCTION LOG DEEP
 ASN .OHMM   05 041 16 00:   AMPLIFIED SHORT NORMAL 16"
 ILD .OHMM   05 120 46 00:   INDUCTION LOG DEEP
~PARAMETER INFORMATION
#MNEM.UNIT          VALUE    DESCRIPTION
#----------   ------------   ------------------------------
 PD  .                 GL:   PERMANENT DATUM
 EPD .F              5201:   ELEVATION PERMANENT DATUM
 LMF .                 KB:   LOG MEASURED FROM
 DAPD.F                 6:   FEET ABOVE PERMANENT DATUM
 DMF .                 KB:   DRILLING MEASURED FROM
 EKB .F              5207:   KELLING BUSHING
 EGL .F              5201:   GROUND LEVEL
 DATE.             8-5-61:   RUN DATE
 RUN .                  1:   RUN NUMBER
 DD  .F               880:   DEPTH DRILLER
 DL  .F               882:   DEPTH LOGGER
 BLI .F               881:   BOTTOM LOG INTERVAL
 TLI .F               150:   TOP LOG INTERVAL
 BS  .IN            7.875:   BIT SIZE
 BSD .F               880:   BIT SIZE AT DEPTH
 DFT .       OIL EMULSION:   DRILLING FLUID TYPE
 DFV .                 40:   DRILLING FLUID VISCOSITY
 MSS .           FLOWLINE:   MUD SAMPLE SOURCE
 RMS .OHMM            .96:   RESISTIVITY MUD SAMPLE
 MST .F                74:   MUD SAMPLE TEMPERATURE
 TCS .HRS               1:   TIME CURCULATED STOPPED
 LUN .               2544:   LOGGING UNIT NUMBER
 LUL .                 NC:   LOGGING UNIT LOCATION
 ENGI.            EARNEST:   RECORDING ENGINEER
 WITN.          JORGENSEN:   WITNESSED BY
 CLNT.            A2DTECH:   CLIENT CODE
 ORIG.       2", 5" PRINT:   ORIGIN OF DATA
 UWI .       490250634000:   UNIQUE WELL ID
 DICO. A2D Technologies, Inc.:   DIGITIZING COMPANY
~OTHER INFORMATION
~A   DEPT       GR        SPR       CILD        ASN        ILD   
# ...
  697.5000  -999.2500   -45.0518   170.5737     7.7568     6.4402
  698.0000  -999.2500   -45.2923   171.6868     7.7509     6.4616
  698.5000  -999.2500   -45.5244   171.1366     7.7448     6.4837
  699.0000  -999.2500   -45.7556   169.9140     7.7263     6.5051
  699.5000  -999.2500   -45.8966   168.6922     7.6820     6.5276
  700.0000    55.5000   -45.9934   167.4796     7.6634     6.5481
  700.5000    57.8763   -46.0818   166.2750     7.7085     6.5722
  701.0000    56.6549   -46.1885   165.6947     7.7235     6.5696
  701.5000    56.0363   -46.2293   165.7192     7.7152     6.4988
  702.0000    62.4867   -45.9762   170.4623     7.6614     6.4220
  702.5000    67.0386   -45.6772   174.7141     7.6011     6.3551
  703.0000    69.9175   -45.3901   178.8692     7.5309     6.2057
  703.5000    64.0181   -45.0951   182.9935     7.4462     6.1103
  704.0000    60.2108   -45.0427   186.8706     7.2860     5.9939
  704.5000    62.8953   -45.1218   190.7476     7.1281     5.8516
  705.0000    62.8146   -45.1825   191.0916     6.9771     5.6776
  705.5000    57.9018   -45.2398   190.1752     6.8099     5.4491
  706.0000    54.2719   -45.3484   195.2610     6.6761     5.2128
  706.5000    51.8105   -45.4543   205.3414     6.6961     4.9752
  707.0000    55.2642   -45.5739   213.8554     6.7357     4.7723
  707.5000    55.3000   -45.6235   230.7959     6.6706     4.5245
  708.0000    52.9547   -45.4618   245.9839     6.4883     4.2891
  708.5000    58.6185   -45.2918   243.1325     6.0807     4.2869
  709.0000    56.0519   -45.1217   239.9598     5.6235     4.3275
  709.5000    52.3958   -44.9468   241.9076     5.3008     4.3426
  710.0000    51.3854   -44.8290   243.9759     5.4101     4.4573
  710.5000    54.2801   -45.0252   239.9598     5.3777     4.6293
  711.0000    54.9595   -45.2275   224.7791     5.4932     4.8165
  711.5000    50.0189   -45.1494   211.8474     6.0600     5.2968
  712.0000    49.5861   -44.9669   198.5141     6.6448     5.7335
  712.5000    52.9042   -44.7910   185.0736     6.7796     6.1678
  713.0000    55.0935   -44.6114   178.0964     6.8681     6.3025
  713.5000    53.1727   -44.4304   175.7028     6.9501     6.3561
  714.0000    54.5372   -44.4079   186.1847     6.9921     5.8294
  714.5000    56.7395   -44.4424   199.8795     6.9760     5.1505
  715.0000    56.0760   -44.4771   214.6123     6.9049     4.9251
  715.5000    56.2895   -44.5152   231.9277     6.7213     4.6566
  716.0000    56.8065   -44.5504   241.6265     6.5019     4.3994
  716.5000    54.9270   -44.5912   247.0415     5.8821     4.3345
  717.0000    59.0080   -44.6174   248.7216     5.3664     4.2708
  717.5000    63.2806   -44.6108   250.4016     5.4036     4.2175
  718.0000    67.5717   -44.6415   252.0080     5.2916     4.1435
  718.5000    67.9392   -44.7283   243.9759     5.3899     4.3520
  719.0000    62.9173   -44.8011   230.0663     5.9045     4.8000
  719.5000    58.9849   -44.7027   216.0416     6.2383     5.2740
  720.0000    53.2336   -44.5688   202.0168     6.5513     5.7045
  720.5000    48.0249   -44.4442   187.9920     7.0090     6.0066
  721.0000    48.8491   -44.3116   176.0964     7.3208     6.4110
  721.5000    52.4993   -44.2132   170.0482     7.4938     6.5969
  722.0000    56.0118   -44.2530   163.5582     7.6594     6.6295
  722.5000    55.1422   -44.3196   159.2778     7.7883     6.6935
  723.0000    53.5086   -44.3825   157.2031     7.9038     6.7411
  723.5000    52.0782   -44.4474   156.9528     8.0033     6.7985
  724.0000    52.6942   -44.5112   156.6751     8.0807     6.8493
  724.5000    55.7057   -44.5759   156.3676     8.1549     6.9148
  725.0000    57.3897   -44.6394   156.0276     8.1783     6.9910
  725.5000    53.1073   -44.7050   155.6704     8.2103     7.0662
  726.0000    52.7900   -44.7666   155.6225     8.2324     7.1416
  726.5000    56.9637   -44.8228   152.4326     8.2752     7.2178
  727.0000    60.5080   -44.7526   149.5525     8.3312     7.2965
  727.5000    61.6081   -44.6240   147.5904     8.3787     7.3724
  728.0000    60.0463   -44.5078   151.7135     8.3953     7.3536
  728.5000    63.2225   -44.3919   155.6225     8.4002     7.2313
  729.0000    58.7112   -44.2641   151.7771     8.3538     7.2217
  729.5000    55.9412   -44.2081   149.2570     8.2732     7.3759
  730.0000    54.1105   -44.2916   146.7370     8.1799     7.5150
  730.5000    58.3676   -44.3673   144.2169     8.1957     7.6635
  731.0000    53.7770   -44.4471   141.6968     8.2706     7.7851
  731.5000    55.8012   -44.5271   139.1767     8.4347     7.8302
  732.0000    57.3888   -44.6036   137.5502     8.5952     7.8639
  732.5000    51.3721   -44.6144   143.5743     8.6479     7.3583
  733.0000    55.4174   -44.4878   157.6305     8.5942     6.5524
  733.5000    59.4414   -44.4066   183.0388     8.3185     5.4253
  734.0000    63.1002   -44.4047   205.4493     7.9192     4.7813
  734.5000    59.9802   -44.4679   227.2821     7.2503     4.5662
  735.0000    54.6626   -44.5701   234.4788     6.3595     4.6407
  735.5000    53.3406   -44.6443   228.4220     5.7297     4.6498
  736.0000    55.0712   -44.3709   230.3765     5.6226     4.6771
  736.5000    51.7860   -44.3155   228.2513     5.6911     4.6350
  737.0000    51.3596   -44.6224   222.0564     5.9103     4.9501
  737.5000    54.8671   -44.9167   197.5043     6.9646     5.6629
  738.0000    47.2264   -45.1977   173.0235     7.7871     6.5177
  738.5000    40.7454   -45.0468   153.6145     8.3931     7.4116
  739.0000    42.0190   -44.8053   140.2289     8.8174     8.1971
  739.5000    38.6700   -44.5377   131.5261     8.9672     8.4715
  740.0000    34.5881   -44.4497   131.5261     9.0588     8.2767
  740.5000    34.5275   -44.6264   131.5261     9.1581     8.1174
  741.0000    39.2329   -44.7636   137.6908     9.2531     7.9805
  741.5000    43.3330   -44.9236   143.5743     9.2891     7.9884
  742.0000    46.5176   -45.0678   143.5743     9.2893     7.9668
  742.5000    46.5490   -45.2425   138.9357     9.3406     8.0928
  743.0000    41.3942   -45.6570   133.3916     9.5007     8.3206
  743.5000    37.0281   -46.0786   127.8474     9.6587     8.5168
  744.0000    33.7709   -46.5363   121.4859    10.1713     8.7995
  744.5000    32.1184   -46.8303   114.8014    10.9339     9.4139
  745.0000    27.7625   -46.9559   107.4297    12.2409    10.1638
  745.5000    23.3739   -46.9481    98.2985    13.4839    11.3293
  746.0000    21.2772   -47.6803    87.6876    14.7440    12.9208
  746.5000    23.2635   -49.0581    77.0767    15.8686    14.6600
  747.0000    24.2035   -49.5551    67.2691    16.8407    16.3170
  747.5000    24.2335   -50.0151    63.5877    17.8127    16.9417
  748.0000    28.0925   -50.4584    59.2369    18.2129    17.6677
  748.5000    31.9485   -50.5213    58.9006    18.3455    17.7050
  749.0000    32.9522   -50.5050    60.7907    18.4781    17.2734
  749.5000    27.0100   -50.5152    62.6807    18.6239    16.9711
  750.0000    24.6649   -50.5011    63.2530    18.5042    16.9799
  750.5000    28.5374   -50.5772    63.2530    18.1488    17.1311
  751.0000    25.1407   -50.7978    63.2530    17.8411    17.1987
  751.5000    21.2260   -51.0163    63.2530    18.0260    17.0702
  752.0000    18.1033   -51.2379    64.2222    18.0963    16.9435
  752.5000    16.0803   -51.4592    65.5689    17.6254    16.7775
  753.0000    19.8632   -51.6966    66.9157    17.2005    16.3571
  753.5000    27.0093   -51.8756    68.9534    16.7670    15.9108
  754.0000    31.1545   -51.9810    72.0798    16.4047    15.2742
  754.5000    27.8282   -51.5811    75.2061    15.7966    14.5870
  755.0000    28.7834   -50.8525    78.3324    15.1401    13.9032
  755.5000    25.7882   -50.1978    81.4587    14.8398    13.3737
  756.0000    22.2550   -49.5150    84.5850    14.6783    12.9862
  756.5000    23.6492   -48.8379    87.7113    14.5086    12.5404
  757.0000    26.0702   -48.1752    90.7590    14.3525    12.3169
  757.5000    28.4674   -47.5623    93.2349    13.7965    12.0851
  758.0000    28.9958   -47.2648    95.1899    13.4117    11.9471
