~VERSION INFORMATION
 VERS.                2.0:   CWLS LOG ASCII STANDARD - VERSION 2.0
 WRAP.                 NO:   ONE LINE PER DEPTH STEP
~WELL INFORMATION
#MNEM.UNIT      DATA TYPE    INFORMATION
#----------   ------------   ------------------------------
 STRT.F           30.0000:   START DEPTH
 STOP.F          655.5000:   STOP DEPTH
 STEP.F            0.5000:   STEP LENGTH
 NULL.          -999.2500:   NO VALUE
 COMP. FENIX & SCISSON INC:   COMPANY
 WELL.    NPR-3 SX #52-15:   WELL
 FLD .             TEAPOT:   FIELD
 LOC .      S15 T38N R78W:   LOCATION
 CNTY.            NATRONA:   COUNTY
 STAT.            WYOMING:   STATE
 CTRY. UNITED STATES OF AMERICA:   COUNTRY
 SRVC.            Unknown:   SERVICE COMPANY
 DATE.        27-MAY-1978:   LOGDATE
 API .       490251062200:   API NUMBER
~CURVE INFORMATION
#MNEM.UNIT       API CODE    CURVE DESCRIPTION
#----------   ------------   ------------------------------
 DEPT.F                  :   
 GRD .GAPI   45 310 01 00:   GAMMA RAY FROM DENSITY LOG
 CALD.IN     45 280 60 00:   CALIPER
 RHOB.G/C3   45 350 01 00:   BULK DENSITY
 DPHI.DEC    45 890 12 00:   DENSITY POROSITY SANDSTONE
 CORR.G/C3   45 356 01 00:   DENSITY CORRECTION
 SN  .OHMM   05 040 16 00:   SHORT NORMAL 16"
 IL  .OHMM   05 120 00 00:   INDUCTION LOG
 SPR .MV     05 010 01 00:   SPONTANEOUS POTENTIAL FROM RES.
~PARAMETER INFORMATION
#MNEM.UNIT          VALUE    DESCRIPTION
#----------   ------------   ------------------------------
 PD  .                 GL:   PERMANENT DATUM
 EPD .F              5240:   ELEVATION PERMANENT DATUM
 LMF .                 KB:   LOG MEASURED FROM
 DAPD.F                 4:   FEET ABOVE PERMANENT DATUM
 DMF .                 GL:   DRILLING MEASURED FROM
 EKB .F              5244:   KELLING BUSHING
 EGL .F              5240:   GROUND LEVEL
 DATE.          5-27-1978:   RUN DATE
 RUN .                  1:   RUN NUMBER
 DD  .F               645:   DEPTH DRILLER
 DL  .F               655:   DEPTH LOGGER
 BLI .F               650:   BOTTOM LOG INTERVAL
 TLI .F                50:   TOP LOG INTERVAL
 CS  .IN            8.625:   CASING SIZE
 CBD .F                40:   CASING BOTTOM DRILLER
 CBL .F                40:   CASING BOTTOM LOGGER
 BS  .IN            7.875:   BIT SIZE
 BSD .F               645:   BIT SIZE AT DEPTH
 DFT .                KCL:   DRILLING FLUID TYPE
 DFD .                8.6:   DRILLING FLUID DENSITY
 DFV .                 32:   DRILLING FLUID VISCOSITY
 DFPH.               10.5:   DRILLING FLUID PH
 DFL .                7.4:   DRILLING FLUID LOSS
 MSS .           FLOWLINE:   MUD SAMPLE SOURCE
 RMS .OHMM            .30:   RESISTIVITY MUD SAMPLE
 MST .F                66:   MUD SAMPLE TEMPERATURE
 RMF .OHMM            .32:   RESISTIVITY MUD FILTRATE SAMPLE
 MFST.F                64:   MUD FILTRATE SAMPLE TEMPERATURE
 RMC .OHMM            .50:   RESISTIVITY MUD CAKE
 MCST.F                64:   MUD CAKE SAMPLE TEMPERATURE
 MFSS.           MEASURED:   MUD FILTRATE SAMPLE SOURCE
 BHT .F                68:   BOTTOM HOLE TEMPERATURE
 TCS .HRS               2:   TIME CURCULATED STOPPED
 MRT .F                68:   MAXIMUM RECORDED TEMPERATURE
 LUN .               2958:   LOGGING UNIT NUMBER
 LUL .              CASP.:   LOGGING UNIT LOCATION
 ENGI.            POINTER:   RECORDING ENGINEER
 WITN.           MCGINLEY:   WITNESSED BY
 CLNT.            A2DTECH:   CLIENT CODE
 ORIG.      2" , 5" PRINT:   ORIGIN OF DATA
 UWI .       490251062200:   UNIQUE WELL ID
 DICO. A2D Technologies, Inc.:   DIGITIZING COMPANY
~OTHER INFORMATION
~A   DEPT       GRD      CALD       RHOB       DPHI       CORR         SN         IL        SPR   
# ...
  597.0000    77.3434     7.7389     2.5237     0.1009     0.2018    11.7702    13.6811   -17.6001
  597.5000    77.2281     7.7423     2.5198     0.0951     0.2019    11.7632    13.6345   -17.6485
  598.0000    78.1051     7.7457     2.5185     0.0893     0.2021    11.7562    13.5881   -17.6968
  598.5000    80.3353     7.7491     2.5226     0.0835     0.2022    11.7492    13.5418   -17.7452
  599.0000    82.4845     7.7525     2.5296     0.0781     0.2024    11.7422    13.4957   -17.7936
  599.5000    83.4448     7.7560     2.5364     0.0773     0.2011    11.7352    13.4497   -17.8420
  600.0000    78.3913     7.7594     2.5433     0.0765     0.1933    11.7282    13.4039   -17.8904
  600.5000    74.2346     7.7628     2.5502     0.0778     0.1833    11.7212    13.3583   -17.9389
  601.0000    74.2220     7.7580     2.5576     0.0843     0.1727    11.7143    13.3128   -17.9873
  601.5000    76.1700     7.7454     2.5586     0.0922     0.1563    11.7073    13.2749   -18.0291
  602.0000    77.2560     7.7328     2.5512     0.0962     0.1387    11.7003    13.2749   -18.0280
  602.5000    77.3247     7.7182     2.5343     0.1006     0.1209    11.6933    13.2749   -18.0276
  603.0000    76.4243     7.6994     2.5283     0.1050     0.1136    11.6865    13.2749   -18.0260
  603.5000    75.1650     7.6808     2.5226     0.1066     0.1103    11.6795    13.2749   -18.0370
  604.0000    73.8347     7.6620     2.5122     0.1047     0.1078    11.6718    13.2750   -18.2794
  604.5000    74.5484     7.6432     2.5082     0.1052     0.1053    11.6293    13.2748   -18.5249
  605.0000    79.1284     7.6255     2.5092     0.1102     0.0994    11.5485    13.2754   -18.7696
  605.5000    82.7441     7.6358     2.5083     0.1101     0.0911    11.4683    13.1966   -19.0135
  606.0000    84.3757     7.6509     2.5047     0.1099     0.0828    11.3886    13.0501   -19.2371
  606.5000    84.3558     7.6815     2.5022     0.1103     0.0752    11.3095    12.9053   -19.2908
  607.0000    82.9743     7.6981     2.5014     0.1110     0.0708    11.2276    12.7620   -19.3494
  607.5000    82.4958     7.6633     2.5007     0.1118     0.0664    11.1336    12.6204   -19.4084
  608.0000    83.1460     7.6522     2.4999     0.1122     0.0623    11.0405    12.4803   -19.4675
  608.5000    83.5975     7.6693     2.5002     0.1085     0.0633    10.9481    12.3418   -19.5265
  609.0000    83.3262     7.6844     2.5019     0.1050     0.0645    10.8564    12.2049   -19.5856
  609.5000    81.4388     7.6847     2.5035     0.1062     0.0657    10.7656    12.0694   -19.6447
  610.0000    79.6031     7.6846     2.5051     0.1064     0.0653    10.6755    11.9355   -19.7037
  610.5000    79.5858     7.6847     2.5068     0.1044     0.0642    10.5861    11.8030   -19.7628
  611.0000    82.2298     7.6848     2.5084     0.1038     0.0630    10.4975    11.6720   -19.8219
  611.5000    85.0691     7.6842     2.5101     0.1031     0.0618    10.4097    11.5425   -19.8809
  612.0000    86.7616     7.6445     2.5117     0.1089     0.0606    10.3226    11.4144   -19.9400
  612.5000    85.7926     7.6328     2.5118     0.1130     0.0594    10.2101    11.2877   -19.9991
  613.0000    83.3227     7.6463     2.5049     0.1115     0.0582    10.0197    11.1625   -20.0581
  613.5000    81.5153     7.6603     2.5013     0.1104     0.0583     9.8328    11.0386   -20.1164
  614.0000    81.3114     7.6744     2.5007     0.1120     0.0585     9.6494    10.9161   -20.1763
  614.5000    81.0069     7.6884     2.5002     0.1135     0.0587     9.4695    10.7950   -20.2884
  615.0000    81.1226     7.7024     2.4997     0.1135     0.0589     9.1998    10.4955   -20.5890
  615.5000    84.2460     7.7163     2.4971     0.1115     0.0591     8.7788     9.8295   -20.8794
  616.0000    87.4934     7.7213     2.4951     0.1112     0.0594     8.3745     9.2058   -21.1697
  616.5000    90.1998     7.7130     2.4996     0.1198     0.0596     7.9893     8.6217   -21.4604
  617.0000    90.8768     7.7048     2.5007     0.1287     0.0598     7.6220     8.0746   -21.7573
  617.5000    91.5238     7.6966     2.4889     0.1266     0.0601     7.2716     7.5623   -21.8135
  618.0000    94.5639     7.6885     2.4772     0.1139     0.0661     7.2282     7.4995   -21.8129
  618.5000    98.6580     7.6802     2.4710     0.0856     0.0818     7.2282     7.4995   -21.8176
  619.0000    99.0451     7.6719     2.4862     0.0921     0.0943     7.3581     7.6342   -21.4793
  619.5000    95.1263     7.6658     2.5434     0.0981     0.0855     7.5530     7.8364   -20.9782
  620.0000    89.2094     7.6883     2.5351     0.0956     0.0826     7.9360     8.2849   -20.4685
  620.5000    77.7952     7.7104     2.5251     0.0931     0.0832     8.4879     8.9620   -20.2236
  621.0000    79.0134     7.7323     2.5252     0.0933     0.0839     9.0782     9.6940   -20.2186
  621.5000    80.5952     7.7543     2.5276     0.0950     0.0851     9.7096    10.4849   -20.2186
  622.0000    82.2672     7.7643     2.5321     0.0911     0.0876    10.1285    11.3404   -20.2192
  622.5000    83.1177     7.7646     2.5375     0.0895     0.0965    10.2575    11.6689   -20.2199
  623.0000    83.3439     7.7652     2.5430     0.0870     0.1059    10.3881    11.6974   -20.2193
  623.5000    83.5618     7.7324     2.5484     0.0812     0.1154    10.5203    11.7236   -20.1621
  624.0000    85.2783     7.6909     2.5538     0.0754     0.1224    10.6543    11.7499   -19.8773
  624.5000    88.7562     7.6714     2.5567     0.0701     0.1223    10.7899    11.7771   -19.5997
  625.0000    90.3562     7.6906     2.5572     0.0724     0.1223    10.9273    11.9723   -19.3202
  625.5000    89.9678     7.7092     2.5580     0.0745     0.1222    11.0665    12.1765   -19.0369
  626.0000    89.1397     7.7279     2.5610     0.0766     0.1198    11.2074    12.3838   -19.0294
  626.5000    86.7492     7.7468     2.5638     0.0786     0.1171    11.3500    12.5945   -19.0399
  627.0000    85.3972     7.7632     2.5608     0.0807     0.1144    11.4946    12.8088   -19.0488
  627.5000    85.4195     7.7409     2.5570     0.0828     0.1158    11.6409    13.0268   -19.0574
  628.0000    84.7383     7.7178     2.5532     0.0838     0.1176    11.7891    13.2485   -19.0659
  628.5000    83.8016     7.6949     2.5493     0.0829     0.1194    11.9392    13.4739   -19.0745
  629.0000    83.3327     7.6713     2.5479     0.0819     0.1211    12.0912    13.7031   -19.0830
  629.5000    83.0879     7.6829     2.5500     0.0810     0.1215    12.2452    14.0291   -19.0915
  630.0000    84.2832     7.7086     2.5521     0.0812     0.1192    12.4011    14.0182   -19.1001
  630.5000    86.4595     7.7348     2.5542     0.0823     0.1169    12.5590    14.0002   -19.1086
  631.0000    88.6893     7.7610     2.5530     0.0834     0.1147    12.6790    13.9822   -19.1171
  631.5000    88.9683     7.7867     2.5503     0.0877     0.1124    12.6854    13.9643   -19.1257
  632.0000    83.1817     7.7944     2.5474     0.0920     0.1103    12.6917    13.9464   -19.1342
  632.5000    85.2028     7.7621     2.5395     0.0963     0.1125    12.6981    13.9285   -19.1428
  633.0000    89.0078     7.7307     2.5313     0.1014     0.1160    12.7045    13.9106   -19.1513
  633.5000    89.7711     7.7054     2.5232     0.0934     0.1251    12.7108    13.8928   -19.1598
  634.0000    86.0983     7.7157     2.5157     0.0838     0.1340    12.7172    13.8750   -19.1684
  634.5000    83.9483     7.7254     2.5241     0.0786     0.1421    12.7235    13.8572   -19.1769
  635.0000    83.0376     7.7351     2.5415     0.0818     0.1396    12.7299    13.8394   -19.1854
  635.5000    84.6810     7.7439     2.5537     0.0866     0.1324    12.7363    13.8216   -19.1940
  636.0000    87.1085     7.7337     2.5517     0.0906     0.1197    12.7427    13.8039   -19.2024
  636.5000    87.9918     7.7228     2.5437     0.0919     0.1084    12.7491    13.7862   -19.2111
  637.0000    88.2695     7.7120     2.5359     0.0927     0.1095    12.7554    13.7685   -19.2190
