~VERSION INFORMATION
 VERS.                2.0:   CWLS LOG ASCII STANDARD - VERSION 2.0
 WRAP.                 NO:   ONE LINE PER DEPTH STEP
~WELL INFORMATION
#MNEM.UNIT      DATA TYPE    INFORMATION
#----------   ------------   ------------------------------
 STRT.F            2.0000:   START DEPTH
 STOP.F          595.0000:   STOP DEPTH
 STEP.F            0.5000:   STEP LENGTH
 NULL.          -999.2500:   NO VALUE
 COMP.       F D SERV INC:   COMPANY
 WELL.    73-5 SX-3 #73-3:   WELL
 FLD .             TEAPOT:   FIELD
 LOC .       S3 T38N R78W:   LOCATION
 CNTY.            NATRONA:   COUNTY
 STAT.            WYOMING:   STATE
 CTRY. UNITED STATES OF AMERICA:   COUNTRY
 SRVC.     Atlas Wireline:   SERVICE COMPANY
 DATE.        01-MAY-1992:   LOGDATE
 API .       490252252200:   API NUMBER
~CURVE INFORMATION
#MNEM.UNIT       API CODE    CURVE DESCRIPTION
#----------   ------------   ------------------------------
 DEPT.F                  :   
 CALD.IN     45 280 60 00:   CALIPER FROM DENSITY
 CORR.G/C3   45 356 01 00:   DENSITY CORRECTION
 DEN .G/C3   45 350 01 00:   COMPENSATED BULK DENSTIY
 GRD .GAPI   45 310 01 00:   GAMMA RAY FROM DENSITY LOG
 RILD.OHMM   07 120 46 00:   INDUCTION LOG DEEP RESISTIVITY
 RILM.OHMM   07 120 44 00:   INDUCTION LOG MEDIUM RESISTIVITY
 PORD.DEC    45 890 12 00:   POROSITY DENSITY SANDSTONE
~PARAMETER INFORMATION
#MNEM.UNIT          VALUE    DESCRIPTION
#----------   ------------   ------------------------------
 PD  .                 GL:   PERMANENT DATUM
 EPD .F              5147:   ELEVATION PERMANENT DATUM
 LMF .                 KB:   LOG MEASURED FROM
 DAPD.F                 5:   FEET ABOVE PERMANENT DATUM
 DMF .                 KB:   DRILLING MEASURED FROM
 EKB .F              5152:   KELLING BUSHING
 EGL .F              5147:   GROUND LEVEL
 DATE.        01-MAY-1992:   RUN DATE
 RUN .                  1:   RUN NUMBER
 DD  .F               600:   DEPTH DRILLER
 DL  .F               603:   DEPTH LOGGER
 BLI .F               601:   BOTTOM LOG INTERVAL
 TLI .F                 2:   TOP LOG INTERVAL
 CS  .IN            8.625:   CASING SIZE
 CBD .F                46:   CASING BOTTOM DRILLER
 CBL .F                53:   CASING BOTTOM LOGGER
 BS  .IN            7.875:   BIT SIZE
 BSD .F               600:   BIT SIZE AT DEPTH
 DFT .                AIR:   DRILLING FLUID TYPE
 TCS .HRS               1:   TIME CURCULATED STOPPED
 LUN .            HL-6274:   LOGGING UNIT NUMBER
 LUL .             CASPER:   LOGGING UNIT LOCATION
 ENGI.             ZIEGER:   RECORDING ENGINEER
 WITN.             STRONG:   WITNESSED BY
 CLNT.            A2DTECH:   CLIENT CODE
 ORIG.           5" PRINT:   ORIGIN OF DATA
 UWI .       490252252200:   UNIQUE WELL ID
 DICO. A2D Technologies, Inc.:   DIGITIZING COMPANY
~OTHER INFORMATION
~A    DEPT    CALD       CORR        DEN         GRD      RILD       RILM       PORD   
# ...
   93.0000     8.2335    -0.0239     2.4977   131.3447     6.6876     6.7749     0.0919
   93.5000     8.2342    -0.0269     2.4992   131.9521     6.6411     6.7283     0.0922
   94.0000     8.2349    -0.0268     2.4978   134.9655     6.5950     6.6355     0.0934
   94.5000     8.2507    -0.0268     2.4948   138.0070     6.5491     6.5899     0.0940
   95.0000     8.2515    -0.0268     2.4949   140.1703     6.4583     6.5445     0.0946
   95.5000     8.2524    -0.0237     2.4949   141.6012     6.4134     6.5908     0.0949
   96.0000     8.2682    -0.0176     2.4950   141.6070     6.4583     6.5913     0.0952
   96.5000     8.2537    -0.0116     2.4950   141.0099     6.5036     6.5918     0.0946
   97.0000     8.2546    -0.0055     2.4983   140.4143     6.6411     6.6384     0.0925
   97.5000     8.2401     0.0006     2.5148   138.6172     6.8291     6.7322     0.0858
   98.0000     8.2410    -0.0024     2.5466   133.8110     6.9736     6.7798     0.0728
   98.5000     8.2418    -0.0235     2.5557   128.4034     7.1218     6.8755     0.0604
   99.0000     8.2425    -0.0265     2.5588   122.6950     7.3226     7.0706     0.0580
   99.5000     8.2282    -0.0295     2.5483   120.2949     7.5299     7.2712     0.0625
  100.0000     8.2289    -0.0257     2.5349   132.0301     7.6396     7.4325     0.0705
  100.5000     8.2146    -0.0205     2.5271   141.0625     7.6879     7.6909     0.0755
  101.0000     8.2153    -0.0152     2.5302   140.6512     7.7430     7.8006     0.0749
  101.5000     8.2160    -0.0086     2.5287   135.2180     7.7430     7.9118     0.0749
  102.0000     8.2153    -0.0057     2.5271   133.2331     7.6357     7.6957     0.0755
  102.5000     8.2018    -0.0027     2.5241   135.6893     7.5299     7.4854     0.0767
  103.0000     8.1873     0.0002     2.5211   135.9398     7.3226     7.2809     0.0792
  103.5000     8.1879    -0.0059     2.5165   136.2406     7.0716     7.0819     0.0817
  104.0000     8.2036    -0.0121     2.5105   136.8421     6.8769     6.8884     0.0858
  104.5000     8.2042    -0.0152     2.5044   137.4436     6.7345     6.7931     0.0873
  105.0000     8.2048    -0.0183     2.5074   137.7444     6.6411     6.7016     0.0852
  105.5000     8.2054    -0.0184     2.5119   140.4511     6.5950     6.6101     0.0852
  106.0000     8.1909    -0.0185     2.5104   142.2556     6.5950     6.5655     0.0852
  106.5000     8.1917    -0.0216     2.5074   141.9549     6.6411     6.6216     0.0852
  107.0000     8.1923    -0.0217     2.5073   143.4586     6.7816     6.7075     0.0855
  107.5000     8.1929    -0.0248     2.5088   145.5639     6.8785     6.8032     0.0852
  108.0000     8.1935    -0.0188     2.5165   146.4662     6.9736     6.9002     0.0831
  108.5000     8.1941    -0.0099     2.5317   143.7594     7.0224     6.9987     0.0779
  109.0000     8.1947    -0.0130     2.5485   141.3534     7.0716     7.0985     0.0677
  109.5000     8.1953    -0.0191     2.5556   138.6466     7.1211     7.1997     0.0604
  110.0000     8.1959    -0.0192     2.5405   140.4511     7.1709     7.2516     0.0628
  110.5000     8.1965    -0.0193     2.5238   143.7594     7.2717     7.3039     0.0709
  111.0000     8.1971    -0.0224     2.5133   146.7669     7.3226     7.3566     0.0803
  111.5000     8.1977    -0.0225     2.5072   147.9699     7.3226     7.4096     0.0849
  112.0000     8.1983    -0.0226     2.5147   147.6692     7.3739     7.4631     0.0870
  112.5000     8.1989    -0.0257     2.5162   145.5639     7.4255     7.5169     0.0888
  113.0000     8.1843    -0.0288     2.5117   142.8571     7.4775     7.5184     0.0891
  113.5000     8.1700    -0.0289     2.5056   139.8496     7.5299     7.5200     0.0870
  114.0000     8.1706    -0.0290     2.5071   138.9474     7.5826     7.5216     0.0849
  114.5000     8.1712    -0.0261     2.5132   141.3534     7.5826     7.5231     0.0828
  115.0000     8.1868    -0.0262     2.5162   144.3609     7.5299     7.5247     0.0807
  115.5000     8.1874    -0.0263     2.5177   140.7221     7.4775     7.4739     0.0795
  116.0000     8.2031    -0.0264     2.5207   137.7243     7.3739     7.4235     0.0789
  116.5000     8.2037    -0.0265     2.5205   137.1429     7.3226     7.2712     0.0816
  117.0000     8.1891    -0.0235     2.5174   139.2882     7.2717     7.1221     0.0849
  117.5000     8.1898    -0.0206     2.5116   140.8523     7.2211     7.0216     0.0846
  118.0000     8.1904    -0.0146     2.5070   142.8571     7.1703     6.8807     0.0840
  118.5000     8.1910    -0.0147     2.5025   140.4511     7.0716     6.8274     0.0855
  119.0000     8.1916    -0.0178     2.4994   139.5489     7.0224     6.7882     0.0879
  119.5000     8.1922    -0.0209     2.4964   140.7519     6.9251     6.7899     0.0900
  120.0000     8.1928    -0.0210     2.4934   141.0526     6.8769     6.7913     0.0918
  120.5000     8.2085    -0.0241     2.4903   140.1504     6.8291     6.7927     0.0949
  121.0000     8.2091    -0.0242     2.4903   141.9549     6.7816     6.8417     0.0964
  121.5000     8.2097    -0.0243     2.4933   144.3609     6.7816     6.8431     0.0967
  122.0000     8.1951    -0.0244     2.4963   146.1654     6.8291     6.8925     0.0952
  122.5000     8.1958    -0.0215     2.5008   146.7669     6.8291     6.8939     0.0915
  123.0000     8.1964    -0.0186     2.5038   143.1579     6.8291     6.9436     0.0894
  123.5000     8.1970    -0.0126     2.5068   140.7519     6.8769     6.9937     0.0891
  124.0000     8.1976    -0.0066     2.5083   145.5639     6.8769     7.0441     0.0897
  124.5000     8.2133    -0.0067     2.5081   147.0677     6.8769     7.0456     0.0885
  125.0000     8.1988    -0.0159     2.5065   147.0677     6.8769     7.0470     0.0873
  125.5000     8.1994    -0.0251     2.5038   148.8722     6.9251     7.0485     0.0879
  126.0000     8.2000    -0.0312     2.5022   149.1729     6.9251     7.0500     0.0882
  126.5000     8.2006    -0.0222     2.4992   149.1729     6.9251     7.0514     0.0882
  127.0000     8.2012    -0.0193     2.4977   149.4737     6.9251     7.0529     0.0891
  127.5000     8.2018    -0.0194     2.4961   150.3759     6.9736     7.0544     0.0927
  128.0000     8.2024    -0.0164     2.4916   149.7744     7.0224     7.1052     0.0973
  128.5000     8.2030    -0.0165     2.4871   150.3759     7.1211     7.1067     0.1003
  129.0000     8.2036    -0.0166     2.4840   151.8797     7.1729     7.1579     0.1009
  129.5000     8.1892    -0.0167     2.4885   153.0827     7.2717     7.2110     0.0985
  130.0000     8.1898    -0.0198     2.4961   153.3835     7.3294     7.2649     0.0949
  130.5000     8.1753    -0.0199     2.5006   149.1629     7.4255     7.3706     0.0927
  131.0000     8.1608    -0.0200     2.5021   148.5714     7.4255     7.5303     0.0909
  131.5000     8.1464    -0.0201     2.5021   148.5714     7.5299     7.6833     0.0888
  132.0000     8.1620    -0.0202     2.5021   147.3284     7.5826     7.7932     0.0879
  132.5000     8.1928    -0.0203     2.5020   145.8145     7.6892     7.8494     0.0882
  133.0000     8.2084    -0.0204     2.5038   144.9624     7.7430     7.9060     0.0888
  133.5000     8.2241    -0.0205     2.5141   145.8647     7.7972     7.9076     0.0875
  134.0000     8.2247    -0.0175     2.5201   146.7669     7.8518     7.9646     0.0831
  134.5000     8.2231    -0.0176     2.5231   147.9699     7.8518     8.0220     0.0810
  135.0000     8.2108    -0.0177     2.5216   151.8797     7.8518     8.0799     0.0810
  135.5000     8.1964    -0.0178     2.5201   154.5865     7.8518     8.1382     0.0816
  136.0000     8.1971    -0.0149     2.5170   156.3910     7.9621     8.2542     0.0822
  136.5000     8.1825    -0.0150     2.5110   155.7895     8.0179     8.3137     0.0837
  137.0000     8.1832    -0.0151     2.5049   156.9925     8.1306     8.3737     0.0867
  137.5000     8.1989    -0.0151     2.5004   158.1955     8.2448     8.4341     0.0882
  138.0000     8.2146    -0.0122     2.5019   156.9925     8.3607     8.4949     0.0852
