~VERSION INFORMATION
 VERS.                2.0:   CWLS LOG ASCII STANDARD - VERSION 2.0
 WRAP.                 NO:   ONE LINE PER DEPTH STEP
~WELL INFORMATION
#MNEM.UNIT      DATA TYPE    INFORMATION
#----------   ------------   ------------------------------
 STRT.F           20.0000:   START DEPTH
 STOP.F          805.5000:   STOP DEPTH
 STEP.F            0.5000:   STEP LENGTH
 NULL.          -999.2500:   NO VALUE
 COMP. FENIX & SCISSON INC:   COMPANY
 WELL.    16-SX-14 #16-14:   WELL
 FLD .             TEAPOT:   FIELD
 LOC .      S14 T38N R78W:   LOCATION
 CNTY.            NATRONA:   COUNTY
 STAT.            WYOMING:   STATE
 CTRY. UNITED STATES OF AMERICA:   COUNTRY
 SRVC.            Unknown:   SERVICE COMPANY
 DATE.        23-MAY-1978:   LOGDATE
 API .       490251063200:   API NUMBER
~CURVE INFORMATION
#MNEM.UNIT       API CODE    CURVE DESCRIPTION
#----------   ------------   ------------------------------
 DEPT.F                  :   
 SN  .OHMM   05 040 16 00:   SHORT NORMAL 16"
 ILD .OHMM   05 120 46 00:   INDUCTION LOG DEEP
 SPR .MV     05 010 01 00:   SPONTANEOUS POTENTIAL FROM RES.
 RHOB.G/C3   45 350 01 00:   BULK DENSITY
 DPOR.DEC    45 890 12 00:   DENSITY POROSITY SANDSTONE
 CORR.G/C3   45 356 01 00:   DENSITY CORRECTION
 GRD .GAPI   45 310 01 00:   GAMMA RAY FROM DENSITY LOG
 CALD.IN     45 280 60 00:   CALIPER FROM DENSITY LOG
~PARAMETER INFORMATION
#MNEM.UNIT          VALUE    DESCRIPTION
#----------   ------------   ------------------------------
 PD  .                 GL:   PERMANENT DATUM
 EPD .F              5246:   ELEVATION PERMANENT DATUM
 LMF .                 KB:   LOG MEASURED FROM
 DAPD.F                 4:   FEET ABOVE PERMANENT DATUM
 DMF .                 KB:   DRILLING MEASURED FROM
 EKB .F              5250:   KELLING BUSHING
 EGL .F              5246:   GROUND LEVEL
 DATE.          5-23-1978:   RUN DATE
 RUN .                  1:   RUN NUMBER
 DD  .F               825:   DEPTH DRILLER
 DL  .F               812:   DEPTH LOGGER
 BLI .F               805:   BOTTOM LOG INTERVAL
 TLI .F                40:   TOP LOG INTERVAL
 CS  .IN            8.625:   CASING SIZE
 CBD .F                40:   CASING BOTTOM DRILLER
 BS  .IN            7.875:   BIT SIZE
 BSD .F               825:   BIT SIZE AT DEPTH
 DFT .                KCL:   DRILLING FLUID TYPE
 DFD .                8.6:   DRILLING FLUID DENSITY
 DFV .                 30:   DRILLING FLUID VISCOSITY
 DFPH.                 11:   DRILLING FLUID PH
 DFL .                 14:   DRILLING FLUID LOSS
 MSS .            MUD PIT:   MUD SAMPLE SOURCE
 RMS .OHMM            .32:   RESISTIVITY MUD SAMPLE
 MST .F                72:   MUD SAMPLE TEMPERATURE
 RMF .OHMM            .28:   RESISTIVITY MUD FILTRATE SAMPLE
 MFST.F                72:   MUD FILTRATE SAMPLE TEMPERATURE
 RMC .OHMM            .50:   RESISTIVITY MUD CAKE
 MCST.F                82:   MUD CAKE SAMPLE TEMPERATURE
 MFSS.               MEAS:   MUD FILTRATE SAMPLE SOURCE
 RMB .OHMM            .31:   RESISTIVITY MUD AT BHT
 BHT .F                75:   BOTTOM HOLE TEMPERATURE
 TCS .HRS               2:   TIME CURCULATED STOPPED
 MRT .F                75:   MAXIMUM RECORDED TEMPERATURE
 LUN .               2958:   LOGGING UNIT NUMBER
 LUL .              CSPR.:   LOGGING UNIT LOCATION
 ENGI.             MILLER:   RECORDING ENGINEER
 WITN.            RHOADES:   WITNESSED BY
 CLNT.            A2DTECH:   CLIENT CODE
 ORIG.    1" , 2.5" PRINT:   ORIGIN OF DATA
 UWI .       490251063200:   UNIQUE WELL ID
 DICO. A2D Technologies, Inc.:   DIGITIZING COMPANY
~OTHER INFORMATION
~A   DEPT       SN        ILD        SPR       RHOB       DPOR       CORR         GRD      CALD   
# ...
   60.5000     7.4650     6.1379   -10.3736     2.1944     0.3444     0.2088    62.2428     9.9553
   61.0000     1.4489     5.7037   -13.0960     2.1297     0.3589     0.2489    61.2978     9.5763
   61.5000     2.1761     5.3583   -16.5354     2.0956     0.3749     0.2848    59.3666     8.6735
   62.0000     4.6275     5.3807   -18.5586     2.0736     0.3910     0.2980    57.6983     8.4283
   62.5000     6.4421     5.4003   -19.5715     2.0492     0.4068     0.2764    56.7330     8.0490
   63.0000     0.8492     5.4199   -20.6784     2.0360     0.3758     0.2848    62.2243     7.9440
   63.5000     2.4619     5.4396   -21.7789     2.0210     0.3153     0.2601    65.7274     7.9224
   64.0000     6.0958     5.4580   -22.8524     2.0739     0.2892     0.2119    65.8362     8.1228
   64.5000     4.8590     5.3412   -23.9269     2.1291     0.3153     0.1655    65.2055     8.5222
   65.0000     2.9321     5.2343   -24.6340     2.1910     0.3385     0.1134    64.5199     8.8712
   65.5000     3.3383     5.1189   -25.1555     2.1629     0.3625     0.1064    63.9282     9.1984
   66.0000     5.5766     4.9855   -25.6608     2.1012     0.3816     0.1195    63.7891     8.1412
   66.5000     5.5434     4.8556   -26.1711     2.0396     0.3866     0.1722    63.6161     7.4089
   67.0000     4.4746     4.7290   -26.5159     1.9483     0.4018     0.2417    63.6513     6.7945
   67.5000     3.6337     4.6058   -26.7898     1.9539     0.3984     0.2226    62.3422     7.1457
   68.0000     4.9751     4.4854   -27.0661     2.0343     0.2956     0.1698    59.3669     7.9800
   68.5000     4.3141     4.3682   -27.3446     2.1289     0.2564     0.1180    60.3314     8.7930
   69.0000     3.6576     4.2541   -27.6223     2.2239     0.2198     0.0894    62.9893     9.5279
   69.5000     3.3809     4.1429   -27.9006     2.3314     0.1997     0.0988    65.1136    10.2752
   70.0000     5.1645     3.9913   -28.1754     2.3215     0.1981     0.1067    67.5904     8.7489
   70.5000     4.7642     4.0072   -28.4581     2.3338     0.1958     0.0934    68.3042     7.8548
   71.0000     4.1357     4.0390   -28.7238     2.3507     0.1915     0.0969    64.1915     7.8988
   71.5000     3.7071     4.0711   -29.0809     2.3605     0.1856     0.1126    56.7788     7.8966
   72.0000     3.9258     4.1041   -29.4157     2.3684     0.1764     0.0993    53.1573     7.8791
   72.5000     4.2046     4.1365   -29.7583     2.3791     0.1854     0.0865    55.8528     7.8785
   73.0000     4.5031     4.1691   -30.1021     2.3727     0.2076     0.0897    55.8358     7.8710
   73.5000     4.9777     4.2020   -30.6355     2.3521     0.1988     0.0962    55.7065     7.8618
   74.0000     4.9024     4.2173   -31.5323     2.3431     0.1844     0.0934    57.2031     7.8541
   74.5000     4.7656     4.0800   -32.4233     2.3586     0.1920     0.0857    60.0270     7.7554
   75.0000     4.6327     3.9641   -33.1233     2.3602     0.2057     0.0827    63.2823     7.6705
   75.5000     4.4569     3.8515   -33.1270     2.3431     0.2167     0.0862    64.5959     7.5803
   76.0000     4.5645     3.7406   -33.1395     2.3285     0.2180     0.0892    66.1712     7.6008
   76.5000     4.7977     3.6338   -33.1341     2.3120     0.2231     0.0921    67.5558     7.6416
   77.0000     4.4998     3.5301   -33.1353     2.3065     0.2300     0.0952    69.0166     7.6309
   77.5000     4.0948     3.4411   -33.0811     2.2972     0.2412     0.0982    70.5033     7.5446
   78.0000     3.7262     3.1796   -32.9439     2.2808     0.2512     0.1011    71.8803     7.4701
   78.5000     3.3909     2.9626   -32.7986     2.2647     0.2652     0.1044    73.4626     7.5813
   79.0000     3.3192     2.7604   -32.8690     2.2478     0.2531     0.1070    73.3276     7.6963
   79.5000     3.3192     2.5720   -33.3474     2.2356     0.2331     0.1092    72.8332     7.8129
   80.0000     3.3192     2.3394   -33.8180     2.2653     0.2108     0.0960    72.3906     7.8424
   80.5000     3.1758     2.3465   -34.2618     2.3145     0.2041     0.0843    72.1330     7.6108
   81.0000     2.9692     2.3607   -34.7036     2.3288     0.1966     0.0709    74.3224     7.4192
   81.5000     2.7731     2.3751   -34.4152     2.3498     0.1891     0.0767    76.0916     7.5090
   82.0000     2.6134     2.4118   -34.1155     2.3674     0.1804     0.0834    73.4825     7.6453
   82.5000     2.7720     2.4720   -33.7855     2.3762     0.1675     0.0829    71.1544     7.6151
   83.0000     3.0014     2.7069   -33.4667     2.3862     0.1748     0.0696    68.8560     7.5713
   83.5000     3.2501     2.9741   -33.1504     2.3857     0.1849     0.0551    68.7830     7.5211
   84.0000     3.5197     3.2682   -32.8377     2.3796     0.1778     0.0578    70.8201     7.4756
   84.5000     3.8100     3.5914   -32.6148     2.3741     0.1707     0.0617    74.0908     7.4309
   85.0000     4.1255     3.8865   -32.4289     2.3888     0.1635     0.0658    72.8739     7.3794
   85.5000     4.3348     4.0378   -32.2518     2.4013     0.1564     0.0694    69.9230     7.3358
   86.0000     4.4156     4.1949   -32.0753     2.4113     0.1513     0.0603    67.4256     7.2723
   86.5000     4.4978     4.3581   -31.8975     2.4190     0.1534     0.0511    68.8003     6.9372
   87.0000     4.5816     4.5277   -31.7196     2.4187     0.1555     0.0413    70.9294     6.4572
   87.5000     4.6669     4.7039   -31.5426     2.4143     0.1574     0.0314    69.9590     5.8494
   88.0000     4.7538     4.8870   -31.3668     2.4014     0.1696     0.0223    68.8709     5.9369
   88.5000     4.8424     5.0771   -31.1851     2.3896     0.1808     0.0152    67.2876     5.9923
   89.0000     4.9325     5.2605   -31.1193     2.3771     0.1885     0.0323    66.7236     6.2415
   89.5000     5.0244     5.3498   -31.1243     2.3711     0.1813     0.0419    66.9285     6.6061
   90.0000     5.0703     5.4345   -31.1241     2.3679     0.1738     0.0498    66.9142     7.0305
   90.5000     5.0703     5.5206   -31.1239     2.3844     0.1689     0.0584    68.5357     7.1528
   91.0000     5.0703     5.6081   -31.0811     2.3927     0.1710     0.0663    72.0673     7.3033
   91.5000     5.0703     5.6970   -31.0161     2.3947     0.1705     0.0778    74.5388     7.4695
   92.0000     5.0703     5.7681   -30.9521     2.3935     0.1643     0.0872    73.5946     7.6700
   92.5000     5.0703     5.7270   -30.8890     2.3991     0.1581     0.0966    71.8520     7.8173
   93.0000     5.0434     5.6324   -30.8249     2.4035     0.1564     0.0796    70.0332     7.8083
   93.5000     4.9404     5.5395   -30.7594     2.4083     0.1700     0.0631    68.0618     7.6193
   94.0000     4.8395     5.4480   -30.6965     2.3944     0.1867     0.0576    68.6726     7.4281
   94.5000     4.7407     5.3581   -30.6263     2.3608     0.2047     0.0530    69.4288     7.2330
   95.0000     4.6439     5.2697   -30.5689     2.3401     0.1940     0.0391    69.2769     7.0440
   95.5000     4.5490     5.1827   -30.5097     2.3387     0.2071     0.0256    68.8332     6.7995
   96.0000     4.4569     4.7941   -30.4106     2.3341     0.2324     0.0329    70.5133     6.8825
   96.5000     4.2754     4.3626   -30.4164     2.3129     0.2394     0.0472    72.2249     7.0910
   97.0000     4.1027     3.9700   -30.4116     2.2910     0.2428     0.0611    73.8323     7.0836
   97.5000     3.9370     3.6128   -32.3002     2.2818     0.2235     0.0502    75.4617     6.9879
   98.0000     3.7779     3.2878   -33.0220     2.3013     0.2048     0.0445    74.4378     6.9077
   98.5000     3.6253     3.1728   -33.9364     2.3335     0.1860     0.0426    72.2987     6.8129
   99.0000     3.4788     3.1407   -34.1073     2.3649     0.1772     0.0445    68.5795     6.7191
   99.5000     3.3383     3.2558   -34.2976     2.3770     0.1813     0.0463    64.5647     6.3752
  100.0000     3.2034     3.3595   -33.4657     2.3775     0.1821     0.0536    65.7628     6.0635
  100.5000     3.0271     3.4665   -32.6036     2.3779     0.1772     0.0610    68.1456     5.7329
