~VERSION INFORMATION
 VERS.                2.0:   CWLS LOG ASCII STANDARD - VERSION 2.0
 WRAP.                 NO:   ONE LINE PER DEPTH STEP
~WELL INFORMATION
#MNEM.UNIT      DATA TYPE    INFORMATION
#----------   ------------   ------------------------------
 STRT.F           36.0000:   START DEPTH
 STOP.F         3160.0000:   STOP DEPTH
 STEP.F            0.5000:   STEP LENGTH
 NULL.          -999.2500:   NO VALUE
 COMP.    FENIX & SCISSON:   COMPANY
 WELL.        NPR-3 #28-3:   WELL
 FLD .             TEAPOT:   FIELD
 LOC .       S3 T38N R78W:   LOCATION
 CNTY.            NATRONA:   COUNTY
 STAT.            WYOMING:   STATE
 CTRY. UNITED STATES OF AMERICA:   COUNTRY
 SRVC.            Unknown:   SERVICE COMPANY
 DATE.        01-JUL-1978:   LOGDATE
 API .       490251066500:   API NUMBER
~CURVE INFORMATION
#MNEM.UNIT       API CODE    CURVE DESCRIPTION
#----------   ------------   ------------------------------
 DEPT.F                  :   
 ILD .OHMM   05 120 46 00:   INDUCTION LOG DEEP
 SN  .OHMM   05 040 16 00:   SHORT NORMAL 16"
 SPR .MV     05 010 01 00:   SPONTANEOUS POTENTIAL FROM RES.
 CALD.IN     45 280 60 00:   CALIPER FROM DENSITY LOG
 CORR.G/C3   45 356 01 00:   DENSITY CORRECTION
 DPHI.DEC    45 890 12 00:   DENSITY POROSITY SANDSTONE
 GRD .GAPI   45 310 01 00:   GAMMA RAY FROM DENSITY LOG
 RHOB.G/C3   45 350 01 00:   BULK DENSITY
 GR  .GAPI   30 310 01 00:   GAMMA RAY
~PARAMETER INFORMATION
#MNEM.UNIT          VALUE    DESCRIPTION
#----------   ------------   ------------------------------
 PD  .                 GL:   PERMANENT DATUM
 EPD .F              5264:   ELEVATION PERMANENT DATUM
 LMF .                 KB:   LOG MEASURED FROM
 DAPD.F                 4:   FEET ABOVE PERMANENT DATUM
 DMF .                 KB:   DRILLING MEASURED FROM
 EKB .F              5268:   KELLING BUSHING
 EGL .F              5264:   GROUND LEVEL
 DATE.        01-JUL-1978:   RUN DATE
 RUN .                  1:   RUN NUMBER
 DD  .F               630:   DEPTH DRILLER
 DL  .F               636:   DEPTH LOGGER
 BLI .F               630:   BOTTOM LOG INTERVAL
 TLI .F                50:   TOP LOG INTERVAL
 CS  .IN            8.625:   CASING SIZE
 CBD .F                40:   CASING BOTTOM DRILLER
 BS  .IN            7.875:   BIT SIZE
 BSD .F               630:   BIT SIZE AT DEPTH
 DFT .                KCL:   DRILLING FLUID TYPE
 DFD .                8.6:   DRILLING FLUID DENSITY
 DFV .                 32:   DRILLING FLUID VISCOSITY
 DFPH.                9.5:   DRILLING FLUID PH
 MSS .           FLOWLINE:   MUD SAMPLE SOURCE
 BHT .F                74:   BOTTOM HOLE TEMPERATURE
 TCS .HRS               1:   TIME CURCULATED STOPPED
 MRT .F                74:   MAXIMUM RECORDED TEMPERATURE
 LUN .               2958:   LOGGING UNIT NUMBER
 LUL .               CASP:   LOGGING UNIT LOCATION
 ENGI.             MILLER:   RECORDING ENGINEER
 WITN.           MCGINLEY:   WITNESSED BY
 CLNT.            A2DTECH:   CLIENT CODE
 ORIG.        2" 5" PRINT:   ORIGIN OF DATA
 UWI .       490251066500:   UNIQUE WELL ID
 DICO. A2D Technologies, Inc.:   DIGITIZING COMPANY
~OTHER INFORMATION
~A   DEPT      ILD         SN        SPR       CALD       CORR       DPHI         GRD      RHOB         GR   
# ...
   72.5000     6.9298     7.1683     6.7182     7.5336     0.0203     0.1615    85.1664     2.4119  -999.2500
   73.0000     7.0251     7.1683     6.2607     7.5201     0.0204     0.1575    83.0868     2.4150  -999.2500
   73.5000     7.0731     7.1683     5.8033     7.4920     0.0131     0.1512    85.4915     2.4240  -999.2500
   74.0000     7.1703     7.1683     4.7435     7.4934     0.0102     0.1476    86.3981     2.4323  -999.2500
   74.5000     7.2190     7.1683     3.6854     7.4649     0.0088     0.1652    82.8270     2.4339  -999.2500
   75.0000     7.2681     7.1190     2.6273     7.4215     0.0075     0.1670    80.2990     2.4138  -999.2500
   75.5000     7.2169     7.1190     1.5340     7.3635     0.0076     0.1673    86.2795     2.4049  -999.2500
   76.0000     7.2159     7.1190     0.3593     7.3201     0.0062     0.1726    90.9412     2.3976  -999.2500
   76.5000     7.2150     7.0957    -0.5486     7.2767     0.0078     0.1720    86.9184     2.3954  -999.2500
   77.0000     7.2141     7.0700    -1.1562     7.2478     0.0124     0.1735    83.4935     2.3940  -999.2500
   77.5000     7.2131     7.0700    -2.0659     7.2347     0.0155     0.1720    84.4034     2.3949  -999.2500
   78.0000     7.2121     7.0700    -2.8236     7.2212     0.0202     0.1686    89.3492     2.3994  -999.2500
   78.5000     7.2109     7.0700    -3.7316     7.2229     0.0232     0.1743    91.0065     2.3928  -999.2500
   79.0000     7.2099     7.0700    -4.5045     7.2091     0.0159     0.1634    87.7311     2.3943  -999.2500
   79.5000     7.2090     7.0700    -5.5491     7.2108     0.0071     0.1544    87.2721     2.4168  -999.2500
   80.0000     7.2081     7.0700    -6.3069     7.1973     0.0057     0.1646    85.2194     2.4266  -999.2500
   80.5000     7.2071     7.1190    -7.2148     7.1991     0.0103     0.1654    82.9903     2.4110  -999.2500
   81.0000     7.2561     7.1683    -8.8752     7.2005     0.0164     0.1576    79.5654     2.4096  -999.2500
   81.5000     7.3054     7.2293    -9.7831     7.2169     0.0210     0.1528    79.2762     2.4194  -999.2500
   82.0000     7.4058     7.3185   -10.6910     7.2030     0.0181     0.1497    79.2925     2.4269  -999.2500
   82.5000     7.5079     7.3692   -11.4740     7.2048     0.0137     0.1449    79.1528     2.4338  -999.2500
   83.0000     7.6113     7.4255   -12.3585     7.1913     0.0094     0.1413    79.1692     2.4415  -999.2500
   83.5000     7.7162     7.4718   -12.5156     7.1930     0.0050     0.1428    79.3318     2.4481  -999.2500
   84.0000     7.8225     7.4718   -12.9731     7.1945     0.0036     0.1400    80.7623     2.4444  -999.2500
   84.5000     7.8757     7.4718   -13.7326     7.1959     0.0038     0.1535    82.6496     2.4310  -999.2500
   85.0000     7.8744     7.5236   -14.4904     7.2123     0.0054     0.1516    83.5595     2.4311  -999.2500
   85.5000     7.8192     7.5236   -15.2481     7.2290     0.0070     0.1537    82.9747     2.4297  -999.2500
   86.0000     7.8181     7.5757   -16.0260     7.2753     0.0116     0.1585    83.2867     2.4186  -999.2500
   86.5000     7.6567     7.5757   -17.2159     7.3215     0.0147     0.1554    84.7945     2.4179  -999.2500
   87.0000     7.5506     7.6653   -18.2739     7.3678     0.0148     0.1536    84.3591     2.4210  -999.2500
   87.5000     7.4460     7.7344   -19.3320     7.4589     0.0164     0.1542    83.0269     2.4241  -999.2500
   88.0000     7.3426     7.7880   -20.3918     7.5803     0.0180     0.1539    83.6562     2.4249  -999.2500
   88.5000     7.2911     7.7880   -21.4499     7.6415     0.0182     0.1529    84.2521     2.4257  -999.2500
   89.0000     7.1901     7.8420   -22.3578     7.6728     0.0213     0.1520    84.5641     2.4288  -999.2500
   89.5000     7.1396     7.8964   -23.2808     7.6742     0.0244     0.1580    85.3246     2.4289  -999.2500
   90.0000     7.1387     7.8964   -24.6258     7.6607     0.0290     0.1597    84.8892     2.4155  -999.2500
   90.5000     7.1377     7.8964   -26.1343     7.6176     0.0321     0.1552    82.6601     2.4193  -999.2500
   91.0000     7.1365     7.8964   -27.0422     7.5888     0.0352     0.1561    82.8226     2.4239  -999.2500
   91.5000     7.1357     7.8420   -28.2522     7.5158     0.0368     0.1557    83.7326     2.4247  -999.2500
   92.0000     7.1841     7.8420   -29.1601     7.4425     0.0309     0.1536    85.4260     2.4232  -999.2500
   92.5000     7.1831     7.8105   -29.9179     7.3692     0.0251     0.1515    86.5987     2.4279  -999.2500
   93.0000     7.2023     7.7880   -30.8358     7.2962     0.0118     0.1487    85.4193     2.4332  -999.2500
   93.5000     7.2310     7.7880   -32.1859     7.2525    -0.0001     0.1550    86.3292     2.4323  -999.2500
   94.0000     7.2802     7.7309   -33.0938     7.2389     0.0105     0.1646    87.6875     2.4199  -999.2500
   94.5000     7.3297     7.6811   -34.0017     7.2557     0.0256     0.1687    88.4480     2.3976  -999.2500
   95.0000     7.3795     7.6547   -34.7612     7.2720     0.0363     0.1537    87.8631     2.4104  -999.2500
   95.5000     7.4297     7.6283   -35.5190     7.3187     0.0348     0.1474    85.1856     2.4276  -999.2500
   96.0000     7.4802     7.5757   -36.1266     7.3649     0.0259     0.1489    82.2033     2.4329  -999.2500
   96.5000     7.4790     7.5757   -36.8894     7.3963     0.0171     0.1521    83.1913     2.4285  -999.2500
   97.0000     7.4780     7.5757   -37.6439     7.3977     0.0127     0.1539    86.1249     2.4323  -999.2500
   97.5000     7.4767     7.5757   -38.1013     7.4141     0.0084     0.1583    87.1811     2.4197  -999.2500
   98.0000     7.4757     7.5757   -38.7089     7.4158     0.0055     0.1514    83.4605     2.4146  -999.2500
   98.5000     7.4747     7.5757   -39.3183     7.4322     0.0026     0.1484    82.1282     2.4215  -999.2500
   99.0000     7.4738     7.5757   -39.7758     7.4486    -0.0002     0.1537    84.2340     2.4307  -999.2500
   99.5000     7.4728     7.5757   -40.3834     7.4649    -0.0001     0.1573    88.2829     2.4246  -999.2500
  100.0000     7.4718     7.5757   -40.9910     7.4664     0.0000     0.1585    91.2874     2.4157  -999.2500
  100.5000     7.4788     7.5757   -41.3001     7.4980    -0.0014     0.1566    91.7474     2.4202  -999.2500
  101.0000     7.5216     7.5757   -41.3071     7.4995    -0.0027     0.1615    91.6094     2.4218  -999.2500
  101.5000     7.5727     7.5757   -41.4642     7.5158    -0.0026     0.1598    90.1262     2.4114  -999.2500
  102.0000     7.5715     7.5757   -41.4715     7.5173    -0.0025     0.1528    85.6534     2.4204  -999.2500
  102.5000     7.5704     7.5757   -41.6301     7.5486    -0.0024     0.1522    83.6971     2.4279  -999.2500
  103.0000     7.5694     7.5757   -41.6372     7.5952     0.0007     0.1557    82.3909     2.4228  -999.2500
  103.5000     7.5113     7.5227   -41.7943     7.5966     0.0023     0.1578    82.5519     2.4176  -999.2500
  104.0000     7.4633     7.4718   -41.9532     7.6126     0.0010     0.1542    82.8623     2.4259  -999.2500
  104.5000     7.3599     7.3973   -41.9602     7.5991     0.0026     0.1536    83.4718     2.4275  -999.2500
  105.0000     7.3083     7.3059   -42.1174     7.5859     0.0012     0.1571    86.4728     2.4238  -999.2500
  105.5000     7.2570     7.2681   -42.1246     7.5877     0.0013     0.1511    89.0255     2.4223  -999.2500
  106.0000     7.1564     7.1683   -41.9813     7.5738    -0.0015     0.1499    89.9542     2.4336  -999.2500
  106.5000     7.1555     7.1683   -41.8399     7.5756    -0.0014     0.1589    89.7988     2.4203  -999.2500
  107.0000     7.1050     7.1190   -41.8469     7.5920    -0.0013     0.1618    89.6579     2.4174  -999.2500
  107.5000     7.1041     7.0700   -41.7055     7.5934    -0.0012     0.1582    89.0744     2.4159  -999.2500
  108.0000     7.1526     7.0700   -41.7125     7.5952    -0.0011     0.1597    86.8438     2.4115  -999.2500
  108.5000     6.9653     7.0700   -41.5676     7.5966    -0.0025     0.1585    84.0153     2.4123  -999.2500
