~VERSION INFORMATION
 VERS.                2.0:   CWLS LOG ASCII STANDARD - VERSION 2.0
 WRAP.                 NO:   ONE LINE PER DEPTH STEP
~WELL INFORMATION
#MNEM.UNIT      DATA TYPE    INFORMATION
#----------   ------------   ------------------------------
 STRT.F           32.5000:   START DEPTH
 STOP.F          433.0000:   STOP DEPTH
 STEP.F            0.5000:   STEP LENGTH
 NULL.          -999.2500:   NO VALUE
 COMP.    FENIX & SCISSON:   COMPANY
 WELL. NPR-3 65-S-10 #65-10:   WELL
 FLD .             TEAPOT:   FIELD
 LOC .      S10 T38N R78W:   LOCATION
 CNTY.            NATRONA:   COUNTY
 STAT.            WYOMING:   STATE
 CTRY. UNITED STATES OF AMERICA:   COUNTRY
 SRVC.           BIRDWELL:   SERVICE COMPANY
 DATE.        13-JUN-1978:   LOGDATE
 API .       490251063000:   API NUMBER
~CURVE INFORMATION
#MNEM.UNIT       API CODE    CURVE DESCRIPTION
#----------   ------------   ------------------------------
 DEPT.F                  :   
 CALD.IN     45 280 60 00:   CALIPER FROM DENSITY LOG
 CORR.G/C3   45 356 01 00:   DENSITY CORRECTION
 DEN .G/C3   45 350 01 00:   COMPENSATED BULK DENSITY
 GRD .GAPI   45 310 01 00:   GAMMA RAY FROM DENSITY LOG
 DPHI.DEC    45 890 12 00:   DENSITY POROSITY SANDSTONE
 IL  .OHMM   05 120 00 00:   INDUCTION LOG 40"
 SN  .OHMM   05 040 16 00:   SHORT NORMAL 16"
 SPR .MV     05 010 01 00:   SPONTANEOUS POTENTIAL FROM RES.
~PARAMETER INFORMATION
#MNEM.UNIT          VALUE    DESCRIPTION
#----------   ------------   ------------------------------
 PD  .                 GL:   PERMANENT DATUM
 EPD .F              5193:   ELEVATION PERMANENT DATUM
 LMF .                 KB:   LOG MEASURED FROM
 DMF .                 KB:   DRILLING MEASURED FROM
 EKB .F              5197:   KELLING BUSHING
 EGL .F              5193:   GROUND LEVEL
 DATE.          6-13-1978:   RUN DATE
 RUN .                  1:   RUN NUMBER
 DD  .F               430:   DEPTH DRILLER
 DL  .F               433:   DEPTH LOGGER
 BLI .F               427:   BOTTOM LOG INTERVAL
 TLI .F                50:   TOP LOG INTERVAL
 CS  .IN            8.625:   CASING SIZE
 CBD .F                40:   CASING BOTTOM DRILLER
 CBL .F                48:   CASING BOTTOM LOGGER
 BS  .IN            7.875:   BIT SIZE
 BSD .F               430:   BIT SIZE AT DEPTH
 DFT .                KCL:   DRILLING FLUID TYPE
 DFD .                8.7:   DRILLING FLUID DENSITY
 DFV .                 32:   DRILLING FLUID VISCOSITY
 DFPH.                9.5:   DRILLING FLUID PH
 DFL .                8.4:   DRILLING FLUID LOSS
 MSS .           FLOWLINE:   MUD SAMPLE SOURCE
 RMS .OHMM            .38:   RESISTIVITY MUD SAMPLE
 MST .F                86:   MUD SAMPLE TEMPERATURE
 RMF .OHMM            .36:   RESISTIVITY MUD FILTRATE SAMPLE
 MFST.F                82:   MUD FILTRATE SAMPLE TEMPERATURE
 MFSS.               MEAS:   MUD FILTRATE SAMPLE SOURCE
 MCSS.               MEAS:   MUD CAKE SAMPLE SOURCE
 TCS .HRS               3:   TIME CURCULATED STOPPED
 MRT .F                73:   MAXIMUM RECORDED TEMPERATURE
 LUN .               2958:   LOGGING UNIT NUMBER
 LUL .               CASP:   LOGGING UNIT LOCATION
 ENGI.           REYNOLDS:   RECORDING ENGINEER
 WITN.           MCGINLEY:   WITNESSED BY
 CLNT.            A2DTECH:   CLIENT CODE
 ORIG.           5" PRINT:   ORIGIN OF DATA
 UWI .       490251063000:   UNIQUE WELL ID
 DICO. A2D Technologies, Inc.:   DIGITIZING COMPANY
~OTHER INFORMATION
~A   DEPT     CALD       CORR        DEN        GRD       DPHI         IL         SN        SPR   
# ...
  154.0000     7.2101     0.0461     2.4561   114.4494     0.1296     7.0480     8.7740   -67.7380
  154.5000     7.1506     0.0535     2.4574   114.1405     0.1313     7.0285     8.8510   -68.0214
  155.0000     7.0910     0.0595     2.4514   113.5426     0.1244     6.9870     8.5579   -68.0146
  155.5000     7.0912     0.0358     2.4484   112.7952     0.1175     6.9925     8.5054   -68.0105
  156.0000     7.1063     0.0176     2.4469   111.8622     0.1121     6.9009     8.5130   -68.0064
  156.5000     7.2109     0.0179     2.4544   117.2405     0.1226     6.8602     8.6372   -68.0023
  157.0000     7.4797     0.0223     2.4649   117.8356     0.1288     6.8186     8.8252   -67.9982
  157.5000     7.5601     0.0282     2.4611   117.8151     0.1294     6.7307     8.7694   -67.9941
  158.0000     7.4366     0.0312     2.4544   116.9322     0.1258     6.6911     8.7773   -67.9900
  158.5000     7.3927     0.0312     2.4484   115.7335     0.1222     6.6491     8.5453   -67.9859
  159.0000     7.4369     0.0312     2.4499   115.7307     0.1179     6.5645     7.9830   -67.9818
  159.5000     7.4663     0.0315     2.4559   116.3257     0.1162     6.5248     7.3571   -67.9777
  160.0000     7.3910     0.0401     2.4589   119.6113     0.1153     6.5763     7.1135   -67.9736
  160.5000     7.4054     0.0460     2.4620   120.2063     0.1156     6.5913     7.0686   -68.2634
  161.0000     7.5103     0.0534     2.4649   120.5024     0.1165     6.6780     7.2723   -68.2549
  161.5000     7.5385     0.0637     2.4664   120.0504     0.1156     6.6781     7.5327   -68.2464
  162.0000     7.4186     0.0726     2.4679   118.4033     0.1141     6.6773     7.9109   -68.5356
  162.5000     7.4969     0.0918     2.4686   116.3077     0.0949     6.6833     8.1374   -68.3762
  163.0000     7.5367     0.0578     2.4694   113.9132     0.0936     6.7343     8.2561   -68.2189
  163.5000     7.4316     0.0401     2.4738   109.4031     0.1010     6.7392     8.4343   -68.2113
  164.0000     7.3266     0.0297     2.4873   110.6183     0.1097     6.7441     8.6164   -68.2024
  164.5000     7.3408     0.0164     2.4899   112.1102     0.1169     6.7026     8.7435   -68.1935
  165.0000     7.3999     0.0015     2.4778   113.4526     0.1202     6.7080     8.8710   -68.1830
  165.5000     7.0263    -0.0043     2.4644   114.7950     0.1255     6.7135     8.8150   -68.3254
  166.0000     7.0107    -0.0058     2.4584   115.3901     0.1309     6.6265     8.6427   -68.3149
  166.5000     7.0100    -0.0043     2.4537   114.4903     0.1339     6.6547     8.4093   -68.4552
  167.0000     7.0095    -0.0043     2.4435   114.0383     0.1342     6.6819     8.3053   -68.4464
  167.5000     7.0089    -0.0013     2.4375   114.1856     0.1339     6.6408     8.3701   -68.4362
  168.0000     6.9785     0.0002     2.4338   115.9758     0.1336     6.6012     8.3761   -68.4277
  168.5000     6.9779     0.0016     2.4360   117.1687     0.1342     6.5156     8.3245   -68.2704
  169.0000     6.9773     0.0046     2.4405   117.4649     0.1347     6.4756     8.2136   -68.1131
  169.5000     6.9767     0.0105     2.4345   117.7772     0.1362     6.4370     8.1105   -68.1026
  170.0000     6.9760     0.0179     2.4300   115.9636     0.1392     6.3535     8.0068   -68.0941
  170.5000     6.9755     0.0223     2.4323   114.0175     0.1425     6.1430     7.9577   -67.9368
  171.0000     6.9749     0.0238     2.4301   114.4630     0.1428     5.9805     7.8008   -67.9284
  171.5000     6.9743     0.0194     2.4271   115.9549     0.1302     5.9029     7.5945   -67.7708
  172.0000     6.9737     0.0194     2.4241   122.5290     0.1237     5.8677     7.2940   -67.7605
  172.5000     6.9730     0.0194     2.4290   125.0698     0.1236     5.9125     6.8141   -67.7521
  173.0000     6.9725     0.0194     2.4391   122.3731     0.1227     5.9168     6.5885   -67.4460
  173.5000     7.0019     0.0209     2.4540   119.2312     0.1203     5.9620     6.3703   -66.9901
  174.0000     7.2101     0.0223     2.4645   115.9399     0.1176     6.0908     6.1980   -66.5341
  174.5000     7.3140     0.0223     2.4712   116.2359     0.1129     6.2664     6.1638   -66.2280
  175.0000     7.3282     0.0223     2.4735   117.2794     0.1096     6.4460     6.5634   -66.2195
  175.5000     7.3874     0.0223     2.4705   118.7713     0.1143     6.6307     7.3322   -65.9135
  176.0000     7.4614     0.0223     2.4720   118.5710     0.1173     6.7740     8.0792   -65.6071
  176.5000     7.4759     0.0238     2.4765   117.1206     0.1176     6.8258     8.1972   -65.5968
  177.0000     7.4752     0.0238     2.4772   115.9219     0.1143     6.8318     8.1467   -65.2907
  177.5000     7.4746     0.0223     2.4802   116.0685     0.1134     6.8840     8.1541   -63.9451
  178.0000     7.4739     0.0194     2.4758   116.2158     0.1119     6.8413     8.3301   -66.4643
  178.5000     7.4733     0.0164     2.4743   116.3617     0.1083     6.8938     8.5686   -66.7534
  179.0000     7.4728     0.0164     2.4765   116.1674     0.1065     6.9467     8.6342   -66.7428
  179.5000     7.4423     0.0194     2.4773   114.7110     0.1141     6.9528     8.7615   -66.7344
  180.0000     7.4119     0.0223     2.4780   114.1102     0.1197     6.9578     8.8283   -66.7259
  180.5000     7.3362     0.0238     2.4765   113.9579     0.1215     6.9628     8.8346   -66.7173
  181.0000     7.2315     0.0253     2.4676   115.0013     0.1203     7.0160     8.8410   -66.7069
  181.5000     7.1116     0.0297     2.4629   116.1943     0.1179     7.0697     8.8476   -66.6984
  182.0000     6.9916     0.0282     2.4601   116.4906     0.1143     7.0759     8.7328   -66.6899
  182.5000     6.9612     0.0194     2.4616   114.6933     0.1088     7.0810     8.5019   -66.6815
  183.0000     7.0203     0.0164     2.4646   113.4946     0.1077     7.0861     9.4996   -66.5221
  183.5000     7.4376     0.0194     2.4721   112.5949     0.1092     7.0912     9.7046   -66.6646
  184.0000     7.4818     0.0194     2.4781   115.0731     0.1101     7.0976     9.7133   -66.6540
  184.5000     7.4962     0.0194     2.4796   119.7633     0.1083     7.1027     9.6520   -66.6455
  185.0000     7.5255     0.0164     2.4781   120.5085     0.1047     7.0591     9.6607   -66.7859
  185.5000     7.5247     0.0120     2.4789   120.5049     0.1016     7.0639     9.6676   -66.9262
  186.0000     7.5242     0.0075     2.4796   121.2495     0.0996     7.0207     9.6746   -66.6180
  186.5000     7.5385     0.0046     2.4849   122.4654     0.0981     7.0271     9.5493   -66.6095
  187.0000     7.5529     0.0046     2.4901   119.6971     0.0975     6.9826     9.4273   -66.6011
  187.5000     7.4328    -0.0013     2.4923   116.7558     0.0966     6.9884     9.2414   -66.5905
  188.0000     7.3576     0.0016     2.4916   115.7066     0.0954     6.9940     9.0575   -66.5820
  188.5000     7.3719     0.0253     2.4953   116.1522     0.1034     6.9510     9.0657   -66.8733
  189.0000     7.4012     0.0253     2.4968   117.9430     0.1100     6.9573     9.1996   -65.6723
  189.5000     7.4006     0.0238     2.4976   119.7339     0.1022     6.8671     9.3337   -65.6637
  190.0000     7.3402     0.0207     2.5013   120.7773     0.1004     6.8237     9.0869   -65.9529
  190.5000     7.3695     0.0046     2.4939   115.2431     0.1112     6.5987     8.7860   -65.9424
  191.0000     7.4137     0.0061     2.4857   114.6423     0.1201     6.4242     8.7924   -65.9339
  191.5000     7.4728     0.0087     2.4887   115.5363     0.1268     6.2542     8.8003   -65.0326
  192.0000     7.5170     0.0105     2.4745   117.6261     0.1279     6.1648     8.8066   -63.9603
  192.5000     7.5164     0.0153     2.4603   119.7159     0.1285     6.0109     8.5738   -65.9064
  193.0000     7.4709     0.0179     2.4476   117.8914     0.1291     5.8923     8.1766   -67.0884
  193.5000     7.4853     0.0238     2.4386   117.3178     0.1303     5.6970     7.9047   -68.1216
  194.0000     7.5147     0.0282     2.4379   117.6146     0.1327     5.5856     7.9676   -68.5635
