~VERSION INFORMATION
 VERS.                2.0:   CWLS LOG ASCII STANDARD - VERSION 2.0
 WRAP.                 NO:   ONE LINE PER DEPTH STEP
~WELL INFORMATION
#MNEM.UNIT      DATA TYPE    INFORMATION
#----------   ------------   ------------------------------
 STRT.F           80.0000:   START DEPTH
 STOP.F         1011.0000:   STOP DEPTH
 STEP.F            0.5000:   STEP LENGTH
 NULL.          -999.2500:   NO VALUE
 COMP.          U.S. NAVY:   COMPANY
 WELL. RES 3 TEAPOT DOM #61S-11:   WELL
 FLD .             TEAPOT:   FIELD
 LOC .      S11 T38N R78W:   LOCATION
 CNTY.            NATRONA:   COUNTY
 STAT.            WYOMING:   STATE
 CTRY. UNITED STATES OF AMERICA:   COUNTRY
 SRVC.       Schlumberger:   SERVICE COMPANY
 DATE.        23-JUL-1964:   LOGDATE
 API .       490250637500:   API NUMBER
~CURVE INFORMATION
#MNEM.UNIT       API CODE    CURVE DESCRIPTION
#----------   ------------   ------------------------------
 DEPT.F                  :   
 CALS.IN     60 280 50 00:   CALIPER FROM SONIC LOG
 DT  .US/F   60 520 33 00:   INTERVAL TRANSIT TIME
 GR  .GAPI   30 310 01 00:   GAMMA RAY
 CILD.MMHO   05 110 46 00:   CONDUCTIVITY INDUCTION LOG DEEP
 ILD .OHMM   05 120 46 00:   INDUCTION LOG DEEP
 ASN .OHMM   05 041 16 00:   AMPLIFIED SHORT NORMAL 16"
 SPR .MV     05 010 01 00:   SPONTANEOUS POTENTIAL FROM RES.
~PARAMETER INFORMATION
#MNEM.UNIT          VALUE    DESCRIPTION
#----------   ------------   ------------------------------
 PD  .                 GL:   PERMANENT DATUM
 EPD .F              5199:   ELEVATION PERMANENT DATUM
 LMF .                 KB:   LOG MEASURED FROM
 DAPD.F                 5:   FEET ABOVE PERMANENT DATUM
 DMF .                 KB:   DRILLING MEASURED FROM
 EKB .F              5204:   KELLING BUSHING
 EGL .F              5199:   GROUND LEVEL
 DATE.          7-23-1964:   RUN DATE
 RUN .                  1:   RUN NUMBER
 DD  .F              1010:   DEPTH DRILLER
 DL  .F              1012:   DEPTH LOGGER
 BLI .F              1011:   BOTTOM LOG INTERVAL
 TLI .F                88:   TOP LOG INTERVAL
 CS  .IN            8.625:   CASING SIZE
 CBD .F                10:   CASING BOTTOM DRILLER
 BS  .IN             6.75:   BIT SIZE
 BSD .F              1010:   BIT SIZE AT DEPTH
 DFT .            GEL-OIL:   DRILLING FLUID TYPE
 DFD .                9.8:   DRILLING FLUID DENSITY
 DFV .                 54:   DRILLING FLUID VISCOSITY
 MSS .           FLOWLINE:   MUD SAMPLE SOURCE
 RMS .OHMM           1.47:   RESISTIVITY MUD SAMPLE
 MST .F                86:   MUD SAMPLE TEMPERATURE
 RMF .OHMM            .96:   RESISTIVITY MUD FILTRATE SAMPLE
 MFST.F                86:   MUD FILTRATE SAMPLE TEMPERATURE
 RMC .OHMM           2.10:   RESISTIVITY MUD CAKE
 MCST.F                86:   MUD CAKE SAMPLE TEMPERATURE
 MFSS.                 FP:   MUD FILTRATE SAMPLE SOURCE
 MCSS.                 FP:   MUD CAKE SAMPLE SOURCE
 TCS .HRS               2:   TIME CURCULATED STOPPED
 LUN .               4507:   LOGGING UNIT NUMBER
 LUL .              CSPR.:   LOGGING UNIT LOCATION
 ENGI.             DANNER:   RECORDING ENGINEER
 WITN.          JORGENSEN:   WITNESSED BY
 CLNT.            A2DTECH:   CLIENT CODE
 ORIG.      2" & 5" PRINT:   ORIGIN OF DATA
 UWI .       490250637500:   UNIQUE WELL ID
 DICO. A2D Technologies, Inc.:   DIGITIZING COMPANY
~OTHER INFORMATION
~A   DEPT     CALS         DT         GR        CILD         ILD        ASN      SPR   
# ...
  535.0000     6.5023   102.7108    62.0671   119.3753     8.3167    10.4154   -35.9282
  535.5000     6.4993   102.7861    67.2507   132.4918     7.4395     9.6485   -34.0591
  536.0000     6.5125   102.8002    71.3032   145.6084     6.5623     8.7579   -32.0422
  536.5000     6.6029   103.7441    73.7041   157.7618     6.0251     7.9557   -30.7528
  537.0000     6.6630   104.8585    73.8809   167.3846     5.5941     7.5880   -30.3222
  537.5000     6.6780   105.5347    72.6501   175.5127     5.5969     7.3528   -30.1797
  538.0000     6.6778   106.4247    74.6445   176.2290     5.6733     6.9556   -30.1814
  538.5000     6.6777   107.0146    72.9474   174.6989     5.8234     6.8235   -30.1827
  539.0000     6.6323   107.5632    72.9141   173.1776     6.0472     6.8386   -30.1842
  539.5000     6.5416   108.0572    73.2447   170.9133     6.2083     6.9421   -30.1858
  540.0000     6.4660   107.8011    72.1922   167.9049     6.3480     7.0604   -30.1872
  540.5000     6.4659   106.9839    73.0916   167.1189     6.4238     7.1215   -30.1886
  541.0000     6.4808   105.9790    73.3904   166.3405     6.2064     7.1644   -30.1900
  541.5000     6.5108   104.7098    73.3889   166.3051     6.1355     7.1796   -30.3352
  542.0000     6.5710   103.6658    73.3855   166.2696     6.1384     7.0916   -30.3369
  542.5000     6.6162   103.3133    68.5506   166.2333     6.2892     6.9890   -30.4822
  543.0000     6.6462   103.6286    67.9790   166.0500     6.4393     6.8994   -30.6275
  543.5000     6.6611   104.6197    71.7535   164.8378     6.5894     6.7985   -30.7727
  544.0000     6.6609   105.5843    71.4295   164.1001     6.7395     6.7840   -30.9180
  544.5000     6.6608   105.8790    72.1477   163.3661     6.8159     6.8582   -31.0636
  545.0000     6.6455   105.8684    75.9708   161.8871     6.9667     6.9765   -31.2088
  545.5000     6.6152   105.4880    77.0496   159.6656     7.0432     7.0947   -31.3541
  546.0000     6.5547   104.7319    77.8799   157.4456     7.0460     7.1836   -31.6432
  546.5000     6.5244   104.1380    75.1758   156.7080     6.9745     7.1398   -31.9329
  547.0000     6.5243   103.9880    76.3751   158.2028     6.7571     7.1697   -32.2219
  547.5000     6.5090   103.7651    76.5241   160.4388     6.6126     7.1701   -32.3671
  548.0000     6.5089   103.6125    77.4231   161.9317     6.3945     7.1558   -32.5124
  548.5000     6.5087   103.4624    79.5238   165.0046     6.1771     7.0516   -32.5137
  549.0000     6.4935   103.5411    81.1739   168.6342     6.1056     6.9359   -32.5151
  549.5000     6.4933   104.3685    88.8301   171.6131     6.0348     6.8332   -32.3520
  550.0000     6.4932   105.0452    91.8320   173.1061     6.0383     6.7853   -31.9035
  550.5000     6.5035   105.6122    84.6155   175.3420     6.1405     6.7599   -31.3699
  551.0000     6.5237   106.1250    87.0240   174.6062     6.2592     6.7345   -30.9410
  551.5000     6.5389   106.7267    82.8063   173.1274     6.4065     6.7092   -30.7999
  552.0000     6.5692   107.2258    81.6156   170.9075     6.4801     6.6728   -31.5228
  552.5000     6.6146   107.2250    82.8305   167.9428     6.4801     6.7069   -31.6694
  553.0000     6.6299   107.0737    84.1652   165.7211     6.4065     6.8796   -31.3844
  553.5000     6.6602   106.9976    81.1393   163.4994     6.4065     7.0124   -30.9548
  554.0000     6.6603   106.8463    78.7487   161.1983     6.4065     7.1011   -30.6705
  554.5000     6.6152   105.6407    78.9054   157.5718     6.5538     7.1602   -31.2686
  555.0000     6.5852   105.1129    75.1502   155.3484     6.7747     7.2194   -31.6839
  555.5000     6.5401   104.8862    76.3720   152.3855     6.9219     7.2492   -32.1184
  556.0000     6.5093   104.5843    77.5857   150.9049     7.0692     7.2347   -32.2650
  556.5000     6.4801   104.1317    79.1275   148.6850     7.2901     7.2645   -32.4117
  557.0000     6.4652   104.0557    81.3003   146.4650     7.3638     7.3679   -32.1267
  557.5000     6.4653   104.5821    75.4576   144.9863     7.2901     7.4713   -31.8249
  558.0000     6.4655   104.8825    73.0070   143.5057     7.2901     7.6483   -31.2696
  558.5000     6.4807   104.2763    72.4370   142.7699     7.2901     7.7827   -30.6968
  559.0000     6.4959   103.5075    72.4355   142.0356     7.3638     7.8109   -30.2679
  559.5000     6.4961   102.9014    72.4530   141.3000     7.2901     7.7818   -29.9822
  560.0000     6.4962   102.5450    72.3925   142.0518     7.2901     7.8262   -29.8418
  560.5000     6.4964   102.2431    65.5689   144.2878     7.0692     7.9443   -29.8446
  561.0000     6.4965   102.0164    64.7718   146.5237     6.9956     7.9888   -29.8480
  561.5000     6.4514   101.6392    66.4451   148.0167     7.0692     7.9891   -29.8508
  562.0000     6.4365   101.2621    67.3879   150.2526     7.2165     7.9011   -29.8535
  562.5000     6.6629   101.7885    71.2738   151.7474     7.2165     7.7541   -29.7117
  563.0000     6.6631   101.0346    72.4757   153.2404     7.0692     7.6071   -29.7152
  563.5000     6.6632   100.4314    78.7530   154.7334     6.8483     7.4748   -29.7180
  564.0000     6.6633   100.5813    78.1559   156.2264     6.7010     7.3573   -29.8653
  564.5000     6.6646   101.0323    73.5911   157.7194     6.4801     7.2535   -29.8680
  565.0000     6.6787   101.4834    72.5673   158.4695     6.4801     7.1517   -30.0147
  565.5000     6.6789   102.0851    69.2625   158.4783     6.4065     7.0931   -30.1613
  566.0000     6.6791   102.4608    68.2099   159.2283     6.3328     7.0050   -30.4519
  566.5000     6.6641   102.3848    66.7069   159.9784     6.4065     6.9463   -30.8863
  567.0000     6.6643   102.0045    70.0087   159.9855     6.4801     6.9025   -31.0336
  567.5000     6.6644   101.8562    74.8120   159.9926     6.6274     6.9338   -30.7486
  568.0000     6.6344   102.6687    72.4085   159.2568     6.7010     7.1241   -30.6068
  568.5000     6.3178   103.5113    73.9085   158.5210     6.7747     7.1980   -30.4657
  569.0000     6.1068   103.5859    72.2550   156.3010     6.8483     7.1394   -30.3252
  569.5000     6.0466   103.3591    70.9021   154.8223     6.8483     7.0513   -30.4719
  570.0000     6.3635   103.1324    68.7989   152.6005     6.9219     7.1841   -30.6193
  570.5000     6.4994   102.8305    70.4491   152.5728     6.9219     7.3321   -30.9098
  571.0000     6.5448   102.1520    68.9457   151.1289     6.9219     7.3909   -31.0564
  571.5000     6.5450   100.7206    71.7970   151.1378     6.8466     7.4059   -31.0592
  572.0000     6.5149   100.0421    72.9971   150.4001     6.7747     7.4062   -31.0620
  572.5000     6.4995   100.4179    71.6439   150.4090     6.6274     7.3770   -31.0647
  573.0000     6.4851   101.0948    72.0928   150.4161     6.5538     7.2890   -30.7797
  573.5000     6.4852   101.2447    73.4427   149.6803     6.6274     7.2155   -30.6386
  574.0000     6.4854   100.9427    74.7925   149.6892     6.7010     7.2601   -30.4975
  574.5000     6.4855   101.1679    74.9416   148.9516     6.7747     7.3930   -30.5009
  575.0000     6.4857   101.9955    77.0418   148.2175     6.8483     7.4964   -30.5037
  575.5000     6.4858   102.0700    79.1424   148.9676     6.7747     7.6292   -30.3626
  576.0000     6.4860   101.5061    79.8920   148.9747     6.7010     7.7473   -30.3655
  576.5000     6.4861   100.3711    75.6859   148.9836     6.6274     7.8065   -30.3688
  577.0000     6.4863    99.1309    73.4322   149.7336     6.6274     7.7751   -30.2277
  577.5000     6.4864    98.4524    74.3316   151.9696     6.6274     7.6893   -30.2305
  578.0000     6.4866    98.0752    73.7295   153.4626     6.6274     7.5128   -30.2332
  578.5000     6.4867    98.3003    67.8721   155.6985     6.5538     7.2922   -30.0921
  579.0000     6.4869    99.2785    68.3211   157.2713     6.5538     7.1452   -29.9510
  579.5000     6.4870   100.5579    71.3226   161.6580     6.4801     7.0571   -29.8099
  580.0000     6.4872   101.9879    74.0238   163.8940     6.4801     7.0280   -29.6694
