~VERSION INFORMATION
 VERS.                2.0:   CWLS LOG ASCII STANDARD - VERSION 2.0
 WRAP.                 NO:   ONE LINE PER DEPTH STEP
~WELL INFORMATION
#MNEM.UNIT      DATA TYPE    INFORMATION
#----------   ------------   ------------------------------
 STRT.F           42.0000:   START DEPTH
 STOP.F          612.0000:   STOP DEPTH
 STEP.F            0.5000:   STEP LENGTH
 NULL.          -999.2500:   NO VALUE
 COMP. FENIX AND SCISSON INCORPORATED:   COMPANY
 WELL. RES 3 TEAPOT DOM #25SX11-11:   WELL
 FLD .             TEAPOT:   FIELD
 LOC .      S11 T38N R78W:   LOCATION
 CNTY.            NATRONA:   COUNTY
 STAT.            WYOMING:   STATE
 CTRY. UNITED STATES OF AMERICA:   COUNTRY
 SRVC.            Unknown:   SERVICE COMPANY
 DATE.        16-FEB-1978:   LOGDATE
 API .       490251058000:   API NUMBER
~CURVE INFORMATION
#MNEM.UNIT       API CODE    CURVE DESCRIPTION
#----------   ------------   ------------------------------
 DEPT.F                  :   
 ILD .OHMM   05 120 46 00:   INDUCTION LOG DEEP
 SN  .OHMM   05 040 16 00:   SHORT NORMAL 16"
 SPR .MV     05 010 01 00:   SPONTANEOUS POTENTIAL FROM RES.
 CALD.IN     45 280 60 00:   CALIPER FROM DENSITY LOG
 CORR.G/C3   45 356 01 00:   DENSITY CORRECTION
 DPHI.DEC    45 890 12 00:   DENSITY POROSITY SANDSTONE
 GRD .GAPI   45 310 01 00:   GAMMA RAY FROM DENSITY LOG
 RHOB.G/C3   45 350 01 00:   BULK DENSITY
~PARAMETER INFORMATION
#MNEM.UNIT          VALUE    DESCRIPTION
#----------   ------------   ------------------------------
 PD  .                 GL:   PERMANENT DATUM
 EPD .F              5167:   ELEVATION PERMANENT DATUM
 LMF .                 KB:   LOG MEASURED FROM
 DAPD.F                 3:   FEET ABOVE PERMANENT DATUM
 DMF .                 KB:   DRILLING MEASURED FROM
 EKB .F              5170:   KELLING BUSHING
 EGL .F              5167:   GROUND LEVEL
 DATE.        16-FEB-1978:   RUN DATE
 RUN .                  1:   RUN NUMBER
 DD  .F               610:   DEPTH DRILLER
 DL  .F               615:   DEPTH LOGGER
 BLI .F               610:   BOTTOM LOG INTERVAL
 TLI .F                40:   TOP LOG INTERVAL
 CS  .IN            8.625:   CASING SIZE
 CBD .F                40:   CASING BOTTOM DRILLER
 CBL .F                40:   CASING BOTTOM LOGGER
 BS  .IN            7.875:   BIT SIZE
 BSD .F               610:   BIT SIZE AT DEPTH
 DFT .        LIGNO/ SULF:   DRILLING FLUID TYPE
 DFD .                8.7:   DRILLING FLUID DENSITY
 DFV .                 30:   DRILLING FLUID VISCOSITY
 DFPH.                 10:   DRILLING FLUID PH
 DFL .                4.6:   DRILLING FLUID LOSS
 MSS .           FLOWLINE:   MUD SAMPLE SOURCE
 RMS .OHMM            1.7:   RESISTIVITY MUD SAMPLE
 MST .F                69:   MUD SAMPLE TEMPERATURE
 RMF .OHMM            1.5:   RESISTIVITY MUD FILTRATE SAMPLE
 MFST.F                70:   MUD FILTRATE SAMPLE TEMPERATURE
 RMC .OHMM            2.5:   RESISTIVITY MUD CAKE
 MCST.F                70:   MUD CAKE SAMPLE TEMPERATURE
 MFSS.               MEAS:   MUD FILTRATE SAMPLE SOURCE
 RMB .OHMM            1.6:   RESISTIVITY MUD AT BHT
 BHT .F                70:   BOTTOM HOLE TEMPERATURE
 TCS .HRS               3:   TIME CURCULATED STOPPED
 MRT .F                70:   MAXIMUM RECORDED TEMPERATURE
 LUN .               2958:   LOGGING UNIT NUMBER
 LUL .             CASPER:   LOGGING UNIT LOCATION
 ENGI.            POINTER:   RECORDING ENGINEER
 WITN.           MCGINLEY:   WITNESSED BY
 CLNT.            A2DTECH:   CLIENT CODE
 ORIG.           5" PRINT:   ORIGIN OF DATA
 UWI .       490251058000:   UNIQUE WELL ID
 DICO. A2D Technologies, Inc.:   DIGITIZING COMPANY
~OTHER INFORMATION
~A   DEPT      ILD         SN         SPR      CALD       CORR       DPHI        GRD       RHOB   
# ...
  163.5000     8.5898    10.0817    -8.1586     7.9746     0.0305     0.0905    98.9891     2.5039
  164.0000     8.7634    10.0775    -8.5873     7.9739     0.0319     0.0897    98.9789     2.5083
  164.5000     8.8185    10.1436    -8.1438     7.9583     0.0348     0.0894    96.2537     2.5098
  165.0000     8.9966    10.1385    -7.9988     7.9426     0.0392     0.0891    96.5452     2.5023
  165.5000     9.1799    10.2061    -8.0098     7.9269     0.0421     0.0889    97.7416     2.4955
  166.0000     9.3021    10.2009    -8.0186     7.9260     0.0450     0.0886    98.4857     2.4947
  166.5000     9.3606    10.1968    -8.0274     7.9105     0.0449     0.0889    98.4650     2.5021
  167.0000     9.4196    10.1927    -7.8707     7.9099     0.0403     0.0902    98.0100     2.5104
  167.5000     9.4788    10.1181    -7.1380     7.9093     0.0328     0.0944    97.3965     2.5111
  168.0000     9.4709    10.0440    -6.6901     7.9238     0.0312     0.1007    95.1238     2.5073
  168.5000     9.5321    10.0398    -6.7011     7.9232     0.0311     0.1032    93.4545     2.4997
  169.0000     9.5241    10.0349    -6.7099     7.9377     0.0310     0.1053    93.5977     2.4877
  169.5000     9.4518    10.0308    -6.7186     7.9523     0.0324     0.1075    93.2832     2.4770
  170.0000     9.4455     9.9574    -6.7274     7.9517     0.0353     0.1099    89.2006     2.4711
  170.5000     9.4391    10.0237    -6.8990     7.9510     0.0427     0.0868    86.6058     2.4770
  171.0000     9.3674    10.0187    -7.2017     7.9050     0.0516     0.0766    86.3119     2.4845
  171.5000     9.3596    10.0146    -7.6651     7.6930     0.0530     0.0814    87.3574     2.5145
  172.0000     9.2886     9.9376    -8.1284     7.7278     0.0290     0.1128    92.6263     2.5250
  172.5000     9.2181     9.7314    -8.4402     7.7797     0.0259     0.1140    99.7050     2.4934
  173.0000     9.2777     9.7274    -8.4490     7.8272     0.0273     0.1137   104.3705     2.4692
  173.5000     9.1420     9.7235    -8.0032     7.8650     0.0287     0.1131    99.6846     2.4663
  174.0000     9.1359     9.7196    -7.8605     7.8863     0.0286     0.1120    99.0711     2.4693
  174.5000     9.1297     9.9202    -7.5662     7.8858     0.0300     0.1093   100.1141     2.4737
  175.0000     9.0602    10.1956    -7.4257     7.8851     0.0299     0.1054   101.3105     2.4797
  175.5000     8.9902    10.1210    -7.4345     7.8845     0.0283     0.1021   102.8086     2.4872
  176.0000     8.9220     9.9772    -7.4433     7.8840     0.0268     0.1034   104.0050     2.4879
  176.5000     8.7930     9.7666    -7.4521     7.8683     0.0252     0.1064   104.4473     2.4823
  177.0000     8.6659     9.4294    -7.4608     7.8677     0.0251     0.1107   104.2862     2.4735
  177.5000     8.4814     9.1674    -7.4697     7.8822     0.0250     0.1107   103.6727     2.4735
  178.0000     8.3588     9.1002    -7.3269     7.8815     0.0264     0.1116   100.5350     2.4750
  178.5000     8.2378     9.0966    -7.3379     7.8809     0.0278     0.1150    98.0716     2.4719
  179.0000     8.1175     9.0299    -7.3467     7.8350     0.0277     0.1192   102.8853     2.4666
  179.5000     7.9448     8.9016    -8.2645     7.7740     0.0291     0.1198   104.3834     2.4621
  180.0000     7.8845     8.7065    -8.4248     7.4411     0.0305     0.1157   104.5266     2.4629
  180.5000     7.8246     8.4130    -7.8276     6.9872     0.0334     0.1115   104.3630     2.4673
  181.0000     7.6051     8.1791    -7.8363     7.0535     0.0380     0.1097   103.9003     2.4695
  181.5000     7.3406     8.1192    -7.5421     7.2730     0.0452     0.1085   103.7392     2.4710
  182.0000     7.1843     8.0598    -7.0985     7.3782     0.0511     0.1068   106.5922     2.4724
  182.5000     7.1784     8.0008    -6.3497     7.4078     0.0600     0.1053   107.0370     2.4739
  183.0000     7.2248     7.9422    -6.0555     7.4225     0.0734     0.1038   101.8961     2.4769
  183.5000     7.2187     7.8271    -6.3673     7.4672     0.0883     0.1000    96.4560     2.4814
  184.0000     7.2641     7.7720    -7.4367     7.5118     0.1133     0.0907    96.5992     2.4880
  184.5000     7.3111     7.9318    -6.6879     7.5263     0.1360     0.0826    96.4356     2.5023
  185.0000     7.4588     8.1520    -7.0000     7.5408     0.1314     0.0814    95.3695     2.5180
  185.5000     7.7191     8.5547    -7.6167     7.5401     0.1104     0.0986    93.4485     2.5240
  186.0000     7.8199     8.7313    -7.7770     7.5546     0.0684     0.1064    91.2741     2.5165
  186.5000     7.8691     8.8507    -7.7858     7.5844     0.0578     0.1041    92.4706     2.4841
  187.0000     7.8625     8.8463    -8.0976     7.6290     0.0502     0.0987    94.4211     2.4961
  187.5000     7.8572     8.7814    -8.8640     7.6586     0.0426     0.0969    97.1258     2.5006
  188.0000     7.8519     8.8391    -8.1152     7.6890     0.0366     0.0985    98.6239     2.4938
  188.5000     7.8467     8.7735    -7.1980     7.7027     0.0350     0.1065    98.7647     2.4840
  189.0000     7.8414     8.7093    -6.7713     7.7020     0.0379     0.1084   100.4635     2.4854
  189.5000     7.7817     8.7057    -6.4749     7.7167     0.0378     0.0992   102.5148     2.4906
  190.0000     7.6681     8.8240    -7.5465     7.7462     0.0346     0.0956   100.9938     2.4974
  190.5000     7.5572     8.8204    -6.7977     7.7759     0.0316     0.1013   100.5336     2.4981
  191.0000     7.4999     8.8168    -6.0489     7.8205     0.0315     0.1038   101.2750     2.4950
  191.5000     7.5471     8.8132    -6.0577     7.8653     0.0300     0.1020   103.0747     2.4935
  192.0000     7.5959     8.8088    -6.3695     7.8798     0.0284     0.0984   104.7642     2.4995
  192.5000     7.6956     8.8053    -5.9237     7.8337     0.0268     0.0997   103.0543     2.4972
  193.0000     7.7486     8.8017    -6.0862     7.8029     0.0267     0.1012   102.5711     2.4859
  193.5000     7.9556     8.7982    -6.2465     7.6966     0.0266     0.1003   101.9755     2.4821
  194.0000     8.0070     8.8559    -6.4068     7.6509     0.0295     0.1019   100.6078     2.4865
  194.5000     8.1122     8.8524    -6.5671     7.8616     0.0309     0.1082    98.7877     2.4895
  195.0000     8.1067     8.8488    -7.0304     7.9970     0.0323     0.1109    98.4758     2.4752
  195.5000     8.1591     8.8551    -8.4029     7.9948     0.0322     0.1100    98.9180     2.4722
  196.0000     8.1523     8.8408    -7.3532     7.9503     0.0322     0.1068    99.2096     2.4789
  196.5000     8.1468     8.7760    -6.7538     7.9044     0.0350     0.1047    99.1890     2.4849
  197.0000     8.0836     8.7725    -7.6738     7.8283     0.0350     0.1033    98.8848     2.4871
  197.5000     8.0223     8.7689    -7.0766     7.8580     0.0349     0.1039    99.3271     2.4840
  198.0000     7.9614     8.7047    -6.7801     8.0084     0.0348     0.1060   100.2219     2.4817
  198.5000     7.9010     8.7012    -6.9426     7.9927     0.0362     0.1076   101.1166     2.4802
  199.0000     7.8957     8.6374    -7.2545     7.9450     0.0376     0.1082   102.0114     2.4802
  199.5000     7.8904     8.5140    -7.2654     7.6742     0.0420     0.1070   102.3032     2.4839
  200.0000     8.0498     8.5705    -7.1212     7.6434     0.0464     0.1044   101.8401     2.4899
  200.5000     8.0424     8.6256    -6.8284     7.6277     0.0538     0.1023   102.6440     2.4943
  201.0000     8.0343     8.6811    -7.2957     7.6271     0.0537     0.1011   104.3838     2.4950
  201.5000     8.0260     8.6152    -8.2150     7.6568     0.0521     0.1005   104.5423     2.4935
  202.0000     8.0741     8.5510    -7.3161     7.8072     0.0520     0.1014   102.5760     2.4911
  202.5000     8.1222     8.4873    -6.5687     7.8233     0.0504     0.1030   100.4600     2.4866
  203.0000     8.1706     8.4828    -6.2758     7.7625     0.0503     0.1042   101.8240     2.4843
  203.5000     8.2766     8.4781    -6.1345     7.6262     0.0486     0.1048   105.5784     2.4872
