~VERSION INFORMATION
 VERS.                2.0:   CWLS LOG ASCII STANDARD - VERSION 2.0
 WRAP.                 NO:   ONE LINE PER DEPTH STEP
~WELL INFORMATION
#MNEM.UNIT      DATA TYPE    INFORMATION
#----------   ------------   ------------------------------
 STRT.F          534.0000:   START DEPTH
 STOP.F         1847.5000:   STOP DEPTH
 STEP.F            0.5000:   STEP LENGTH
 NULL.          -999.2500:   NO VALUE
 COMP. LAWRENCE/ALLISON INC:   COMPANY
 WELL.      18 SHX #18-27:   WELL
 FLD .             TEAPOT:   FIELD
 LOC .      S27 T39N R78W:   LOCATION
 CNTY.            NATRONA:   COUNTY
 STAT.            WYOMING:   STATE
 CTRY. UNITED STATES OF AMERICA:   COUNTRY
 SRVC.            Unknown:   SERVICE COMPANY
 DATE.        01-MAR-1985:   LOGDATE
 API .       490251102000:   API NUMBER
~CURVE INFORMATION
#MNEM.UNIT       API CODE    CURVE DESCRIPTION
#----------   ------------   ------------------------------
 DEPT.F                  :   
 ROP .MIN/FT 91 810 01 00:   RATE OF DRILLING PENETRATION
 TGAS.UNITS  91 830 01 00:   TOTAL GAS FROM HOTWIRE
~PARAMETER INFORMATION
#MNEM.UNIT          VALUE    DESCRIPTION
#----------   ------------   ------------------------------
 DATE.           3-1-1985:   RUN DATE
 DD  .F              1848:   DEPTH DRILLER
 DL  .F              1825:   DEPTH LOGGER
 TLI .F               535:   TOP LOG INTERVAL
 WITN.  ALBERT C. KRAVATZ:   WITNESSED BY
 CLNT.            A2DTECH:   CLIENT CODE
 ORIG.           5" PRINT:   ORIGIN OF DATA
 UWI .       490251102000:   UNIQUE WELL ID
 DICO. A2D Technologies, Inc.:   DIGITIZING COMPANY
~OTHER INFORMATION
~A   DEPT      ROP       TGAS   
# ...
 1141.5000     1.0315     4.6639
 1142.0000     1.0314     4.6949
 1142.5000     1.0314     4.7260
 1143.0000     1.0313     4.7570
 1143.5000     1.0313     4.7881
 1144.0000     1.0313     4.8191
 1144.5000     1.0312     4.8502
 1145.0000     1.0312     4.8812
 1145.5000     1.0311     4.9122
 1146.0000     1.0311     4.9433
 1146.5000     1.0310     4.9743
 1147.0000     1.0310     5.0054
 1147.5000     1.0310     5.0364
 1148.0000     1.0309     5.0675
 1148.5000     1.0309     5.0985
 1149.0000     1.0308     5.1296
 1149.5000     1.0308     5.1606
 1150.0000     1.0307     5.1917
 1150.5000     1.0307     5.2227
 1151.0000     1.0307     5.2537
 1151.5000     1.0306     5.2848
 1152.0000     1.0306     5.3158
 1152.5000     1.0305     5.3469
 1153.0000     1.0305     5.3779
 1153.5000     1.0304     5.4090
 1154.0000     1.0304     5.4400
 1154.5000     1.0304     5.4711
 1155.0000     1.0303     5.5021
 1155.5000     1.0303     5.5332
 1156.0000     1.0302     5.5642
 1156.5000     1.0302     5.5952
 1157.0000     1.0301     5.6263
 1157.5000     1.0301     5.6573
 1158.0000     1.0301     5.6884
 1158.5000     1.0300     5.7194
 1159.0000     1.0300     5.7505
 1159.5000     1.0299     5.7815
 1160.0000     1.0299     5.8126
 1160.5000     1.0298     5.8436
 1161.0000     1.0298     5.8747
 1161.5000     1.0298     5.9057
 1162.0000     1.0297     5.9367
 1162.5000     1.0297     5.9678
 1163.0000     1.0296     5.9988
 1163.5000     1.0296     6.0299
 1164.0000     1.0295     6.0609
 1164.5000     1.0295     6.0920
 1165.0000     1.0295     6.1230
 1165.5000     1.0294     6.1541
 1166.0000     1.0294     6.1851
 1166.5000     1.0293     6.2162
 1167.0000     1.0293     6.2472
 1167.5000     1.0292     6.2782
 1168.0000     1.0292     6.3093
 1168.5000     1.0292     6.3403
 1169.0000     1.0291     6.3714
 1169.5000     1.0291     6.4024
 1170.0000     1.0290     6.4335
 1170.5000     1.0290     6.4645
 1171.0000     1.0289     6.4956
 1171.5000     1.0289     6.5266
 1172.0000     1.0289     6.5576
 1172.5000     1.0288     6.5887
 1173.0000     1.0288     6.6197
 1173.5000     1.0287     6.6508
 1174.0000     1.0287     6.6818
 1174.5000     1.0286     6.7129
 1175.0000     1.0286     6.7439
 1175.5000     1.0286     6.7750
 1176.0000     1.0285     6.8060
 1176.5000     1.0285     6.8371
 1177.0000     1.0284     6.8681
 1177.5000     1.0284     6.8991
 1178.0000     1.0283     6.9302
 1178.5000     1.0283     6.9612
 1179.0000     1.0283     6.9923
 1179.5000     1.0282     7.0233
 1180.0000     1.0282     7.0544
 1180.5000     1.0281     7.0854
 1181.0000     1.0281     7.1165
 1181.5000     1.0280     7.1475
 1182.0000     1.0280     7.1786
 1182.5000     1.0280     7.2096
 1183.0000     1.0279     7.2406
 1183.5000     1.0279     7.2717
 1184.0000     1.0278     7.3027
 1184.5000     1.0278     7.3338
 1185.0000     1.0277     7.3648
 1185.5000     1.0277     7.3959
 1186.0000     1.0277     7.4269
 1186.5000     1.0276     7.4580
 1187.0000     1.0276     7.4890
 1187.5000     1.0275     7.5201
 1188.0000     1.0275     7.5511
 1188.5000     1.0274     7.5821
 1189.0000     1.0274     7.6132
 1189.5000     1.0274     7.6442
 1190.0000     1.0273     7.6753
 1190.5000     1.0273     7.7063
 1191.0000     1.0272     7.7374
 1191.5000     1.0272     7.7684
 1192.0000     1.0271     7.7995
 1192.5000     1.0271     7.8305
 1193.0000     1.0271     7.8616
 1193.5000     1.0270     7.8926
 1194.0000     1.0270     7.9236
 1194.5000     1.0269     7.9547
 1195.0000     1.0269     7.9857
 1195.5000     1.0268     8.0168
 1196.0000     1.0268     8.0478
 1196.5000     1.0268     8.0789
 1197.0000     1.0267     8.1099
 1197.5000     1.0267     8.1410
 1198.0000     1.0266     8.1720
 1198.5000     1.0266     8.2031
 1199.0000     1.0265     8.2341
 1199.5000     1.0265     8.2651
 1200.0000     1.0265     8.2987
 1200.5000     1.0776     8.2795
 1201.0000     1.1332     8.2586
 1201.5000     1.1888     8.2378
 1202.0000     1.2416     8.2169
 1202.5000     1.2420     8.1960
 1203.0000     1.2423     8.1752
 1203.5000     1.2427     8.1543
 1204.0000     1.2431     8.1334
 1204.5000     1.2435     8.1126
 1205.0000     1.2439     8.0917
 1205.5000     1.2443     8.0708
 1206.0000     1.2447     8.0500
 1206.5000     1.2451     8.0291
 1207.0000     1.2455     8.0083
 1207.5000     1.2459     7.9874
 1208.0000     1.2463     7.9665
 1208.5000     1.2467     7.9457
 1209.0000     1.2470     7.9248
 1209.5000     1.2474     7.9039
 1210.0000     1.2478     7.8831
 1210.5000     1.2482     7.8622
 1211.0000     1.2486     7.8413
 1211.5000     1.2490     7.8205
 1212.0000     1.2494     7.7996
 1212.5000     1.2498     7.7787
 1213.0000     1.2502     7.7579
 1213.5000     1.2506     7.7370
 1214.0000     1.2510     7.7161
 1214.5000     1.2514     7.6953
 1215.0000     1.2517     7.6744
 1215.5000     1.2521     7.6536
 1216.0000     1.2525     7.6327
 1216.5000     1.2529     7.6118
 1217.0000     1.2533     7.5910
 1217.5000     1.2537     7.5701
 1218.0000     1.2541     7.5492
 1218.5000     1.2545     7.5284
 1219.0000     1.2549     7.5075
 1219.5000     1.2553     7.4866
 1220.0000     1.2557     7.4658
 1220.5000     1.2561     7.4449
 1221.0000     1.2564     7.4240
 1221.5000     1.2568     7.4032
 1222.0000     1.2572     7.3823
 1222.5000     1.2576     7.3615
 1223.0000     1.2580     7.3406
 1223.5000     1.2584     7.3197
 1224.0000     1.2588     7.2989
 1224.5000     1.2592     7.2780
 1225.0000     1.2596     7.2571
 1225.5000     1.2600     7.2363
 1226.0000     1.2604     7.2154
 1226.5000     1.2608     7.1945
 1227.0000     1.2611     7.1737
 1227.5000     1.2615     7.1528
 1228.0000     1.2619     7.1319
 1228.5000     1.2623     7.1111
 1229.0000     1.2627     7.0902
 1229.5000     1.2632     7.0693
 1230.0000     1.2025     7.0485
 1230.5000     1.1287     7.0276
 1231.0000     1.0549     7.0068
 1231.5000     1.0194     6.9859
 1232.0000     1.0192     6.9650
 1232.5000     1.0190     6.9442
 1233.0000     1.0189     6.9233
 1233.5000     1.0187     6.9024
 1234.0000     1.0185     6.8816
 1234.5000     1.0184     6.8607
 1235.0000     1.0182     6.8398
 1235.5000     1.0181     6.8190
 1236.0000     1.0179     6.7981
 1236.5000     1.0177     6.7772
 1237.0000     1.0176     6.7564
 1237.5000     1.0174     6.7355
 1238.0000     1.0172     6.7146
 1238.5000     1.0171     6.6938
 1239.0000     1.0169     6.6729
 1239.5000     1.0168     6.6521
 1240.0000     1.0166     6.6312
 1240.5000     1.0164     6.6103
 1241.0000     1.0163     6.5895
 1241.5000     1.0161     6.5686
 1242.0000     1.0159     6.5477
 1242.5000     1.0158     6.5269
 1243.0000     1.0156     6.5060
 1243.5000     1.0155     6.4851
 1244.0000     1.0153     6.4643
 1244.5000     1.0151     6.4434
 1245.0000     1.0150     6.4225
 1245.5000     1.0148     6.4017
 1246.0000     1.0146     6.3808
 1246.5000     1.0145     6.3600
 1247.0000     1.0143     6.3391
 1247.5000     1.0142     6.3182
 1248.0000     1.0140     6.2974
 1248.5000     1.0138     6.2765
 1249.0000     1.0137     6.2556
 1249.5000     1.0135     6.2348
 1250.0000     1.0133     6.2139
 1250.5000     1.0132     6.1930
 1251.0000     1.0130     6.1722
 1251.5000     1.0129     6.1513
 1252.0000     1.0127     6.1304
 1252.5000     1.0125     6.1096
 1253.0000     1.0124     6.0887
 1253.5000     1.0122     6.0678
 1254.0000     1.0120     6.0470
 1254.5000     1.0119     6.0261
 1255.0000     1.0117     6.0053
 1255.5000     1.0116     5.9844
 1256.0000     1.0114     5.9635
 1256.5000     1.0112     5.9427
 1257.0000     1.0111     5.9218
 1257.5000     1.0109     5.9009
 1258.0000     1.0107     5.8801
 1258.5000     1.0106     5.8592
 1259.0000     1.0104     5.8383
 1259.5000     1.0103     5.8175
 1260.0000     1.0101     5.7966
 1260.5000     1.0099     5.7757
 1261.0000     1.0098     5.7549
 1261.5000     1.0096     5.7340
 1262.0000     1.0094     5.7131
 1262.5000     1.0093     5.6923
