~VERSION INFORMATION
 VERS.                2.0:   CWLS LOG ASCII STANDARD - VERSION 2.0
 WRAP.                 NO:   ONE LINE PER DEPTH STEP
~WELL INFORMATION
#MNEM.UNIT      DATA TYPE    INFORMATION
#----------   ------------   ------------------------------
 STRT.F           36.0000:   START DEPTH
 STOP.F          503.0000:   STOP DEPTH
 STEP.F            0.5000:   STEP LENGTH
 NULL.          -999.2500:   NO VALUE
 COMP.    FENIX & SCISSON:   COMPANY
 WELL.     NPR ##3 77-S-3:   WELL
 FLD .             TEAPOT:   FIELD
 LOC .       S3 T38N R78W:   LOCATION
 CNTY.            NATRONA:   COUNTY
 STAT.            WYOMING:   STATE
 CTRY. UNITED STATES OF AMERICA:   COUNTRY
 SRVC.       Schlumberger:   SERVICE COMPANY
 DATE.        04-MAR-1977:   LOGDATE
 API .       490251029500:   API NUMBER
~CURVE INFORMATION
#MNEM.UNIT       API CODE    CURVE DESCRIPTION
#----------   ------------   ------------------------------
 DEPT.F                  :   
 SPR .MV     07 010 01 00:   SPONTANEOUS POTENTIAL
 ILD .OHMM   07 120 46 00:   INDUCTION LOG DEEP
 ILM .OHMM   07 120 44 00:   INDUCTION LOG MEDIUM
 LL8 .OHMM   07 220 08 00:   LATEROLOG-8 RES.
 GRD .GAPI   45 310 01 00:   GAMMA RAY FROM DENSITY LOG
 CALD.IN     45 280 60 00:   CALIPER FROM DENSITY LOG
 CORR.G/C3   45 356 01 00:   DENSITY CORRECTION
 RHOB.G/C3   45 350 01 00:   BULK DENSITY
 DPHI.DEC    45 890 12 00:   DENSITY POROSITY SANDSTONE
~PARAMETER INFORMATION
#MNEM.UNIT          VALUE    DESCRIPTION
#----------   ------------   ------------------------------
 PD  .                 GL:   PERMANENT DATUM
 EPD .F              5165:   ELEVATION PERMANENT DATUM
 LMF .                 KB:   LOG MEASURED FROM
 DAPD.F                 4:   FEET ABOVE PERMANENT DATUM
 DMF .                 GL:   DRILLING MEASURED FROM
 EKB .F              5169:   KELLING BUSHING
 EGL .F              5165:   GROUND LEVEL
 DATE.        04-MAR-1977:   RUN DATE
 RUN .                  1:   RUN NUMBER
 DD  .F               500:   DEPTH DRILLER
 DL  .F               504:   DEPTH LOGGER
 BLI .F               503:   BOTTOM LOG INTERVAL
 TLI .F                46:   TOP LOG INTERVAL
 CS  .IN            8.625:   CASING SIZE
 CBD .F                42:   CASING BOTTOM DRILLER
 CBL .F                46:   CASING BOTTOM LOGGER
 BS  .IN            7.875:   BIT SIZE
 BSD .F               500:   BIT SIZE AT DEPTH
 DFT .                KCL:   DRILLING FLUID TYPE
 DFD .                8.6:   DRILLING FLUID DENSITY
 DFV .                 32:   DRILLING FLUID VISCOSITY
 DFPH.                8.0:   DRILLING FLUID PH
 DFL .                7.6:   DRILLING FLUID LOSS
 MSS .            MUD PIT:   MUD SAMPLE SOURCE
 RMS .OHMM            .66:   RESISTIVITY MUD SAMPLE
 MST .F                56:   MUD SAMPLE TEMPERATURE
 RMF .OHMM            .49:   RESISTIVITY MUD FILTRATE SAMPLE
 MFST.F                56:   MUD FILTRATE SAMPLE TEMPERATURE
 RMC .OHMM             .4:   RESISTIVITY MUD CAKE
 MCST.F                56:   MUD CAKE SAMPLE TEMPERATURE
 MFSS.               MEAS:   MUD FILTRATE SAMPLE SOURCE
 MCSS.               CALC:   MUD CAKE SAMPLE SOURCE
 TCS .HRS            0100:   TIME CURCULATED STOPPED
 LUN .               7680:   LOGGING UNIT NUMBER
 LUL .               CSPR:   LOGGING UNIT LOCATION
 ENGI.    LOHBECK/ TAYLOR:   RECORDING ENGINEER
 WITN.              BURKE:   WITNESSED BY
 CLNT.            A2DTECH:   CLIENT CODE
 ORIG.           5" PRINT:   ORIGIN OF DATA
 UWI .       490251029500:   UNIQUE WELL ID
 DICO. A2D Technologies, Inc.:   DIGITIZING COMPANY
~OTHER INFORMATION
~A   DEPT      SPR        ILD        ILM        LL8         GRD      CALD       CORR       RHOB       DPHI   
# ...
  291.5000   -52.8443     8.9710     9.7989    10.6294    65.5689     8.0596     0.0111     2.4959     0.0943
  292.0000   -52.6815     8.6691    10.1486    10.8561    65.5689     8.0594     0.0156     2.4891     0.0970
  292.5000   -52.2197     8.1479    10.2239    10.9352    64.8952     8.0593     0.0096     2.4876     0.1003
  293.0000   -52.0568     7.5502    10.0188    11.0914    64.4461     8.0591     0.0066     2.4838     0.1027
  293.5000   -51.8849     6.8539     8.7290    11.2498    64.2216     8.0590     0.0051     2.4928     0.0982
  294.0000   -51.4320     6.4982     6.8088    10.9465    65.5689     8.0589     0.0118     2.4950     0.0945
  294.5000   -51.2576     6.4569     5.6130     6.8877    65.5689     8.0587     0.0178     2.4965     0.0949
  295.0000   -50.9417     6.4666     5.0624     3.8529    66.9162     8.0586     0.0086     2.4810     0.1077
  295.5000   -50.7753     6.5612     4.8250     3.6972    69.6108     8.0584     0.0140     2.4514     0.1154
  296.0000   -50.6308     6.8441     5.2094     6.7067    71.8862     8.0582     0.0192     2.4215     0.1325
  296.5000   -50.6173     7.0805     6.7315    10.0918    73.4281     8.0581     0.0252     2.3795     0.1534
  297.0000   -50.6039     7.4884     7.3174    11.4344    66.4671     8.0730     0.0170     2.3567     0.1770
  297.5000   -50.5878     8.1978     7.8995    11.6782    62.8743     8.0728     0.0079     2.4476     0.1288
  298.0000   -50.5744     9.0367     9.0129    11.5217    61.0778     8.0877     0.0148     2.5023     0.0920
  298.5000   -50.7139     9.8928    10.2124    11.2888    61.0778     8.0875     0.0117     2.5053     0.0872
  299.0000   -50.6972    10.2453    10.1469    10.9087    62.6497     8.0874     0.0093     2.4880     0.0983
  299.5000   -50.6838     9.9037     9.8749    10.6882    63.9970     8.0872     0.0131     2.4925     0.0974
  300.0000   -50.8533     9.7716     9.8104    10.8409    65.3443     8.0870     0.0194     2.4985     0.0931
  300.5000   -51.2163    10.2140    10.1973    11.3123    66.0155     8.0852     0.0228     2.4902     0.0917
  301.0000   -51.6901    10.7790    10.6707    12.1184    66.2384     8.0834     0.0048     2.4849     0.0972
  301.5000   -51.9757    12.2155    12.3442    11.8655    66.2357     8.0816     0.0108     2.4789     0.1017
  302.0000   -51.9623    13.7480    13.8906    11.5534    65.5600     8.0798     0.0078     2.4781     0.1054
  302.5000   -51.7995    14.7411    14.8923    11.8273    66.0069     8.0780     0.0147     2.4841     0.1059
  303.0000   -51.7861    15.4812    15.6383    13.1869    65.5552     8.0762     0.0144     2.4961     0.0990
  303.5000   -51.3232    16.5996    16.4218    15.4107    63.9812     8.0744     0.0219     2.4990     0.0915
  304.0000   -51.1615    18.0467    17.7281    21.1904    61.0599     8.0726     0.0196     2.4923     0.0945
  304.5000   -50.6997    20.4518    19.0064    27.9409    51.8506     8.0707     0.0143     2.4765     0.1107
  305.0000   -50.3874    23.6636    20.9484    27.5739    43.0910     8.0706     0.0368     2.4659     0.1149
  305.5000   -49.9256    27.3798    23.2656    26.8336    38.5978     8.0704     0.0450     2.4539     0.1198
  306.0000   -49.7628    30.3913    24.9606    26.1172    35.9011     8.0552     0.0277     2.4072     0.1300
  306.5000   -49.6000    32.5867    27.1519    26.5016    35.0007     8.0551     0.0142     2.3922     0.1579
  307.0000   -49.8889    34.4605    29.0759    29.4185    36.7945     8.0549     0.0075     2.4035     0.1507
  307.5000   -50.3207    34.9599    29.6723    33.8060    39.0378     8.0698     0.0247     2.4110     0.1459
  308.0000   -50.9052    35.4666    29.2818    35.5058    40.1585     8.0697     0.0194     2.3967     0.1549
  308.5000   -50.7424    35.2366    27.3386    32.0249    40.1563     8.0695     0.0358     2.3163     0.1805
  309.0000   -50.4301    34.7762    26.7869    31.3857    40.1527     8.0243     0.0441     2.2795     0.2160
  309.5000   -50.1178    34.0804    28.3275    32.2872    40.3761     7.9791     0.0290     2.2554     0.2406
  310.0000   -49.8055    33.1682    28.7357    32.9849    41.0481     7.9479     0.0477     2.2787     0.2106
  310.5000   -49.4931    32.0579    27.2024    31.8828    40.8209     8.0559     0.0260     2.3365     0.1919
  311.0000   -49.1808    30.9847    25.3972    30.1845    38.5732     8.0688     0.0349     2.3041     0.2049
  311.5000   -49.1674    30.7878    24.8847    29.3786    37.4484     8.0386     0.0282     2.3019     0.2115
  312.0000   -49.1540    31.8894    25.5979    30.4775    38.5684     7.9784     0.0341     2.2996     0.2097
  312.5000   -49.1405    34.6695    26.1470    33.8405    41.2609     7.9032     0.0229     2.2748     0.2280
  313.0000   -49.2769    37.6992    27.0798    36.2817    43.0552     7.9498     0.0191     2.2896     0.2226
  313.5000   -49.7120    39.3410    28.2405    38.3867    43.9513     8.0229     0.0288     2.3445     0.1860
  314.0000   -49.8735    41.0238    29.4509    39.1371    43.0448     8.0679     0.0190     2.3468     0.1894
  314.5000   -50.2832    42.2064    30.7132    36.8025    40.8027     8.0677     0.0130     2.3197     0.2040
  315.0000   -50.4193    42.8261    31.5897    36.3135    40.8006     8.0676     0.0115     2.3114     0.2067
  315.5000   -50.7016    43.7084    32.7167    37.1039    41.0235     8.0674     0.0219     2.3059     0.2082
  316.0000   -50.6882    43.7325    33.8839    42.0516    41.0209     8.0672     0.0272     2.2911     0.2169
  316.5000   -50.6749    43.7615    35.0927    42.3697    40.3353     8.0671     0.0224     2.2618     0.2318
  317.0000   -50.3626    43.7856    35.8454    40.6717    39.2197     8.0670     0.0143     2.2595     0.2281
  317.5000   -50.1997    43.5015    35.6148    38.2397    38.5439     8.0668     0.0226     2.2797     0.2245
  318.0000   -49.7380    43.5315    34.9005    35.7051    38.3172     8.0667     0.0128     2.3020     0.2053
  318.5000   -49.5751    43.5554    34.4383    34.0378    38.5396     8.0665     0.0180     2.3270     0.1965
  319.0000   -49.2628    43.5794    34.6939    34.0588    39.4491     8.0663     0.0270     2.3119     0.1994
  319.5000   -48.9505    43.9061    35.9316    38.8685    40.5557     8.0662     0.0142     2.2908     0.2197
  320.0000   -48.9372    44.5425    37.9934    40.8229    41.9009     8.0661     0.0134     2.2826     0.2185
  320.5000   -48.7743    45.1881    40.1832    41.4174    43.0215     8.0659     0.0224     2.2998     0.2140
  321.0000   -48.7610    45.8430    42.5188    40.5915    43.4686     8.0657     0.0207     2.2825     0.2245
  321.5000   -48.7476    46.5074    44.6385    40.0584    42.4995     8.0656     0.0354     2.2968     0.2157
  322.0000   -48.5848    46.5330    45.8807    39.5261    39.6463     8.0654     0.0245     2.2997     0.2113
  322.5000   -48.5714    46.8819    46.2215    39.2778    39.4196     8.0653     0.0283     2.2735     0.2293
  323.0000   -48.5581    47.2334    46.5692    39.0311    40.7648     8.0573     0.0125     2.2539     0.2354
  323.5000   -48.5447    47.2594    46.2705    39.0612    42.3345     8.0500     0.0065     2.2568     0.2294
  324.0000   -48.6809    47.2854    46.2927    39.3568    43.0060     8.0498     0.0134     2.2876     0.2195
  324.5000   -48.6675    47.6399    45.9958    41.6227    42.1052     8.0347     0.0214     2.3018     0.2071
  325.0000   -48.8042    48.3304    45.0677    44.3247    43.0012     8.0345     0.0064     2.3251     0.1966
  325.5000   -48.7903    54.0186    43.2621    50.5841    43.4482     8.0344     0.0048     2.3461     0.1855
  326.0000   -48.7769    59.5465    40.9536    61.4370    42.7724     8.0192     0.0153     2.3761     0.1678
  326.5000   -48.7636    49.4257    37.9724    57.7632    40.2754     8.0040     0.0405     2.4106     0.1519
  327.0000   -48.7502    38.2822    34.9656    41.7515    39.8484     7.9288     0.0452     2.4015     0.1468
  327.5000   -48.7369    35.2511    32.6452    35.1406    40.9691     7.8686     0.0302     2.4150     0.1438
