~VERSION INFORMATION
 VERS.                2.0:   CWLS LOG ASCII STANDARD - VERSION 2.0
 WRAP.                 NO:   ONE LINE PER DEPTH STEP
~WELL INFORMATION
#MNEM.UNIT      DATA TYPE    INFORMATION
#----------   ------------   ------------------------------
 STRT.F           31.0000:   START DEPTH
 STOP.F         1450.0000:   STOP DEPTH
 STEP.F            0.5000:   STEP LENGTH
 NULL.          -999.2500:   NO VALUE
 COMP. FENIX & SCISSON INC:   COMPANY
 WELL.    NPR-3 SX #86-14:   WELL
 FLD .             TEAPOT:   FIELD
 LOC .      S14 T38N R78W:   LOCATION
 CNTY.            NATRONA:   COUNTY
 STAT.            WYOMING:   STATE
 CTRY. UNITED STATES OF AMERICA:   COUNTRY
 SRVC.            Unknown:   SERVICE COMPANY
 DATE.        05-APR-1978:   LOGDATE
 API .       490251060800:   API NUMBER
~CURVE INFORMATION
#MNEM.UNIT       API CODE    CURVE DESCRIPTION
#----------   ------------   ------------------------------
 DEPT.F                  :   
 CALD.IN     45 280 60 00:   CALIPER
 GRD .GAPI   45 310 01 00:   GAMMA RAY FROM DENSITY LOG
 RHOB.G/C3   45 350 01 00:   BULK DENSITY
 CORR.G/C3   45 356 01 00:   DENSITY CORRECTION
 DPHI.DEC    45 890 12 00:   DENSITY POROSITY SANDSTONE
 SPR .MV     05 010 01 00:   SPONTANEOUS POTENTIAL FROM RES.
 SN  .OHMM   05 040 16 00:   SHORT NORMAL 16"
 ILD .OHMM   05 120 46 00:   INDUCTION LOG DEEP
~PARAMETER INFORMATION
#MNEM.UNIT          VALUE    DESCRIPTION
#----------   ------------   ------------------------------
 PD  .                 GL:   PERMANENT DATUM
 EPD .F              5367:   ELEVATION PERMANENT DATUM
 LMF .                 KB:   LOG MEASURED FROM
 DMF .                 KB:   DRILLING MEASURED FROM
 EKB .F              5371:   KELLING BUSHING
 EGL .F              5369:   GROUND LEVEL
 DATE.           4-5-1978:   RUN DATE
 RUN .                  1:   RUN NUMBER
 DD  .F              1455:   DEPTH DRILLER
 DL  .F              1446:   DEPTH LOGGER
 BLI .F              1440:   BOTTOM LOG INTERVAL
 TLI .F               100:   TOP LOG INTERVAL
 CS  .IN            8.625:   CASING SIZE
 CBD .F                40:   CASING BOTTOM DRILLER
 BS  .IN            7.875:   BIT SIZE
 BSD .F              1455:   BIT SIZE AT DEPTH
 DFT .                KCL:   DRILLING FLUID TYPE
 DFD .                8.6:   DRILLING FLUID DENSITY
 DFV .                 31:   DRILLING FLUID VISCOSITY
 DFPH.                 10:   DRILLING FLUID PH
 DFL .                8.4:   DRILLING FLUID LOSS
 MSS .           FLOWLINE:   MUD SAMPLE SOURCE
 RMS .OHMM            .95:   RESISTIVITY MUD SAMPLE
 MST .F                54:   MUD SAMPLE TEMPERATURE
 RMF .OHMM            .95:   RESISTIVITY MUD FILTRATE SAMPLE
 MFST.F                62:   MUD FILTRATE SAMPLE TEMPERATURE
 RMC .OHMM             .8:   RESISTIVITY MUD CAKE
 MCST.F                62:   MUD CAKE SAMPLE TEMPERATURE
 MFSS.               MEAS:   MUD FILTRATE SAMPLE SOURCE
 RMB .OHMM            .66:   RESISTIVITY MUD AT BHT
 BHT .F                78:   BOTTOM HOLE TEMPERATURE
 TCS .HRS               6:   TIME CURCULATED STOPPED
 MRT .F                78:   MAXIMUM RECORDED TEMPERATURE
 LUN .               2958:   LOGGING UNIT NUMBER
 LUL .               CASP:   LOGGING UNIT LOCATION
 ENGI.             MILLER:   RECORDING ENGINEER
 WITN.           MCGINLEY:   WITNESSED BY
 CLNT.            A2DTECH:   CLIENT CODE
 ORIG.        2" 5" PRINT:   ORIGIN OF DATA
 UWI .       490251060800:   UNIQUE WELL ID
 DICO. A2D Technologies, Inc.:   DIGITIZING COMPANY
~OTHER INFORMATION
~A   DEPT     CALD         GRD      RHOB       CORR       DPHI        SPR         SN        ILD   
# ...
  679.0000     8.1269    90.1520     2.4048     0.0162     0.1439   -76.9296     7.8308     7.1834
  679.5000     8.1260    84.9023     2.4026     0.0188     0.1424   -76.7845     7.6356     7.3359
  680.0000     8.1250    84.2547     2.4129     0.0205     0.1384   -76.4401     7.4531     7.1294
  680.5000     8.1241    87.2391     2.4050     0.0223     0.1441   -75.8176     7.3232     6.8550
  681.0000     8.1231    90.3157     2.3927     0.0241     0.1435   -74.1631     7.1877     6.6043
  681.5000     8.1222    85.6010     2.3978     0.0259     0.1416   -72.5393     7.0487     6.3829
  682.0000     8.1212    83.9739     2.3949     0.0257     0.1384   -70.7314     6.9385     6.2097
  682.5000     8.1203    83.5257     2.4060     0.0252     0.1352   -70.2131     6.9385     6.2255
  683.0000     8.1193    83.5782     2.4035     0.0245     0.1321   -68.0793     6.9528     6.2388
  683.5000     8.1184    83.6267     2.4081     0.0225     0.1305   -63.1554     6.9629     6.2521
  684.0000     8.1174    83.7865     2.4226     0.0184     0.1351   -60.1324     6.9732     6.2672
  684.5000     8.1165    85.8976     2.4143     0.0162     0.1397  -999.2500     6.9834     6.2395
  685.0000     8.1155    88.0249     2.4045     0.0162     0.1431  -999.2500     6.9936     6.2071
  685.5000     8.1146    89.5090     2.4018     0.0162     0.1401  -999.2500     7.0029     6.1749
  686.0000     8.1136    90.3458     2.4124     0.0162     0.1455  -999.2500     7.0029     6.1328
  686.5000     8.1127    91.1880     2.4000     0.0171     0.1443  -999.2500     7.0029     6.0682
  687.0000     8.1120    92.0941     2.4004     0.0181     0.1421  -999.2500     7.0029     6.0043
  687.5000     8.1108    90.8817     2.4084     0.0192     0.1398  -999.2500     7.0029     5.9410
  688.0000     8.0917    89.4715     2.4125     0.0200     0.1371  -999.2500     6.7979     5.8784
  688.5000     8.0763    89.6970     2.4132     0.0148     0.1367  -999.2500     6.5887     5.8167
  689.0000     8.0835    89.8673     2.4137     0.0101     0.1363  -999.2500     6.5035     5.7664
  689.5000     8.0915    89.0238     2.4142     0.0102     0.1383  -999.2500     6.5035     5.7665
  690.0000     8.0994    88.2588     2.4079     0.0102     0.1403  -999.2500     6.5035     5.7668
  690.5000     8.1072    88.9172     2.4014     0.0102     0.1411  -999.2500     6.5035     5.7668
  691.0000     8.1150    88.9983     2.4004     0.0100     0.1415  -999.2500     6.5035     5.7758
  691.5000     8.1228    89.1363     2.4029     0.0067     0.1393  -999.2500     6.4439     5.7846
  692.0000     8.1306    89.8913     2.3976     0.0057     0.1379  -999.2500     6.4577     5.7934
  692.5000     8.1384    90.0721     2.3829     0.0051     0.1430  -999.2500     6.4690     5.8021
  693.0000     8.1462    90.2334     2.3680     0.0046     0.1431  -999.2500     6.4802     5.8108
  693.5000     8.1442    91.5750     2.3643     0.0073     0.1478  -999.2500     6.4915     5.8205
  694.0000     8.1330    93.3158     2.3909     0.0309     0.1515  -999.2500     6.5035     5.8209
  694.5000     8.1217    89.5148     2.4005     0.0311     0.1419  -999.2500     6.3710     5.6611
  695.0000     8.1104    87.1649     2.3834     0.0318     0.1434  -999.2500     6.2320     5.5238
  695.5000     8.0992    86.8981     2.3951     0.0335     0.1438  -999.2500     6.0960     5.3897
  696.0000     8.0904    86.9202     2.3912     0.0361     0.1362  -999.2500     6.0398     5.2575
  696.5000     8.0944    87.3074     2.4272     0.0286     0.1303  -999.2500     6.0398     5.2575
  697.0000     8.0982    87.3186     2.4053     0.0208     0.1330  -999.2500     6.0398     5.1912
  697.5000     8.1020    86.4685     2.3987     0.0178     0.1355  -999.2500     6.0397     5.1691
  698.0000     8.1057    85.6575     2.4045     0.0192     0.1359  -999.2500     6.0395     5.1472
  698.5000     8.1095    86.7267     2.4048     0.0162     0.1359  -999.2500     6.0490     5.1253
  699.0000     8.1132    87.9703     2.4035     0.0173     0.1369  -999.2500     6.0599     5.1136
  699.5000     8.1170    86.5317     2.4023     0.0183     0.1383  -999.2500     6.0709     5.1277
  700.0000     8.1207    84.2320     2.4053     0.0193     0.1380  -999.2500     6.0818     5.1374
  700.5000     8.1245    84.5448     2.4094     0.0202     0.1377  -999.2500     6.0956     5.1471
  701.0000     8.1282    85.0995     2.4104     0.0161     0.1375  -999.2500     6.0928     5.1567
  701.5000     8.1344    83.8603     2.4106     0.0121     0.1383  -999.2500     6.0883     5.1664
  702.0000     8.1429    82.5073     2.4003     0.0122     0.1394  -999.2500     6.0840     5.1762
  702.5000     8.1513    82.4395     2.3892     0.0122     0.1406  -999.2500     6.0797     5.1860
  703.0000     8.1598    83.9540     2.3967     0.0122     0.1399  -999.2500     6.0753     5.1958
  703.5000     8.1686    85.0905     2.4047     0.0155     0.1379  -999.2500     6.0710     5.2056
  704.0000     8.1631    84.4015     2.3862     0.0223     0.1408  -999.2500     6.0666     5.2154
  704.5000     8.1543    86.0630     2.3832     0.0262     0.1423  -999.2500     6.0623     5.2253
  705.0000     8.1455    84.9828     2.3817     0.0257     0.1423  -999.2500     6.0580     5.2352
  705.5000     8.1367    83.7390     2.3914     0.0252     0.1423  -999.2500     6.0537     5.2450
  706.0000     8.1279    83.0576     2.4012     0.0247     0.1440  -999.2500     6.0494     5.2574
  706.5000     8.1191    80.8803     2.3979     0.0242     0.1455  -999.2500     6.0452     5.2334
  707.0000     8.1103    79.5351     2.3929     0.0237     0.1437  -999.2500     6.0407     5.2013
  707.5000     8.1015    79.5713     2.3971     0.0232     0.1428  -999.2500     5.9679     5.1694
  708.0000     8.0925    79.6753     2.4063     0.0226     0.1435  -999.2500     5.8775     5.1377
  708.5000     8.0926    79.4712     2.4042     0.0218     0.1439  -999.2500     5.7885     5.0974
  709.0000     8.0961    77.3766     2.3993     0.0191     0.1427  -999.2500     5.7009     5.0292
  709.5000     8.0997    75.0185     2.3996     0.0165     0.1476  -999.2500     5.6145     4.9619
  710.0000     8.1034    75.3615     2.3915     0.0157     0.1564  -999.2500     5.5295     4.9279
  710.5000     8.1070    76.8229     2.3764     0.0182     0.1646  -999.2500     5.4452     4.9913
  711.0000     8.1106    77.3320     2.3611     0.0157     0.1705  -999.2500     5.3573     5.0199
  711.5000     8.1142    77.8244     2.3506     0.0115     0.1948  -999.2500     5.2709     4.9728
  712.0000     8.1178    83.0751     2.3180     0.0259     0.2090  -999.2500     5.1859     4.8174
  712.5000     8.1214    91.5090     2.2879     0.0447     0.2149  -999.2500     5.1022     4.5517
  713.0000     8.1250    99.7995     2.2780     0.0444     0.2183  -999.2500     5.0199     4.3007
  713.5000     8.1287   101.0406     2.2323     0.0434     0.2216  -999.2500     4.7499     4.1338
  714.0000     8.1323    98.3584     2.2575     0.0284     0.2166  -999.2500     4.2690     3.6077
  714.5000     8.1359    96.8782     2.2838     0.0311     0.1977  -999.2500     3.8368     3.2299
  715.0000     8.1395    94.4148     2.3007     0.0354     0.1860  -999.2500     3.4484     3.0483
  715.5000     8.1431    89.3235     2.3306     0.0343     0.1744  -999.2500     3.3418     2.8804
  716.0000     8.1468    84.2600     2.3611     0.0343     0.1627  -999.2500     3.3097     2.8019
  716.5000     8.1498    78.6625     2.3700     0.0397     0.1579  -999.2500     3.2806     2.8729
  717.0000     8.1459    80.7715     2.3862     0.0358     0.1612  -999.2500     3.3256     2.9557
  717.5000     8.1420    85.1075     2.3768     0.0352     0.1639   -96.6564     3.5543     3.0723
  718.0000     8.1382    85.8701     2.3619     0.0408     0.1604   -95.2874     4.1501     3.1908
  718.5000     8.1344    82.7562     2.3605     0.0462     0.1544   -94.3431     4.5072     3.5129
  719.0000     8.1305    80.6153     2.3844     0.0411     0.1484   -93.6870     4.8950     3.8604
