~VERSION INFORMATION
 VERS.                2.0:   CWLS LOG ASCII STANDARD - VERSION 2.0
 WRAP.                 NO:   ONE LINE PER DEPTH STEP
~WELL INFORMATION
#MNEM.UNIT      DATA TYPE    INFORMATION
#----------   ------------   ------------------------------
 STRT.F           28.0000:   START DEPTH
 STOP.F          693.0000:   STOP DEPTH
 STEP.F            0.5000:   STEP LENGTH
 NULL.          -999.2500:   NO VALUE
 COMP. FENIX & SCISSON INC:   COMPANY
 WELL.       NPR-3 #63-15:   WELL
 FLD .             TEAPOT:   FIELD
 LOC .      S15 T38N R78W:   LOCATION
 CNTY.            NATRONA:   COUNTY
 STAT.            WYOMING:   STATE
 CTRY. UNITED STATES OF AMERICA:   COUNTRY
 SRVC.            Unknown:   SERVICE COMPANY
 DATE.        10-JUN-1978:   LOGDATE
 API .       490251063800:   API NUMBER
~CURVE INFORMATION
#MNEM.UNIT       API CODE    CURVE DESCRIPTION
#----------   ------------   ------------------------------
 DEPT.F                  :   
 SPR .MV     05 010 01 00:   SPONTANEOUS POTENTIAL FROM RES.
 SN  .OHMM   05 040 16 00:   SHORT NORMAL 16"
 ILD .OHMM   05 120 46 00:   INDUCTION LOG DEEP
 CALD.IN     45 280 60 00:   CALIPER FROM DENSITY LOG
 GRD .GAPI   45 310 01 00:   GAMMA RAY FROM DENSITY LOG
 CORR.G/C3   45 356 01 00:   DENSITY CORRECTION
 DPHI.DEC    45 890 12 00:   DENSITY POROSITY SANDSTONE
 DEN .G/C3   45 350 01 00:   DENSITY
~PARAMETER INFORMATION
#MNEM.UNIT          VALUE    DESCRIPTION
#----------   ------------   ------------------------------
 PD  .                 GL:   PERMANENT DATUM
 EPD .F              5265:   ELEVATION PERMANENT DATUM
 LMF .                 KB:   LOG MEASURED FROM
 DAPD.F                 4:   FEET ABOVE PERMANENT DATUM
 DMF .                 KB:   DRILLING MEASURED FROM
 EKB .F              5269:   KELLING BUSHING
 EGL .F              5265:   GROUND LEVEL
 DATE.        10-JUN-1978:   RUN DATE
 RUN .                  1:   RUN NUMBER
 DD  .F               690:   DEPTH DRILLER
 DL  .F               697:   DEPTH LOGGER
 BLI .F               690:   BOTTOM LOG INTERVAL
 TLI .F                35:   TOP LOG INTERVAL
 CS  .IN            8.625:   CASING SIZE
 CBD .F                40:   CASING BOTTOM DRILLER
 CBL .F                35:   CASING BOTTOM LOGGER
 BS  .IN            7.875:   BIT SIZE
 BSD .F               690:   BIT SIZE AT DEPTH
 DFT .                KCL:   DRILLING FLUID TYPE
 DFD .                8.7:   DRILLING FLUID DENSITY
 DFV .                 34:   DRILLING FLUID VISCOSITY
 DFPH.                 10:   DRILLING FLUID PH
 DFL .               11.6:   DRILLING FLUID LOSS
 MSS .            MUD PIT:   MUD SAMPLE SOURCE
 RMS .OHMM            .32:   RESISTIVITY MUD SAMPLE
 MST .F                74:   MUD SAMPLE TEMPERATURE
 RMF .OHMM            .28:   RESISTIVITY MUD FILTRATE SAMPLE
 MFST.F                78:   MUD FILTRATE SAMPLE TEMPERATURE
 RMC .OHMM            .36:   RESISTIVITY MUD CAKE
 MCST.F                78:   MUD CAKE SAMPLE TEMPERATURE
 MFSS.               MEAS:   MUD FILTRATE SAMPLE SOURCE
 MCSS.               MEAS:   MUD CAKE SAMPLE SOURCE
 BHT .F                80:   BOTTOM HOLE TEMPERATURE
 TCS .HRS            0100:   TIME CURCULATED STOPPED
 MRT .F                80:   MAXIMUM RECORDED TEMPERATURE
 LUN .               2958:   LOGGING UNIT NUMBER
 LUL .               CASP:   LOGGING UNIT LOCATION
 ENGI.             MILLER:   RECORDING ENGINEER
 WITN.           MCGINLEY:   WITNESSED BY
 CLNT.            A2DTECH:   CLIENT CODE
 ORIG.           5" PRINT:   ORIGIN OF DATA
 UWI .       490251063800:   UNIQUE WELL ID
 DICO. A2D Technologies, Inc.:   DIGITIZING COMPANY
~OTHER INFORMATION
~A   DEPT      SPR         SN        ILD       CALD        GRD       CORR       DPHI        DEN   
   28.0000  -999.2500  -999.2500  -999.2500  -999.2500  -999.2500  -999.2500  -999.2500  -999.2500
   28.5000  -999.2500  -999.2500  -999.2500  -999.2500    60.6619  -999.2500  -999.2500  -999.2500
   29.0000  -999.2500  -999.2500  -999.2500  -999.2500    63.6660  -999.2500  -999.2500  -999.2500
   29.5000  -999.2500  -999.2500  -999.2500  -999.2500    64.7250  -999.2500  -999.2500  -999.2500
   30.0000  -999.2500  -999.2500  -999.2500  -999.2500    59.0772  -999.2500  -999.2500  -999.2500
   30.5000  -999.2500  -999.2500  -999.2500  -999.2500    59.3947  -999.2500  -999.2500  -999.2500
   31.0000  -999.2500  -999.2500  -999.2500  -999.2500    60.4585  -999.2500  -999.2500  -999.2500
   31.5000  -999.2500  -999.2500  -999.2500  -999.2500    63.3133  -999.2500  -999.2500  -999.2500
   32.0000  -999.2500  -999.2500  -999.2500  -999.2500    64.2279  -999.2500  -999.2500  -999.2500
   32.5000  -999.2500  -999.2500  -999.2500  -999.2500    62.9036  -999.2500  -999.2500  -999.2500
   33.0000  -999.2500  -999.2500  -999.2500  -999.2500    63.3704  -999.2500  -999.2500  -999.2500
   33.5000  -999.2500  -999.2500  -999.2500  -999.2500    63.6879  -999.2500  -999.2500  -999.2500
   34.0000  -999.2500  -999.2500  -999.2500  -999.2500    62.7801  -999.2500  -999.2500  -999.2500
   34.5000  -999.2500  -999.2500  -999.2500  -999.2500    61.0442  -999.2500  -999.2500  -999.2500
   35.0000  -999.2500  -999.2500  -999.2500  -999.2500    61.0632  -999.2500  -999.2500  -999.2500
   35.5000  -999.2500  -999.2500  -999.2500     8.2843    65.2613  -999.2500     0.2882  -999.2500
   36.0000  -999.2500  -999.2500  -999.2500     8.3010    66.6189  -999.2500     0.2881  -999.2500
   36.5000  -999.2500  -999.2500  -999.2500     8.4076    64.5531    -0.0290     0.2881  -999.2500
   37.0000  -999.2500  -999.2500  -999.2500     8.4396    64.1196    -0.0288     0.2881  -999.2500
   37.5000  -999.2500  -999.2500  -999.2500     8.3945    64.7404    -0.0271     0.2820     2.0578
   38.0000  -999.2500  -999.2500  -999.2500     8.3087    66.4012    -0.0239     0.2144     2.2651
   38.5000  -999.2500  -999.2500  -999.2500    10.0768    71.7934     0.0840     0.1600     2.3830
   39.0000  -999.2500  -999.2500  -999.2500     7.6987    75.5437     0.1066     0.1636     2.3861
   39.5000  -999.2500  -999.2500  -999.2500     7.5658    76.3090     0.0679     0.1698     2.3966
   40.0000  -999.2500  -999.2500  -999.2500     7.4927    73.6415     0.0561     0.1695     2.3928
   40.5000    -1.7798  -999.2500  -999.2500     7.4047    74.5388     0.0414     0.1602     2.3968
   41.0000    -1.7652  -999.2500  -999.2500     7.2419    81.7440     0.0385     0.1571     2.4066
   41.5000    -1.7506     5.3020  -999.2500     7.1838    82.6538     0.0388     0.1577     2.4089
   42.0000    -1.7359     5.3050  -999.2500     7.1397    79.8417     0.0314     0.1691     2.3984
   42.5000    -6.0626     5.3084  -999.2500     7.0681    77.3234     0.0211     0.1890     2.3752
   43.0000    -8.5929     5.3113  -999.2500     7.0100    75.9944     0.0122     0.1922     2.3565
   43.5000    -8.7635     5.3142     4.4489     6.9819    77.2122     0.0051     0.1922     2.3506
   44.0000   -14.1026     5.3170     4.0681     6.9837    79.1715     0.0083     0.1924     2.3499
   44.5000   -12.7370     5.3199     3.9873     7.0753    80.8324     0.0144     0.1960     2.3507
   45.0000   -10.1774     5.2496     3.8805     7.4813    83.3887     0.0176     0.2044     2.3477
   45.5000   -11.9629     5.1802     3.6228     7.6047    91.1689     0.0193     0.2161     2.3230
   46.0000    -6.8548     5.0416     2.8054     8.0393    92.2327     0.0225     0.2299     2.2968
   46.5000    -6.9935     4.8379     2.7872     8.2058    90.0129     0.0287     0.2314     2.2924
   47.0000    -6.9752     4.3095     2.7891     8.2824    91.2307     0.0348     0.2307     2.2909
   47.5000    -6.8109     4.0188     2.7906     8.3142    93.7871     0.0440     0.2268     2.2910
   48.0000    -6.3472     4.1631     2.7921     8.3006    92.4628     0.0516     0.1998     2.3035
   48.5000    -6.1828     4.1943     2.8143     8.2579    87.6711     0.0578     0.1752     2.3632
   49.0000    -6.6387     4.1966     2.8539     8.1692    79.4617     0.0565     0.1726     2.3787
   49.5000    -8.0960     4.1988     2.9769     7.9775    78.3376     0.0567     0.1744     2.3813
   50.0000    -8.0814     4.8582     3.1701     7.7843    80.1524     0.0539     0.1684     2.3844
   50.5000    -8.2201     4.9972     3.4228     7.7121    83.9028     0.0511     0.1665     2.3897
   51.0000    -8.0521     5.3212     3.6449     7.6396    89.4442     0.0513     0.1665     2.3920
   51.5000    -7.8878     5.5498     3.9629     7.5522    92.7468     0.0455     0.1683     2.3906
   52.0000    -7.8732     5.5529     3.9105     7.3599    91.5718     0.0352     0.1743     2.3839
   52.5000    -8.1580     5.5559     3.8058     7.1357    86.5162     0.0279     0.1781     2.3764
   53.0000    -8.4431     5.9168     3.8343     6.9242    83.9979     0.0236     0.1796     2.3757
   53.5000    -8.5778     6.0862     3.8364     6.7030    85.3602     0.0223     0.1790     2.3743
   54.0000    -8.5629     6.1743     3.8384     6.6358    85.2298     0.0180     0.1772     2.3751
   54.5000    -8.5479     6.0928     3.8406     6.8034    85.2490     0.0151     0.1732     2.3767
   55.0000    -8.5303     6.0123     3.8161     7.1650    85.1188     0.0154     0.1742     2.3790
   55.5000    -8.5156     5.8920     3.7661     7.4368    86.3366     0.0170     0.1771     2.3729
   56.0000    -8.6544     5.5010     3.6907     7.7236    87.5496     0.0202     0.1801     2.3686
   56.5000    -8.6361     5.0305     3.6419     7.9954    88.1609     0.0235     0.1836     2.3679
   57.0000    -8.7748     4.7952     3.4956     8.1625    86.9859     0.0311     0.1875     2.3567
   57.5000    -9.0596     4.4095     3.3090     8.2846    86.8604     0.0388     0.1911     2.3560
   58.0000    -9.1916     4.0290     3.1103     8.3318    85.2377     0.0479     0.1959     2.3501
   58.5000    -9.1764     3.8495     3.1340     8.2593    83.9086     0.0631     0.1907     2.3471
   59.0000    -9.3114     3.6694     3.1575     8.1719    84.0817     0.0801     0.1898     2.3502
   59.5000    -9.2964     3.4260     3.1365     8.0677    84.1007     0.0833     0.1943     2.3517
   60.0000    -9.4319     3.3574     3.0059     7.9162    83.2242     0.0685     0.2064     2.3398
   60.5000    -9.5669     3.2902     2.8708     7.7603    79.0641     0.0401     0.2201     2.3166
   61.0000    -9.5487     3.2243     2.7939     7.5232    80.0070     0.0403     0.2319     2.3044
   61.5000    -9.5340     3.2038     2.7191     7.2860    82.9179     0.0360     0.2441     2.2684
   62.0000    -9.5194     3.1180     2.6646     7.0638    85.6931     0.0256     0.2507     2.2548
   62.5000    -9.3551     3.0346     2.5932     6.6769    87.3539     0.0244     0.2533     2.2500
   63.0000    -9.1907     2.9311     2.5237     6.4997    89.9103     0.0201     0.2551     2.2471
   63.5000    -8.8767     2.8156     2.3056     6.5918    91.4218     0.0188     0.2590     2.2419
   64.0000    -8.7124     2.7025     2.1543     7.0283    93.2319     0.0265     0.2614     2.2419
   64.5000    -8.6976     2.5761     2.2010     7.3450    92.0569     0.0312     0.2400     2.2420
   65.0000    -8.6826     2.5242     2.2798     7.5270    85.9565     0.0479     0.2102     2.2578
   65.5000    -8.6648     2.5082     2.3451     7.6342    82.5427     0.0511     0.1668     2.3367
   66.0000    -8.7999     2.5273     2.4290     7.8319    80.1731     0.0513     0.1620     2.3983
   66.5000    -8.9399     2.6177     2.5866     8.0470    79.2970     0.0560     0.1594     2.4059
   67.0000    -8.9216     2.8459     2.7771     8.1850    82.0507     0.0772     0.1506     2.4067
   67.5000    -8.9069     3.1154     2.9804     8.2274    83.8134     0.0969     0.1434     2.4105
   68.0000    -8.8922     3.3417     3.3019     8.0806    84.2843     0.1286     0.1524     2.4316
