~VERSION INFORMATION
 VERS.                2.0:   CWLS LOG ASCII STANDARD - VERSION 2.0
 WRAP.                 NO:   ONE LINE PER DEPTH STEP
~WELL INFORMATION
#MNEM.UNIT      DATA TYPE    INFORMATION
#----------   ------------   ------------------------------
 STRT.F           34.0000:   START DEPTH
 STOP.F         1014.5000:   STOP DEPTH
 STEP.F            0.5000:   STEP LENGTH
 NULL.          -999.2500:   NO VALUE
 COMP. FENIX & SCISSON INC:   COMPANY
 WELL.       NPR-3 #54-14:   WELL
 FLD .             TEAPOT:   FIELD
 LOC .      S14 T38N R78W:   LOCATION
 CNTY.            NATRONA:   COUNTY
 STAT.            WYOMING:   STATE
 CTRY. UNITED STATES OF AMERICA:   COUNTRY
 SRVC.            Unknown:   SERVICE COMPANY
 DATE.        20-APR-1978:   LOGDATE
 API .       490251062100:   API NUMBER
~CURVE INFORMATION
#MNEM.UNIT       API CODE    CURVE DESCRIPTION
#----------   ------------   ------------------------------
 DEPT.F                  :   
 SPR .MV     05 010 01 00:   SPONTANEOUS POTENTIAL FROM RES.
 SN  .OHMM   05 040 16 00:   SHORT NORMAL 16"
 ILD .OHMM   05 120 46 00:   INDUCTION LOG DEEP
 CALD.IN     45 280 60 00:   CALIPER
 GRD .GAPI   45 310 01 00:   GAMMA RAY FROM DENSITY LOG
 RHOB.G/C3   45 350 01 00:   BULK DENSITY
 DPOR.DEC    45 890 12 00:   DENSITY POROSITY SANDSTONE
 CORR.G/C3   45 356 01 00:   DENSITY CORRECTION
~PARAMETER INFORMATION
#MNEM.UNIT          VALUE    DESCRIPTION
#----------   ------------   ------------------------------
 PD  .                 GL:   PERMANENT DATUM
 EPD .F              5268:   ELEVATION PERMANENT DATUM
 LMF .                 KB:   LOG MEASURED FROM
 DAPD.F                 4:   FEET ABOVE PERMANENT DATUM
 DMF .                 KB:   DRILLING MEASURED FROM
 EKB .F              5272:   KELLING BUSHING
 EGL .F              5268:   GROUND LEVEL
 DATE.          4-20-1978:   RUN DATE
 RUN .                  1:   RUN NUMBER
 DD  .F              1030:   DEPTH DRILLER
 DL  .F              1021:   DEPTH LOGGER
 BLI .F              1014:   BOTTOM LOG INTERVAL
 TLI .F                50:   TOP LOG INTERVAL
 CS  .IN            8.625:   CASING SIZE
 CBD .F                40:   CASING BOTTOM DRILLER
 BS  .IN            7.875:   BIT SIZE
 BSD .F              1030:   BIT SIZE AT DEPTH
 DFT .                KCL:   DRILLING FLUID TYPE
 DFD .                8.6:   DRILLING FLUID DENSITY
 DFV .                 33:   DRILLING FLUID VISCOSITY
 DFPH.                 10:   DRILLING FLUID PH
 DFL .                  8:   DRILLING FLUID LOSS
 MSS .          FLOW LINE:   MUD SAMPLE SOURCE
 RMS .OHMM            .34:   RESISTIVITY MUD SAMPLE
 MST .F                64:   MUD SAMPLE TEMPERATURE
 RMF .OHMM            .36:   RESISTIVITY MUD FILTRATE SAMPLE
 MFST.F                60:   MUD FILTRATE SAMPLE TEMPERATURE
 RMC .OHMM            .48:   RESISTIVITY MUD CAKE
 MCST.F                68:   MUD CAKE SAMPLE TEMPERATURE
 MFSS.               MEAS:   MUD FILTRATE SAMPLE SOURCE
 MCSS.               MEAS:   MUD CAKE SAMPLE SOURCE
 RMB .OHMM            .29:   RESISTIVITY MUD AT BHT
 BHT .F                74:   BOTTOM HOLE TEMPERATURE
 TCS .HRS               6:   TIME CURCULATED STOPPED
 MRT .F                74:   MAXIMUM RECORDED TEMPERATURE
 LUN .               2958:   LOGGING UNIT NUMBER
 LUL .               CASP:   LOGGING UNIT LOCATION
 ENGI.             MILLER:   RECORDING ENGINEER
 WITN.           MCGINELY:   WITNESSED BY
 CLNT.            A2DTECH:   CLIENT CODE
 ORIG.       2", 5" PRINT:   ORIGIN OF DATA
 UWI .       490251062100:   UNIQUE WELL ID
 DICO. A2D Technologies, Inc.:   DIGITIZING COMPANY
~OTHER INFORMATION
~A   DEPT      SPR         SN        ILD       CALD         GRD      RHOB       DPOR       CORR   
# ...
  844.0000   -22.1401    12.8418    12.2441     7.5170    79.8989     2.3706     0.1791     0.0036
  844.5000   -22.1328    12.7689    12.1865     7.5270    78.9420     2.3712     0.1807     0.0051
  845.0000   -22.1254    12.6964    12.1291     7.5369    77.0853     2.3690     0.1838     0.0065
  845.5000   -22.1180    12.6440    12.0721     7.5679    75.5061     2.3608     0.1870     0.0080
  846.0000   -22.1106    12.6129    12.0153     7.6058    77.0059     2.3517     0.1901     0.0094
  846.5000   -22.1032    12.5816    11.9779     7.6440    78.7030     2.3438     0.1923     0.0109
  847.0000   -22.0959    12.5504    11.9779     7.6577    78.7276     2.3502     0.1837     0.0123
  847.5000   -22.0885    12.5193    11.9779     7.5932    77.7042     2.3588     0.1774     0.0138
  848.0000   -22.0811    12.4882    11.9779     7.4303    76.8798     2.3731     0.1712     0.0153
  848.5000   -22.0737    12.4572    11.9779     7.2930    78.5903     2.3905     0.1649     0.0155
  849.0000   -22.0663    12.4263    11.9779     7.1852    81.1324     2.3992     0.1631     0.0155
  849.5000   -22.0590    12.3955    11.9779     7.0774    82.7437     2.3943     0.1675     0.0174
  850.0000   -22.0516    12.3648    11.9779     7.0213    82.8867     2.3861     0.1707     0.0216
  850.5000   -22.0442    12.3341    11.9779     7.1854    83.9021     2.3828     0.1711     0.0258
  851.0000   -22.0368    12.3141    11.9779     7.4675    84.6673     2.3839     0.1709     0.0299
  851.5000   -22.0293    12.3141    11.9779     7.7556    83.7182     2.3851     0.1707     0.0357
  852.0000   -22.0222    12.3140    11.9779     7.8788    83.3758     2.3881     0.1673     0.0506
  852.5000   -22.0133    12.3141    11.9779     7.9239    83.5157     2.4001     0.1614     0.0654
  853.0000   -22.1093    12.3141    11.9779     7.9342    83.6778     2.4122     0.1567     0.0710
  853.5000   -22.2609    12.3141    11.9779     7.9219    84.3433     2.4112     0.1567     0.0838
  854.0000   -22.4141    12.3141    11.9779     7.9091    86.5341     2.4142     0.1518     0.1031
  854.5000   -22.5726    12.3141    11.9779     7.8964    89.2250     2.4255     0.1459     0.1135
  855.0000   -22.6385    12.3141    11.9779     7.8837    86.8161     2.4370     0.1401     0.1101
  855.5000   -22.6791    12.3141    11.9779     7.8647    82.9986     2.4486     0.1396     0.0879
  856.0000   -22.7189    12.3141    11.9779     7.8392    82.2817     2.4488     0.1438     0.0661
  856.5000   -22.7590    12.3141    11.9779     7.8139    83.5214     2.4276     0.1530     0.0439
  857.0000   -22.7992    12.3141    11.9779     7.7886    84.8037     2.4087     0.1621     0.0397
  857.5000   -22.8393    12.3141    11.9779     7.7635    86.0800     2.3953     0.1676     0.0400
  858.0000   -22.8795    12.3142    11.9779     7.7284    87.3530     2.3909     0.1706     0.0404
  858.5000   -22.9197    12.3136    11.9780     7.6913    88.6276     2.3800     0.1735     0.0408
  859.0000   -22.9598    12.2940    11.9779     7.6541    89.9019     2.3867     0.1714     0.0412
  859.5000   -23.0000    12.2736    11.9312     7.6169    91.1779     2.3898     0.1687     0.0414
  860.0000   -23.0401    12.2532    11.8738     7.5795    91.4982     2.3923     0.1679     0.0390
  860.5000   -23.0803    12.2329    11.8166     7.5415    88.8125     2.3942     0.1677     0.0297
  861.0000   -23.1204    12.2125    11.7598     7.5370    85.9208     2.3930     0.1680     0.0207
  861.5000   -23.1606    12.1922    11.7032     7.5345    83.3478     2.3915     0.1682     0.0118
  862.0000   -23.2007    12.1719    11.6469     7.5318    83.6985     2.3900     0.1685     0.0105
  862.5000   -23.2409    12.1517    11.5908     7.5291    87.5865     2.3891     0.1687     0.0095
  863.0000   -23.2810    12.1315    11.5351     7.5264    88.6422     2.3907     0.1681     0.0086
  863.5000   -23.3212    12.1112    11.4796     7.5237    88.0312     2.3932     0.1669     0.0076
  864.0000   -23.3614    12.0916    11.4244     7.5210    87.2801     2.3957     0.1667     0.0066
  864.5000   -23.4015    12.0749    11.3693     7.5183    86.5249     2.3965     0.1667     0.0056
  865.0000   -23.4417    12.0589    11.2914     7.5156    85.7865     2.3939     0.1676     0.0046
  865.5000   -23.4818    12.0430    11.1655     7.5129    85.3785     2.3928     0.1693     0.0036
  866.0000   -23.5219    12.0271    11.0412     7.5102    86.1198     2.3951     0.1702     0.0039
  866.5000   -23.5619    12.0113    10.9223     7.5075    87.5373     2.3913     0.1690     0.0044
  867.0000   -23.6046    11.9955    10.9480     7.5049    88.9921     2.3862     0.1721     0.0048
  867.5000   -23.7111    11.9797    10.9746     7.5021    88.7875     2.3813     0.1739     0.0053
  868.0000   -23.8263    11.9639    11.0008     7.4952    86.5124     2.3829     0.1719     0.0057
  868.5000   -23.9416    11.9482    11.0233     7.4700    84.3312     2.3876     0.1719     0.0062
  869.0000   -24.0567    11.9324    10.9419     7.4434    84.1768     2.3847     0.1746     0.0066
  869.5000   -24.1719    11.9167    10.8557     7.3528    84.5071     2.3781     0.1774     0.0071
  870.0000   -24.2871    11.9010    10.7702     7.1220    85.3400     2.3721     0.1766     0.0077
  870.5000   -24.4022    11.8849    10.7223     7.4467    88.3808     2.3772     0.1723     0.0116
  871.0000   -24.5173    11.8668    10.8217     7.4834    90.8001     2.3875     0.1680     0.0154
  871.5000   -24.6325    12.0244    10.8217     7.4855    88.0833     2.3977     0.1635     0.0191
  872.0000   -24.7477    12.2050    10.9468     7.4879    84.3957     2.4078     0.1559     0.0211
  872.5000   -24.8631    12.3883    11.3432     7.4910    82.7346     2.4241     0.1450     0.0200
  873.0000   -24.9800    12.5744    11.7539     7.4942    86.3345     2.4445     0.1309     0.0154
  873.5000   -25.0063    12.7632    12.1796     7.4978    87.8382     2.4649     0.1169     0.0089
  874.0000   -25.0140    12.9549    12.6207     7.4959    82.4753     2.4854     0.1116     0.0023
  874.5000   -25.0212    13.1357    12.8986     7.4035    78.4612     2.4914     0.1209    -0.0014
  875.0000   -25.0288    13.1357    12.8989     7.3225    78.6616     2.4716     0.1277     0.0040
  875.5000   -25.0363    13.0151    12.5358     7.3519    83.3670     2.4687     0.1292     0.0091
  876.0000   -25.0439    12.8955    12.2121     7.4444    86.7096     2.4606     0.1358     0.0142
  876.5000   -25.0514    12.5111    11.8988     7.5357    87.8025     2.4437     0.1452     0.0193
  877.0000   -25.0590    12.1217    11.5937     7.5226    86.3607     2.4309     0.1460     0.0239
  877.5000   -25.0665    11.7444    11.2964     7.5042    86.0437     2.4303     0.1460     0.0256
  878.0000   -25.0741    11.3798    11.0066     7.5548    86.2630     2.4323     0.1460     0.0276
  878.5000   -25.0817    11.0227    10.7230     7.6909    88.0590     2.4326     0.1460     0.0338
  879.0000   -25.0892    10.9236    10.4240     7.8262    90.2788     2.4320     0.1448     0.0400
  879.5000   -25.0968    10.8213    10.4296     7.9606    92.5608     2.4351     0.1421     0.0463
  880.0000   -25.1043    10.8183    10.3338     7.9915    92.8085     2.4439     0.1395     0.0490
  880.5000   -25.1119    10.8154    10.3167     8.0076    90.1299     2.4527     0.1372     0.0479
  881.0000   -25.1194    10.8125    10.2880     8.0236    90.1256     2.4532     0.1380     0.0469
  881.5000   -25.1270    10.8096    10.2593     8.0400    90.1237     2.4479     0.1409     0.0459
  882.0000   -25.1345    10.8066    10.2307     8.0552    89.4135     2.4411     0.1448     0.0492
  882.5000   -25.1421    10.8037    10.2022     8.0347    88.9538     2.4341     0.1488     0.0556
  883.0000   -25.1497    10.8008    10.1738     8.0121    89.7265     2.4272     0.1463     0.0595
  883.5000   -25.1572    10.7978    10.1454     7.9897    88.6098     2.4304     0.1384     0.0546
  884.0000   -25.1648    10.7949    10.1172     7.9674    86.9597     2.4515     0.1369     0.0470
