~VERSION INFORMATION
 VERS.                2.0:   CWLS LOG ASCII STANDARD - VERSION 2.0
 WRAP.                 NO:   ONE LINE PER DEPTH STEP
~WELL INFORMATION
#MNEM.UNIT      DATA TYPE    INFORMATION
#----------   ------------   ------------------------------
 STRT.F           33.0000:   START DEPTH
 STOP.F          560.0000:   STOP DEPTH
 STEP.F            0.5000:   STEP LENGTH
 NULL.          -999.2500:   NO VALUE
 COMP. BROWN JOHN E&C INC:   COMPANY
 WELL.        SX 85 #25-3:   WELL
 FLD .             TEAPOT:   FIELD
 LOC .       S3 T38N R78W:   LOCATION
 CNTY.            NATRONA:   COUNTY
 STAT.            WYOMING:   STATE
 CTRY. UNITED STATES OF AMERICA:   COUNTRY
 SRVC.       Schlumberger:   SERVICE COMPANY
 DATE.        23-SEP-1980:   LOGDATE
 API .       490251130600:   API NUMBER
~CURVE INFORMATION
#MNEM.UNIT       API CODE    CURVE DESCRIPTION
#----------   ------------   ------------------------------
 DEPT.F                  :   
 ILD .OHMM   07 120 46 00:   INDUCTION LOG DEEP
 ILM .OHMM   07 120 44 00:   INDUCTION LOG MEDIUM
 DPHI.DEC    45 890 12 00:   DENSITY POROSITY SANDSTONE
 RHOB.G/C3   45 350 01 00:   BULK DENSITY
 DRHO.G/C3   45 356 01 00:   DENSITY CORRECTION
 CALD.IN     45 280 60 00:   CALIPER
 GRD .GAPI   45 310 01 00:   GAMMA RAY FROM DENSITY LOG
~PARAMETER INFORMATION
#MNEM.UNIT          VALUE    DESCRIPTION
#----------   ------------   ------------------------------
 PD  .                 GL:   PERMANENT DATUM
 EPD .F              5144:   ELEVATION PERMANENT DATUM
 LMF .                 KB:   LOG MEASURED FROM
 DAPD.F                10:   FEET ABOVE PERMANENT DATUM
 DMF .                 KB:   DRILLING MEASURED FROM
 EKB .F              5154:   KELLING BUSHING
 EDF .F              5153:   DRILLING FLOOR
 EGL .F              5144:   GROUND LEVEL
 DATE.            9-23-90:   RUN DATE
 RUN .                  1:   RUN NUMBER
 DD  .F               564:   DEPTH DRILLER
 DL  .F               565:   DEPTH LOGGER
 BLI .F               559:   BOTTOM LOG INTERVAL
 TLI .F                40:   TOP LOG INTERVAL
 CS  .IN            8.625:   CASING SIZE
 CBD .F                50:   CASING BOTTOM DRILLER
 CBL .F                50:   CASING BOTTOM LOGGER
 BS  .IN            7.875:   BIT SIZE
 BSD .F               564:   BIT SIZE AT DEPTH
 DFT .                AIR:   DRILLING FLUID TYPE
 TCS .HRS            1900:   TIME CURCULATED STOPPED
 TLAB.HRS            2000:   TIME LOGGER AT BOTTOM
 LUN .               5882:   LOGGING UNIT NUMBER
 LUL .               CODY:   LOGGING UNIT LOCATION
 ENGI.          M. FISHER:   RECORDING ENGINEER
 WITN.          G. STRONG:   WITNESSED BY
 CLNT.            A2DTECH:   CLIENT CODE
 ORIG.        2" 5" PRINT:   ORIGIN OF DATA
 UWI .       490251130600:   UNIQUE WELL ID
 DICO. A2D Technologies, Inc.:   DIGITIZING COMPANY
~OTHER INFORMATION
~A   DEPT      ILD        ILM       DPHI       RHOB       DRHO       CALD         GRD  
# ...
  260.5000     5.9136     5.5423     0.1189     2.4439    -0.0003     7.8358   121.1604
  261.0000     5.8586     5.3903     0.1307     2.4079    -0.0011     7.8589   122.4663
  261.5000     5.8585     5.3406     0.1425     2.3708    -0.0018     7.8797   123.7547
  262.0000     5.8580     5.4783     0.1454     2.3492    -0.0025     7.8498   124.5194
  262.5000     5.8577     5.7286     0.1375     2.3855    -0.0032     7.8179   124.9641
  263.0000     6.0466     5.9901     0.1281     2.4261    -0.0039     7.7990   125.8717
  263.5000     6.3290     6.2698     0.1194     2.4444    -0.0046     7.7952   126.8418
  264.0000     6.6684     6.6624     0.1154     2.4576    -0.0053     7.7914   127.8331
  264.5000     7.0259     7.2463     0.1129     2.4620    -0.0050     7.7876   128.0712
  265.0000     7.4026     7.3864     0.1117     2.4666    -0.0029     7.7838   128.3046
  265.5000     7.6970     7.4977     0.1104     2.4706    -0.0009     7.7828   129.3905
  266.0000     7.9017     7.6582     0.1126     2.4664    -0.0001     7.7964   130.1065
  266.5000     8.0036     7.8222     0.1147     2.4620    -0.0010     7.8099   128.3458
  267.0000     8.0699     7.9897     0.1141     2.4617    -0.0019     7.8233   124.6954
  267.5000     8.1362     8.1609     0.1117     2.4653    -0.0027     7.8369   121.8233
  268.0000     8.2038     8.3321     0.1099     2.4692    -0.0036     7.8401   120.3285
  268.5000     8.2943     8.4385     0.1112     2.4676    -0.0040     7.8387   121.6430
  269.0000     8.4687     8.5439     0.1125     2.4646    -0.0043     7.8373   123.7056
  269.5000     8.6456     8.6508     0.1129     2.4620    -0.0046     7.8359   125.7606
  270.0000     8.8083     8.7591     0.1120     2.4643    -0.0049     7.8345   127.2325
  270.5000     8.8294     8.8687     0.1112     2.4669    -0.0051     7.8332   127.2524
  271.0000     8.8482     8.9796     0.1103     2.4694    -0.0054     7.8318   126.6698
  271.5000     8.8671     9.1409     0.1086     2.4719    -0.0057     7.8304   126.0901
  272.0000     8.8862     9.1103     0.1065     2.4744    -0.0048     7.8290   125.5122
  272.5000     8.9053     9.0566     0.1045     2.4768    -0.0036     7.8276   124.9343
  273.0000     8.9244     9.0033     0.1039     2.4777    -0.0022     7.8262   125.5166
  273.5000     8.9437     8.9731     0.1037     2.4787    -0.0009     7.8248   127.2380
  274.0000     8.9629     8.9730     0.1020     2.4818    -0.0011     7.8234   128.4722
  274.5000     8.9731     8.9730     0.0993     2.4854    -0.0015     7.8220   126.6561
  275.0000     8.9731     8.9731     0.0967     2.4890    -0.0020     7.8209   124.8852
  275.5000     8.9731     8.9731     0.0958     2.4908    -0.0024     7.8209   123.7430
  276.0000     8.9731     8.9731     0.0957     2.4922    -0.0027     7.8209   123.5521
  276.5000     8.9732     8.9731     0.0952     2.4949    -0.0022     7.8209   123.7418
  277.0000     8.9738     8.9735     0.0906     2.5004    -0.0017     7.8209   124.4145
  277.5000     8.9740     8.9722     0.0860     2.5059    -0.0012     7.8227   125.2923
  278.0000     8.8240     8.9762     0.0841     2.5115    -0.0008     7.8247   127.5189
  278.5000     8.7015     8.8029     0.0897     2.5031    -0.0029     7.8266   130.6523
  279.0000     8.5804     8.6653     0.0966     2.4925    -0.0050     7.8286   133.8528
  279.5000     8.4611     8.5299     0.1040     2.4815    -0.0072     7.8306   135.5095
  280.0000     8.3320     8.3966     0.1045     2.4776    -0.0094     7.8326   132.6479
  280.5000     8.1655     8.2551     0.1048     2.4769    -0.0088     7.8345   129.7628
  281.0000     7.9847     8.0969     0.1087     2.4724    -0.0074     7.8365   128.9955
  281.5000     7.8080     7.8960     0.1126     2.4647    -0.0060     7.8385   128.7946
  282.0000     7.5717     7.5316     0.1148     2.4587    -0.0047     7.8404   128.9787
  282.5000     7.0623     7.1861     0.1143     2.4596    -0.0033     7.8511   129.4760
  283.0000     6.5873     6.8494     0.1138     2.4604    -0.0019     7.8651   131.1475
  283.5000     6.1441     6.1645     0.1153     2.4571    -0.0011     7.8791   133.3738
  284.0000     5.5844     5.3466     0.1194     2.4439    -0.0004     7.8930   135.1370
  284.5000     4.9184     4.6349     0.1237     2.4311     0.0004     7.8979   135.0309
  285.0000     4.3318     4.1164     0.1310     2.4170     0.0011     7.8888   131.5781
  285.5000     3.8315     3.6835     0.1386     2.3749     0.0018     7.8797   129.5399
  286.0000     3.4173     3.3003     0.1583     2.3134     0.0017     7.8699   127.6719
  286.5000     3.1353     2.9702     0.1780     2.2399     0.0004     7.8713   124.5372
  287.0000     3.0104     2.7673     0.1976     2.1646     0.0008     7.9101   120.9838
  287.5000     2.8932     2.8413     0.2149     2.0874     0.0048     7.9253   117.4449
  288.0000     2.8706     2.9202     0.2241     2.0510     0.0092     7.9403   114.2169
  288.5000     2.9406     3.0011     0.2112     2.0798     0.0172     7.8641   115.0712
  289.0000     3.1095     3.0654     0.1907     2.1739     0.0266     7.8562   121.5881
  289.5000     3.3620     3.5260     0.1680     2.2670     0.0321     7.8518   128.3738
  290.0000     3.8548     4.1430     0.1510     2.3244     0.0187     7.8472   132.6031
  290.5000     4.4199     4.8764     0.1376     2.3749     0.0121     7.8425   133.5577
  291.0000     5.0678     5.3155     0.1242     2.4277     0.0099     7.8378   130.5899
  291.5000     5.5590     5.6295     0.1109     2.4672     0.0082     7.8331   128.0315
  292.0000     5.8798     5.9664     0.1044     2.4798     0.0064     7.8285   128.2674
  292.5000     6.2192     6.1578     0.1037     2.4792     0.0047     7.8238   133.9952
  293.0000     6.4782     6.4035     0.1055     2.4760     0.0046     7.8191   138.9986
  293.5000     6.6018     6.6604     0.1073     2.4730     0.0055     7.8145   142.7092
  294.0000     6.7278     6.8587     0.1059     2.4748     0.0063     7.8098   143.8796
  294.5000     6.8587     6.8017     0.1029     2.4801     0.0055     7.8050   140.0384
  295.0000     6.7954     6.7484     0.1000     2.4852     0.0045     7.8011   136.6249
  295.5000     6.7328     6.4624     0.0970     2.4904     0.0036     7.8067   134.8274
  296.0000     6.5954     6.0979     0.0949     2.4947     0.0022     7.8123   133.1989
  296.5000     6.0719     5.7540     0.0988     2.4909     0.0008     7.8179   131.5750
  297.0000     5.6580     5.4294     0.1120     2.4714    -0.0010     7.8235   131.9035
  297.5000     5.3208     5.1232     0.1261     2.4340     0.0012     7.8290   136.6226
  298.0000     5.0694     4.8339     0.1402     2.3719     0.0050     7.8346   142.6829
  298.5000     4.9167     4.5603     0.1543     2.3129     0.0066     7.8403   148.4221
  299.0000     4.7306     4.4976     0.1571     2.2984     0.0047     7.8366   146.0216
  299.5000     4.5636     4.4762     0.1500     2.3311     0.0029     7.8298   142.7464
  300.0000     4.5623     4.5788     0.1393     2.3805     0.0013     7.8230   139.3532
  300.5000     4.5202     4.7904     0.1355     2.3877     0.0010     7.8014   137.5837
  301.0000     4.8820     5.0119     0.1335     2.3970     0.0006     7.7740   135.8520
  301.5000     5.1491     5.2435     0.1260     2.4223     0.0003     7.7453   134.8095
  302.0000     5.4308     5.5015     0.1185     2.4485     0.0000     7.7604   138.2181
  302.5000     5.7369     5.8452     0.1153     2.4551    -0.0003     7.7861   141.8620
  303.0000     6.0627     6.2104     0.1136     2.4611    -0.0006     7.8122   142.6822
  303.5000     6.4070     6.5985     0.1087     2.4683    -0.0009     7.8387   139.1231
  304.0000     6.7709     7.0107     0.1032     2.4798    -0.0012     7.8127   135.5407
  304.5000     7.1555     7.3911     0.0977     2.4909    -0.0015     7.7798   137.1360
  305.0000     7.5946     7.6551     0.0957     2.4938    -0.0017     7.7469   141.0536
  305.5000     7.7622     7.9268     0.0979     2.4865    -0.0013     7.7142   143.6555
