~VERSION INFORMATION
 VERS.                2.0:   CWLS LOG ASCII STANDARD - VERSION 2.0
 WRAP.                 NO:   ONE LINE PER DEPTH STEP
~WELL INFORMATION
#MNEM.UNIT      DATA TYPE    INFORMATION
#----------   ------------   ------------------------------
 STRT.F         1208.5000:   START DEPTH
 STOP.F         3816.0000:   STOP DEPTH
 STEP.F            0.5000:   STEP LENGTH
 NULL.          -999.2500:   NO VALUE
 COMP. BROWN JOHN E&C INC:   COMPANY
 WELL. NPR 3 STX-11 #13-11:   WELL
 FLD .             TEAPOT:   FIELD
 LOC .      S11 T38N R78W:   LOCATION
 CNTY.            NATRONA:   COUNTY
 STAT.            WYOMING:   STATE
 CTRY. UNITED STATES OF AMERICA:   COUNTRY
 SRVC.            Unknown:   SERVICE COMPANY
 DATE.        08-APR-1986:   LOGDATE
 API .       490251105000:   API NUMBER
~CURVE INFORMATION
#MNEM.UNIT       API CODE    CURVE DESCRIPTION
#----------   ------------   ------------------------------
 DEPT.F                  :   
 ROP .MIN/FT 91 810 01 00:   RATE OF DRILLING PENETRATION
 TGAS.UNITS  91 830 01 00:   TOTAL GAS FROM HOTWIRE
 GR  .GAPI   81 310 01 00:   GAMMA RAY
 TT  .US/F   81 520 00 00:   TRANSIT TIME
~PARAMETER INFORMATION
#MNEM.UNIT          VALUE    DESCRIPTION
#----------   ------------   ------------------------------
 PD  .                 GL:   PERMANENT DATUM
 EPD .F              5176:   ELEVATION PERMANENT DATUM
 LMF .                 KB:   LOG MEASURED FROM
 DAPD.F              11.8:   FEET ABOVE PERMANENT DATUM
 DMF .                 KB:   DRILLING MEASURED FROM
 EKB .F            5187.8:   KELLING BUSHING
 EGL .F              5176:   GROUND LEVEL
 DATE.             4-8-86:   RUN DATE
 RUN .                  1:   RUN NUMBER
 DD  .F              4051:   DEPTH DRILLER
 DL  .F              3815:   DEPTH LOGGER
 BLI .F              3815:   BOTTOM LOG INTERVAL
 TLI .F              2200:   TOP LOG INTERVAL
 CS  .IN              5.5:   CASING SIZE
 CBD .F              3861:   CASING BOTTOM DRILLER
 DFT .              WATER:   DRILLING FLUID TYPE
 BHT .F               167:   BOTTOM HOLE TEMPERATURE
 MRT .F               167:   MAXIMUM RECORDED TEMPERATURE
 LUN .            558/374:   LOGGING UNIT NUMBER
 LUL .             CASPER:   LOGGING UNIT LOCATION
 ENGI.             BAILEY:   RECORDING ENGINEER
 WITN.             BARRON:   WITNESSED BY
 CLNT.            A2DTECH:   CLIENT CODE
 ORIG.     2.5", 5" PRINT:   ORIGIN OF DATA
 UWI .       490251105000:   UNIQUE WELL ID
 DICO. A2D Technologies, Inc.:   DIGITIZING COMPANY
~OTHER INFORMATION
~A  DEPT         ROP     TGAS         GR         TT   
# ...
 2011.5000     0.6072    21.0166  -999.2500  -999.2500
 2012.0000     0.6154    21.0500  -999.2500  -999.2500
 2012.5000     0.6006    21.0833  -999.2500  -999.2500
 2013.0000     0.5962    21.0996  -999.2500  -999.2500
 2013.5000     0.5962    21.1054  -999.2500  -999.2500
 2014.0000     0.5986    20.7239  -999.2500  -999.2500
 2014.5000     0.6377    20.7293  -999.2500  -999.2500
 2015.0000     0.6638    20.7349  -999.2500  -999.2500
 2015.5000     0.7060    20.7407  -999.2500  -999.2500
 2016.0000     0.7569    20.7466  -999.2500  -999.2500
 2016.5000     0.8202    20.7524  -999.2500  -999.2500
 2017.0000     0.8836    20.7582  -999.2500  -999.2500
 2017.5000     0.9038    20.7640  -999.2500  -999.2500
 2018.0000     0.9231    20.7698  -999.2500  -999.2500
 2018.5000     0.9423    20.7756  -999.2500  -999.2500
 2019.0000     0.9408    20.7823  -999.2500  -999.2500
 2019.5000     0.8986    21.9514  -999.2500  -999.2500
 2020.0000     0.8564    23.9996  -999.2500  -999.2500
 2020.5000     0.8015    27.4096  -999.2500  -999.2500
 2021.0000     0.7171    30.8189  -999.2500  -999.2500
 2021.5000     0.6529    34.2281  -999.2500  -999.2500
 2022.0000     0.6346    37.6373  -999.2500  -999.2500
 2022.5000     0.6346    40.2447  -999.2500  -999.2500
 2023.0000     0.6346    41.9522  -999.2500  -999.2500
 2023.5000     0.6346    43.6598  -999.2500  -999.2500
 2024.0000     0.6346    46.0562  -999.2500  -999.2500
 2024.5000     0.6346    47.6132  -999.2500  -999.2500
 2025.0000     0.6346    49.1703  -999.2500  -999.2500
 2025.5000     0.6405    50.8403  -999.2500  -999.2500
 2026.0000     0.6616    52.1974  -999.2500  -999.2500
 2026.5000     0.8079    53.7924  -999.2500  -999.2500
 2027.0000     0.9883    55.0745  -999.2500  -999.2500
 2027.5000     1.0594    56.5441  -999.2500  -999.2500
 2028.0000     1.0962    58.2516  -999.2500  -999.2500
 2028.5000     1.0962    59.6967  -999.2500  -999.2500
 2029.0000     1.0769    60.9788  -999.2500  -999.2500
 2029.5000     1.0126    60.8613  -999.2500  -999.2500
 2030.0000     0.9282    54.2717  -999.2500  -999.2500
 2030.5000     0.8438    50.4414  -999.2500  -999.2500
 2031.0000     0.7448    44.0565  -999.2500  -999.2500
 2031.5000     0.6548    35.6264  -999.2500  -999.2500
 2032.0000     0.6015    28.2770  -999.2500  -999.2500
 2032.5000     0.5382    20.6472  -999.2500  -999.2500
 2033.0000     0.4897    16.3926  -999.2500  -999.2500
 2033.5000     0.4423    15.0200  -999.2500  -999.2500
 2034.0000     0.4231    13.6008  -999.2500  -999.2500
 2034.5000     0.4231    12.4282  -999.2500  -999.2500
 2035.0000     0.4231    11.6577  -999.2500  -999.2500
 2035.5000     0.4280    10.8871  -999.2500  -999.2500
 2036.0000     0.4491    11.3302  -999.2500  -999.2500
 2036.5000     0.4702    11.6748  -999.2500  -999.2500
 2037.0000     0.5019    11.6806  -999.2500  -999.2500
 2037.5000     0.5441    11.6864  -999.2500  -999.2500
 2038.0000     0.5863    11.6922  -999.2500  -999.2500
 2038.5000     0.6346    11.4615  -999.2500  -999.2500
 2039.0000     0.6538    11.3159  -999.2500  -999.2500
 2039.5000     0.6532    11.3228  -999.2500  -999.2500
 2040.0000     0.6346    11.3281  -999.2500  -999.2500
 2040.5000     0.6302    11.3334  -999.2500  -999.2500
 2041.0000     0.6091    11.3392  -999.2500  -999.2500
 2041.5000     0.5962    11.3450  -999.2500  -999.2500
 2042.0000     0.5962    11.3509  -999.2500  -999.2500
 2042.5000     0.5962    11.3567  -999.2500  -999.2500
 2043.0000     0.5962    11.3625  -999.2500  -999.2500
 2043.5000     0.5962    11.3683  -999.2500  -999.2500
 2044.0000     0.6346    11.3741  -999.2500  -999.2500
 2044.5000     0.6927    11.3800  -999.2500  -999.2500
 2045.0000     0.7349    11.3865  -999.2500  -999.2500
 2045.5000     0.7771    11.3918  -999.2500  -999.2500
 2046.0000     0.8135    11.3974  -999.2500  -999.2500
 2046.5000     0.8192    11.4032  -999.2500  -999.2500
 2047.0000     0.7789    11.4091  -999.2500  -999.2500
 2047.5000     0.7271    11.4149  -999.2500  -999.2500
 2048.0000     0.6849    11.4207  -999.2500  -999.2500
 2048.5000     0.6346    11.4265  -999.2500  -999.2500
 2049.0000     0.5962    11.4323  -999.2500  -999.2500
 2049.5000     0.5962    11.4381  -999.2500  -999.2500
 2050.0000     0.5993    11.4448  -999.2500  -999.2500
 2050.5000     0.6416    11.0622  -999.2500  -999.2500
 2051.0000     0.6838    11.0677  -999.2500  -999.2500
 2051.5000     0.7260    11.0735  -999.2500  -999.2500
 2052.0000     0.7591    11.0793  -999.2500  -999.2500
 2052.5000     0.7692    11.0851  -999.2500  -999.2500
 2053.0000     0.7564    11.0909  -999.2500  -999.2500
 2053.5000     0.7353    11.0968  -999.2500  -999.2500
 2054.0000     0.6923    11.1026  -999.2500  -999.2500
 2054.5000     0.6346    11.1084  -999.2500  -999.2500
 2055.0000     0.5962    11.1153  -999.2500  -999.2500
 2055.5000     0.5962    11.1206  -999.2500  -999.2500
 2056.0000     0.5913    11.1259  -999.2500  -999.2500
 2056.5000     0.5769    11.1317  -999.2500  -999.2500
 2057.0000     0.5769    11.1375  -999.2500  -999.2500
 2057.5000     0.5874    11.1433  -999.2500  -999.2500
 2058.0000     0.5962    11.1491  -999.2500  -999.2500
 2058.5000     0.6246    11.1550  -999.2500  -999.2500
 2059.0000     0.7115    11.1608  -999.2500  -999.2500
 2059.5000     0.7500    11.1666  -999.2500  -999.2500
 2060.0000     0.8096    11.1724  -999.2500  -999.2500
 2060.5000     0.8729    11.1790  -999.2500  -999.2500
 2061.0000     0.9319    11.1843  -999.2500  -999.2500
 2061.5000     0.9678    11.1899  -999.2500  -999.2500
 2062.0000     0.9808    11.1957  -999.2500  -999.2500
 2062.5000     0.9808    11.2015  -999.2500  -999.2500
 2063.0000     0.9689    11.2073  -999.2500  -999.2500
 2063.5000     0.9478    11.0412  -999.2500  -999.2500
 2064.0000     0.9038    10.8310  -999.2500  -999.2500
 2064.5000     0.8846    10.8369  -999.2500  -999.2500
 2065.0000     0.8261    10.8427  -999.2500  -999.2500
 2065.5000     0.7247    10.8494  -999.2500  -999.2500
 2066.0000     0.6653    10.8547  -999.2500  -999.2500
 2066.5000     0.6346    10.8601  -999.2500  -999.2500
 2067.0000     0.6499    10.8659  -999.2500  -999.2500
 2067.5000     0.6921    10.8718  -999.2500  -999.2500
 2068.0000     0.7458    10.8776  -999.2500  -999.2500
 2068.5000     0.7958    10.8834  -999.2500  -999.2500
 2069.0000     0.8654    10.8892  -999.2500  -999.2500
 2069.5000     0.9038    10.8950  -999.2500  -999.2500
 2070.0000     0.9038    10.9009  -999.2500  -999.2500
 2070.5000     0.9038    10.9078  -999.2500  -999.2500
 2071.0000     0.9038    10.9131  -999.2500  -999.2500
 2071.5000     0.9092    10.9184  -999.2500  -999.2500
 2072.0000     0.9231    10.9241  -999.2500  -999.2500
 2072.5000     0.9231    10.8589  -999.2500  -999.2500
 2073.0000     0.9231    10.5478  -999.2500  -999.2500
 2073.5000     0.9231    10.5537  -999.2500  -999.2500
 2074.0000     0.9231    10.5595  -999.2500  -999.2500
 2074.5000     0.9231    10.5653  -999.2500  -999.2500
 2075.0000     0.9231    10.5711  -999.2500  -999.2500
 2075.5000     0.9209    10.5769  -999.2500  -999.2500
 2076.0000     0.8758    10.5835  -999.2500  -999.2500
 2076.5000     0.8173    10.5888  -999.2500  -999.2500
 2077.0000     0.7885    10.5944  -999.2500  -999.2500
 2077.5000     0.7799    10.6002  -999.2500  -999.2500
 2078.0000     0.7692    10.6060  -999.2500  -999.2500
 2078.5000     0.7816    10.6119  -999.2500  -999.2500
 2079.0000     0.7885    10.6177  -999.2500  -999.2500
 2079.5000     0.7692    10.6235  -999.2500  -999.2500
 2080.0000     0.7692    10.6293  -999.2500  -999.2500
 2080.5000     0.7686    10.6351  -999.2500  -999.2500
 2081.0000     0.7500    10.6419  -999.2500  -999.2500
 2081.5000     0.7500    10.6472  -999.2500  -999.2500
 2082.0000     0.7500    10.6526  -999.2500  -999.2500
 2082.5000     0.7500    10.6584  -999.2500  -999.2500
 2083.0000     0.7500    10.6642  -999.2500  -999.2500
 2083.5000     0.7500    10.6700  -999.2500  -999.2500
 2084.0000     0.7500    10.6759  -999.2500  -999.2500
