~VERSION INFORMATION
 VERS.                2.0:   CWLS LOG ASCII STANDARD - VERSION 2.0
 WRAP.                 NO:   ONE LINE PER DEPTH STEP
~WELL INFORMATION
#MNEM.UNIT      DATA TYPE    INFORMATION
#----------   ------------   ------------------------------
 STRT.F           30.0000:   START DEPTH
 STOP.F          656.5000:   STOP DEPTH
 STEP.F            0.5000:   STEP LENGTH
 NULL.          -999.2500:   NO VALUE
 COMP. BROWN JOHN E&C INC:   COMPANY
 WELL. NPR 3 SHX-18-25 #25-11:   WELL
 FLD .              NPR 3:   FIELD
 LOC .      S11 T38N R78W:   LOCATION
 CNTY.            NATRONA:   COUNTY
 STAT.            WYOMING:   STATE
 CTRY. UNITED STATES OF AMERICA:   COUNTRY
 SRVC.           Gearhart:   SERVICE COMPANY
 DATE.        09-JUL-1987:   LOGDATE
 API .       490251114100:   API NUMBER
~CURVE INFORMATION
#MNEM.UNIT       API CODE    CURVE DESCRIPTION
#----------   ------------   ------------------------------
 DEPT.F                  :   
 GRR .GAPI   07 310 01 00:   GAMMA RAY FROM RES. LOG.
 RILM.OHMM   07 120 44 00:   INDUCTION LOG MEDIUM RESISTIVITY
 RILD.OHMM   07 120 46 00:   INDUCTION LOG DEEP RESISTIVITY
~PARAMETER INFORMATION
#MNEM.UNIT          VALUE    DESCRIPTION
#----------   ------------   ------------------------------
 PD  .                 GL:   PERMANENT DATUM
 EPD .F              5222:   ELEVATION PERMANENT DATUM
 LMF .                 KB:   LOG MEASURED FROM
 DAPD.F                 8:   FEET ABOVE PERMANENT DATUM
 DMF .                 KB:   DRILLING MEASURED FROM
 EKB .F              5230:   KELLING BUSHING
 EDF .F              5228:   DRILLING FLOOR
 EGL .F              5222:   GROUND LEVEL
 DATE.             7-9-87:   RUN DATE
 RUN .                  1:   RUN NUMBER
 DD  .F               662:   DEPTH DRILLER
 DL  .F               664:   DEPTH LOGGER
 BLI .F               662:   BOTTOM LOG INTERVAL
 TLI .F                30:   TOP LOG INTERVAL
 CS  .IN            8.625:   CASING SIZE
 CBD .F                48:   CASING BOTTOM DRILLER
 CBL .F                48:   CASING BOTTOM LOGGER
 BS  .IN            7.875:   BIT SIZE
 BSD .F               662:   BIT SIZE AT DEPTH
 DFT .                AIR:   DRILLING FLUID TYPE
 TLAB.HRS            1552:   TIME LOGGER AT BOTTOM
 MRT .F                80:   MAXIMUM RECORDED TEMPERATURE
 LUN .               7597:   LOGGING UNIT NUMBER
 LUL .           GILLETTE:   LOGGING UNIT LOCATION
 ENGI.         WEATHERMON:   RECORDING ENGINEER
 WITN.             STRONG:   WITNESSED BY
 CLNT.            A2DTECH:   CLIENT CODE
 ORIG.       2", 5" PRINT:   ORIGIN OF DATA
 UWI .       490251114100:   UNIQUE WELL ID
 DICO. A2D Technologies, Inc.:   DIGITIZING COMPANY
~OTHER INFORMATION
~A   DEPT       GRR      RILM       RILD   
# ...
  121.0000   116.9310     7.2972     7.7856
  121.5000   116.0128     7.4067     7.8797
  122.0000   112.3262     7.4712     7.9750
  122.5000   108.7215     7.7385     8.0715
  123.0000   105.9928     7.9747     8.1691
  123.5000   105.4333     8.0131     8.2679
  124.0000   106.3862     8.0517     8.3679
  124.5000   112.1023     8.0906     8.5024
  125.0000   116.6113     8.1223     8.4242
  125.5000   117.1613     8.1363     8.4765
  126.0000   114.4975     8.1502     8.5120
  126.5000   114.0322     8.1643     8.5477
  127.0000   117.9172     8.1783     8.5814
  127.5000   121.8793     8.1922     8.6329
  128.0000   119.9541     8.3383     8.6819
  128.5000   115.0209     8.5016     8.7412
  129.0000   109.8718     8.3955     8.6197
  129.5000   109.0020     8.2879     8.4676
  130.0000   110.4499     8.1817     8.3181
  130.5000   112.5183     8.0768     8.1713
  131.0000   115.8960     7.9733     8.0270
  131.5000   120.2391     7.8711     7.9483
  132.0000   122.5191     7.7701     7.9128
  132.5000   121.6466     7.6787     7.8775
  133.0000   120.8142     7.6657     7.8423
  133.5000   119.7144     7.6529     7.8073
  134.0000   118.1363     7.6401     7.7725
  134.5000   116.5793     7.6272     7.7378
  135.0000   115.7040     7.6143     7.7028
  135.5000   116.7940     7.6015     7.6803
  136.0000   116.9664     7.5887     7.7291
  136.5000   115.5238     7.5759     7.7665
  137.0000   114.1006     7.5631     7.8040
  137.5000   112.6694     7.5503     7.8416
  138.0000   111.4117     7.5395     7.8794
  138.5000   111.2017     7.5828     7.9174
  139.0000   111.7657     7.6293     7.9555
  139.5000   112.9503     7.6761     7.9939
  140.0000   114.1317     7.7231     8.0324
  140.5000   114.2558     7.7704     8.0711
  141.0000   114.6175     7.8180     8.1100
  141.5000   116.8916     7.8658     8.1491
  142.0000   119.1646     7.9140     8.1884
  142.5000   120.0032     7.9625     8.2279
  143.0000   120.2028     8.0113     8.2698
  143.5000   121.1203     8.0603     8.3270
  144.0000   122.1820     8.1097     8.3882
  144.5000   121.4624     8.1183     8.4498
  145.0000   121.8607     8.1183     8.5119
  145.5000   123.4843     8.1393     8.5744
  146.0000   125.0145     8.2972     8.6373
  146.5000   123.6569     8.4584     8.7008
  147.0000   122.1473     8.6228     8.7647
  147.5000   120.6392     8.7903     8.8240
  148.0000   119.1481     8.9610     8.8365
  148.5000   119.8716     9.1066     8.8490
  149.0000   120.7440     9.2048     8.8616
  149.5000   121.6177     9.3036     8.8741
  150.0000   121.7066     9.4036     8.8865
  150.5000   121.4526     9.5047     8.8993
  151.0000   121.1877     9.6069     8.9781
  151.5000   120.9123     9.7103     9.1116
  152.0000   120.7586     9.8147     9.2468
  152.5000   122.5048     9.9211     9.3840
  153.0000   124.2442    10.0238     9.5232
  153.5000   126.0109    10.1284     9.6644
  154.0000   126.2462    10.2334     9.8077
  154.5000   124.5780    10.3396     9.8947
  155.0000   123.0804    10.4469     9.9744
  155.5000   123.4067    10.5553    10.0546
  156.0000   123.6958    10.6649    10.1357
  156.5000   123.9860    10.7755    10.2646
  157.0000   124.3240    10.8874    10.3951
  157.5000   122.4432    11.0003    10.5271
  158.0000   120.3364    11.1176    10.6608
  158.5000   118.2427    11.1439    10.7962
  159.0000   116.7813    11.1887    10.9333
  159.5000   117.5430    11.2209    11.0721
  160.0000   118.2335    11.0873    11.2209
  160.5000   117.5630    10.9652    11.1790
  161.0000   116.7733    10.8450    11.1234
  161.5000   117.2412    10.7262    11.0681
  162.0000   117.9423    10.6087    11.0130
  162.5000   116.7820    10.4925    10.9586
  163.0000   114.0046    10.4018    10.9138
  163.5000   111.8212    10.3518    10.8643
  164.0000   112.6888    10.3021    10.8145
  164.5000   114.0509    10.2526    10.7648
  165.0000   119.2016    10.2033    10.7140
  165.5000   121.7564    10.1543    10.6953
  166.0000   123.6728    10.1356    10.6764
  166.5000   125.5776    10.1356    10.6574
  167.0000   127.4524    10.1356    10.6384
  167.5000   128.3351    10.1356    10.6194
  168.0000   126.6780    10.1356    10.6005
  168.5000   124.5888    10.1356    10.5816
  169.0000   122.5235    10.1356    10.5627
  169.5000   121.4790    10.1356    10.5439
  170.0000   122.8971    10.1356    10.5251
  170.5000   121.2066    10.1357    10.5063
  171.0000   118.8075    10.1358    10.4876
  171.5000   116.6761    10.1296    10.4689
  172.0000   117.9145    10.0712    10.4501
  172.5000   119.7729    10.0132    10.4316
  173.0000   123.8337     9.9555    10.3905
  173.5000   127.8867     9.8981    10.2561
  174.0000   130.3612     9.7633    10.1234
  174.5000   129.5845     9.6827     9.9925
  175.0000   128.0209     9.5217     9.8632
  175.5000   126.4321     9.3646     9.7356
  176.0000   125.6469     9.2104     9.6097
  176.5000   125.2526     9.0586     9.4756
  177.0000   124.8547     8.9048     9.2735
  177.5000   125.3978     8.8129     9.0758
  178.0000   126.5603     8.6836     8.8822
  178.5000   127.7387     8.4472     8.6929
  179.0000   128.0518     8.2193     8.5075
  179.5000   127.5693     8.0271     8.3261
  180.0000   127.1827     7.8688     8.1183
  180.5000   129.0246     7.7515     8.2437
  181.0000   130.7135     7.8237     8.3979
  181.5000   129.9387     7.8819     8.5549
  182.0000   128.3654     8.1149     8.7149
  182.5000   126.7200     8.4135     8.8779
  183.0000   125.1620     8.7231     9.0440
  183.5000   123.7469     8.8574     9.2131
  184.0000   122.2894     8.9237     9.3262
  184.5000   119.4132     8.9919     9.3061
  185.0000   116.3922     9.0710     9.2912
  185.5000   113.3846     9.0367     9.2763
  186.0000   113.3465     8.9963     9.2614
  186.5000   113.7094     8.9560     9.2465
  187.0000   113.3243     8.9160     9.2317
  187.5000   112.4277     8.8761     9.2169
  188.0000   111.5404     8.8364     9.2021
  188.5000   112.8482     8.7969     9.1873
  189.0000   115.4072     8.7416     9.1726
  189.5000   119.8244     8.7746     9.1553
  190.0000   123.7565     8.8304     9.2074
  190.5000   121.8475     8.8865     9.2710
  191.0000   119.8451     8.9430     9.3349
  191.5000   117.8519     8.9999     9.4001
  192.0000   116.6302     9.0572     9.4386
  192.5000   115.5381     9.1147     9.4825
  193.0000   117.0868     9.1527     9.5262
  193.5000   118.9746     9.1216     9.5883
  194.0000   120.8467     9.0958     9.5427
  194.5000   121.9796     9.0701     9.4614
  195.0000   120.8002     9.0444     9.3804
  195.5000   119.7482     9.0188     9.3253
  196.0000   118.6629     8.9933     9.3262
  196.5000   120.7294     8.9679     9.3262
  197.0000   123.4375     8.9425     9.3048
  197.5000   124.9494     8.9172     9.2551
  198.0000   121.7886     8.8965     9.2057
  198.5000   118.6905     8.8804     9.1546
  199.0000   116.3629     8.8642     9.1556
  199.5000   117.2714     8.8481     9.1553
  200.0000   117.6949     8.8320     9.1553
  200.5000   116.9048     8.8159     9.1553
  201.0000   116.1347     8.7999     9.1553
  201.5000   116.6107     8.7839     9.1553
  202.0000   118.3012     8.7679     9.1553
  202.5000   121.9444     8.7519     9.1553
  203.0000   123.2899     8.7360     9.1416
  203.5000   123.7767     8.7201     9.1165
  204.0000   123.0421     8.7043     9.0914
  204.5000   123.0908     8.6884     9.0663
  205.0000   124.3836     8.6726     9.0414
  205.5000   125.6774     8.6568     9.0164
  206.0000   127.0283     8.6411     8.9915
  206.5000   124.8060     8.6254     8.9875
  207.0000   122.1642     8.6098     8.9875
  207.5000   119.4328     8.5940     8.9873
  208.0000   122.0304     8.5653     8.9881
  208.5000   126.1279     8.4830     8.9390
  209.0000   128.7168     8.4015     8.8914
  209.5000   128.3845     8.3208     8.8439
  210.0000   127.6086     8.2668     8.7965
  210.5000   129.5324     8.2495     8.7493
  211.0000   131.5473     8.2322     8.7027
  211.5000   131.2555     8.2149     8.6612
