~VERSION INFORMATION
 VERS.                2.0:   CWLS LOG ASCII STANDARD - VERSION 2.0
 WRAP.                 NO:   ONE LINE PER DEPTH STEP
~WELL INFORMATION
#MNEM.UNIT      DATA TYPE    INFORMATION
#----------   ------------   ------------------------------
 STRT.F            0.0000:   START DEPTH
 STOP.F          752.0000:   STOP DEPTH
 STEP.F            0.1000:   STEP LENGTH
 NULL.          -999.2500:   NO VALUE
 COMP. BROWN JOHN E&C INC:   COMPANY
 WELL. N P R 3 STX-34 #53-1-34:   WELL
 FLD .             TEAPOT:   FIELD
 LOC .      S34 T39N R78W:   LOCATION
 CNTY.            NATRONA:   COUNTY
 STAT.            WYOMING:   STATE
 CTRY. UNITED STATES OF AMERICA:   COUNTRY
 SRVC.     Atlas Wireline:   SERVICE COMPANY
 DATE.        29-OCT-1991:   LOGDATE
 API .       490252248700:   API NUMBER
~CURVE INFORMATION
#MNEM.UNIT       API CODE    CURVE DESCRIPTION
#----------   ------------   ------------------------------
 DEPT.F                  :   
 GRR .GAPI   07 310 01 00:   GAMMA RAY
 RILD.OHMM   07 120 46 00:   INDUCTION LOG DEEP RESISTIVITY
 RILM.OHMM   07 120 44 00:   RESITIVITY LONG MEDIUM
~PARAMETER INFORMATION
#MNEM.UNIT          VALUE    DESCRIPTION
#----------   ------------   ------------------------------
 PD  .                 GL:   PERMANENT DATUM
 EPD .F              5067:   ELEVATION PERMANENT DATUM
 LMF .                 KB:   LOG MEASURED FROM
 DAPD.F                10:   FEET ABOVE PERMANENT DATUM
 DMF .                 KB:   DRILLING MEASURED FROM
 EKB .F              5077:   KELLING BUSHING
 EGL .F              5067:   GROUND LEVEL
 DATE.        29-OCT-1991:   RUN DATE
 RUN .                  1:   RUN NUMBER
 DD  .F               760:   DEPTH DRILLER
 DL  .F               760:   DEPTH LOGGER
 BLI .F               758:   BOTTOM LOG INTERVAL
 TLI .F                 0:   TOP LOG INTERVAL
 CS  .IN            9.625:   CASING SIZE
 CBD .F                52:   CASING BOTTOM DRILLER
 CBL .F                52:   CASING BOTTOM LOGGER
 BS  .IN             8.75:   BIT SIZE
 BSD .F               760:   BIT SIZE AT DEPTH
 DFT .        AIR DRILLED:   DRILLING FLUID TYPE
 MRT .F               154:   MAXIMUM RECORDED TEMPERATURE
 LUN .            HL 6307:   LOGGING UNIT NUMBER
 LUL .             CASPER:   LOGGING UNIT LOCATION
 ENGI.          RASMUSSEN:   RECORDING ENGINEER
 WITN.        GARY STRONG:   WITNESSED BY
 CLNT.            A2DTECH:   CLIENT CODE
 ORIG.           5" PRINT:   ORIGIN OF DATA
 UWI .       490252248700:   UNIQUE WELL ID
 DICO. A2D Technologies, Inc.:   DIGITIZING COMPANY
~OTHER INFORMATION
~A    DEPT      GRR      RILD       RILM   
# ...
  637.0000    96.3991    14.5105    14.3095
  637.1000    96.6661    14.5109    14.3099
  637.2000    96.8973    14.5113    14.3087
  637.3000    96.9653    14.5117    14.2114
  637.4000    96.9629    14.5121    14.2117
  637.5000    96.9605    14.5125    14.2121
  637.6000    96.9581    14.5129    14.2125
  637.7000    96.9553    14.5133    14.2129
  637.8000    96.9532    14.5137    14.2133
  637.9000    96.7807    14.5141    14.2137
  638.0000    96.5268    14.5145    14.2141
  638.1000    96.2078    14.5149    14.2145
  638.2000    95.7151    14.5454    14.2149
  638.3000    95.4209    14.6173    14.2152
  638.4000    95.2073    14.6177    14.2157
  638.5000    94.9534    14.6181    14.2160
  638.6000    94.8061    14.6185    14.2164
  638.7000    94.8036    14.6189    14.2168
  638.8000    94.8012    14.6193    14.2172
  638.9000    94.7988    14.6197    14.2176
  639.0000    94.9970    14.6202    14.2181
  639.1000    95.0979    14.6205    14.2928
  639.2000    95.1910    14.6209    14.3183
  639.3000    95.4401    14.6214    14.3187
  639.4000    95.6984    14.6218    14.3191
  639.5000    96.1805    14.6222    14.3255
  639.6000    96.3015    14.6226    14.4201
  639.7000    96.2991    14.6230    14.4205
  639.8000    96.2119    14.6234    14.4209
  639.9000    95.9581    14.6238    14.4213
  640.0000    95.6837    14.6242    14.4217
  640.1000    95.4503    14.6218    14.4221
  640.2000    95.1963    14.5235    14.4226
  640.3000    94.6898    14.5238    14.4229
  640.4000    93.9331    14.5242    14.3720
  640.5000    93.1975    14.5246    14.3235
  640.6000    92.6295    14.5250    14.3072
  640.7000    91.9666    14.5254    14.2248
  640.8000    91.3776    14.5258    14.2252
  640.9000    90.9875    14.5262    14.2256
  641.0000    90.7336    14.5267    14.2260
  641.1000    90.4796    14.5271    14.1959
  641.2000    90.1832    14.5275    14.1278
  641.3000    90.1812    14.5279    14.1283
  641.4000    90.3355    14.4483    14.1287
  641.5000    90.5846    14.4277    14.1291
  641.6000    90.7818    14.3832    14.1295
  641.7000    90.7793    14.3283    14.1299
  641.8000    91.2784    14.3287    14.1200
  641.9000    91.5807    14.3291    14.0325
  642.0000    92.1216    14.3295    14.0329
  642.1000    92.9669    14.3299    14.0333
  642.2000    93.9704    14.2888    14.0337
  642.3000    95.0199    14.2311    14.0102
  642.4000    95.9771    14.2244    13.9369
  642.5000    96.9804    14.1331    13.9374
  642.6000    97.9840    14.1334    13.9377
  642.7000    98.9880    14.0792    13.8842
  642.8000    99.9915    13.9985    13.8416
  642.9000   101.0843    13.9389    13.8420
  643.0000   101.5401    13.9354    13.8424
  643.1000   102.0406    13.8429    13.8429
  643.2000   102.5410    13.8432    13.7762
  643.3000   103.0415    13.7932    13.7474
  643.4000   103.5229    13.7478    13.7141
  643.5000   103.8051    13.7481    13.6526
  643.6000   104.0211    13.7485    13.6530
  643.7000   104.2702    13.7490    13.6535
  643.8000   104.5192    13.7493    13.6538
  643.9000   104.7076    13.7497    13.6542
  644.0000   104.7052    13.7501    13.6545
  644.1000   104.7023    13.7505    13.6549
  644.2000   104.7003    13.7508    13.6553
  644.3000   104.3885    13.7512    13.5794
  644.4000   103.9854    13.7516    13.5612
  644.5000   103.7314    13.7520    13.5616
  644.6000   103.4747    13.7524    13.5619
  644.7000   102.7264    13.7417    13.5514
  644.8000   101.9697    13.6576    13.4685
  644.9000   101.3565    13.6580    13.4688
  645.0000   100.7599    13.6583    13.4692
  645.1000   100.0804    13.6587    13.4696
  645.2000    99.8126    13.6348    13.4700
  645.3000    99.3349    13.5645    13.4703
  645.4000    99.7557    13.5650    13.4707
  645.5000   100.6403    13.5653    13.4018
  645.6000   101.5634    13.5657    13.3779
  645.7000   102.3432    13.5661    13.3782
  645.8000   103.4454    13.5665    13.3786
  645.9000   104.3503    13.5718    13.3790
  646.0000   105.3537    13.6622    13.3794
  646.1000   106.4789    13.6625    13.3797
  646.2000   107.5952    13.6629    13.3303
  646.3000   108.3469    13.6633    13.2875
  646.4000   109.2057    13.6637    13.2879
  646.5000   109.8508    13.6641    13.2882
  646.6000   110.4397    13.6645    13.2887
  646.7000   110.8294    13.6648    13.2890
  646.8000   111.0784    13.6413    13.2894
  646.9000   111.3216    13.6023    13.2897
  647.0000   111.3187    13.5709    13.2901
  647.1000   110.4973    13.5714    13.2905
  647.2000   108.8799    13.5718    13.2908
  647.3000   107.0656    13.6333    13.2912
  647.4000   105.7436    13.6675    13.2916
  647.5000   105.2279    13.6679    13.2919
  647.6000   104.2397    13.6561    13.2923
  647.7000   103.6195    13.5737    13.2927
  647.8000   103.1141    13.5740    13.3660
  647.9000   102.6977    13.5744    13.3864
  648.0000   102.4439    13.5748    13.3868
  648.1000   102.1737    13.5752    13.3872
  648.2000   102.1714    13.5756    13.3876
  648.3000   102.1690    13.5760    13.3880
  648.4000   102.1666    13.5054    13.3883
  648.5000   102.2421    13.4824    13.3887
  648.6000   102.4912    13.4827    13.3891
  648.7000   102.7669    13.4831    13.3894
  648.8000   102.9892    13.4835    13.3898
  648.9000   103.2383    13.4839    13.3902
  649.0000   103.6070    13.4168    13.3905
  649.1000   104.1075    13.3909    13.3909
  649.2000   104.5930    13.3913    13.3913
  649.3000   105.3207    13.3917    13.3917
  649.4000   106.1092    13.3920    13.3920
  649.5000   106.6684    13.3925    13.3925
  649.6000   107.4178    13.3928    13.3928
  649.7000   108.0148    13.3932    13.3932
  649.8000   108.4240    13.3935    13.3935
  649.9000   108.9271    13.3779    13.3825
  650.0000   109.3797    13.3012    13.3279
  650.1000   109.5322    13.3016    13.2732
  650.2000   109.4350    13.2242    13.2186
  650.3000   109.1853    13.1264    13.1639
  650.4000   108.9307    13.0266    13.1093
  650.5000   108.4395    12.9532    13.0546
  650.6000   108.1336    12.8787    12.9999
  650.7000   107.7411    12.8046    12.9453
  650.8000   107.3315    12.7310    12.8906
  650.9000   107.0817    12.6577    12.8360
  651.0000   106.8200    12.5814    12.7813
  651.1000   106.3434    12.5125    12.7165
  651.2000   106.0301    12.4406    12.6432
  651.3000   105.7804    12.4077    12.5611
  651.4000   105.6145    12.3839    12.4054
  651.5000   105.6480    12.3127    12.3396
  651.6000   105.9196    12.2364    12.2686
  651.7000   105.9207    12.1715    12.1979
  651.8000   106.2820    12.1517    12.1276
  651.9000   106.6566    12.1519    12.0642
  652.0000   106.9087    12.1306    12.0642
  652.1000   107.1859    12.0677    12.0642
  652.2000   107.7423    12.0679    12.0642
  652.3000   107.9677    12.0681    12.0642
  652.4000   108.2199    12.0683    12.0642
  652.5000   108.3510    12.0349    12.0600
  652.6000   108.2829    11.9656    11.9804
  652.7000   108.0331    11.9016    11.9804
  652.8000   107.7496    11.9018    11.9804
  652.9000   107.0996    11.9020    11.9804
  653.0000   106.5133    11.9021    11.9643
  653.1000   106.1264    11.9023    11.8972
  653.2000   105.9389    11.9025    11.8972
  653.3000   105.9505    11.9026    11.8972
  653.4000   106.2441    11.9028    11.8972
  653.5000   106.4549    11.9030    11.8972
  653.6000   106.5489    11.9031    11.8972
  653.7000   106.6566    11.9033    11.8972
  653.8000   106.9087    11.9035    11.8972
  653.9000   107.1639    11.9036    11.8972
  654.0000   107.7642    11.9038    11.8575
  654.1000   108.7777    11.9040    11.8145
  654.2000   110.0336    11.9041    11.8032
  654.3000   110.7934    11.9043    11.7324
  654.4000   110.7946    11.9045    11.7324
  654.5000   110.7958    11.9046    11.7324
  654.6000   110.5501    11.9048    11.7324
  654.7000   110.4956    11.9050    11.7324
  654.8000   110.2097    11.9051    11.7324
  654.9000   109.6169    11.9053    11.7324
  655.0000   108.8651    11.9055    11.7324
  655.1000   108.0799    11.9056    11.7324
