~VERSION INFORMATION
 VERS.                2.0:   CWLS LOG ASCII STANDARD - VERSION 2.0
 WRAP.                 NO:   ONE LINE PER DEPTH STEP
~WELL INFORMATION
#MNEM.UNIT      DATA TYPE    INFORMATION
#----------   ------------   ------------------------------
 STRT.F            0.0000:   START DEPTH
 STOP.F          400.0000:   STOP DEPTH
 STEP.F            0.5000:   STEP LENGTH
 NULL.          -999.2500:   NO VALUE
 COMP. DEPARTMENT OF ENERGY:   COMPANY
 WELL. NPR 3 #55-56 SX 3 C5:   WELL
 FLD .        TEAPOT EAST:   FIELD
 LOC .       S3 T38N R78W:   LOCATION
 CNTY.            NATRONA:   COUNTY
 STAT.            WYOMING:   STATE
 CTRY. UNITED STATES OF AMERICA:   COUNTRY
 SRVC.      Dresser Atlas:   SERVICE COMPANY
 DATE.        03-JUL-1985:   LOGDATE
 API .       490251134300:   API NUMBER
~CURVE INFORMATION
#MNEM.UNIT       API CODE    CURVE DESCRIPTION
#----------   ------------   ------------------------------
 DEPT.F                  :   
 GRR .GAPI   07 310 01 00:   GAMMA RAY
 RILD.OHMM   07 120 46 00:   INDUCTION LOG DEEP RESISTIVITY
 RILM.OHMM   07 120 44 00:   INDUCTION LOG DEEP RESISTIVITY
 CALD.IN     45 280 60 00:   CALIPER FROM DENSITY LOG
 CORR.G/C3   45 356 01 00:   DENSITY CORRECTION
 DEN .G/C3   45 350 01 00:   COMPENSATED BULK DENSTIY
 NPOR.DEC    42 890 03 00:   NEUTRON POROSITY SANDSTONE
 PORD.DEC    45 890 12 00:   POROSITY DENSITY SANDSTONE
~PARAMETER INFORMATION
#MNEM.UNIT          VALUE    DESCRIPTION
#----------   ------------   ------------------------------
 PD  .                 GL:   PERMANENT DATUM
 EPD .F              5168:   ELEVATION PERMANENT DATUM
 LMF .                 GL:   LOG MEASURED FROM
 DMF .                 GL:   DRILLING MEASURED FROM
 EGL .F              5168:   GROUND LEVEL
 DATE.        03-JUL-1985:   RUN DATE
 RUN .                  1:   RUN NUMBER
 DD  .F               402:   DEPTH DRILLER
 DL  .F               402:   DEPTH LOGGER
 BLI .F               394:   BOTTOM LOG INTERVAL
 CS  .IN                7:   CASING SIZE
 CBD .F                80:   CASING BOTTOM DRILLER
 CBL .F                84:   CASING BOTTOM LOGGER
 BS  .IN            4.875:   BIT SIZE
 BSD .F               402:   BIT SIZE AT DEPTH
 DFT .                OIL:   DRILLING FLUID TYPE
 TCS .HRS               3:   TIME CURCULATED STOPPED
 MRT .F               148:   MAXIMUM RECORDED TEMPERATURE
 LUN .               6274:   LOGGING UNIT NUMBER
 LUL .               GLTE:   LOGGING UNIT LOCATION
 ENGI.             RAUTIO:   RECORDING ENGINEER
 WITN.             GROOMS:   WITNESSED BY
 CLNT.            A2DTECH:   CLIENT CODE
 ORIG.           5" PRINT:   ORIGIN OF DATA
 UWI .       490251134300:   UNIQUE WELL ID
 DICO. A2D Technologies, Inc.:   DIGITIZING COMPANY
~OTHER INFORMATION
~A    DEPT      GRR      RILD       RILM       CALD       CORR        DEN       NPOR       PORD   
# ...
   81.0000    76.8960  -999.2500  -999.2500  -999.2500  -999.2500  -999.2500  -999.2500  -999.2500
   81.5000    73.2558  -999.2500  -999.2500  -999.2500  -999.2500  -999.2500  -999.2500  -999.2500
   82.0000    71.4313  -999.2500  -999.2500  -999.2500  -999.2500  -999.2500  -999.2500  -999.2500
   82.5000    71.1174  -999.2500  -999.2500  -999.2500  -999.2500  -999.2500  -999.2500  -999.2500
   83.0000    74.7309  -999.2500  -999.2500  -999.2500  -999.2500  -999.2500  -999.2500  -999.2500
   83.5000    81.7401  -999.2500  -999.2500  -999.2500  -999.2500  -999.2500  -999.2500  -999.2500
   84.0000    93.1239     5.0307  9755.4551     6.5405    -0.9462  -999.2500     0.4717     0.6022
   84.5000   109.4357    16.0193  9753.5361     6.5410    -0.6363     2.0004     0.3441     0.5219
   85.0000   112.4480    42.5935    41.7364     6.5413    -0.2811     2.0019     0.2970     0.3534
   85.5000   110.3184    13.3762     4.8886     6.5417    -0.0074     2.1475     0.2641     0.2321
   86.0000   108.4939    14.9460     4.4115     6.5421     0.0481     2.4485     0.2505     0.1158
   86.5000   107.8779  9790.1426     5.8249     6.5424     0.0467     2.4590     0.2466     0.1131
   87.0000   109.6788  9858.2783     7.3268     6.5428     0.0378     2.4259     0.2451     0.1279
   87.5000   110.8783  9858.2783     8.3028     6.5281     0.0244     2.4116     0.2463     0.1433
   88.0000   110.2593  9858.2783    10.0166     6.5286    -0.0010     2.4056     0.2481     0.1491
   88.5000   110.2475    24.9698    19.3936     6.5139    -0.0100     2.4018     0.2493     0.1512
   89.0000   111.4442    11.5632    21.6732     6.5143     0.0006     2.4070     0.2502     0.1518
   89.5000   111.7345    11.8063    19.2092     6.5147    -0.0038     2.4190     0.2460     0.1424
   90.0000   110.8133    12.3080    15.3372     6.5150    -0.0187     2.4242     0.2429     0.1379
   90.5000   110.5024    12.1384    13.4973     6.5304    -0.0293     2.4204     0.2411     0.1391
   91.0000   112.9045    10.7884    14.4672     6.5158    -0.0291     2.4165     0.2405     0.1421
   91.5000   114.4033     9.7180    13.3992     6.5312    -0.0245     2.4128     0.2445     0.1445
   92.0000   114.9986     9.1977    10.5752     6.5316    -0.0109     2.4105     0.2499     0.1460
   92.5000   112.5669     9.8583     9.7945     6.5319     0.0236     2.4165     0.2520     0.1424
   93.0000   110.4403     9.5885     9.3925     6.5323     0.0522     2.4257     0.2529     0.1367
   93.5000   108.3137     9.1977     9.0672     6.5327     0.0552     2.4352     0.2523     0.1318
   94.0000   106.7913     8.9461     8.8092     6.5330     0.0418     2.4411     0.2487     0.1285
   94.5000   105.8731     8.7619     9.0036     6.5334    -0.0046     2.4441     0.2453     0.1261
   95.0000   105.8610     9.2617     9.5837     6.5187     0.0000     2.4426     0.2413     0.1255
   95.5000   107.0580     9.8583    10.0602     6.5342     0.0331     2.4230     0.2378     0.1325
   96.0000   107.0432    10.0655    10.0585     6.5346     0.0361     2.4192     0.2360     0.1385
   96.5000   106.1250     9.9960     9.7809     6.5349     0.0287     2.4244     0.2351     0.1397
   97.0000   105.8111     9.7901     9.4449     6.5353     0.0323     2.4274     0.2378     0.1370
   97.5000   105.4972     9.7225     9.2429     6.5357     0.0544     2.4229     0.2423     0.1358
   98.0000   105.7875     9.7225     8.9929     6.5360     0.0694     2.4198     0.2463     0.1376
   98.5000   107.5883     9.7225     8.8668     6.5365     0.0725     2.4213     0.2505     0.1397
   99.0000   109.9934     9.5885     8.8654     6.5368     0.0636     2.4212     0.2532     0.1394
   99.5000   110.5861     9.4565     8.8639     6.5221     0.0427     2.4197     0.2553     0.1391
  100.0000   109.9698     9.1977     8.9869     6.5226     0.0157     2.4182     0.2556     0.1400
  100.5000   109.3263     9.0637     9.1109     6.5229     0.0398     2.4159     0.2535     0.1412
  101.0000   109.3419     8.9461     9.1094     6.5233     0.0504     2.4151     0.2517     0.1424
  101.5000   109.9343     9.0083     9.0421     6.5236     0.0265     2.4151     0.2520     0.1430
  102.0000   109.9196     9.0710     8.9078     6.5240    -0.0093     2.4180     0.2535     0.1421
  102.5000   111.7204     9.0710     8.7931     6.5233    -0.0138     2.4187     0.2547     0.1412
  103.0000   113.8234     9.0710     8.6702     6.5225     0.0130     2.4195     0.2544     0.1406
  103.5000   114.7209     9.0083     8.4897     6.5225     0.0534     2.4194     0.2538     0.1403
  104.0000   110.4765     9.0083     8.3710     6.5225     0.0907     2.4179     0.2538     0.1400
  104.5000   109.5861     8.9461     8.2539     6.5375     0.1041     2.4163     0.2541     0.1400
  105.0000   109.5754     8.9461     8.1385     6.5375     0.0771     2.4178     0.2547     0.1403
  105.5000   109.5666     8.8842     8.0784     6.5375     0.0400     2.4170     0.2559     0.1412
  106.0000   109.2556     8.8228     8.0233     6.5375     0.0210     2.4146     0.2577     0.1424
  106.5000   109.2467     8.7619     8.0217     6.5225     0.0030     2.4132     0.2593     0.1433
  107.0000   110.1442     8.7619     8.0203     6.5225     0.0210     2.4154     0.2602     0.1421
  107.5000   111.0439     8.7619     8.0190     6.5225     0.0374     2.4123     0.2608     0.1418
  108.0000   111.6375     8.7619     8.0176     6.5225     0.0479     2.4093     0.2602     0.1445
  108.5000   110.7219     8.8228     8.0163     6.5225     0.0329     2.4183     0.2556     0.1461
  109.0000   110.4109     8.8228     8.0149     6.5225     0.0150     2.4250     0.2523     0.1422
  109.5000   112.2147     8.7619     8.0695     6.5375     0.0030     2.4280     0.2499     0.1364
  110.0000   113.4121     8.7013     8.0681     6.5375     0.0197     2.4249     0.2505     0.1346
  110.5000   113.4033     8.5221     8.0664     6.5526     0.0319     2.4136     0.2532     0.1361
  111.0000   113.3944     8.3466     8.0651     6.5526     0.0389     2.4016     0.2553     0.1421
  111.5000   113.3856     8.1748     7.9523     6.5526     0.0299     2.3977     0.2535     0.1509
  112.0000   113.9809     8.0064     7.6259     6.5526     0.0210     2.3925     0.2517     0.1581
  112.5000   117.2953     7.8962     7.2686     6.5526     0.0090     2.3895     0.2511     0.1592
  113.0000   120.0055     7.7318     7.1669     6.5526     0.0045     2.3985     0.2518     0.1535
  113.5000   121.8093     7.5743     7.0672     6.5375     0.0150     2.4082     0.2571     0.1474
  114.0000   119.9878     7.4700     7.0660     6.5526     0.0210     2.4135     0.2644     0.1444
  114.5000   114.8066     7.3671     7.0651     6.5526     0.0120     2.4012     0.2722     0.1522
  115.0000   111.4300     7.3162     7.0641     6.5375     0.0030     2.3887     0.2734     0.1589
  115.5000   109.0829     7.2398     7.1127     6.5375    -0.0045     2.3842     0.2752     0.1625
  116.0000   108.4698     7.3016     7.1614     6.5375    -0.0210     2.3819     0.2661     0.1637
  116.5000   107.8567     7.4016     7.1601     6.5375    -0.0284     2.3856     0.2619     0.1624
  117.0000   111.4732     7.5034     7.2094     6.5375    -0.0180     2.3946     0.2616     0.1546
  117.5000   115.0897     7.5531     7.2587     6.5375     0.0015     2.4021     0.2652     0.1509
  118.0000   118.7063     7.5510     7.2575     6.5375     0.0030     2.4038     0.2670     0.1497
  118.5000   120.5123     7.6020     7.2565     6.5375    -0.0060     2.3984     0.2676     0.1527
  119.0000   118.3864     7.5994     7.3572     6.5375    -0.0060     2.3953     0.2666     0.1545
  119.5000   116.8670     7.5449     7.4592     6.5375     0.0031     2.3930     0.2657     0.1551
  120.0000   118.1067     7.5428     7.5625     6.5375     0.0090     2.3923     0.2648     0.1554
  120.5000   120.4747     7.5933     7.6674     6.5375     0.0090     2.3938     0.2645     0.1551
  121.0000   116.8382     7.5971     7.7737     6.5375     0.0105     2.3953     0.2639     0.1551
