~VERSION INFORMATION
 VERS.                2.0:   CWLS LOG ASCII STANDARD - VERSION 2.0
 WRAP.                 NO:   ONE LINE PER DEPTH STEP
~WELL INFORMATION
#MNEM.UNIT      DATA TYPE    INFORMATION
#----------   ------------   ------------------------------
 STRT.F         1000.5000:   START DEPTH
 STOP.F         2590.0000:   STOP DEPTH
 STEP.F            0.5000:   STEP LENGTH
 NULL.          -999.2500:   NO VALUE
 COMP. LAWRENCE/ALLISON INC:   COMPANY
 WELL.    LAWENCE #14x-10:   WELL
 FLD .               NONE:   FIELD
 LOC .      S10 T38N R78W:   LOCATION
 CNTY.            NATRONA:   COUNTY
 STAT.            WYOMING:   STATE
 CTRY. UNITED STATES OF AMERICA:   COUNTRY
 SRVC.            Unknown:   SERVICE COMPANY
 DATE.        13-SEP-1988:   LOGDATE
 API .       490251137000:   API NUMBER
~CURVE INFORMATION
#MNEM.UNIT       API CODE    CURVE DESCRIPTION
#----------   ------------   ------------------------------
 DEPT.F                  :   
 ROP .MIN/FT 91 810 01 00:   RATE OF DRILLING PENETRATION
 TGAS.UNITS  91 830 01 00:   TOTAL GAS FROM HOTWIRE
~PARAMETER INFORMATION
#MNEM.UNIT          VALUE    DESCRIPTION
#----------   ------------   ------------------------------
 EKB .F              5278:   KELLING BUSHING
 EGL .F              5268:   GROUND LEVEL
 DATE.         09-13-1988:   RUN DATE
 RUN .                  1:   RUN NUMBER
 DD  .F              2590:   DEPTH DRILLER
 BLI .F              2590:   BOTTOM LOG INTERVAL
 TLI .F              1000:   TOP LOG INTERVAL
 CS  .IN                7:   CASING SIZE
 CBD .F               991:   CASING BOTTOM DRILLER
 BSD .F              2590:   BIT SIZE AT DEPTH
 ENGI. R. HUSK D. PETERSON:   RECORDING ENGINEER
 CLNT.            A2DTECH:   CLIENT CODE
 ORIG.           5" PRINT:   ORIGIN OF DATA
 UWI .       490251137000:   UNIQUE WELL ID
 DICO. A2D Technologies, Inc.:   DIGITIZING COMPANY
~OTHER INFORMATION
~A  DEPT       ROP         TGAS 
# ...
 1851.0000     0.4947     5.1247
 1851.5000     0.5263     5.1459
 1852.0000     0.5789     5.1671
 1852.5000     0.5053     5.1882
 1853.0000     0.4632     5.2094
 1853.5000     0.4421     5.2306
 1854.0000     0.4211     5.2518
 1854.5000     0.4316     5.2729
 1855.0000     0.4421     5.2941
 1855.5000     0.4421     5.3153
 1856.0000     0.4421     5.3365
 1856.5000     0.4421     5.3576
 1857.0000     0.4211     5.3788
 1857.5000     0.4105     5.4000
 1858.0000     0.3789     5.4212
 1858.5000     0.3158     5.4424
 1859.0000     0.3053     5.4635
 1859.5000     0.3053     5.4847
 1860.0000     0.3158     5.5059
 1860.5000     0.3158     5.5270
 1861.0000     0.3158     5.5481
 1861.5000     0.3263     5.5691
 1862.0000     0.3263     5.5902
 1862.5000     0.3579     5.6113
 1863.0000     0.4000     5.6324
 1863.5000     0.4211     5.6535
 1864.0000     0.4211     5.6746
 1864.5000     0.4211     5.6957
 1865.0000     0.4000     5.7168
 1865.5000     0.3579     5.7379
 1866.0000     0.3053     5.7590
 1866.5000     0.2947     5.7801
 1867.0000     0.2842     5.8011
 1867.5000     0.2526     5.8222
 1868.0000     0.2000     5.8433
 1868.5000     0.1789     5.8644
 1869.0000     0.1684     5.8855
 1869.5000     0.1684     5.9066
 1870.0000     0.1895     5.9277
 1870.5000     0.2105     5.9488
 1871.0000     0.2000     5.9699
 1871.5000     0.1684     5.9910
 1872.0000     0.1684     6.0121
 1872.5000     0.1579     6.0332
 1873.0000     0.1474     6.0542
 1873.5000     0.1368     6.0753
 1874.0000     0.1474     6.0964
 1874.5000     0.1579     6.1175
 1875.0000     0.1789     6.1386
 1875.5000     0.2105     6.1597
 1876.0000     0.2842     6.1808
 1876.5000     0.2526     6.2019
 1877.0000     0.1789     6.2230
 1877.5000     0.1789     6.2441
 1878.0000     0.1895     6.2652
 1878.5000     0.1895     6.2862
 1879.0000     0.1895     6.3073
 1879.5000     0.2000     6.3284
 1880.0000     0.2000     6.3327
 1880.5000     0.2000     6.3014
 1881.0000     0.1895     6.2700
 1881.5000     0.1895     6.2387
 1882.0000     0.2000     6.2073
 1882.5000     0.2000     6.1760
 1883.0000     0.2000     6.1446
 1883.5000     0.1895     6.1133
 1884.0000     0.2000     6.0820
 1884.5000     0.2000     6.0506
 1885.0000     0.2316     6.0193
 1885.5000     0.2737     5.9879
 1886.0000     0.3263     5.9566
 1886.5000     0.3474     5.9252
 1887.0000     0.4316     5.8939
 1887.5000     0.4947     5.8626
 1888.0000     0.5368     5.8312
 1888.5000     0.4842     5.7999
 1889.0000     0.4105     5.7685
 1889.5000     0.4105     5.7372
 1890.0000     0.4105     5.7058
 1890.5000     0.4105     5.6745
 1891.0000     0.4105     5.6431
 1891.5000     0.4105     5.6118
 1892.0000     0.4211     5.5805
 1892.5000     0.4526     5.5491
 1893.0000     0.4842     5.5178
 1893.5000     0.4947     5.4864
 1894.0000     0.4526     5.4551
 1894.5000     0.4173     5.4237
 1895.0000     0.4000     5.3924
 1895.5000     0.3684     5.3610
 1896.0000     0.3368     5.3297
 1896.5000     0.3263     5.2984
 1897.0000     0.3263     5.2670
 1897.5000     0.3263     5.2357
 1898.0000     0.3263     5.2043
 1898.5000     0.3368     5.1730
 1899.0000     0.3368     5.1416
 1899.5000     0.3684     5.1103
 1900.0000     0.4105     5.0815
 1900.5000     0.4047     5.1321
 1901.0000     0.4078     5.1788
 1901.5000     0.4108     5.2256
 1902.0000     0.4138     5.2724
 1902.5000     0.4168     5.3192
 1903.0000     0.4199     5.3659
 1903.5000     0.4229     5.4127
 1904.0000     0.4259     5.4595
 1904.5000     0.4289     5.5063
 1905.0000     0.4320     5.5530
 1905.5000     0.4350     5.5998
 1906.0000     0.4308     5.6466
 1906.5000     0.4263     5.6934
 1907.0000     0.4206     5.7401
 1907.5000     0.4162     5.7869
 1908.0000     0.4103     5.8337
 1908.5000     0.3874     5.8805
 1909.0000     0.3684     5.9272
 1909.5000     0.3449     5.9740
 1910.0000     0.3330     6.0208
 1910.5000     0.3266     6.0676
 1911.0000     0.3093     6.1143
 1911.5000     0.2951     6.1611
 1912.0000     0.2847     6.2079
 1912.5000     0.2814     6.2547
 1913.0000     0.2817     6.3014
 1913.5000     0.2967     6.3482
 1914.0000     0.3184     6.3950
 1914.5000     0.3704     6.4418
 1915.0000     0.4424     6.4885
 1915.5000     0.4940     6.5353
 1916.0000     0.4974     6.5821
 1916.5000     0.4708     6.6289
 1917.0000     0.4227     6.6756
 1917.5000     0.3779     6.7239
 1918.0000     0.3355     6.3109
 1918.5000     0.2847     6.3214
 1919.0000     0.2532     6.3319
 1919.5000     0.2429     6.3424
 1920.0000     0.2404     6.3529
 1920.5000     0.2374     6.2557
 1921.0000     0.2343     6.1584
 1921.5000     0.2313     6.0612
 1922.0000     0.2282     5.9639
 1922.5000     0.2252     5.8666
 1923.0000     0.2222     5.7694
 1923.5000     0.2191     5.6721
 1924.0000     0.2155     5.5867
 1924.5000     0.2676     5.5709
 1925.0000     0.3197     5.5551
 1925.5000     0.3506     5.5393
 1926.0000     0.3498     5.5234
 1926.5000     0.3279     5.5076
 1927.0000     0.3271     5.4918
 1927.5000     0.3264     5.4759
 1928.0000     0.3256     5.4601
 1928.5000     0.3248     5.4443
 1929.0000     0.3240     5.4284
 1929.5000     0.3232     5.4126
 1930.0000     0.3251     5.3968
 1930.5000     0.3429     5.3810
 1931.0000     0.3420     5.3651
 1931.5000     0.3412     5.3493
 1932.0000     0.3429     5.3335
 1932.5000     0.3502     5.3176
 1933.0000     0.3494     5.3018
 1933.5000     0.3485     5.2860
 1934.0000     0.3441     5.2702
 1934.5000     0.3325     5.2543
 1935.0000     0.3334     5.2385
 1935.5000     0.3498     5.2227
 1936.0000     0.3742     5.2068
 1936.5000     0.4118     5.1910
 1937.0000     0.4489     5.1752
 1937.5000     0.4747     5.1594
 1938.0000     0.4848     5.1435
 1938.5000     0.4725     5.1277
 1939.0000     0.4434     5.1119
 1939.5000     0.4143     5.0960
 1940.0000     0.3805     5.0815
 1940.5000     0.3700     5.0815
 1941.0000     0.3700     5.0816
 1941.5000     0.3911     5.0816
 1942.0000     0.4334     5.0816
 1942.5000     0.4757     5.0817
 1943.0000     0.5074     5.0817
 1943.5000     0.5180     5.0817
 1944.0000     0.5184     5.0817
 1944.5000     0.5391     5.0818
 1945.0000     0.5391     5.0818
 1945.5000     0.5364     5.0818
 1946.0000     0.5028     5.0819
 1946.5000     0.4554     5.0819
 1947.0000     0.3830     5.0819
 1947.5000     0.3364     5.0820
 1948.0000     0.3277     5.0820
 1948.5000     0.3454     5.0820
 1949.0000     0.3778     5.0820
 1949.5000     0.4074     5.0821
 1950.0000     0.4259     5.0821
 1950.5000     0.4268     5.0821
 1951.0000     0.3945     5.0822
 1951.5000     0.3442     5.0822
 1952.0000     0.3090     5.0822
 1952.5000     0.2960     5.0823
 1953.0000     0.3005     5.0823
 1953.5000     0.3209     5.0823
 1954.0000     0.3583     5.0849
 1954.5000     0.4016     5.1197
 1955.0000     0.4448     5.1546
 1955.5000     0.4881     5.1894
 1956.0000     0.5074     5.2243
 1956.5000     0.4887     5.2591
 1957.0000     0.4692     5.2940
 1957.5000     0.4450     5.3288
 1958.0000     0.4264     5.3637
 1958.5000     0.4012     5.3985
 1959.0000     0.3836     5.4334
 1959.5000     0.3652     5.4682
 1960.0000     0.3514     5.5059
 1960.5000     0.3473     5.5156
 1961.0000     0.3452     5.5262
 1961.5000     0.3432     5.5369
 1962.0000     0.3411     5.5475
 1962.5000     0.3391     5.5581
 1963.0000     0.3383     5.5687
 1963.5000     0.3383     5.5793
 1964.0000     0.3455     5.5899
 1964.5000     0.3712     5.6005
 1965.0000     0.4113     5.6111
 1965.5000     0.4466     5.6217
 1966.0000     0.4873     5.6323
 1966.5000     0.5074     5.6430
 1967.0000     0.4545     5.6536
 1967.5000     0.3911     5.6642
 1968.0000     0.3594     5.6748
 1968.5000     0.3488     5.6854
 1969.0000     0.3383     5.6960
 1969.5000     0.3383     5.7066
 1970.0000     0.3383     5.7172
 1970.5000     0.3383     5.7278
 1971.0000     0.3383     5.7384
 1971.5000     0.3386     5.7490
 1972.0000     0.3504     5.7597
