~VERSION INFORMATION
 VERS.                2.0:   CWLS LOG ASCII STANDARD - VERSION 2.0
 WRAP.                 NO:   ONE LINE PER DEPTH STEP
~WELL INFORMATION
#MNEM.UNIT      DATA TYPE    INFORMATION
#----------   ------------   ------------------------------
 STRT.F           30.0000:   START DEPTH
 STOP.F          468.0000:   STOP DEPTH
 STEP.F            0.1000:   STEP LENGTH
 NULL.          -999.2500:   NO VALUE
 COMP. LAWRENCE/ALLISON INC:   COMPANY
 WELL.    72-12 SX #10-10:   WELL
 FLD .             TEAPOT:   FIELD
 LOC .      S10 T38N R78W:   LOCATION
 CNTY.            NATRONA:   COUNTY
 STAT.            WYOMING:   STATE
 CTRY. UNITED STATES OF AMERICA:   COUNTRY
 SRVC.           Gearhart:   SERVICE COMPANY
 DATE.        17-MAY-1988:   LOGDATE
 API .       490251122400:   API NUMBER
~CURVE INFORMATION
#MNEM.UNIT       API CODE    CURVE DESCRIPTION
#----------   ------------   ------------------------------
 DEPT.F                  :   
 GRR .GAPI   07 310 01 00:   GAMMA RAY
 RILD.OHMM   07 120 46 00:   INDUCTION LOG DEEP RESISTIVITY
 RILM.OHMM   07 120 44 00:   INDUCTION LOG MEDIUM RESISTIVITY
~PARAMETER INFORMATION
#MNEM.UNIT          VALUE    DESCRIPTION
#----------   ------------   ------------------------------
 PD  .                 GL:   PERMANENT DATUM
 EPD .F              5166:   ELEVATION PERMANENT DATUM
 LMF .                 KB:   LOG MEASURED FROM
 DAPD.F              10.2:   FEET ABOVE PERMANENT DATUM
 DMF .                 KB:   DRILLING MEASURED FROM
 EKB .F            5176.2:   KELLING BUSHING
 EGL .F              5166:   GROUND LEVEL
 DATE.        17-MAY-1988:   RUN DATE
 RUN .                  1:   RUN NUMBER
 DD  .F               480:   DEPTH DRILLER
 DL  .F               476:   DEPTH LOGGER
 BLI .F               468:   BOTTOM LOG INTERVAL
 TLI .F                47:   TOP LOG INTERVAL
 CS  .IN            9.625:   CASING SIZE
 CBD .F                43:   CASING BOTTOM DRILLER
 CBL .F                47:   CASING BOTTOM LOGGER
 BS  .IN             8.75:   BIT SIZE
 BSD .F               480:   BIT SIZE AT DEPTH
 DFT .                AIR:   DRILLING FLUID TYPE
 TCS .HRS            0630:   TIME CURCULATED STOPPED
 TLAB.HRS            0930:   TIME LOGGER AT BOTTOM
 LUN .               7597:   LOGGING UNIT NUMBER
 LUL .           GILLETTE:   LOGGING UNIT LOCATION
 ENGI.             SLATKY:   RECORDING ENGINEER
 WITN.             STRONG:   WITNESSED BY
 CLNT.            A2DTECH:   CLIENT CODE
 ORIG.           5" PRINT:   ORIGIN OF DATA
 UWI .       490251122400:   UNIQUE WELL ID
 DICO. A2D Technologies, Inc.:   DIGITIZING COMPANY
~OTHER INFORMATION
~A   DEPT      GRR       RILD       RILM   
# ...
  394.0000    73.8586    14.0266    13.8656
  394.1000    74.0636    14.0266    13.8657
  394.2000    74.0669    14.0266    13.8096
  394.3000    73.8475    13.9561    13.7699
  394.4000    73.6081    13.9293    13.7701
  394.5000    73.3687    13.8968    13.7703
  394.6000    73.1293    13.8328    13.7705
  394.7000    72.8699    13.8328    13.7119
  394.8000    72.6505    13.7604    13.6754
  394.9000    72.4111    13.7369    13.6540
  395.0000    72.1717    13.7369    13.5809
  395.1000    71.8920    13.7204    13.5811
  395.2000    71.3699    13.6416    13.5812
  395.3000    70.9283    13.6416    13.5814
  395.4000    70.6081    13.6416    13.5574
  395.5000    70.2677    13.6041    13.4876
  395.6000    69.8263    13.5280    13.4878
  395.7000    69.5669    13.4532    13.4248
  395.8000    69.5697    13.4532    13.3946
  395.9000    69.5727    13.3953    13.3681
  396.0000    69.5758    13.3599    13.3020
  396.1000    69.6596    13.3384    13.3022
  396.2000    70.1881    13.2673    13.2373
  396.3000    70.4131    13.2673    13.2103
  396.4000    70.6586    13.2074    13.2105
  396.5000    71.2070    13.1336    13.2106
  396.6000    72.1394    13.0602    13.2108
  396.7000    72.9306    12.9933    13.1436
  396.8000    73.6000    12.9933    13.1195
  396.9000    74.1686    12.9320    13.1197
  397.0000    74.6565    12.9032    13.1060
  397.1000    75.1444    12.8770    13.0291
  397.2000    75.6730    12.8050    13.0293
  397.3000    76.3424    12.7249    13.0294
  397.4000    76.9111    12.7249    12.9955
  397.5000    77.3989    12.6793    12.9394
  397.6000    77.9272    12.6367    12.9396
  397.7000    78.7184    12.6367    12.9398
  397.8000    79.1656    12.6367    12.9399
  397.9000    79.4919    12.6367    12.9401
  398.0000    79.8383    12.6367    12.9212
  398.1000    80.2858    12.6058    12.8507
  398.2000    80.5518    12.5491    12.8509
  398.3000    80.7768    12.5491    12.8511
  398.4000    81.0222    12.5491    12.8512
  398.5000    81.1667    12.5491    12.8297
  398.6000    81.1293    12.5491    12.7624
  398.7000    80.8699    12.5491    12.7627
  398.8000    80.8727    12.5491    12.7628
  398.9000    80.7141    12.5491    12.7630
  399.0000    80.5758    12.6023    12.7390
  399.1000    80.5788    12.6367    12.6748
  399.2000    80.5821    12.6367    12.6750
  399.3000    80.3626    12.6367    12.6751
  399.4000    80.1232    12.6367    12.6753
  399.5000    79.9848    12.6929    12.6755
  399.6000    79.9475    12.7643    12.6854
  399.7000    79.6881    12.8138    12.7644
  399.8000    79.4686    12.8187    12.7646
  399.9000    79.2293    12.9032    12.7648
  400.0000    79.8990    12.9032    12.8993
  400.1000    79.6200    12.9032    13.0773
  400.2000    79.0972    12.9032    13.1261
  400.3000    78.6580    12.9032    13.1265
  400.4000    78.3370    12.9032    13.1269
  400.5000    78.0980    12.9032    13.1272
  400.6000    77.8965    12.9032    13.1276
  400.7000    77.9003    12.9589    13.1280
  400.8000    77.9030    12.9933    13.1283
  400.9000    78.0640    12.9933    13.1287
  401.0000    78.2121    12.9933    13.1291
  401.1000    78.2151    12.9933    13.1736
  401.2000    78.2185    12.9933    13.2215
  401.3000    78.4382    12.9933    13.2219
  401.4000    78.8392    12.9933    13.2223
  401.5000    79.2313    12.9933    13.2226
  401.6000    79.4763    12.9933    13.2230
  401.7000    79.7488    12.9933    13.2233
  401.8000    80.1814    12.9933    13.2237
  401.9000    80.5145    12.9933    13.2241
  402.0000    80.7596    12.9933    13.2245
  402.1000    81.0365    12.9933    13.2248
  402.2000    81.5822    12.9933    13.2252
  402.3000    81.5848    12.9933    13.2256
  402.4000    81.5879    12.9933    13.2260
  402.5000    81.4091    12.9933    13.1621
  402.6000    80.9580    12.9933    13.1349
  402.7000    80.6883    12.9328    13.1353
  402.8000    80.4800    12.9032    13.1356
  402.9000    80.0910    12.9032    13.1360
  403.0000    79.6990    12.9032    13.1364
  403.1000    79.4322    12.9032    13.1367
  403.2000    78.8853    12.9032    13.1089
  403.3000    78.4701    12.9032    13.0463
  403.4000    78.1369    12.9032    13.0467
  403.5000    77.7241    12.9032    13.0470
  403.6000    77.0529    12.9032    13.0474
  403.7000    76.7792    12.9032    13.0192
  403.8000    76.1612    12.9032    12.9576
  403.9000    76.0216    12.8760    12.9580
  404.0000    76.5213    12.8138    12.9583
  404.1000    77.4685    12.8138    12.9118
  404.2000    78.3096    12.8138    12.8692
  404.3000    78.7218    12.7680    12.8695
  404.4000    79.2089    12.7249    12.8699
  404.5000    79.5303    12.7143    12.8702
  404.6000    79.5769    12.6367    12.8234
  404.7000    80.1429    12.6367    12.7817
  404.8000    80.3483    12.6367    12.7820
  404.9000    80.4515    12.6077    12.7824
  405.0000    80.4546    12.5491    12.7177
  405.1000    80.4576    12.5491    12.6944
  405.2000    80.4611    12.4848    12.6652
  405.3000    80.2628    12.4621    12.6070
  405.4000    79.8840    12.4324    12.6074
  405.5000    79.4030    12.3757    12.5430
  405.6000    78.8864    12.3757    12.5206
  405.7000    77.7490    12.3112    12.5210
  405.8000    77.3540    12.2899    12.5088
  405.9000    76.8729    12.2899    12.4348
  406.0000    76.3919    12.2763    12.4351
  406.1000    75.9267    12.2047    12.3882
  406.2000    75.6430    12.2047    12.3496
  406.3000    75.6455    12.1567    12.3370
  406.4000    75.5127    12.1201    12.2646
  406.5000    75.3485    12.1201    12.2008
  406.6000    75.3515    12.1201    12.1802
  406.7000    75.3551    12.0547    12.1805
  406.8000    75.3576    11.9876    12.1675
  406.9000    75.3606    11.9527    12.0967
  407.0000    75.3636    11.9527    12.0970
  407.1000    75.3783    11.9527    12.0502
  407.2000    75.6234    11.9527    11.9835
  407.3000    75.6758    11.9034    11.9307
  407.4000    75.6788    11.8698    11.9311
  407.5000    75.6818    11.8698    11.8679
  407.6000    75.6848    11.8696    11.8490
  407.7000    75.6879    11.8035    11.8493
  407.8000    75.6909    11.7875    11.8496
  407.9000    75.6939    11.7540    11.8500
  408.0000    75.6970    11.6885    11.7867
  408.1000    75.7000    11.6241    11.7684
  408.2000    75.7030    11.5942    11.7380
  408.3000    75.7061    11.5643    11.6730
  408.4000    75.7091    11.5344    11.6066
  408.5000    75.7121    11.5045    11.6070
  408.6000    75.7151    11.4746    11.5605
  408.7000    75.7182    11.4446    11.5271
  408.8000    75.7212    11.4147    11.5127
  408.9000    75.7242    11.3848    11.4478
  409.0000    75.6626    11.3549    11.4481
  409.1000    75.4272    11.3250    11.4017
  409.2000    75.4303    11.2951    11.3386
  409.3000    75.4333    11.2652    11.2907
  409.4000    75.5600    11.2353    11.2910
  409.5000    75.8051    11.1816    11.2292
  409.6000    76.0552    11.1194    11.2133
  409.7000    77.0261    11.0722    11.2136
  409.8000    78.1797    11.0722    11.1986
  409.9000    79.0281    11.0110    11.1365
  410.0000    79.3939    10.9497    11.0750
  410.1000    79.3970    10.8887    11.0137
  410.2000    79.1584    10.8281    10.9527
  410.3000    79.1000    10.7677    10.8921
  410.4000    79.1030    10.7078    10.8317
  410.5000    79.1061    10.6937    10.7718
  410.6000    79.1091    10.6628    10.7122
  410.7000    79.3517    10.6034    10.6529
  410.8000    79.4182    10.5428    10.6094
  410.9000    79.4212    10.4259    10.6080
  411.0000    79.4242    10.4002    10.4907
  411.1000    79.4273    10.3693    10.4190
  411.2000    79.6679    10.3281    10.3613
  411.3000    79.7364    10.3256    10.3040
  411.4000    79.9705    10.2682    10.2482
  411.5000    80.5122    10.2110    10.2485
  411.6000    81.2607    10.1854    10.2046
  411.7000    81.9702    10.1681    10.1481
  411.8000    82.8738    10.1148    10.0919
  411.9000    83.7315    10.1148    10.0378
  412.0000    84.4081    10.0690    10.0381
  412.1000    84.9122    10.0129    10.0383
