~VERSION INFORMATION
 VERS.                2.0:   CWLS LOG ASCII STANDARD - VERSION 2.0
 WRAP.                 NO:   ONE LINE PER DEPTH STEP
~WELL INFORMATION
#MNEM.UNIT      DATA TYPE    INFORMATION
#----------   ------------   ------------------------------
 STRT.F           28.0000:   START DEPTH
 STOP.F          693.0000:   STOP DEPTH
 STEP.F            0.5000:   STEP LENGTH
 NULL.          -999.2500:   NO VALUE
 COMP. FENIX & SCISSON INC:   COMPANY
 WELL.       NPR-3 #63-15:   WELL
 FLD .             TEAPOT:   FIELD
 LOC .      S15 T38N R78W:   LOCATION
 CNTY.            NATRONA:   COUNTY
 STAT.            WYOMING:   STATE
 CTRY. UNITED STATES OF AMERICA:   COUNTRY
 SRVC.            Unknown:   SERVICE COMPANY
 DATE.        10-JUN-1978:   LOGDATE
 API .       490251063800:   API NUMBER
~CURVE INFORMATION
#MNEM.UNIT       API CODE    CURVE DESCRIPTION
#----------   ------------   ------------------------------
 DEPT.F                  :   
 SPR .MV     05 010 01 00:   SPONTANEOUS POTENTIAL FROM RES.
 SN  .OHMM   05 040 16 00:   SHORT NORMAL 16"
 ILD .OHMM   05 120 46 00:   INDUCTION LOG DEEP
 CALD.IN     45 280 60 00:   CALIPER FROM DENSITY LOG
 GRD .GAPI   45 310 01 00:   GAMMA RAY FROM DENSITY LOG
 CORR.G/C3   45 356 01 00:   DENSITY CORRECTION
 DPHI.DEC    45 890 12 00:   DENSITY POROSITY SANDSTONE
 DEN .G/C3   45 350 01 00:   DENSITY
~PARAMETER INFORMATION
#MNEM.UNIT          VALUE    DESCRIPTION
#----------   ------------   ------------------------------
 PD  .                 GL:   PERMANENT DATUM
 EPD .F              5265:   ELEVATION PERMANENT DATUM
 LMF .                 KB:   LOG MEASURED FROM
 DAPD.F                 4:   FEET ABOVE PERMANENT DATUM
 DMF .                 KB:   DRILLING MEASURED FROM
 EKB .F              5269:   KELLING BUSHING
 EGL .F              5265:   GROUND LEVEL
 DATE.        10-JUN-1978:   RUN DATE
 RUN .                  1:   RUN NUMBER
 DD  .F               690:   DEPTH DRILLER
 DL  .F               697:   DEPTH LOGGER
 BLI .F               690:   BOTTOM LOG INTERVAL
 TLI .F                35:   TOP LOG INTERVAL
 CS  .IN            8.625:   CASING SIZE
 CBD .F                40:   CASING BOTTOM DRILLER
 CBL .F                35:   CASING BOTTOM LOGGER
 BS  .IN            7.875:   BIT SIZE
 BSD .F               690:   BIT SIZE AT DEPTH
 DFT .                KCL:   DRILLING FLUID TYPE
 DFD .                8.7:   DRILLING FLUID DENSITY
 DFV .                 34:   DRILLING FLUID VISCOSITY
 DFPH.                 10:   DRILLING FLUID PH
 DFL .               11.6:   DRILLING FLUID LOSS
 MSS .            MUD PIT:   MUD SAMPLE SOURCE
 RMS .OHMM            .32:   RESISTIVITY MUD SAMPLE
 MST .F                74:   MUD SAMPLE TEMPERATURE
 RMF .OHMM            .28:   RESISTIVITY MUD FILTRATE SAMPLE
 MFST.F                78:   MUD FILTRATE SAMPLE TEMPERATURE
 RMC .OHMM            .36:   RESISTIVITY MUD CAKE
 MCST.F                78:   MUD CAKE SAMPLE TEMPERATURE
 MFSS.               MEAS:   MUD FILTRATE SAMPLE SOURCE
 MCSS.               MEAS:   MUD CAKE SAMPLE SOURCE
 BHT .F                80:   BOTTOM HOLE TEMPERATURE
 TCS .HRS            0100:   TIME CURCULATED STOPPED
 MRT .F                80:   MAXIMUM RECORDED TEMPERATURE
 LUN .               2958:   LOGGING UNIT NUMBER
 LUL .               CASP:   LOGGING UNIT LOCATION
 ENGI.             MILLER:   RECORDING ENGINEER
 WITN.           MCGINLEY:   WITNESSED BY
 CLNT.            A2DTECH:   CLIENT CODE
 ORIG.           5" PRINT:   ORIGIN OF DATA
 UWI .       490251063800:   UNIQUE WELL ID
 DICO. A2D Technologies, Inc.:   DIGITIZING COMPANY
~OTHER INFORMATION
~A   DEPT      SPR         SN        ILD       CALD        GRD       CORR       DPHI        DEN   
# ...
  149.5000    -6.6015    10.2524    11.3286     7.7973    80.7328     0.0239     0.1164     2.4722
  150.0000    -7.7844     9.9134     9.6652     7.7992    82.7212     0.0146     0.1146     2.4776
  150.5000    -7.7276     9.1376     8.8381     7.8457    85.2413     0.0061     0.1149     2.4783
  151.0000    -7.6707     8.3618     7.9689     7.8769    87.9440     0.0078     0.1181     2.4776
  151.5000    -7.6139     7.5778     7.7544     7.8483    87.8104     0.0004     0.1326     2.4619
  152.0000    -7.5783     6.9296     7.1390     7.8047    88.7224     0.0051     0.1217     2.4567
  152.5000    -7.5650     6.5591     6.5724     7.8213    91.4651     0.0097     0.1223     2.4673
  153.0000    -7.7047     6.5175     6.5751     7.6879    93.3821     0.0068     0.1225     2.4718
  153.5000    -7.6881     6.5672     6.5778     7.6144    92.8046     0.0024     0.1183     2.4719
  154.0000    -7.8279     6.6164     6.5806     7.6157    94.1640     0.0071     0.1168     2.4757
  154.5000    -7.8112     6.7589     6.6296     7.6769    94.4746     0.0057     0.1150     2.4825
  155.0000    -7.7980     6.8095     6.6784     7.7681    92.2559     0.0059     0.1128     2.4841
  155.5000    -7.7847     6.8132     6.7743     7.8443    90.4809     0.0135     0.1194     2.4864
  156.0000    -7.9244     6.8170     6.8241     7.7558    91.2433     0.0166     0.1188     2.4752
  156.5000    -7.9078     6.8208     6.8269     7.7119    90.9609     0.0123     0.1185     2.4722
  157.0000    -7.8945     6.7774     6.8297     7.7135    90.5292     0.0109     0.1242     2.4708
  157.5000    -7.8812     6.7812     6.7854     7.7149    91.1423     0.0140     0.1271     2.4664
  158.0000    -8.0177     6.7380     6.7406     7.7162    93.2480     0.0142     0.1208     2.4657
  158.5000    -8.0044     6.6499     6.6513     7.7325    91.0214     0.0158     0.1166     2.4725
  159.0000    -7.9910     6.6067     6.5625     7.6877    90.7429     0.0159     0.1111     2.4839
  159.5000    -7.9775     6.5204     6.5198     7.6753    92.1063     0.0145     0.1101     2.4931
  160.0000    -7.9641     6.4343     6.4775     7.7069    91.0776     0.0055     0.1069     2.4990
  160.5000    -7.9479     6.4378     6.4354     7.7531    89.4519    -0.0002     0.1060     2.4983
  161.0000    -7.9346     6.3960     6.5279     7.7844    88.2739     0.0030     0.1017     2.5013
  161.5000    -7.9213     6.5346     6.6734     7.7857    89.7826     0.0106     0.0885     2.5074
  162.0000    -7.9081     6.7217     6.9716     7.7870    91.5897     0.0183     0.0698     2.5360
  162.5000    -8.0478     6.8665     7.3025     7.7883    88.7700     0.0229     0.0644     2.5533
  163.0000    -8.0312     7.0143     7.4073     7.7897    81.4727     0.0170     0.0764     2.5571
  163.5000    -8.0179     7.1654     7.3585     7.7910    71.1902     0.0037     0.0887     2.5549
  164.0000    -8.0046     7.9534     7.3107     7.7923    71.5049    -0.0022     0.1004     2.5220
  164.5000    -7.9913     8.1811     7.2632     7.7637    79.8792     0.0114     0.1073     2.4972
  165.0000    -7.9780     8.1856     7.2669     7.7048    89.0301     0.0161     0.1133     2.4958
  165.5000    -7.9648     8.1336     7.2699     7.6316    94.0910     0.0162     0.1165     2.4808
  166.0000    -7.9515     7.5487     7.3234     7.6180    92.6180     0.0043     0.1162     2.4749
  166.5000    -7.9382     7.1889     7.3264     7.6642    88.6043    -0.0045     0.1189     2.4742
  167.0000    -7.9249     7.1938     7.3803     7.6961    88.3178    -0.0059     0.1234     2.4705
  167.5000    -8.0614     7.1977     7.3323     7.7283    86.9947    -0.0043     0.1240     2.4676
  168.0000    -8.0479     7.2516     7.3354     7.7754    87.4585    -0.0026     0.1221     2.4684
  168.5000    -8.0344     7.3567     7.3389     7.8345    87.7691     0.0021     0.1206     2.4707
  169.0000    -8.0210     7.6199     7.3962     7.7910    86.5912     0.0081     0.1194     2.4738
  169.5000    -8.0049     7.7303     7.4987     7.7470    86.6113     0.0098     0.1178     2.4768
  170.0000    -7.9916     7.7345     7.5545     7.8086    86.4781     0.0054     0.1226     2.4784
  170.5000    -7.9783     7.7387     7.6102     7.8245    83.3599    -0.0004     0.1211     2.4702
  171.0000    -7.9650     7.6885     7.6133     7.7663    83.8438    -0.0003     0.1181     2.4710
  171.5000    -7.9517     7.6407     7.4598     7.7524    88.0135     0.0028     0.1123     2.4733
  172.0000    -7.9384     7.2834     7.1591     7.7241    91.3227     0.0135     0.1093     2.4811
  172.5000    -7.9252     7.2873     7.1620     7.6951    89.2492     0.0181     0.1117     2.4922
  173.0000    -7.9119     7.2913     7.1650     7.6815    89.5638     0.0182     0.1132     2.4878
  173.5000    -7.8986     7.2953     7.1177     7.7281    91.3710     0.0169     0.1122     2.4871
  174.0000    -7.8853     7.2490     7.1213     7.7144    93.0248     0.0185     0.1092     2.4894
  174.5000    -8.0250     7.1532     7.0744     7.6259    89.7614     0.0231     0.1047     2.4962
  175.0000    -8.0084     7.1078     7.0780     7.6123    83.6581     0.0308     0.0965     2.5060
  175.5000    -7.9951     7.0626     7.1301     7.6286    79.0473     0.0429     0.0920     2.5203
  176.0000    -7.9819     7.0674     7.2325     7.6149    79.0634     0.0476     0.1001     2.5241
  176.5000    -7.9686     7.2196     7.4916     7.6313    83.8556     0.0417     0.1094     2.5047
  177.0000    -7.9551     7.5821     7.5980     7.6479    87.6030     0.0206     0.1139     2.4852
  177.5000    -7.9416     7.5862     7.6012     7.6492    87.1617     0.0086     0.1163     2.4778
  178.0000    -7.9281     7.5904     7.6049     7.6505    87.2318     0.0016     0.1177     2.4748
  178.5000    -8.0651     7.5945     7.6080     7.6818    88.8494     0.0002     0.1177     2.4749
  179.0000    -8.0485     7.5987     7.6111     7.7729    89.6077     0.0019     0.1155     2.4758
  179.5000    -8.0352     7.6028     7.6143     7.8042    89.4746     0.0020     0.1144     2.4780
  180.0000    -8.0220     7.6070     7.6174     7.8355    90.6887     0.0021     0.1188     2.4751
  180.5000    -7.8590     7.5586     7.6735     7.9266    91.4511     0.0023     0.1170     2.4751
  181.0000    -7.8457     7.5628     7.6766     7.8231    90.5716     0.0024     0.1128     2.4797
  181.5000    -7.8324     7.5669     7.6797     7.7047    87.6027     0.0055     0.1143     2.4843
  182.0000    -7.8191     7.5710     7.6291     7.4516    87.1670     0.0117     0.1151     2.4843
  182.5000    -7.8058     7.5752     7.5795     7.1235    90.0229     0.0148     0.1139     2.4829
  183.0000    -7.7925     7.6320     7.6361     7.0051    87.6510     0.0149     0.1112     2.4829
  183.5000    -7.7793     7.6362     7.6923     7.0522    88.2721     0.0181     0.1127     2.4838
  184.0000    -7.7660     7.7469     7.6955     7.2509    89.0428     0.0227     0.1150     2.4816
  184.5000    -7.7527     7.7520     7.8060     7.4346    86.9570     0.0213     0.1162     2.4764
  185.0000    -7.7394     7.8101     7.8092     7.5646    86.5213     0.0260     0.1223     2.4787
  185.5000    -7.7260     7.8144     7.8125     7.6408    86.2389     0.0291     0.1285     2.4642
  186.0000    -7.5629     7.7637     7.8164     7.6721    87.7516     0.0292     0.1255     2.4615
  186.5000    -7.5494     7.7690     7.7648     7.6884    89.8572     0.0360     0.1104     2.4706
  187.0000    -7.5332     7.6664     7.7144     7.8544    88.9778     0.0701     0.1020     2.4894
  187.5000    -7.5200     7.6166     7.5596     8.0952    88.3928     0.0987     0.0518     2.5195
  188.0000    -7.5067     7.4652     7.4579     7.9319    91.9950     0.1229     0.0590     2.5811
  188.5000    -7.9458     7.5734     7.6713     7.8134    91.2649     0.1471     0.0728     2.5737
  189.0000    -8.0822     7.7365     7.8356     7.7695    89.1914     0.1202     0.0844     2.5437
  189.5000    -8.2186     7.8486     7.8932     7.7113    87.4165     0.0602     0.0919     2.5243
