~VERSION INFORMATION
 VERS.                2.0:   CWLS LOG ASCII STANDARD - VERSION 2.0
 WRAP.                 NO:   ONE LINE PER DEPTH STEP
~WELL INFORMATION
#MNEM.UNIT      DATA TYPE    INFORMATION
#----------   ------------   ------------------------------
 STRT.F           32.0000:   START DEPTH
 STOP.F          501.0000:   STOP DEPTH
 STEP.F            0.5000:   STEP LENGTH
 NULL.          -999.2500:   NO VALUE
 COMP. FENIX & SCISSON, INC., U.S. NAVY:   COMPANY
 WELL.     NPR-3 #82-S-10:   WELL
 FLD .             TEAPOT:   FIELD
 LOC .      S10 T38N R78W:   LOCATION
 CNTY.            NATRONA:   COUNTY
 STAT.            WYOMING:   STATE
 CTRY. UNITED STATES OF AMERICA:   COUNTRY
 SRVC.              Welex:   SERVICE COMPANY
 DATE.        10-MAY-1977:   LOGDATE
 API .       490251035300:   API NUMBER
~CURVE INFORMATION
#MNEM.UNIT       API CODE    CURVE DESCRIPTION
#----------   ------------   ------------------------------
 DEPT.F                  :   
 GURD.OHMM   07 220 05 00:   SHALLOW SHORT GUARD RESISTIVITY
 ILD .OHMM   07 120 46 00:   INDUCTION LOG DEEP
 ILM .OHMM   07 120 44 00:   INDUCTION LOG MEDIUM
 SPR .MV     07 010 01 00:   SPONTANEOUS POTENTIAL
 CALD.IN     45 280 60 00:   CALIPER FROM DENSITY LOG
 CORR.G/C3   45 356 01 00:   DENSITY CORRECTION
 DPHI.DEC    45 890 12 00:   DENSITY POROSITY SANDSTONE
 GRD .GAPI   45 310 01 00:   GAMMA RAY FROM DENSITY LOG
 RHOB.G/C3   45 350 01 00:   BULK DENSITY
~PARAMETER INFORMATION
#MNEM.UNIT          VALUE    DESCRIPTION
#----------   ------------   ------------------------------
 PD  .                 GL:   PERMANENT DATUM
 EPD .F              5134:   ELEVATION PERMANENT DATUM
 LMF .                 GL:   LOG MEASURED FROM
 DMF .                 GL:   DRILLING MEASURED FROM
 EGL .F              5134:   GROUND LEVEL
 DATE.        10-MAY-1977:   RUN DATE
 RUN .                  1:   RUN NUMBER
 DD  .F               505:   DEPTH DRILLER
 DL  .F               504:   DEPTH LOGGER
 BLI .F               502:   BOTTOM LOG INTERVAL
 TLI .F                30:   TOP LOG INTERVAL
 CS  .IN            8.625:   CASING SIZE
 CBD .F                40:   CASING BOTTOM DRILLER
 CBL .F                41:   CASING BOTTOM LOGGER
 BS  .IN            7.875:   BIT SIZE
 BSD .F               505:   BIT SIZE AT DEPTH
 DFT .            KCL MUD:   DRILLING FLUID TYPE
 DFD .                8.7:   DRILLING FLUID DENSITY
 DFV .                 29:   DRILLING FLUID VISCOSITY
 DFPH.                7.5:   DRILLING FLUID PH
 DFL .                6.6:   DRILLING FLUID LOSS
 MSS .           FLOWLINE:   MUD SAMPLE SOURCE
 RMS .OHMM           0.26:   RESISTIVITY MUD SAMPLE
 MST .F                72:   MUD SAMPLE TEMPERATURE
 RMF .OHMM           0.22:   RESISTIVITY MUD FILTRATE SAMPLE
 MFST.F                72:   MUD FILTRATE SAMPLE TEMPERATURE
 RMC .OHMM           0.42:   RESISTIVITY MUD CAKE
 MCST.F                72:   MUD CAKE SAMPLE TEMPERATURE
 MFSS.           FANN KIT:   MUD FILTRATE SAMPLE SOURCE
 MCSS.           FANN KIT:   MUD CAKE SAMPLE SOURCE
 RMB .OHMM           0.24:   RESISTIVITY MUD AT BHT
 BHT .F                78:   BOTTOM HOLE TEMPERATURE
 TCS .HRS               1:   TIME CURCULATED STOPPED
 MRT .F                78:   MAXIMUM RECORDED TEMPERATURE
 LUN .               8611:   LOGGING UNIT NUMBER
 LUL .             CASPER:   LOGGING UNIT LOCATION
 ENGI.            C. DOAK:   RECORDING ENGINEER
 WITN.         D. RHOADES:   WITNESSED BY
 CLNT.            A2DTECH:   CLIENT CODE
 ORIG.           5" PRINT:   ORIGIN OF DATA
 UWI .       490251035300:   UNIQUE WELL ID
 DICO. A2D Technologies, Inc.:   DIGITIZING COMPANY
~OTHER INFORMATION
~A   DEPT     GURD        ILD        ILM         SPR      CALD       CORR       DPHI        GRD       RHOB   
# ...
  470.0000    16.8859    12.9016    13.7062   -40.0595     7.7591     0.0144     0.1204   108.7853     2.4786
  470.5000    17.1268    12.9947    13.7128   -40.2050     7.7603     0.0116     0.1236   111.7645     2.4734
  471.0000    17.1326    12.9983    13.6249   -40.2021     7.7615     0.0087     0.1290   110.2927     2.4607
  471.5000    16.5551    13.0019    13.6315   -40.3486     7.7776     0.0088     0.1347   106.0018     2.4548
  472.0000    17.0264    13.0055    13.5425   -40.3452     7.7936     0.0059     0.1383   103.4914     2.4533
  472.5000    16.6814    12.9193    13.6446   -40.3420     7.7948     0.0031     0.1373   101.8712     2.4519
  473.0000    17.1562    12.9230    13.6512   -40.5337     7.7811     0.0002     0.1394   102.7732     2.4429
  473.5000    17.5216    12.9265    13.7524   -40.6344     7.7823    -0.0026     0.1445   105.3073     2.4333
  474.0000    17.5276    12.9301    13.6627   -40.7802     7.7833     0.0020     0.1501   107.2479     2.4266
  474.5000    17.4127    12.8445    13.4833   -40.7768     7.7847     0.0081     0.1450   109.9303     2.4386
  475.0000    17.0616    12.8481    13.2114   -40.7736     7.7707     0.0128     0.1378   111.5742     2.4491
  475.5000    16.8332    12.8516    12.9482   -40.9201     7.7570     0.0189     0.1345   112.4733     2.4544
  476.0000    16.4935    12.7666    13.0442   -40.9164     7.7585     0.0251     0.1297   108.3337     2.4627
  476.5000    16.0495    12.7701    13.2321   -41.0630     7.7597     0.0297     0.1168   104.1912     2.4762
  477.0000    15.9333    12.7736    13.4227   -41.0593     7.7457     0.0328     0.1070   104.9449     2.4972
  477.5000    16.6251    12.6891    13.6160   -40.9075     7.7471     0.0360     0.0974   106.5888     2.5212
  478.0000    16.8622    12.6051    13.8121   -40.6070     7.7183     0.0361     0.0914   107.9359     2.5287
  478.5000    16.2895    12.6006    14.0111   -40.3064     7.7046     0.0302     0.0949   109.1347     2.5183
  479.0000    16.5314    12.4389    13.7302   -40.0058     7.7160     0.0289     0.1003   110.9269     2.4989
  479.5000    16.1941    12.3515    13.3624   -39.8540     7.7326     0.0290     0.1054   113.0159     2.4884
  480.0000    15.7581    12.2636    13.0044   -39.5534     7.7492     0.0299     0.1066   116.2918     2.4855
  480.5000    15.3338    12.1455    12.5688   -39.4016     7.7542     0.0315     0.1043   114.5232     2.4893
  481.0000    15.3427    12.0163    12.3168   -39.3987     7.7554     0.0325     0.0998   112.1611     2.5035
  481.5000    15.6713    11.8675    12.4943   -39.3957     7.7416     0.0340     0.0968   109.6507     2.5200
  482.0000    15.7798    11.7077    12.6743   -39.3927     7.7429     0.0342     0.0960   106.2500     2.5232
  482.5000    15.0229    11.5397    12.6833   -39.6032     7.7589     0.0328     0.1065    62.1966     2.5104
  483.0000    14.4145    11.3948    12.2557   -39.6845     7.7604     0.0330     0.1109  -999.2500     2.4970
  483.5000    13.9488    11.2420    11.9273   -39.8304     7.7464     0.0346     0.1061  -999.2500     2.5015
  484.0000    14.3580    11.0142    11.9331   -39.9761     7.7627     0.0347     0.1004  -999.2500     2.5158
  484.5000    14.3349    10.7903    11.9428   -39.9732     7.7487     0.0304     0.0983  -999.2500     2.5166
  485.0000    13.8513    10.5724    12.0275   -40.2679     7.7502     0.0275     0.1052  -999.2500     2.4889
  485.5000    13.9860    10.3582    11.9433   -40.2648     7.7514     0.0231     0.1102  -999.2500     2.5036
  486.0000    14.0709    10.0784    11.6133   -40.2619     7.7526     0.0188     0.1090  -999.2500     2.5085
  486.5000    13.4111     9.8062    11.0864   -40.4077     7.7386     0.0204     0.1051  -999.2500     2.5054
  487.0000    13.4158     9.4756    11.3357   -40.4048     7.7400     0.0190     0.1084  -999.2500     2.5032
  487.5000    13.2362     9.1561    11.4871   -40.4018     7.7412     0.0222     0.1108  -999.2500     2.5002
  488.0000    12.7911     8.7864    11.2427   -40.3988     7.7424     0.0253     0.1054  -999.2500     2.4995
  488.5000    13.1541     8.4317    10.8812   -40.3958     7.7436     0.0273     0.0994  -999.2500     2.4975
  489.0000    13.6212     8.2039    10.7357   -40.3929     7.7448     0.0316     0.1023  -999.2500     2.5013
  489.5000    13.3452     8.1491    10.6669   -40.0923     7.7608     0.0317     0.0975  -999.2500     2.5080
  490.0000    13.7251     8.1519    10.7473   -39.7718     7.7620     0.0318     0.0960  -999.2500     2.5193
  490.5000    13.8250     8.2677    11.0538   -38.2648     7.7480     0.0320     0.0960  -999.2500     2.5201
  491.0000    13.5460     8.6203    11.2130   -36.4563     7.7494     0.0321     0.0990  -999.2500     2.5157
  491.5000    13.0905     9.1131    11.1399   -31.9714     7.7507     0.0307     0.1040  -999.2500     2.5052
  492.0000    13.2772    10.0422    11.0685   -26.2262     7.7518     0.0293     0.1082  -999.2500     2.4993
  492.5000    13.1904    11.4552    10.9975   -19.6480     7.7530     0.0280     0.1136  -999.2500     2.4918
  493.0000    12.9242    16.1910    11.0042    -8.7397     7.7542     0.0266     0.1207  -999.2500     2.4807
  493.5000    12.4896    22.4148    11.1627    -2.5685     7.7554     0.0268     0.1240  -999.2500     2.4747
  494.0000    12.3214    31.6814    11.2455    -2.7144     7.7566     0.0299     0.1177  -999.2500     2.4890
  494.5000    12.8485    49.3295    11.8084    -2.7391     7.7577     0.0346     0.1087  -999.2500     2.4965
  495.0000    12.0769  -999.2500    14.3358    -2.8573     7.7589     0.0407     0.1108  -999.2500     2.5003
  495.5000    12.0821  -999.2500    25.2751    -2.8383     7.7601     0.0454     0.1066  -999.2500     2.5018
  496.0000    12.0031  -999.2500  -999.2500    -2.7018     7.7613     0.0516     0.1018  -999.2500     2.5079
  496.5000    11.5196  -999.2500  -999.2500    -2.6988     7.7625     0.0576     0.0964  -999.2500     2.5184
  497.0000    11.5236  -999.2500  -999.2500    -2.8454     7.7488     0.0640     0.0924  -999.2500     2.5214
  497.5000    11.6074  -999.2500  -999.2500    -2.9913     7.7351     0.0701     0.0972  -999.2500     2.5222
  498.0000    11.5315  -999.2500  -999.2500    -2.9876     7.7068     0.0776     0.1008  -999.2500     2.5215
  498.5000    11.0670  -999.2500  -999.2500    -2.9846     7.6779     0.0792     0.1020  -999.2500     2.5141
  499.0000    10.6212  -999.2500  -999.2500    -2.9816     7.6642     0.0793     0.1035  -999.2500     2.5081
  499.5000    11.1514  -999.2500  -999.2500    -2.9787     7.6359     0.0780     0.1041  -999.2500     2.4992
  500.0000    10.4105  -999.2500  -999.2500    -2.8276     7.3692     0.0781     0.1121  -999.2500     2.4820
  500.5000     9.5846  -999.2500  -999.2500    -2.9735     7.1026     0.0752     0.1212  -999.2500     2.4724
  501.0000    10.1710  -999.2500  -999.2500    -2.8885     6.6244     0.0720  -999.2500  -999.2500  -999.2500
