~VERSION INFORMATION
 VERS.                2.0:   CWLS LOG ASCII STANDARD - VERSION 2.0
 WRAP.                 NO:   ONE LINE PER DEPTH STEP
~WELL INFORMATION
#MNEM.UNIT      DATA TYPE    INFORMATION
#----------   ------------   ------------------------------
 STRT.F           12.0000:   START DEPTH
 STOP.F          510.0000:   STOP DEPTH
 STEP.F            0.5000:   STEP LENGTH
 NULL.          -999.2500:   NO VALUE
 COMP. LAWRENCE-ALLISON &AS:   COMPANY
 WELL. NPR 3 #51-41SX10UP4:   WELL
 FLD .            NATRONA:   FIELD
 LOC .      S10 T38N R78W:   LOCATION
 CNTY.            NATRONA:   COUNTY
 STAT.            WYOMING:   STATE
 CTRY. UNITED STATES OF AMERICA:   COUNTRY
 SRVC.      Dresser Atlas:   SERVICE COMPANY
 DATE.        15-DEC-1984:   LOGDATE
 API .       490251100000:   API NUMBER
~CURVE INFORMATION
#MNEM.UNIT       API CODE    CURVE DESCRIPTION
#----------   ------------   ------------------------------
 DEPT.F                  :   
 RD  .OHMM   11 220 10 00:   RESISTIVITY DEEP
 RS  .OHMM   11 220 09 00:   RESISTIVITY SHALLOW
 SPR .MV     11 010 01 00:   SPONTANEOUS POTENTIAL FROM RES.
 DT  .US/F   60 520 00 00:   INTERVAL TRANSIT TIME
 CALD.IN     45 280 60 00:   CALIPER FROM DENSITY LOG
 CNC .DEC    42 890 00 00:   NEUTRON POROSITY
 CORR.G/C3   45 356 01 00:   DENSITY CORRECTION
 GRD .GAPI   45 310 01 00:   GAMMA RAY FROM DENSITY LOG
 PORD.DEC    45 890 00 00:   POROSITY DENSITY
 RHOB.G/C3   45 350 01 00:   BULK DENSITY
~PARAMETER INFORMATION
#MNEM.UNIT          VALUE    DESCRIPTION
#----------   ------------   ------------------------------
 PD  .                 GL:   PERMANENT DATUM
 EPD .F              5207:   ELEVATION PERMANENT DATUM
 LMF .                 GL:   LOG MEASURED FROM
 DMF .                 GL:   DRILLING MEASURED FROM
 EGL .F              5207:   GROUND LEVEL
 DATE.        15-DEC-1984:   RUN DATE
 RUN .                  1:   RUN NUMBER
 DD  .F               515:   DEPTH DRILLER
 DL  .F               511:   DEPTH LOGGER
 BLI .F               510:   BOTTOM LOG INTERVAL
 TLI .F                20:   TOP LOG INTERVAL
 CS  .IN            8.625:   CASING SIZE
 CBD .F                20:   CASING BOTTOM DRILLER
 CBL .F                20:   CASING BOTTOM LOGGER
 BS  .IN            7.875:   BIT SIZE
 BSD .F               515:   BIT SIZE AT DEPTH
 DFT .          KCL/WATER:   DRILLING FLUID TYPE
 MSS .           FLOWLINE:   MUD SAMPLE SOURCE
 RMS .OHMM           .129:   RESISTIVITY MUD SAMPLE
 MST .F                94:   MUD SAMPLE TEMPERATURE
 RMF .OHMM            .10:   RESISTIVITY MUD FILTRATE SAMPLE
 MFST.F                94:   MUD FILTRATE SAMPLE TEMPERATURE
 RMC .OHMM            .16:   RESISTIVITY MUD CAKE
 MCST.F                94:   MUD CAKE SAMPLE TEMPERATURE
 MFSS.               CALC:   MUD FILTRATE SAMPLE SOURCE
 MCSS.               CALC:   MUD CAKE SAMPLE SOURCE
 TCS .HRS               2:   TIME CURCULATED STOPPED
 MRT .F               100:   MAXIMUM RECORDED TEMPERATURE
 LUN .               6270:   LOGGING UNIT NUMBER
 LUL .                 FM:   LOGGING UNIT LOCATION
 ENGI.            LEBSOCK:   RECORDING ENGINEER
 WITN.          DAN LUERS:   WITNESSED BY
 CLNT.            A2DTECH:   CLIENT CODE
 ORIG.           5" PRINT:   ORIGIN OF DATA
 UWI .       490251100000:   UNIQUE WELL ID
 DICO. A2D Technologies, Inc.:   DIGITIZING COMPANY
~OTHER INFORMATION
~A   DEPT       RD         RS        SPR         DT       CALD          CNC     CORR         GRD      PORD       RHOB   
# ...
  414.0000    15.5180    15.3637   -62.0114    87.2782     7.8069     0.2281     0.0215    81.2228     0.1353     2.4536
  414.5000    15.9611    15.8053   -61.9970    86.6741     7.8079     0.2406     0.0397    82.5677     0.1285     2.4739
  415.0000    16.3039    16.2579   -62.1307    86.6771     7.8089     0.2333     0.0458    83.9126     0.1200     2.4822
  415.5000    15.8683    15.7194   -62.1127    87.1353     7.8099     0.2249     0.0188    85.4055     0.1148     2.4823
  416.0000    15.4443    15.1962   -62.2499    88.2764     7.8266     0.2279     0.0039    87.4911     0.1166     2.4779
  416.5000    14.9140    14.5893   -62.5314    89.1139     7.8715     0.2357     0.0040    87.2064     0.1268     2.4615
  417.0000    14.5294    14.2014   -62.5135    89.1927     7.8577     0.2396     0.0011    86.0327     0.1304     2.4556
  417.5000    14.3378    14.2109   -62.7950    88.9681     7.8140     0.2363    -0.0018    86.5259     0.1337     2.4542
  418.0000    14.7492    14.5180   -63.0769    88.4825     7.8004     0.2272    -0.0077    91.9845     0.1352     2.4542
  418.5000    15.1703    14.6325   -63.6539    86.5468     7.8162     0.2341     0.0105    91.8479     0.1328     2.4581
  419.0000    15.6035    15.0791   -63.6396    85.4117     7.8172     0.2380     0.0347    89.4890     0.1237     2.4758
  419.5000    16.0490    15.6977   -64.2170    85.0353     7.8182     0.2350     0.0529    87.5746     0.1120     2.4937
  420.0000    16.1762    16.0369   -64.6428    85.0383     7.8193     0.2151     0.0530    89.6602     0.1057     2.4981
  420.5000    15.6286    15.7187   -64.7800    86.1035     7.8205     0.2121     0.0441    89.6717     0.1123     2.4849
  421.0000    15.4246    15.0909   -64.6141    87.7756     7.8215     0.2139     0.0277    89.2388     0.1255     2.4686
  421.5000    15.2192    14.6897   -64.5998    88.9167     7.8225     0.2271    -0.0008    90.2924     0.1351     2.4511
  422.0000    15.0205    14.6995   -64.7337    89.6784     7.8235     0.2406    -0.0083    90.2597     0.1393     2.4474
  422.5000    14.8205    14.3087   -65.3108    89.7572     7.8245     0.2427    -0.0036    89.2762     0.1390     2.4475
  423.0000    14.6271    14.3187   -65.4911    89.7602     7.8255     0.2415     0.0134    89.7322     0.1386     2.4491
  423.5000    14.4342    14.1314   -66.0182    89.7639     7.8265     0.2396     0.0343    94.0400     0.1374     2.4492
  424.0000    14.4419    13.9469   -66.4512    89.7668     7.8276     0.2360     0.0314    94.3449     0.1362     2.4500
  424.5000    14.3460    13.9586   -67.0286    89.9215     7.8288     0.2312     0.0240    93.9120     0.1386     2.4485
  425.0000    14.0636    13.7764   -67.4544    90.0004     7.8298     0.2351     0.0181    93.3338     0.1398     2.4464
  425.5000    13.8800    13.5966   -67.8839    90.1551     7.8308     0.2372     0.0107    92.7527     0.1386     2.4495
  426.0000    13.6952    13.6057   -68.1657    90.4615     7.8170     0.2221     0.0033    91.5595     0.1374     2.4496
  426.5000    13.6101    13.5211   -68.7428    90.6921     7.8180     0.2197     0.0004    90.9980     0.1373     2.4497
  427.0000    13.3382    13.2528   -69.0749    90.8468     7.8190     0.2222     0.0110    92.1976     0.1364     2.4520
  427.5000    13.3454    13.2639   -69.3058    91.0015     7.8200     0.2317     0.0247    91.6165     0.1349     2.4551
  428.0000    13.0788    12.9112   -69.7317    91.2382     7.8210     0.2323     0.0293    89.7021     0.1334     2.4514
  428.5000    12.9931    12.9198   -69.8689    91.4628     7.8072     0.2317     0.0174    86.3062     0.1362     2.4477
  429.0000    12.6485    12.5742   -69.5551    91.6940     7.7786     0.2364     0.0190    86.6140     0.1397     2.4470
  429.5000    12.3976    12.3268   -69.2449    91.9246     7.7798     0.2424     0.0312    89.2922     0.1400     2.4486
  430.0000    12.2341    12.2500   -68.6388    92.4587     7.7808     0.2436     0.0249    89.8963     0.1384     2.4540
  430.5000    11.9881    11.9196   -68.0325    93.4480     7.7818     0.2448     0.0164    89.9081     0.1348     2.4571
  431.0000    11.6678    11.5295   -68.0148    94.2097     7.7829     0.2545     0.0210    91.5518     0.1327     2.4579
  431.5000    11.3576    11.2229   -68.0005    94.5161     7.7839     0.2616     0.0257    98.6745     0.1306     2.4595
  432.0000    11.2078    10.8493   -67.8382    94.6708     7.7849     0.2535     0.0258   102.0934     0.1318     2.4565
  432.5000    10.9815    10.4161   -67.5280    94.9773     7.7859     0.2519     0.0199   102.9938     0.1336     2.4559
  433.0000    10.4713     9.8629   -67.3658    95.4462     7.7721     0.2543     0.0200   103.3016     0.1335     2.4567
  433.5000     9.3179     8.7161   -67.3514    96.5877     7.7582     0.2651     0.0204   103.6094     0.1304     2.4576
  434.0000     7.3216     7.4929   -67.3371   103.1811     7.7595     0.2907     0.0263   104.6580     0.1311     2.4591
  434.5000     5.8733     5.5226   -67.0266   108.0399     7.7604     0.3051     0.0264   111.4104     0.1419     2.4337
  435.0000     5.2619     5.2397   -66.7131   108.4974     7.7615     0.3105     0.0265   117.5212     0.1575     2.4121
  435.5000     5.2647     5.2441   -66.4029   106.7560     7.7625     0.3106     0.0296   120.9917     0.1857     2.3724
  436.0000     5.4525     5.5074   -66.0927   102.7696     7.7636     0.2975     0.0328   120.8522     0.1887     2.3650
  436.5000     6.8078     7.5192   -65.4867    96.0293     7.7648     0.2605     0.0192   114.9407     0.1623     2.4108
  437.0000     9.7602    10.4807   -65.4723    93.0147     7.7507     0.2479     0.0029   107.2485     0.1334     2.4514
  437.5000    11.7541    11.7127   -65.4580    91.5180     7.7520     0.2391     0.0030   102.9637     0.1187     2.4822
  438.0000    11.7604    11.7206   -65.2957    91.4444     7.7530     0.2385     0.0272   102.5304     0.1152     2.4890
  438.5000    11.7667    11.7286   -65.2811    91.5239     7.7595     0.2403     0.0274   100.7645     0.1106     2.4936
  439.0000    11.7730    11.7382   -65.2635    91.6028     7.7846     0.2421     0.0275   100.0353     0.1084     2.4967
  439.5000    11.8609    11.7461   -65.2491    91.9851     7.7856     0.2403     0.0276   104.3460     0.1081     2.4968
  440.0000    12.0323    11.7540   -64.9389    92.4433     7.7867     0.2415     0.0277   115.6167     0.1144     2.4892
  440.5000    12.1221    11.7618   -64.7766    92.8256     7.7879     0.2456     0.0279   115.0328     0.1177     2.4817
  441.0000    12.3071    11.9334   -64.6144    92.9803     7.7889     0.2456     0.0219   116.8250     0.1189     2.4790
  441.5000    12.8260    12.1074   -64.3042    92.9074     7.8047     0.2420     0.0160   117.2809     0.1201     2.4791
  442.0000    13.1922    12.4547   -64.1419    92.7496     7.8057     0.2398     0.0056   116.2554     0.1201     2.4792
  442.5000    13.5689    12.6453   -64.1272    92.3071     7.8067     0.2420    -0.0003   107.3780     0.1197     2.4800
  443.0000    13.7649    13.0011   -63.6659    91.8548     7.8077     0.2432    -0.0017   103.8093     0.1187     2.4816
  443.5000    13.9638    13.1907   -63.5036    91.0232     7.8087     0.2371    -0.0014   102.2159     0.1161     2.4839
  444.0000    14.0681    13.5691   -63.4893    90.3433     7.8098     0.2284     0.0031   101.4895     0.1152     2.4863
  444.5000    14.3702    13.8624   -63.4749    89.8910     7.8110     0.2269     0.0047    97.3529     0.1176     2.4826
  445.0000    14.5881    13.9678   -63.4606    89.5905     7.7821     0.2362     0.0078    96.1763     0.1188     2.4812
  445.5000    14.7904    14.3685   -63.7426    89.3659     7.7834     0.2334     0.0110    95.5953     0.1191     2.4858
  446.0000    15.2127    14.5781   -64.0236    89.1412     7.7992     0.2325     0.0156    96.2023     0.1115     2.4933
  446.5000    15.2209    14.7909   -64.0093    88.9924     7.8002     0.2355     0.0233   100.2138     0.1055     2.4994
  447.0000    15.6555    15.2175   -64.4351    88.7547     7.8012     0.2394     0.0482   103.6327     0.1049     2.5003
