~VERSION INFORMATION
 VERS.                2.0:   CWLS LOG ASCII STANDARD - VERSION 2.0
 WRAP.                 NO:   ONE LINE PER DEPTH STEP
~WELL INFORMATION
#MNEM.UNIT      DATA TYPE    INFORMATION
#----------   ------------   ------------------------------
 STRT.F           83.0000:   START DEPTH
 STOP.F         3044.0000:   STOP DEPTH
 STEP.F            0.5000:   STEP LENGTH
 NULL.          -999.2500:   NO VALUE
 COMP.   TESORO PETROLEUM:   COMPANY
 WELL.  NPR # 3  AX #81-4:   WELL
 FLD .        TEAPOT DOME:   FIELD
 LOC .       S4 T38N R78W:   LOCATION
 CNTY.            NATRONA:   COUNTY
 STAT.            WYOMING:   STATE
 CTRY. UNITED STATES OF AMERICA:   COUNTRY
 SRVC.       Schlumberger:   SERVICE COMPANY
 DATE.        31-JUL-1969:   LOGDATE
 API .       490251002700:   API NUMBER
~CURVE INFORMATION
#MNEM.UNIT       API CODE    CURVE DESCRIPTION
#----------   ------------   ------------------------------
 DEPT.F                  :   
 CILD.MMHO   05 110 46 00:   CONDUCTIVITY INDUCTION LOG DEEP
 ILD .OHMM   05 120 46 00:   INDUCTION LOG DEEP
 SN  .OHMM   05 040 16 00:   SHORT NORMAL 16"
 SPR .MV     05 010 01 00:   SPONTANEOUS POTENTIAL FROM RES.
 CALD.IN     45 280 60 00:   CALIPER FROM DENSITY
 DPHI.DEC    45 890 12 00:   DENSITY POROSITY SANDSTONE
 GRD .GAPI   45 310 01 00:   GAMMA RAY FROM DENSITY LOG
 RHOB.G/C3   45 350 01 00:   BULK DENSITY
 DRHO.G/C3   45 356 01 00:   DENSITY CORRECTION
~PARAMETER INFORMATION
#MNEM.UNIT          VALUE    DESCRIPTION
#----------   ------------   ------------------------------
 PD  .                 GL:   PERMANENT DATUM
 EPD .F              5170:   ELEVATION PERMANENT DATUM
 LMF .                 KB:   LOG MEASURED FROM
 DAPD.F                13:   FEET ABOVE PERMANENT DATUM
 DMF .                 KB:   DRILLING MEASURED FROM
 EKB .F              5183:   KELLING BUSHING
 EGL .F              5170:   GROUND LEVEL
 DATE.            7-31-69:   RUN DATE
 RUN .                  2:   RUN NUMBER
 DD  .F              3047:   DEPTH DRILLER
 DL  .F              3044:   DEPTH LOGGER
 BLI .F              3043:   BOTTOM LOG INTERVAL
 TLI .F               626:   TOP LOG INTERVAL
 CS  .IN            10.75:   CASING SIZE
 CBD .F               625:   CASING BOTTOM DRILLER
 CBL .F               626:   CASING BOTTOM LOGGER
 BS  .IN             6.25:   BIT SIZE
 BSD .F              3047:   BIT SIZE AT DEPTH
 DFT .      FRESH GEL MUD:   DRILLING FLUID TYPE
 DFD .                9.7:   DRILLING FLUID DENSITY
 DFV .                 50:   DRILLING FLUID VISCOSITY
 DFPH.                9.5:   DRILLING FLUID PH
 DFL .                  8:   DRILLING FLUID LOSS
 MSS .          FLOW LINE:   MUD SAMPLE SOURCE
 RMS .OHMM           1.35:   RESISTIVITY MUD SAMPLE
 MST .F                74:   MUD SAMPLE TEMPERATURE
 RMF .OHMM            .81:   RESISTIVITY MUD FILTRATE SAMPLE
 MFST.F                74:   MUD FILTRATE SAMPLE TEMPERATURE
 MFSS.                  M:   MUD FILTRATE SAMPLE SOURCE
 RMB .OHMM            .83:   RESISTIVITY MUD AT BHT
 BHT .F               121:   BOTTOM HOLE TEMPERATURE
 TCS .HRS               4:   TIME CURCULATED STOPPED
 MRT .F               121:   MAXIMUM RECORDED TEMPERATURE
 LUN .               4507:   LOGGING UNIT NUMBER
 LUL .               CSPR:   LOGGING UNIT LOCATION
 ENGI.               MIXA:   RECORDING ENGINEER
 WITN.                MAY:   WITNESSED BY
 CLNT.            A2DTECH:   CLIENT CODE
 ORIG.     1", 2.5" PRINT:   ORIGIN OF DATA
 UWI .       490251002700:   UNIQUE WELL ID
 DICO. A2D Technologies, Inc.:   DIGITIZING COMPANY
~OTHER INFORMATION
~A   DEPT      CILD       ILD         SN        SPR       CALD       DPHI        GRD       RHOB       DRHO   
# ...
 1579.5000   141.9753     7.3529     8.4877   -22.8972  -999.2500     0.0426  -999.2500     2.5633     0.0231
 1580.0000   141.9753     7.3529     8.4877   -23.6420  -999.2500     0.0425   100.2107     2.5698     0.0243
 1580.5000   129.3301     7.9682     8.4877   -23.6451     9.5796     0.0354    97.9590     2.5882     0.0288
 1581.0000   129.3376     8.1193     9.1569   -23.6739     9.5800     0.0300    94.9527     2.5882     0.0308
 1581.5000   129.3450     8.1153     9.3427   -23.9599     9.5804     0.0523    94.3560     2.5702     0.0340
 1582.0000   129.3524     8.1115     9.3356   -23.9630     9.5809     0.0613    92.5546     2.5507     0.0293
 1582.5000   129.3598     8.1076     9.3296   -23.9018     9.5736     0.0571    92.5603     2.5492     0.0064
 1583.0000   132.4564     8.1037     9.3236   -23.6605     9.5519     0.0523    92.6338     2.5642     0.0083
 1583.5000   134.0677     8.0632     9.3177   -23.5736     9.5524     0.0517    94.5339     2.5590     0.0116
 1584.0000   135.5556     7.8978     9.3115   -23.3580     9.5528     0.0577    96.3534     2.5522     0.0153
 1584.5000   135.9313     7.7825     9.3053   -23.3611     9.5533     0.0504    97.7313     2.5617     0.0195
 1585.0000   138.6574     7.7219     9.2796   -23.3642     9.5393     0.0375    99.2169     2.5809     0.0257
 1585.5000   138.6651     7.5565     9.1371   -23.3673     9.5086     0.0249    99.2229     2.5983     0.0307
 1586.0000   138.6728     7.4613     9.1308   -23.3704     9.5120     0.0259    98.4458     2.5982     0.0366
 1586.5000   138.6805     7.4574     9.1246   -23.3735     9.5068     0.0374    95.9265     2.5801     0.0428
 1587.0000   138.2023     7.4536     9.1664   -23.3765     9.4958     0.0413    93.6612     2.5737     0.0481
 1587.5000   136.0598     7.5400     9.2679   -23.3796     9.4963     0.0379    92.6205     2.5849     0.0510
 1588.0000   132.8602     7.6976     9.3863   -23.1770     9.4967     0.0298    92.9377     2.6006     0.0391
 1588.5000   130.3279     7.9589     9.5670   -23.0772     9.4973     0.0187    94.2553     2.6106     0.0391
 1589.0000   128.0040     8.2781     9.7140   -23.0802     9.4678     0.0163    96.4913     2.6156     0.0251
 1589.5000   125.5927     8.5973     9.9498   -22.7753     9.4683     0.0290    99.0627     2.5937     0.0170
 1590.0000   123.9969     8.6687    10.1064   -22.7783     9.4388     0.0430   100.5573     2.5769     0.0151
 1590.5000   123.3102     8.6643    10.0671   -22.7812     9.3796     0.0449   101.6928     2.5805     0.0136
 1591.0000   123.3179     8.6606    10.0031   -22.7842     9.3800     0.0339   101.6988     2.5973     0.0226
 1591.5000   124.3559     8.6569     9.9969   -22.7872     9.3506     0.0268    99.2052     2.6033     0.0276
 1592.0000   125.9672     8.4984     9.9907   -22.7901     9.3510     0.0338    95.5262     2.5883     0.0345
 1592.5000   128.7294     8.3347     9.9833   -22.7932     9.3468     0.0378    94.4880     2.5749     0.0420
 1593.0000   129.5216     8.0077     9.9773   -22.7963     9.3220     0.0306    94.8930     2.5869     0.0484
 1593.5000   132.6171     7.7128     9.9714   -22.7994     9.3225     0.0210    96.3862     2.6064     0.0524
 1594.0000   132.6245     7.6863     9.8097   -22.8025     9.3142     0.0336    97.8292     2.6079     0.0509
 1594.5000   135.7183     7.5209     9.6480   -22.8056     9.2936     0.0366    99.3324     2.5839     0.0300
 1595.0000   137.2690     7.3916     9.4729   -22.8086     9.3055     0.0347    96.9286     2.5895     0.0230
 1595.5000   138.8196     7.3878     9.1682   -22.8117     9.3243     0.0330    93.9222     2.5908     0.0188
 1596.0000   140.4013     7.3839     9.1412   -22.8148     9.3389     0.0420    92.7232     2.5785     0.0180
 1596.5000   141.9213     7.3800     8.9721   -22.8179     9.3551     0.0397    95.1386     2.5769     0.0192
 1597.0000   141.9290     7.3762     8.8380   -22.8210     9.3555     0.0373    92.6246     2.5796     0.0254
 1597.5000   141.9367     7.3723     8.8740   -22.8241     9.3560     0.0389    90.3308     2.5811     0.0418
 1598.0000   141.9444     7.3684     8.9813   -22.6728     9.3564     0.0469    90.9341     2.5716     0.0448
 1598.5000   141.6190     7.3646     8.9751   -22.5216     9.3569     0.0377    95.1312     2.5700     0.0448
 1599.0000   140.0232     7.3607     9.0324   -22.5247     9.3573     0.0175    97.4353     2.5884     0.0438
 1599.5000   137.9735     7.3568     9.1184   -22.3349     9.3578     0.0123    96.2942     2.6123     0.0463
 1600.0000   135.8025     7.3529     9.1121   -22.2222     9.3583     0.0138    93.9762     2.6174     0.0537
 1600.5000   135.2354     7.3491     9.1059   -22.2253     9.3587     0.0146    92.5474     2.6176     0.0642
 1601.0000   134.9101     7.3452     9.0997   -22.2284     9.3293     0.0152    92.1807     2.6230     0.0691
 1601.5000   135.8256     7.3406     9.0935   -22.2321     9.3297     0.0188    92.4742     2.6200     0.0612
 1602.0000   135.8333     7.4917     9.0872   -22.2351     9.3301     0.0244    94.6930     2.5945     0.0417
 1602.5000   135.8411     7.4880     9.0810   -22.2380     9.3323     0.0380    97.1059     2.5705     0.0233
 1603.0000   135.8488     7.6390     9.0748   -22.2410     9.3609     0.0452    98.7486     2.5645     0.0208
 1603.5000   135.8565     7.6353     9.0675   -22.2439     9.3613     0.0401    99.4398     2.5765     0.0268
 1604.0000   135.8642     7.6316     9.0615   -22.2469     9.3618     0.0347    98.1507     2.5889     0.0357
 1604.5000   135.8719     7.6365     9.0556   -21.9412     9.3622     0.0281    97.1840     2.5967     0.0447
 1605.0000   135.8796     7.7790     9.0496   -21.9444     9.3627     0.0233    95.2420     2.6046     0.0501
 1605.5000   135.8873     7.7748     9.0436   -21.9475     9.3631     0.0227    95.2478     2.6110     0.0521
 1606.0000   135.8965     7.7709     9.0374   -21.9506     9.3636     0.0227    97.0608     2.5983     0.0506
 1606.5000   135.9040     7.7314     9.0312   -21.9537     9.3765     0.0305    98.8737     2.5973     0.0461
 1607.0000   135.9114     7.6084     9.0028   -22.0340     9.3943     0.0370    99.4819     2.5941     0.0431
 1607.5000   137.4620     7.5064     8.8629   -22.2685     9.3948     0.0378    98.7912     2.5771     0.0349
 1608.0000   137.4694     7.2910     8.8567   -22.2716     9.3952     0.0570    96.8433     2.5635     0.0247
 1608.5000   137.4769     7.2872     8.8505   -22.2747     9.3957     0.0600    94.3239     2.5520     0.0165
 1609.0000   139.0278     7.2833     8.8442   -22.2778     9.3961     0.0616    92.2760     2.5488     0.0102
 1609.5000   139.0355     7.2794     8.8380   -22.2809     9.3966     0.0579    92.1363     2.5507     0.0058
 1610.0000   139.0432     7.2755     8.8318   -22.2840     9.3751     0.0426    91.8625     2.5637     0.0127
 1610.5000   139.0509     7.2717     8.8255   -22.2870     9.3676     0.0360    92.2952     2.5796     0.0192
 1611.0000   139.0586     7.2678     8.8193   -22.2901     9.3681     0.0403    92.3012     2.5756     0.0226
 1611.5000   139.0664     7.2639     8.8131   -22.2932     9.3686     0.0419    92.3072     2.5835     0.0236
 1612.0000   138.2306     7.2601     8.9003   -22.2963     9.3391     0.0422    92.3133     2.5796     0.0236
 1612.5000   135.0308     7.3723     9.1576   -21.8621     9.2799     0.0471    91.0389     2.5722     0.0221
 1613.0000   131.8312     7.5612     9.3694   -21.4537     9.2803     0.0381    88.8690     2.5946     0.0181
 1613.5000   129.2348     7.7122     9.5261   -21.0716     9.2807     0.0322    88.1145     2.5902     0.0146
 1614.0000   127.6391     7.7085     9.8047   -21.0746     9.2812     0.0386    89.7470     2.5782     0.0121
 1614.5000   126.7670     7.8596    10.0208   -21.0775     9.2816     0.0445    93.5847     2.5658     0.0099
 1615.0000   125.9902     7.8559    10.1706   -21.0805     9.2821     0.0486    96.6168     2.5562     0.0086
 1615.5000   126.0842     7.8522    10.1646   -21.3921     9.2825     0.0567    97.7782     2.5467     0.0131
