~VERSION INFORMATION
 VERS.                2.0:   CWLS LOG ASCII STANDARD - VERSION 2.0
 WRAP.                 NO:   ONE LINE PER DEPTH STEP
~WELL INFORMATION
#MNEM.UNIT      DATA TYPE    INFORMATION
#----------   ------------   ------------------------------
 STRT.F           80.0000:   START DEPTH
 STOP.F          480.0000:   STOP DEPTH
 STEP.F            0.5000:   STEP LENGTH
 NULL.          -999.2500:   NO VALUE
 COMP. BROWN JOHN E&C INC:   COMPANY
 WELL.         SX 57 #2-3:   WELL
 FLD .        TEAPOT DOME:   FIELD
 LOC .       S3 T38N R78W:   LOCATION
 CNTY.            NATRONA:   COUNTY
 STAT.            WYOMING:   STATE
 CTRY. UNITED STATES OF AMERICA:   COUNTRY
 SRVC.       Schlumberger:   SERVICE COMPANY
 DATE.        05-OCT-1990:   LOGDATE
 API .       490251132700:   API NUMBER
~CURVE INFORMATION
#MNEM.UNIT       API CODE    CURVE DESCRIPTION
#----------   ------------   ------------------------------
 DEPT.F                  :   
 GRR .GAPI   07 310 01 00:   GAMMA RAY FROM RES. LOG.
 SFLU.OHMM   07 220 01 00:   SPHERICALLY FOCUSED LOG UNAVERAGED RESISTIVITY
 ILD .OHMM   07 120 46 00:   INDUCTION LOG DEEP
 ILM .OHMM   07 120 44 00:   INDUCTION LOG MEDIUM
 CNC .DEC    42 890 01 00:   NEUTRON POROSITY LIMESTONE
~PARAMETER INFORMATION
#MNEM.UNIT          VALUE    DESCRIPTION
#----------   ------------   ------------------------------
 PD  .                 GL:   PERMANENT DATUM
 EPD .F              5148:   ELEVATION PERMANENT DATUM
 LMF .                 KB:   LOG MEASURED FROM
 DAPD.F                10:   FEET ABOVE PERMANENT DATUM
 DMF .                 KB:   DRILLING MEASURED FROM
 EKB .F              5158:   KELLING BUSHING
 EDF .F              5157:   DRILLING FLOOR
 EGL .F              5148:   GROUND LEVEL
 DATE.            10-5-90:   RUN DATE
 RUN .                  1:   RUN NUMBER
 DD  .F               485:   DEPTH DRILLER
 DL  .F               484:   DEPTH LOGGER
 BLI .F               481:   BOTTOM LOG INTERVAL
 TLI .F                48:   TOP LOG INTERVAL
 CS  .IN            8.625:   CASING SIZE
 CBD .F                53:   CASING BOTTOM DRILLER
 CBL .F                53:   CASING BOTTOM LOGGER
 BS  .IN            7.875:   BIT SIZE
 BSD .F               485:   BIT SIZE AT DEPTH
 DFT .           WTD DISP:   DRILLING FLUID TYPE
 DFD .               14.3:   DRILLING FLUID DENSITY
 DFV .                 67:   DRILLING FLUID VISCOSITY
 DFPH.                9.5:   DRILLING FLUID PH
 DFL .               12.8:   DRILLING FLUID LOSS
 MSS .           FLOWLINE:   MUD SAMPLE SOURCE
 RMS .OHMM            9.3:   RESISTIVITY MUD SAMPLE
 MST .F                74:   MUD SAMPLE TEMPERATURE
 RMF .OHMM            6.9:   RESISTIVITY MUD FILTRATE SAMPLE
 MFST.F                74:   MUD FILTRATE SAMPLE TEMPERATURE
 RMC .OHMM           13.9:   RESISTIVITY MUD CAKE
 MCST.F                74:   MUD CAKE SAMPLE TEMPERATURE
 MFSS.               CALC:   MUD FILTRATE SAMPLE SOURCE
 MCSS.               CALC:   MUD CAKE SAMPLE SOURCE
 RMB .OHMM          6.438:   RESISTIVITY MUD AT BHT
 BHT .F               110:   BOTTOM HOLE TEMPERATURE
 TCS .HRS            1600:   TIME CURCULATED STOPPED
 MRT .F               110:   MAXIMUM RECORDED TEMPERATURE
 LUN .               5887:   LOGGING UNIT NUMBER
 LUL .               CODY:   LOGGING UNIT LOCATION
 ENGI.        MIKE FISHER:   RECORDING ENGINEER
 WITN.        GARY STRONG:   WITNESSED BY
 CLNT.            A2DTECH:   CLIENT CODE
 ORIG.        2" 5" PRINT:   ORIGIN OF DATA
 UWI .       490251132700:   UNIQUE WELL ID
 DICO. A2D Technologies, Inc.:   DIGITIZING COMPANY
~OTHER INFORMATION
~A   DEPT       GRR        SFLU      ILD        ILM        CNC   
# ...
  324.0000    60.1199     4.2539     3.7118     4.1296     0.1606
  324.5000    55.3705     5.8733     3.9128     4.7190     0.1631
  325.0000    50.6060     8.9221     4.1017     5.1086     0.1673
  325.5000    47.4886    10.7441     4.2593     5.3240     0.1698
  326.0000    47.5090    11.3699     4.2593     5.4940     0.1704
  326.5000    51.2941     8.7632     4.2593     4.6336     0.1736
  327.0000    56.8967     6.3304     4.1061     4.1483     0.1798
  327.5000    62.7644     4.5730     3.8030     3.8328     0.1913
  328.0000    65.7132     3.6553     3.5225     3.5393     0.2021
  328.5000    65.2851     3.2073     3.2597     3.2683     0.1997
  329.0000    63.6050     3.1079     3.0729     3.0704     0.1969
  329.5000    62.5447     3.1291     2.9790     2.9790     0.1986
  330.0000    62.5525     3.1656     2.8881     2.8881     0.2005
  330.5000    62.2339     3.2026     2.8000     2.8000     0.1978
  331.0000    60.6840     3.2230     2.7531     2.7531     0.1977
  331.5000    59.3363     3.1751     2.7690     2.7770     0.1987
  332.0000    60.0310     3.1422     2.7817     2.7962     0.1997
  332.5000    61.5042     3.1081     2.7945     2.8155     0.2049
  333.0000    62.9611     3.0961     2.8074     2.8350     0.2101
  333.5000    64.2018     3.0801     2.8206     2.8550     0.2130
  334.0000    64.0906     3.0704     2.7734     2.8072     0.2100
  334.5000    64.0003     3.0917     2.7139     2.7471     0.2046
  335.0000    63.9094     3.1074     2.6557     2.6880     0.2018
  335.5000    63.8073     2.9930     2.5988     2.6311     0.2013
  336.0000    63.8784     2.8857     2.5786     2.5472     0.2006
  336.5000    66.5302     2.7809     2.5641     2.4388     0.1965
  337.0000    68.1338     2.7313     2.5497     2.4448     0.1976
  337.5000    70.1360     2.6871     2.5354     2.4532     0.2011
  338.0000    70.9380     2.7324     2.5291     2.4617     0.2046
  338.5000    70.5567     2.7935     2.4851     2.4685    -0.1002
  339.0000    70.1987     2.8549     2.4406     2.4324  -999.2500
  339.5000    69.7446     2.8338     2.3969     2.4025  -999.2500
  340.0000    67.9208     2.7682     2.3540     2.3729  -999.2500
  340.5000    69.3445     2.6570     2.3194     2.3477  -999.2500
  341.0000    71.9525     2.5598     2.3050     2.3332  -999.2500
  341.5000    74.2165     2.5058     2.2908     2.3188  -999.2500
  342.0000    75.3009     2.4376     2.2767     2.3045  -999.2500
  342.5000    76.7763     2.4619     2.2626     2.2902  -999.2500
  343.0000    76.7102     2.5055     2.2484     2.2761  -999.2500
  343.5000    76.0280     2.5494     2.2406     2.2677  -999.2500
  344.0000    74.5668     2.5940     2.2955     2.3234  -999.2500
  344.5000    74.8787     2.6394     2.2908     2.3187  -999.2500
  345.0000    77.4406     2.6548     2.2837     2.3116  -999.2500
  345.5000    80.6008     2.6548     2.2766     2.3044  -999.2500
  346.0000    81.2608     2.6260     2.2696     2.2973  -999.2500
  346.5000    80.9868     2.5371     2.2082     2.2411  -999.2500
  347.0000    80.7548     2.4513     2.1292     2.1688  -999.2500
  347.5000    81.9226     2.3517     2.0530     2.0988  -999.2500
  348.0000    81.5506     2.3646     2.0061     2.0581  -999.2500
  348.5000    81.1025     2.3802     1.9992     2.0745  -999.2500
  349.0000    80.8843     2.3529     1.9923     2.0832  -999.2500
  349.5000    81.8211     2.3272     1.9854     2.0377  -999.2500
  350.0000    83.2060     2.2609     1.9467     2.0019  -999.2500
  350.5000    84.4162     2.1604     1.9044     1.9492  -999.2500
  351.0000    84.1751     2.1692     1.8631     1.8815  -999.2500
  351.5000    81.5687     2.1867     1.8226     1.8162  -999.2500
  352.0000    79.3509     2.1227     1.7831     1.7843  -999.2500
  352.5000    77.4858     2.0581     1.7442     1.7623  -999.2500
  353.0000    77.6330     2.0391     1.7283     1.7493  -999.2500
  353.5000    77.7481     2.0203     1.7176     1.7386  -999.2500
  354.0000    77.8621     2.0017     1.7070     1.7278  -999.2500
  354.5000    77.9141     1.9846     1.6946     1.7160  -999.2500
  355.0000    77.2845     1.9607     1.9047     1.9287  -999.2500
  355.5000    76.2372     1.9846     2.1001     2.1240  -999.2500
  356.0000    72.2615     2.5912     2.2323     2.2595  -999.2500
  356.5000    68.2332     2.9298     2.4044     2.4337  -999.2500
  357.0000    64.2515     3.2981     2.6497     2.6820  -999.2500
  357.5000    62.2811     3.5512     2.9200     2.9557  -999.2500
  358.0000    61.1272     3.8191     3.2180     3.2572  -999.2500
  358.5000    60.4999     4.2167     3.5463     3.5895  -999.2500
  359.0000    60.0714     4.6469     3.9605     3.9557  -999.2500
  359.5000    61.4905     4.9262     3.9430     4.2696  -999.2500
  360.0000    63.0544     5.1709     3.9227     4.6930  -999.2500
  360.5000    65.0002     4.7158     3.8869     4.5123  -999.2500
  361.0000    64.7936     4.4709     3.8366     4.2681  -999.2500
  361.5000    62.0922     4.4709     3.7870     4.0371  -999.2500
  362.0000    60.6721     4.4709     3.7381     3.8186  -999.2500
  362.5000    61.5250     4.6930     3.6565     3.7011  -999.2500
  363.0000    64.3127     4.9923     3.5388     3.5819  -999.2500
  363.5000    64.4946     5.2978     3.4248     3.4666  -999.2500
  364.0000    62.2123     5.1709     3.3146     3.3550  -999.2500
  364.5000    58.9004     4.3427     3.2078     3.2470  -999.2500
  365.0000    57.9673     3.7531     3.1045     3.1424  -999.2500
  365.5000    57.5152     3.3944     2.9969     3.0334  -999.2500
  366.0000    57.5108     3.2810     2.9969     3.0334  -999.2500
  366.5000    59.2491     3.2623     3.0017     3.0383  -999.2500
  367.0000    61.0234     3.4885     3.0328     3.0698  -999.2500
  367.5000    60.3859     3.6967     3.0642     3.1016  -999.2500
  368.0000    57.3316     3.9128     3.0960     3.1337  -999.2500
  368.5000    54.2798     3.9382     3.1280     3.1662  -999.2500
  369.0000    52.8953     3.9605     3.1604     3.1990  -999.2500
  369.5000    54.2177     3.8041     3.1928     3.2321  -999.2500
  370.0000    57.5640     3.6621     3.2230     3.2623  -999.2500
  370.5000    61.0416     3.5945     3.2921     3.3322  -999.2500
  371.0000    60.2837     3.8646     3.3563     3.3972  -999.2500
  371.5000    58.4929     4.2704     3.4241     3.4661  -999.2500
  372.0000    56.6978     4.6365     3.3024     3.3423  -999.2500
  372.5000    55.2117     4.5461     3.3234     3.3553  -999.2500
  373.0000    55.3438     4.3967     3.3499     3.3719  -999.2500
  373.5000    57.4225     4.2515     3.3770     3.3887  -999.2500
  374.0000    57.9293     4.1115     3.4044     3.4055  -999.2500
  374.5000    58.2707     3.9761     3.4244     3.4244  -999.2500
  375.0000    58.5272     3.9366     3.3489     3.3815  -999.2500
  375.5000    58.7829     3.8656     3.2909     3.3336  -999.2500
  376.0000    59.3126     3.7969     3.2339     3.2864  -999.2500
  376.5000    60.1324     3.7731     3.1779     3.2398  -999.2500
  377.0000    61.9653     3.7928     3.1229     3.1939  -999.2500
  377.5000    63.0774     3.8075     3.0688     3.1487  -999.2500
  378.0000    64.1243     3.8191     3.0157     3.1041  -999.2500
  378.5000    63.5702     3.6218     2.9634     3.0450  -999.2500
  379.0000    62.9613     3.4671     2.9219     2.9393  -999.2500
  379.5000    62.3600     3.3191     2.9095     2.8785  -999.2500
  380.0000    61.7609     3.2533     2.8971     2.8256  -999.2500
  380.5000    61.1609     3.1834     2.8848     2.7733  -999.2500
  381.0000    60.5392     3.1843     2.8725     2.7199  -999.2500
  381.5000    59.6891     3.1842     2.8550     2.7928  -999.2500
  382.0000    58.8068     3.1836     2.8656     2.8724  -999.2500
  382.5000    58.1922     3.3111     2.8843     2.8964  -999.2500
  383.0000    58.8648     3.4240     2.9032     2.9051  -999.2500
  383.5000    59.5087     3.3894     2.9221     2.9135  -999.2500
  384.0000    60.1564     3.3480     2.9412     2.9222  -999.2500
  384.5000    61.2084     3.3021     2.9604     2.9630  -999.2500
