~VERSION INFORMATION
 VERS.                2.0:   CWLS LOG ASCII STANDARD - VERSION 2.0
 WRAP.                 NO:   ONE LINE PER DEPTH STEP
~WELL INFORMATION
#MNEM.UNIT      DATA TYPE    INFORMATION
#----------   ------------   ------------------------------
 STRT.F            0.0000:   START DEPTH
 STOP.F          795.0000:   STOP DEPTH
 STEP.F            0.5000:   STEP LENGTH
 NULL.          -999.2500:   NO VALUE
 COMP. BROWN JOHN E&C INC:   COMPANY
 WELL. NPR 3 SX-11 #41-11:   WELL
 FLD .             TEAPOT:   FIELD
 LOC .      S11 T38N R78W:   LOCATION
 CNTY.            NATRONA:   COUNTY
 STAT.            WYOMING:   STATE
 CTRY. UNITED STATES OF AMERICA:   COUNTRY
 SRVC.           Gearhart:   SERVICE COMPANY
 DATE.        19-AUG-1988:   LOGDATE
 API .       490251125300:   API NUMBER
~CURVE INFORMATION
#MNEM.UNIT       API CODE    CURVE DESCRIPTION
#----------   ------------   ------------------------------
 DEPT.F                  :   
 ILD .OHMM   07 120 46 00:   INDUCTION LOG DEEP
 ILM .OHMM   07 120 44 00:   INDUCTION LOG MEDIUM
 GRR .GAPI   07 310 01 00:   GAMMA RAY FROM RES. LOG.
~PARAMETER INFORMATION
#MNEM.UNIT          VALUE    DESCRIPTION
#----------   ------------   ------------------------------
 PD  .                 GL:   PERMANENT DATUM
 EPD .F              5093:   ELEVATION PERMANENT DATUM
 LMF .                 KB:   LOG MEASURED FROM
 DAPD.F                10:   FEET ABOVE PERMANENT DATUM
 DMF .                 KB:   DRILLING MEASURED FROM
 EKB .F              5103:   KELLING BUSHING
 EGL .F              5093:   GROUND LEVEL
 DATE.            8-19-88:   RUN DATE
 RUN .                  1:   RUN NUMBER
 DD  .F               800:   DEPTH DRILLER
 DL  .F             802.5:   DEPTH LOGGER
 BLI .F               794:   BOTTOM LOG INTERVAL
 CS  .IN            9.625:   CASING SIZE
 CBD .F                48:   CASING BOTTOM DRILLER
 CBL .F                48:   CASING BOTTOM LOGGER
 BS  .IN             8.75:   BIT SIZE
 BSD .F               800:   BIT SIZE AT DEPTH
 DFT .                AIR:   DRILLING FLUID TYPE
 TCS .HRS            1900:   TIME CURCULATED STOPPED
 TLAB.HRS            2000:   TIME LOGGER AT BOTTOM
 MRT .F                70:   MAXIMUM RECORDED TEMPERATURE
 LUN .               7597:   LOGGING UNIT NUMBER
 LUL .           GILLETTE:   LOGGING UNIT LOCATION
 ENGI.          HUCKFELDT:   RECORDING ENGINEER
 WITN.             STRONG:   WITNESSED BY
 CLNT.            A2DTECH:   CLIENT CODE
 ORIG.        2" 5" PRINT:   ORIGIN OF DATA
 UWI .       490251125300:   UNIQUE WELL ID
 DICO. A2D Technologies, Inc.:   DIGITIZING COMPANY
~OTHER INFORMATION
~A    DEPT     ILD        ILM         GRR  
# ...
  273.0000     7.9417     7.5332   112.7952
  273.5000     7.9610     7.6409   112.7038
  274.0000     7.9804     7.7277   112.6059
  274.5000     7.9998     7.8155   112.5088
  275.0000     8.0191     7.8959   112.5347
  275.5000     8.0444     7.8958   113.0250
  276.0000     7.9451     7.8965   113.4648
  276.5000     7.7588     7.5879   113.4483
  277.0000     7.5765     7.3634   111.9183
  277.5000     7.3962     7.1467   111.1193
  278.0000     7.2975     7.0116   112.6168
  278.5000     7.1999     6.9329   114.0380
  279.0000     7.1239     6.8550   115.4400
  279.5000     7.1107     6.7775   115.6821
  280.0000     7.0971     6.7353   116.0118
  280.5000     7.0837     6.7784   115.2782
  281.0000     7.0703     6.8632   114.5587
  281.5000     7.0566     6.8233   114.7926
  282.0000     7.0414     6.7664   116.7695
  282.5000     7.0263     6.7093   118.7313
  283.0000     7.0112     6.6705   120.5153
  283.5000     6.9957     6.6767   119.0862
  284.0000     6.9926     6.6092   117.5391
  284.5000     6.9926     6.6106   118.0493
  285.0000     6.9926     6.6130   118.8890
  285.5000     7.1035     6.6088   119.7533
  286.0000     7.2842     6.9369   117.1167
  286.5000     7.4702     7.1381   116.5127
  287.0000     7.6431     7.3442   118.4310
  287.5000     7.7817     7.5352   120.5307
  288.0000     7.9208     7.6589   121.3177
  288.5000     8.0444     7.7734   120.5433
  289.0000     8.0444     7.8955   117.4413
  289.5000     8.0444     7.8955   114.3836
  290.0000     8.0444     7.8626   111.3437
  290.5000     8.0444     7.8055   109.5530
  291.0000     8.0446     7.7494   109.7184
  291.5000     8.0436     7.5915   112.8297
  292.0000     8.0467     7.4387   115.4635
  292.5000     7.7714     7.3033   117.5610
  293.0000     7.5349     7.2115   118.2826
  293.5000     7.4964     7.1208   118.4532
  294.0000     7.4612     7.0582   118.1924
  294.5000     7.4262     7.0582   116.9607
  295.0000     7.3953     7.0636   115.7604
  295.5000     7.3957     7.0796   115.7104
  296.0000     7.3957     7.0956   114.9433
  296.5000     7.5023     7.1116   113.7122
  297.0000     7.6421     7.1554   114.0161
  297.5000     7.7844     7.3114   115.8859
  298.0000     7.9287     7.4651   116.5477
  298.5000     8.0735     7.6822   115.6049
  299.0000     8.2208     7.8978   115.3080
  299.5000     8.3709     8.0098   115.3291
  300.0000     8.5081     8.0700   113.9529
  300.5000     8.5081     8.1306   112.0462
  301.0000     8.4500     8.1961   110.0800
  301.5000     8.3396     8.1961   112.0269
  302.0000     8.2306     8.0778   115.8250
  302.5000     8.1199     8.0017   119.3636
  303.0000     7.9354     7.8260   120.1745
  303.5000     7.7497     7.5827   118.8967
  304.0000     7.5684     7.3644   117.6588
  304.5000     7.3957     7.2165   116.4235
  305.0000     7.3957     7.1914   115.6939
  305.5000     7.4270     7.1914   116.6824
  306.0000     7.4756     7.1914   118.1477
  306.5000     7.5246     7.2128   119.6320
  307.0000     7.5739     7.2329   119.3732
  307.5000     7.6236     7.2530   118.7082
  308.0000     7.6769     7.3277   117.9631
  308.5000     7.7714     7.4257   117.4936
  309.0000     7.8742     7.5248   115.6528
  309.5000     7.9785     7.6252   113.7987
  310.0000     8.0664     7.7275   111.9566
  310.5000     8.1254     7.7974   110.7914
  311.0000     8.1848     7.8592   110.9332
  311.5000     8.2446     7.9215   112.1775
  312.0000     8.3051     7.9842   114.5659
  312.5000     8.3627     8.0475   117.3595
  313.0000     8.4126     8.1113   117.3941
  313.5000     8.4626     8.1756   115.7137
  314.0000     8.5084     8.1961   114.0795
  314.5000     8.5083     8.1685   113.8713
  315.0000     8.4657     8.1134   115.0804
  315.5000     8.3829     8.0587   116.0535
  316.0000     8.3012     8.0043   115.2657
  316.5000     8.2202     7.9504   114.4946
  317.0000     8.1401     7.8955   113.7386
  317.5000     8.0607     7.8127   113.3911
  318.0000     8.0236     7.7077   114.1865
  318.5000     7.9974     7.6059   114.9664
  319.0000     7.9713     7.5363   115.6982
  319.5000     7.9453     7.4687   115.7165
  320.0000     7.9194     7.4017   115.7038
  320.5000     7.8959     7.3352   115.8165
  321.0000     7.9166     7.3270   116.3429
  321.5000     7.9364     7.3267   117.3372
  322.0000     7.9562     7.3786   118.1456
  322.5000     7.9760     7.4527   117.7461
  323.0000     7.9960     7.5273   117.3632
  323.5000     8.0159     7.6059   117.3440
  324.0000     8.0439     7.5929   117.3464
  324.5000     8.0294     7.5758   117.3457
  325.0000     8.0030     7.5587   117.3394
  325.5000     7.9769     7.5352   117.3660
  326.0000     7.9509     7.5605   118.1730
  326.5000     7.9250     7.6015   120.0014
  327.0000     7.8955     7.6428   120.5721
  327.5000     7.9384     7.6843   120.2906
  328.0000     7.9887     7.7259   120.0294
  328.5000     8.0393     7.7678   119.7685
  329.0000     8.0902     7.8101   119.5076
  329.5000     8.1414     7.8686   119.5637
  330.0000     8.1930     7.9341   120.9842
  330.5000     8.2449     8.0001   122.4268
  331.0000     8.2971     8.0667   123.7959
  331.5000     8.3506     8.1339   122.6993
  332.0000     8.4483     8.2015   121.5119
  332.5000     8.5489     8.2698   121.8935
  333.0000     8.6508     8.3386   123.9305
  333.5000     8.7538     8.4053   125.5642
  334.0000     8.8402     8.4719   124.7352
  334.5000     8.8734     8.5081   123.8940
  335.0000     8.9066     8.4802   124.1690
  335.5000     8.9399     8.4611   125.6006
  336.0000     8.9734     8.4420   127.5861
  336.5000     9.0070     8.4290   129.5115
  337.0000     9.0407     8.5189   130.2077
  337.5000     9.0747     8.6000   127.6504
  338.0000     9.1917     8.6941   125.0768
  338.5000     9.3380     8.8539   122.4601
  339.0000     9.4866     9.0167   122.4037
  339.5000     9.6375     9.0830   122.6046
  340.0000     9.7878     9.0821   121.3191
  340.5000     9.9306     9.2537   119.9738
  341.0000    10.0728     9.4255   119.0294
  341.5000    10.2169     9.6000   120.8316
  342.0000    10.3631     9.7777   122.6021
  342.5000    10.5114     9.9586   123.3613
  343.0000    10.6571    10.1591   121.0342
  343.5000    10.7635    10.2498   118.8071
  344.0000    10.8718    10.3515   117.6920
  344.5000    10.9816    10.2520   117.4979
  345.0000    11.0527    10.1593   116.7190
  345.5000    11.0516    10.2097   112.5596
  346.0000    11.0228    10.2742   109.0903
  346.5000    10.8693    10.3393   109.8668
  347.0000    10.7178    10.3520   114.2326
  347.5000    10.5684    10.2038   119.4529
  348.0000    10.4212    10.0999   122.1564
  348.5000    10.2760     9.9971   121.4926
  349.0000    10.1684     9.8953   120.7420
  349.5000    10.0677     9.7945   120.5478
  350.0000     9.9680     9.6954   122.0896
  350.5000     9.8797     9.6055   123.5689
  351.0000     9.8987     9.6057   125.0437
  351.5000     9.9158     9.6066   126.4009
  352.0000     9.9332     9.6066   124.5947
  352.5000     9.9505     9.6067   122.2391
  353.0000     9.9717     9.6070   120.4497
  353.5000     9.9574     9.6077   120.8316
  354.0000     9.9370     9.5461   121.1200
  354.5000     9.9168     9.4822   121.5105
  355.0000     9.8965     9.4188   121.7583
  355.5000     9.8515     9.3558   124.7574
  356.0000     9.6824     9.2575   128.5351
  356.5000     9.5162     9.1494   128.4164
  357.0000     9.3529     9.0424   125.8888
  357.5000     9.1640     8.8959   123.5470
  358.0000     8.9352     8.7234   124.2379
  358.5000     8.7114     8.5314   128.0015
  359.0000     8.5489     8.2554   131.5361
  359.5000     8.4022     7.9883   133.8875
  360.0000     8.2580     7.7298   134.9233
  360.5000     8.1199     7.4673   134.9040
  361.0000     8.1199     7.1726   134.9143
  361.5000     8.1199     7.1245   134.3759
  362.0000     8.1935     7.3094   133.5271
  362.5000     8.3098     7.5361   132.3560
  363.0000     8.4277     7.7698   130.5937
  363.5000     8.5474     8.0107   128.5390
