~VERSION INFORMATION
 VERS.                2.0:   CWLS LOG ASCII STANDARD - VERSION 2.0
 WRAP.                 NO:   ONE LINE PER DEPTH STEP
~WELL INFORMATION
#MNEM.UNIT      DATA TYPE    INFORMATION
#----------   ------------   ------------------------------
 STRT.F           90.0000:   START DEPTH
 STOP.F         1032.5000:   STOP DEPTH
 STEP.F            0.5000:   STEP LENGTH
 NULL.          -999.2500:   NO VALUE
 COMP. U S NAVY/INTEX OIL CO:   COMPANY
 WELL. NAVAL PETROLEUM RESERVE 3  #62-S-14:   WELL
 FLD .        TEAPOT DOME:   FIELD
 LOC .      S14 T38N R78W:   LOCATION
 CNTY.            NATRONA:   COUNTY
 STAT.            WYOMING:   STATE
 CTRY. UNITED STATES OF AMERICA:   COUNTRY
 SRVC.       Schlumberger:   SERVICE COMPANY
 DATE.        04-JUL-1962:   LOGDATE
 API .       490250631700:   API NUMBER
~CURVE INFORMATION
#MNEM.UNIT       API CODE    CURVE DESCRIPTION
#----------   ------------   ------------------------------
 DEPT.F                  :   
 GR  .GAPI   30 310 01 00:   GAMMA RAY
 CALM.IN     15 280 01 00:   CALIPER FROM MICRO LOG
 SPR .MV     06 010 01 00:   SPONTANEOUS POTENTIAL FROM RES.
 ASN .OHMM   06 041 16 00:   AMPLIFIED SHORT NORMAL 16"
 ILD .OHMM   06 120 46 00:   INDUCTION LOG DEEP
 CILD.MMHO   06 110 46 00:   CONDUCTIVITY INDUCTION LOG DEEP
~PARAMETER INFORMATION
#MNEM.UNIT          VALUE    DESCRIPTION
#----------   ------------   ------------------------------
 PD  .                 GL:   PERMANENT DATUM
 EPD .F              5246:   ELEVATION PERMANENT DATUM
 LMF .                 KB:   LOG MEASURED FROM
 DAPD.F                 5:   FEET ABOVE PERMANENT DATUM
 DMF .                 KB:   DRILLING MEASURED FROM
 EKB .F              5251:   KELLING BUSHING
 EGL .F              5246:   GROUND LEVEL
 DATE.             7-4-62:   RUN DATE
 RUN .                  1:   RUN NUMBER
 DD  .F              1036:   DEPTH DRILLER
 DL  .F              1033:   DEPTH LOGGER
 BLI .F              1032:   BOTTOM LOG INTERVAL
 TLI .F                90:   TOP LOG INTERVAL
 CBD .F                10:   CASING BOTTOM DRILLER
 BS  .IN             6.75:   BIT SIZE
 BSD .F              1036:   BIT SIZE AT DEPTH
 DFT .                GEL:   DRILLING FLUID TYPE
 DFD .               10.2:   DRILLING FLUID DENSITY
 DFV .                 48:   DRILLING FLUID VISCOSITY
 DFL .                4.8:   DRILLING FLUID LOSS
 MSS .          FLOW LINE:   MUD SAMPLE SOURCE
 RMS .OHMM            5.6:   RESISTIVITY MUD SAMPLE
 MST .F                70:   MUD SAMPLE TEMPERATURE
 RMF .OHMM           5.57:   RESISTIVITY MUD FILTRATE SAMPLE
 MFST.F                70:   MUD FILTRATE SAMPLE TEMPERATURE
 RMC .OHMM           5.32:   RESISTIVITY MUD CAKE
 MCST.F                70:   MUD CAKE SAMPLE TEMPERATURE
 MFSS.                  M:   MUD FILTRATE SAMPLE SOURCE
 MCSS.                  M:   MUD CAKE SAMPLE SOURCE
 RMB .OHMM            4.3:   RESISTIVITY MUD AT BHT
 BHT .F                90:   BOTTOM HOLE TEMPERATURE
 TCS .HRS               1:   TIME CURCULATED STOPPED
 MRT .F                90:   MAXIMUM RECORDED TEMPERATURE
 LUN .               2503:   LOGGING UNIT NUMBER
 LUL .               CSPR:   LOGGING UNIT LOCATION
 ENGI.             KNOBEL:   RECORDING ENGINEER
 WITN.          JORGENSEN:   WITNESSED BY
 CLNT.            A2DTECH:   CLIENT CODE
 ORIG.   1", 2", 5" PRINT:   ORIGIN OF DATA
 UWI .       490250631700:   UNIQUE WELL ID
 DICO. A2D Technologies, Inc.:   DIGITIZING COMPANY
~OTHER INFORMATION
~A   DEPT       GR       CALM        SPR          ASN        ILD      CILD  
# ...
  142.0000  -999.2500  -999.2500   -51.2471     5.8457     5.2027   187.3213
  142.5000  -999.2500  -999.2500   -51.4615     5.8528     5.2238   187.3962
  143.0000  -999.2500  -999.2500   -51.5816     5.8138     5.2452   186.6796
  143.5000  -999.2500  -999.2500   -51.5101     5.7873     5.2744   185.9613
  144.0000  -999.2500  -999.2500   -51.4422     5.7662     5.3342   185.8752
  144.5000  -999.2500  -999.2500   -51.3737     5.7449     5.3922   185.8717
  145.0000  -999.2500  -999.2500   -51.3053     5.7233     5.4500   185.0701
  145.5000  -999.2500  -999.2500   -51.2370     5.7326     5.5072   182.2016
  146.0000  -999.2500  -999.2500   -51.1686     5.7741     5.5676   179.3344
  146.5000  -999.2500  -999.2500   -51.1002     5.9154     5.7103   176.4644
  147.0000  -999.2500  -999.2500   -51.0319     6.1002     5.8496   173.5966
  147.5000  -999.2500  -999.2500   -50.9635     6.3333     5.9884   170.7272
  148.0000  -999.2500  -999.2500   -50.8952     6.4731     6.1274   167.8586
  148.5000  -999.2500  -999.2500   -50.8268     6.5038     6.2642   164.8297
  149.0000  -999.2500  -999.2500   -50.7586     6.4501     6.3182   163.9319
  149.5000  -999.2500  -999.2500   -50.6900     6.3807     6.1237   162.9279
  150.0000  -999.2500  -999.2500   -50.6173     6.3278     5.9387   166.8841
  150.5000  -999.2500  -999.2500   -50.5299     6.2773     5.7540   175.0172
  151.0000  -999.2500  -999.2500   -50.3859     6.1429     5.5693   183.1504
  151.5000  -999.2500  -999.2500   -50.2434     5.9909     5.3847   191.2835
  152.0000  -999.2500  -999.2500   -50.1001     5.7950     5.1999   199.8998
  152.5000  -999.2500  -999.2500   -49.9558     5.5899     5.0115   202.5012
  153.0000  -999.2500  -999.2500   -49.8072     5.4101     4.7816   206.0043
  153.5000  -999.2500  -999.2500   -49.8126     5.2352     4.8207   209.0243
  154.0000  -999.2500  -999.2500   -49.8330     5.2565     4.8894   209.6568
  154.5000  -999.2500  -999.2500   -49.8532     5.3434     4.9566   206.8408
  155.0000  -999.2500  -999.2500   -49.8730     5.4576     5.0232   201.5746
  155.5000  -999.2500  -999.2500   -49.8929     5.5711     5.0897   196.2995
  156.0000  -999.2500  -999.2500   -49.9127     5.6845     5.1563   191.0230
  156.5000  -999.2500  -999.2500   -49.9325     5.7972     5.2237   185.7594
  157.0000  -999.2500  -999.2500   -49.9524     5.8615     5.3231   181.7836
  157.5000  -999.2500  -999.2500   -49.9722     5.8659     5.4683   178.0728
  158.0000  -999.2500  -999.2500   -49.9921     5.9672     5.6126   174.3621
  158.5000  -999.2500  -999.2500   -50.0119     6.0692     5.7573   171.1840
  159.0000  -999.2500  -999.2500   -50.0317     6.1704     5.9022   168.0917
  159.5000  -999.2500  -999.2500   -50.0516     6.2731     6.0451   164.9994
  160.0000  -999.2500  -999.2500   -50.0714     6.3777     6.0973   163.2766
  160.5000  -999.2500  -999.2500   -50.0913     6.4242     6.1351   164.7946
  161.0000  -999.2500  -999.2500   -50.1111     6.4591     6.1352   166.3126
  161.5000  -999.2500  -999.2500   -50.1310     6.4150     6.0427   167.8218
  162.0000  -999.2500  -999.2500   -50.1510     6.3152     5.9353   170.8389
  162.5000  -999.2500  -999.2500   -50.1705     6.1955     5.7638   176.8255
  163.0000  -999.2500  -999.2500   -50.1883     6.0949     5.5771   182.8111
  163.5000  -999.2500  -999.2500   -50.0801     6.0075     5.3941   188.7912
  164.0000  -999.2500  -999.2500   -49.8390     5.9274     5.2080   194.8898
  164.5000  -999.2500  -999.2500   -49.5990     5.8389     4.9543   196.9531
  165.0000  -999.2500  -999.2500   -49.3595     5.7148     4.9292   199.0227
  165.5000  -999.2500  -999.2500   -49.1201     5.5912     5.0138   201.1005
  166.0000  -999.2500  -999.2500   -49.1090     5.4661     5.1017   202.2489
  166.5000  -999.2500  -999.2500   -49.3254     5.4307     5.1887   202.8112
  167.0000  -999.2500  -999.2500   -49.5424     5.4533     5.2754   199.0581
  167.5000  -999.2500  -999.2500   -49.7632     5.5135     5.3622   194.4317
  168.0000  -999.2500  -999.2500   -49.9931     5.5708     5.4473   189.8053
  168.5000  -999.2500  -999.2500   -49.8346     5.6698     5.5316   185.1789
  169.0000  -999.2500  -999.2500   -49.6468     5.8173     5.6136   180.5525
  169.5000  -999.2500  -999.2500   -49.4594     6.0220     5.6957   175.9261
  170.0000  -999.2500  -999.2500   -49.2730     6.2327     5.7778   170.8417
  170.5000  -999.2500  -999.2500   -49.0866     6.3391     5.8599   169.9299
  171.0000  -999.2500  -999.2500   -48.8998     6.3775     5.9417   168.8377
  171.5000  -999.2500  -999.2500   -48.7125     6.3851     6.0242   169.8731
  172.0000  -999.2500  -999.2500   -48.5306     6.3260     6.0559   171.1115
  172.5000  -999.2500  -999.2500   -48.4728     6.2682     6.0463   173.0576
  173.0000  -999.2500  -999.2500   -48.7977     6.2104     6.0360   175.0038
  173.5000  -999.2500  -999.2500   -49.1060     6.1552     6.0256   175.8517
  174.0000  -999.2500  -999.2500   -49.4152     6.1172     6.0153   175.8517
  174.5000  -999.2500  -999.2500   -49.7244     6.1522     6.0050   175.8517
  175.0000  -999.2500  -999.2500   -50.0137     6.2358     5.9946   175.8517
  175.5000  -999.2500  -999.2500   -49.8216     6.3203     5.9843   172.5265
  176.0000  -999.2500  -999.2500   -49.6199     6.4019     5.9735   169.2013
  176.5000  -999.2500  -999.2500   -49.4189     6.4377     5.9601   165.8760
  177.0000  -999.2500  -999.2500   -49.2184     6.4699     6.0893   162.5508
  177.5000  -999.2500  -999.2500   -49.0180     6.5625     6.2424   159.2256
  178.0000  -999.2500  -999.2500   -48.8177     6.7197     6.3961   155.9004
  178.5000  -999.2500  -999.2500   -48.6171     6.8937     6.5495   152.8056
  179.0000  -999.2500  -999.2500   -48.4145     7.0882     6.7026   149.1984
  179.5000  -999.2500  -999.2500   -48.2042     7.2682     6.8561   145.8250
  180.0000  -999.2500  -999.2500   -48.3007     7.3672     7.0001   142.4516
  180.5000  -999.2500  -999.2500   -48.4192     7.4259     7.1390   139.0782
  181.0000  -999.2500  -999.2500   -48.5362     7.4815     7.2740   135.7047
  181.5000  -999.2500  -999.2500   -48.4966     7.5371     7.4090   132.3313
  182.0000  -999.2500  -999.2500   -48.2972     7.6002     7.5440   128.7575
  182.5000  -999.2500  -999.2500   -48.2700     7.7398     7.6771   129.3838
  183.0000  -999.2500  -999.2500   -48.4117     7.9512     7.7369   130.2271
  183.5000  -999.2500  -999.2500   -48.5544     8.0192     7.6481   131.0705
  184.0000  -999.2500  -999.2500   -48.6965     7.8188     7.5620   131.9138
  184.5000  -999.2500  -999.2500   -48.7935     7.6332     7.4756   132.7655
  185.0000  -999.2500  -999.2500   -48.6759     7.7881     7.3892   137.1553
  185.5000  -999.2500  -999.2500   -48.5639     7.8690     7.3028   142.6973
  186.0000  -999.2500  -999.2500   -48.4524     7.6034     7.2167   148.2393
  186.5000  -999.2500  -999.2500   -48.3413     7.4318     7.1299   153.7814
  187.0000  -999.2500  -999.2500   -48.2230     7.2677     7.0195   157.6439
  187.5000  -999.2500  -999.2500   -48.2899     7.1227     6.8082   160.0474
  188.0000  -999.2500  -999.2500   -48.4181     6.9208     6.6008   160.9674
  188.5000  -999.2500  -999.2500   -48.5495     6.8218     6.3928   161.8874
  189.0000  -999.2500  -999.2500   -48.6808     6.8233     6.1853   162.8074
  189.5000  -999.2500  -999.2500   -48.8035     6.8175     6.2174   163.7274
  190.0000  -999.2500  -999.2500   -48.7189     6.8040     6.2807   162.2173
  190.5000  -999.2500  -999.2500   -48.6299     6.8697     6.3445   160.4101
  191.0000  -999.2500  -999.2500   -48.5412     6.9841     6.4078   157.8156
  191.5000  -999.2500  -999.2500   -48.4528     6.9088     6.4711   155.1532
  192.0000  -999.2500  -999.2500   -48.3634     6.8692     6.5343   152.2617
  192.5000  -999.2500  -999.2500   -48.2726     6.9963     6.5978   149.3702
  193.0000  -999.2500  -999.2500   -48.2153     7.0587     6.6608   146.4787
  193.5000  -999.2500  -999.2500   -48.6153     7.1238     6.7230   146.2738
