~VERSION INFORMATION
 VERS.                2.0:   CWLS LOG ASCII STANDARD - VERSION 2.0
 WRAP.                 NO:   ONE LINE PER DEPTH STEP
~WELL INFORMATION
#MNEM.UNIT      DATA TYPE    INFORMATION
#----------   ------------   ------------------------------
 STRT.F           12.0000:   START DEPTH
 STOP.F          510.0000:   STOP DEPTH
 STEP.F            0.5000:   STEP LENGTH
 NULL.          -999.2500:   NO VALUE
 COMP. LAWRENCE-ALLISON &AS:   COMPANY
 WELL. NPR 3 #51-41SX10UP4:   WELL
 FLD .            NATRONA:   FIELD
 LOC .      S10 T38N R78W:   LOCATION
 CNTY.            NATRONA:   COUNTY
 STAT.            WYOMING:   STATE
 CTRY. UNITED STATES OF AMERICA:   COUNTRY
 SRVC.      Dresser Atlas:   SERVICE COMPANY
 DATE.        15-DEC-1984:   LOGDATE
 API .       490251100000:   API NUMBER
~CURVE INFORMATION
#MNEM.UNIT       API CODE    CURVE DESCRIPTION
#----------   ------------   ------------------------------
 DEPT.F                  :   
 RD  .OHMM   11 220 10 00:   RESISTIVITY DEEP
 RS  .OHMM   11 220 09 00:   RESISTIVITY SHALLOW
 SPR .MV     11 010 01 00:   SPONTANEOUS POTENTIAL FROM RES.
 DT  .US/F   60 520 00 00:   INTERVAL TRANSIT TIME
 CALD.IN     45 280 60 00:   CALIPER FROM DENSITY LOG
 CNC .DEC    42 890 00 00:   NEUTRON POROSITY
 CORR.G/C3   45 356 01 00:   DENSITY CORRECTION
 GRD .GAPI   45 310 01 00:   GAMMA RAY FROM DENSITY LOG
 PORD.DEC    45 890 00 00:   POROSITY DENSITY
 RHOB.G/C3   45 350 01 00:   BULK DENSITY
~PARAMETER INFORMATION
#MNEM.UNIT          VALUE    DESCRIPTION
#----------   ------------   ------------------------------
 PD  .                 GL:   PERMANENT DATUM
 EPD .F              5207:   ELEVATION PERMANENT DATUM
 LMF .                 GL:   LOG MEASURED FROM
 DMF .                 GL:   DRILLING MEASURED FROM
 EGL .F              5207:   GROUND LEVEL
 DATE.        15-DEC-1984:   RUN DATE
 RUN .                  1:   RUN NUMBER
 DD  .F               515:   DEPTH DRILLER
 DL  .F               511:   DEPTH LOGGER
 BLI .F               510:   BOTTOM LOG INTERVAL
 TLI .F                20:   TOP LOG INTERVAL
 CS  .IN            8.625:   CASING SIZE
 CBD .F                20:   CASING BOTTOM DRILLER
 CBL .F                20:   CASING BOTTOM LOGGER
 BS  .IN            7.875:   BIT SIZE
 BSD .F               515:   BIT SIZE AT DEPTH
 DFT .          KCL/WATER:   DRILLING FLUID TYPE
 MSS .           FLOWLINE:   MUD SAMPLE SOURCE
 RMS .OHMM           .129:   RESISTIVITY MUD SAMPLE
 MST .F                94:   MUD SAMPLE TEMPERATURE
 RMF .OHMM            .10:   RESISTIVITY MUD FILTRATE SAMPLE
 MFST.F                94:   MUD FILTRATE SAMPLE TEMPERATURE
 RMC .OHMM            .16:   RESISTIVITY MUD CAKE
 MCST.F                94:   MUD CAKE SAMPLE TEMPERATURE
 MFSS.               CALC:   MUD FILTRATE SAMPLE SOURCE
 MCSS.               CALC:   MUD CAKE SAMPLE SOURCE
 TCS .HRS               2:   TIME CURCULATED STOPPED
 MRT .F               100:   MAXIMUM RECORDED TEMPERATURE
 LUN .               6270:   LOGGING UNIT NUMBER
 LUL .                 FM:   LOGGING UNIT LOCATION
 ENGI.            LEBSOCK:   RECORDING ENGINEER
 WITN.          DAN LUERS:   WITNESSED BY
 CLNT.            A2DTECH:   CLIENT CODE
 ORIG.           5" PRINT:   ORIGIN OF DATA
 UWI .       490251100000:   UNIQUE WELL ID
 DICO. A2D Technologies, Inc.:   DIGITIZING COMPANY
~OTHER INFORMATION
~A   DEPT       RD         RS        SPR         DT       CALD          CNC     CORR         GRD      PORD       RHOB   
   12.0000  -999.2500  -999.2500  -999.2500  -999.2500  -999.2500     0.2619  -999.2500    79.3969  -999.2500  -999.2500
   12.5000  -999.2500  -999.2500  -999.2500  -999.2500  -999.2500     0.2641  -999.2500    80.5936  -999.2500  -999.2500
   13.0000  -999.2500  -999.2500  -999.2500  -999.2500  -999.2500     0.2646  -999.2500    84.7532  -999.2500  -999.2500
   13.5000  -999.2500  -999.2500  -999.2500  -999.2500  -999.2500     0.2627  -999.2500    84.1721  -999.2500  -999.2500
   14.0000  -999.2500  -999.2500  -999.2500   240.1199  -999.2500     0.2639  -999.2500    80.4504  -999.2500  -999.2500
   14.5000  -999.2500  -999.2500  -999.2500   240.1199  -999.2500     0.2873  -999.2500    79.7505  -999.2500  -999.2500
   15.0000  -999.2500  -999.2500  -999.2500   241.6830  -999.2500     0.2894  -999.2500    80.6538  -999.2500  -999.2500
   15.5000  -999.2500  -999.2500  -999.2500   244.0593  -999.2500     0.2836  -999.2500    83.3319  -999.2500  -999.2500
   16.0000  -999.2500  -999.2500  -999.2500   239.6901  -999.2500     0.2776  -999.2500    84.5286  -999.2500  -999.2500
   16.5000  -999.2500  -999.2500  -999.2500   244.3004  -999.2500     0.2785  -999.2500    84.2437  -999.2500  -999.2500
   17.0000  -999.2500  -999.2500  -999.2500   243.7787  -999.2500     0.2812  -999.2500    83.8108  -999.2500  -999.2500
   17.5000  -999.2500  -999.2500  -999.2500   239.8607  -999.2500     0.2848  -999.2500    83.6741  -999.2500  -999.2500
   18.0000  -999.2500  -999.2500  -999.2500   231.4155  -999.2500     0.2871  -999.2500    87.5575  -999.2500  -999.2500
   18.5000  -999.2500  -999.2500  -999.2500   209.0070  -999.2500     0.3132  -999.2500    99.4036  -999.2500  -999.2500
   19.0000  -999.2500  -999.2500  -999.2500   181.0135  -999.2500     0.3066  -999.2500   103.8595  -999.2500  -999.2500
   19.5000  -999.2500  -999.2500  -999.2500   159.8125  -999.2500     0.2967  -999.2500   103.2784  -999.2500  -999.2500
   20.0000 25033.9648     2.4460   -62.8106   147.9700     7.8784     0.2732     0.0229   100.9166     0.1549     2.4170
   20.5000 25050.6973     2.5816   -62.3654   146.7620     7.8493     0.2726     0.0170   101.8198     0.1561     2.4171
   21.0000 25067.4414     6.7897   -62.2160   139.3223     7.8202     0.2906     0.0111   102.1276     0.1536     2.4246
   21.5000 25084.1953    11.1664   -62.2142   133.8026     7.8225     0.3113    -0.0023   101.9615     0.1506     2.4262
   22.0000 24928.2520    14.1266   -61.9170   125.2803     7.8808     0.3051    -0.0007   100.3756     0.1488     2.4203
   22.5000 24773.2812    13.9385   -61.6197   123.9284     7.9259     0.3040     0.0220   101.5723     0.1524     2.4159
   23.0000 24790.3906    12.4857   -61.6182   123.3947     7.9413     0.3148     0.0484   104.5467     0.1559     2.4145
   23.5000 24810.5527    10.8392   -61.6168   122.9620     7.9419     0.3202     0.0659   106.3360     0.1571     2.4176
   24.0000 24827.1348    10.0187   -61.6154   121.8365     7.9425     0.3063     0.0645   106.7919     0.1523     2.4283
   24.5000 24843.7285    14.7551   -61.6136   119.6544     7.9581     0.2982     0.0601   106.8033     0.1370     2.4548
   25.0000 24860.3340    15.7074   -61.7605   118.1515     7.9881     0.3006     0.0527   106.8148     0.1306     2.4576
   25.5000 25049.3027    16.0426   -62.2028   118.1580     8.0037     0.3087     0.0438   106.9748     0.1316     2.4548
   26.0000 24893.5762    16.4984   -62.2011   118.6174     7.9744     0.3087     0.0334   107.5785     0.1330     2.4541
   26.5000 24910.4941    16.5050   -62.4958   119.4111     7.9601     0.3086     0.0182   105.8151     0.1336     2.4542
   27.0000 24931.0273    16.9741   -62.4941   120.2925     7.9757     0.3122     0.0065   105.2311     0.1341     2.4528
   27.5000 24947.6934    17.2531   -62.4926   120.2991     7.9614     0.3254     0.0006   105.3935     0.1377     2.4454
   28.0000 24964.3652    17.8306   -62.4909   120.1547     7.9620     0.3278     0.0068   109.4050     0.1437     2.4395
   28.5000 24981.0527    18.2111   -62.4894   119.7084     7.9477     0.3151     0.0310   111.1943     0.1437     2.4433
   29.0000 24997.7500    18.8583   -62.4880   117.9791     7.9485     0.3073     0.0431   110.4158     0.1415     2.4502
   29.5000 25014.4570    19.5285   -62.4866   117.3064     7.9490     0.3181     0.0613   106.1830     0.1373     2.4540
   30.0000 25031.1777    21.2239   -62.4852   117.7208     7.9496     0.3217     0.0735   105.3027     0.1304     2.4594
   30.5000 25048.4668    25.5835   -62.4837   118.5287     7.9502     0.3090     0.0676   104.7216     0.1295     2.4580
   31.0000 25068.8359    28.0325   -62.4820   119.2145     7.9656     0.2973     0.0421   108.2915     0.1357     2.4472
   31.5000 25085.5918    29.6019   -62.6288   119.7494     7.9810     0.2877     0.0257   112.3030     0.1444     2.4322
   32.0000 25102.3574    29.6138   -62.7750   120.1333     7.9817     0.2853     0.0197   111.8700     0.1519     2.4223
   32.5000 16827.4824    29.6257   -62.7735   120.3663     7.9673     0.3242     0.0289   107.4370     0.1537     2.4194
   33.0000 18045.4141    29.6376   -62.7721   120.6747     7.9680     0.3287     0.0275   106.8559     0.1546     2.4180
   33.5000 22522.1094    30.0617   -62.7707   120.5940     7.9834     0.3191     0.0124   107.6110     0.1566     2.4166
   34.0000 25169.8184    30.2822   -63.0789   120.1611     7.9840     0.3143    -0.0008   109.9928     0.1560     2.4257
   34.5000 24504.3945    30.0858   -63.3596   118.5828     8.0142     0.3191     0.0008   108.9673     0.1518     2.4318
   35.0000 24520.7715    30.0982   -63.3578   116.4761     8.0124     0.3130     0.0084   105.7195     0.1458     2.4379
   35.5000 24878.3359    30.5317   -63.3563   114.0676     7.9710     0.3076     0.0266   102.0272     0.1420     2.4471
   36.0000 25067.4414    30.5440   -63.3549   112.6402     7.9566     0.2984     0.0448    97.8906     0.1370     2.4531
   36.5000 25257.9824    30.5563   -63.3535   111.9615     7.9573     0.2841     0.0434    96.5590     0.1325     2.4562
   37.0000 25274.8652    30.5685   -63.3521   111.5983     7.9282     0.2682     0.0390    95.8423     0.1325     2.4548
   37.5000 25291.7578    30.5808   -63.3506   111.3768     7.8991     0.2709     0.0271    95.4065     0.1348     2.4504
   38.0000 25309.2266    30.5931   -63.3489   111.2324     7.8997     0.2850     0.0032    95.4208     0.1384     2.4467
   38.5000 23315.7773    30.6054   -63.3474   111.1635     7.9004     0.3081    -0.0028    96.0248     0.1396     2.4475
   39.0000 18703.1836    30.5886   -63.3460   111.7000     7.9010     0.3141    -0.0026    96.6289     0.1373     2.4551
   39.5000 20905.1973    30.2099   -63.3446   112.6122     7.9016     0.3007     0.0005    98.4182     0.1293     2.4687
   40.0000 24519.4062    30.0140   -63.3432   112.6189     7.9021     0.2816     0.0337    99.0222     0.1227     2.4718
   40.5000 24872.7969    29.8195   -62.8851   112.3251     7.9027     0.2752     0.0504    95.3402     0.1239     2.4659
   41.0000 24722.0215    29.8344   -62.7482   112.0297     7.9033     0.2764     0.0473    93.4184     0.1350     2.4473
   41.5000 24739.0977    29.8464   -62.1551   111.7328     7.9039     0.2812     0.0221    94.9114     0.1418     2.4331
   42.0000 24759.4902    29.8584   -62.1537   111.4374     7.9046     0.2911    -0.0109    99.9599     0.1493     2.4302
   42.5000 24773.3086    29.0369   -62.1523   111.2192     7.9051     0.2920    -0.0139   101.4499     0.1480     2.4341
   43.0000 24790.5000    27.8916   -62.1508   111.1502     7.9057     0.2985     0.0104   100.8688     0.1430     2.4402
   43.5000 24807.6914    27.5174   -62.1494   111.1568     7.9063     0.3072     0.0406   102.0683     0.1381     2.4470
   44.0000 24824.8828    27.1536   -62.2959   110.1839     7.9068     0.3087     0.0347   106.3269     0.1369     2.4486
   44.5000 24842.0742    26.7893   -62.2941   109.0567     7.9074     0.3028     0.0134   109.7979     0.1405     2.4418
   45.0000 24859.2656    26.8028   -62.4410   109.0649     7.9080     0.3004     0.0033   105.0686     0.1429     2.4398
