~VERSION INFORMATION
 VERS.                2.0:   CWLS LOG ASCII STANDARD - VERSION 2.0
 WRAP.                 NO:   ONE LINE PER DEPTH STEP
~WELL INFORMATION
#MNEM.UNIT      DATA TYPE    INFORMATION
#----------   ------------   ------------------------------
 STRT.F           34.0000:   START DEPTH
 STOP.F          604.0000:   STOP DEPTH
 STEP.F            0.5000:   STEP LENGTH
 NULL.          -999.2500:   NO VALUE
 COMP. FENIX & SCISSON INC:   COMPANY
 WELL.       NPR #17 SX-2:   WELL
 FLD .             TEAPOT:   FIELD
 LOC .       S2 T38N R78W:   LOCATION
 CNTY.            NATRONA:   COUNTY
 STAT.            WYOMING:   STATE
 CTRY. UNITED STATES OF AMERICA:   COUNTRY
 SRVC.       Schlumberger:   SERVICE COMPANY
 DATE.        18-MAR-1977:   LOGDATE
 API .       490251032700:   API NUMBER
~CURVE INFORMATION
#MNEM.UNIT       API CODE    CURVE DESCRIPTION
#----------   ------------   ------------------------------
 DEPT.F                  :   
 SPR .MV     07 010 01 00:   SPONTANEOUS POTENTIAL
 ILD .OHMM   07 120 46 00:   INDUCTION LOG DEEP
 ILM .OHMM   07 120 44 00:   INDUCTION LOG MEDIUM
 LL8 .OHMM   07 220 08 00:   LATEROLOG-8 RES.
 CALD.IN     45 280 60 00:   CALIPER FROM DENSITY LOG
 GRD .GAPI   45 310 01 00:   GAMMA RAY FROM DENSITY LOG
 CORR.G/C3   45 356 01 00:   DENSITY CORRECTION
 DPHI.DEC    45 890 12 00:   DENSITY POROSITY SANDSTONE
 RHOB.G/C3   45 350 01 00:   BULK DENSITY
~PARAMETER INFORMATION
#MNEM.UNIT          VALUE    DESCRIPTION
#----------   ------------   ------------------------------
 PD  .                 GL:   PERMANENT DATUM
 EPD .F              5122:   ELEVATION PERMANENT DATUM
 LMF .                 KB:   LOG MEASURED FROM
 DAPD.F                 4:   FEET ABOVE PERMANENT DATUM
 DMF .                 KB:   DRILLING MEASURED FROM
 EKB .F              5126:   KELLING BUSHING
 EGL .F              5122:   GROUND LEVEL
 DATE.        18-MAR-1977:   RUN DATE
 RUN .                  1:   RUN NUMBER
 DD  .F               600:   DEPTH DRILLER
 DL  .F               605:   DEPTH LOGGER
 BLI .F               604:   BOTTOM LOG INTERVAL
 TLI .F                44:   TOP LOG INTERVAL
 CS  .IN            8.625:   CASING SIZE
 CBD .F                40:   CASING BOTTOM DRILLER
 CBL .F                44:   CASING BOTTOM LOGGER
 BS  .IN            7.875:   BIT SIZE
 BSD .F               600:   BIT SIZE AT DEPTH
 DFT .            KCL MUD:   DRILLING FLUID TYPE
 DFD .                8.9:   DRILLING FLUID DENSITY
 DFV .                 39:   DRILLING FLUID VISCOSITY
 DFPH.                8.5:   DRILLING FLUID PH
 DFL .                6.1:   DRILLING FLUID LOSS
 MSS .                PIT:   MUD SAMPLE SOURCE
 RMS .OHMM           0.26:   RESISTIVITY MUD SAMPLE
 MST .F                52:   MUD SAMPLE TEMPERATURE
 RMF .OHMM           0.24:   RESISTIVITY MUD FILTRATE SAMPLE
 MFST.F                52:   MUD FILTRATE SAMPLE TEMPERATURE
 MFSS.               MEAS:   MUD FILTRATE SAMPLE SOURCE
 TCS .HRS            0230:   TIME CURCULATED STOPPED
 LUN .               7711:   LOGGING UNIT NUMBER
 LUL .               CSPR:   LOGGING UNIT LOCATION
 ENGI.             SAYLER:   RECORDING ENGINEER
 WITN.         STUEBINGER:   WITNESSED BY
 CLNT.            A2DTECH:   CLIENT CODE
 ORIG.           5" PRINT:   ORIGIN OF DATA
 UWI .       490251032700:   UNIQUE WELL ID
 DICO. A2D Technologies, Inc.:   DIGITIZING COMPANY
~OTHER INFORMATION
~A   DEPT      SPR        ILD        ILM        LL8       CALD        GRD       CORR       DPHI       RHOB   
   34.0000  -999.2500  -999.2500  -999.2500  -999.2500  -999.2500  -999.2500  -999.2500  -999.2500  -999.2500
   34.5000  -999.2500  -999.2500  -999.2500  -999.2500     8.2962    72.9652    -0.2139  -999.2500     2.0894
   35.0000  -999.2500  -999.2500  -999.2500  -999.2500     8.2968    72.4790    -0.2154  -999.2500     2.0555
   35.5000  -999.2500  -999.2500  -999.2500  -999.2500     8.2974    73.1071    -0.2198  -999.2500     2.0428
   36.0000  -999.2500  -999.2500  -999.2500  -999.2500     8.2980    73.8581    -0.2265  -999.2500     2.0482
   36.5000  -999.2500  -999.2500  -999.2500  -999.2500     8.3134    74.7573    -0.2219  -999.2500     2.0535
   37.0000  -999.2500  -999.2500  -999.2500  -999.2500     8.3140    75.3603    -0.2143  -999.2500     2.0693
   37.5000  -999.2500  -999.2500  -999.2500  -999.2500     8.3146    75.8150    -0.2097  -999.2500     2.0852
   38.0000  -999.2500  -999.2500  -999.2500  -999.2500     8.3152    75.8254    -0.2127  -999.2500     2.0995
   38.5000  -999.2500  -999.2500  -999.2500  -999.2500     8.3158    75.0949    -0.2141  -999.2500     2.0958
   39.0000  -999.2500  -999.2500  -999.2500  -999.2500     8.3164    73.9201    -0.1997  -999.2500     2.0704
   39.5000  -999.2500  -999.2500  -999.2500  -999.2500     8.3170    72.4489    -0.1808  -999.2500     2.0419
   40.0000  -999.2500  -999.2500  -999.2500  -999.2500     8.3324    70.2370    -0.1401  -999.2500     2.0248
   40.5000  -999.2500  -999.2500  -999.2500  -999.2500     8.3478    66.8375    -0.1084  -999.2500     2.0181
   41.0000  -999.2500  -999.2500  -999.2500  -999.2500     8.3781    68.3615    -0.0654  -999.2500     2.0707
   41.5000  -999.2500  -999.2500  -999.2500  -999.2500     8.3935    72.3792     0.0228  -999.2500     2.1090
   42.0000  -999.2500  -999.2500  -999.2500  -999.2500     8.4090    73.8341     0.1118  -999.2500     2.1578
   42.5000  -999.2500  -999.2500  -999.2500  -999.2500     8.6915    72.7580     0.0968     0.3115     2.1662
   43.0000  -999.2500  -999.2500  -999.2500  -999.2500     9.5081    70.2252     0.0569     0.3616     2.0698
   43.5000  -999.2500  -999.2500  -999.2500  -999.2500    10.2802    68.0528     0.0321     0.4062     2.0013
   44.0000    -4.6220     1.6792     1.4437     6.7388    10.7110    65.6681     0.0865     0.4239     1.9841
   44.5000    -5.0820     1.8780     3.1021     5.7214    11.8392    64.9967     0.1008     0.4419     1.9324
   45.0000    -5.2161     4.0051     5.0137     5.2407    10.6232    66.9333     0.1084     0.4109     1.8935
   45.5000    -5.0520     7.6109     8.0472     6.1528    11.2618    68.8968     0.0995     0.3653     1.9348
   46.0000    -5.0372     8.5491     8.5141     9.4002    10.7876    69.1758     0.1251     0.3116     1.9972
   46.5000    -5.4739     8.6140     8.5211    11.5031    10.4766    66.5220     0.1124     0.3221     2.1225
   47.0000    -6.2216     8.2140     8.2945    11.6704    10.8778    66.2335     0.1337     0.3419     2.1241
   47.5000    -7.1138     7.8854     7.7443    10.3822    11.3828    68.3205     0.1094     0.3628     2.0927
   48.0000    -7.8098     7.4657     7.5908     8.6757    11.7989    70.1999     0.1136     0.3820     2.0245
   48.5000    -8.3875     6.7800     6.0830     6.7171    11.9477    72.2132     0.1251     0.4011     2.0044
   49.0000    -8.9689     6.2001     5.4100     5.2369    11.7257    74.2264     0.1128     0.4119     1.9920
   49.5000    -9.2522     6.5595     5.1934     5.2774    11.7116    76.6572     0.1220     0.4137     1.9849
   50.0000    -9.2412     7.2853     5.4947     5.6646    10.6587    78.7159     0.1054     0.4232     1.9813
   50.5000    -9.4776     7.0916     5.9354     5.8239    10.8671    80.0853     0.1130     0.3998     1.9693
   51.0000    -9.8361     7.1464     5.9395     5.5907    11.1199    78.9104     0.0898     0.3698     2.0309
   51.5000   -10.4322     7.6658     7.1199     6.1620    12.0404    77.1430     0.0808     0.3356     2.1233
   52.0000   -11.4441     8.6323     7.2365     8.8511    11.5217    75.3755     0.1223     0.2747     2.1984
   52.5000   -12.0329     9.9252     6.7913     9.6266    11.4333    73.6081     0.1164     0.2888     2.2037
   53.0000   -12.6235    10.4998     6.4735     8.9262    11.3744    71.9888     0.1473     0.3025     2.1610
   53.5000   -13.2104    10.3601     5.2216     7.8845    11.9538    70.3695     0.1760     0.3031     2.1498
   54.0000   -13.6520     9.4459     5.1904     7.4646    12.6814    69.7847     0.1746     0.3031     2.1349
   54.5000   -14.0899     8.2866     5.1941     6.8262    13.1567    70.3902     0.1544     0.3030     2.1147
   55.0000   -14.5296     7.6015     5.2346     6.2858    14.0475    71.5857     0.1484     0.3030     2.1118
   55.5000   -14.9694     7.3989     6.8205     5.5523    14.6119    74.1146     0.1350     0.3030     2.1074
   56.0000   -15.7072     7.1520    10.0006     5.3290    14.7904    78.8656     0.1245     0.3029     2.0864
   56.5000   -16.8921     6.9614    11.7410     6.0853    13.4262    87.3204     0.0960     0.3029     2.1060
   57.0000   -19.1202     6.7290    11.5870     6.9476    12.2546    93.4048     0.0727     0.2747     2.1436
   57.5000   -20.9012     6.6400    10.0910     7.5041    10.8457   100.6744     0.0735     0.2339     2.2427
   58.0000   -22.6822     6.8334     8.7882     7.5097    10.4754   105.2782     0.0488     0.2174     2.2900
   58.5000   -24.1651     7.7485     8.2613     7.2592     9.9716   105.7330     0.0541     0.2128     2.3074
   59.0000   -25.6481     8.4866     8.2084     6.7311     9.8238   106.7804     0.0544     0.2173     2.2977
   59.5000   -27.2801     8.8541     8.7454     6.3725     9.7205   109.3092     0.0603     0.2248     2.2925
   60.0000   -29.0611     8.7978     8.8738     6.3774     9.1128   110.2084     0.0920     0.2208     2.3106
   60.5000   -30.4024     8.4469     8.6365     6.6998     8.1785   110.0680     0.0816     0.2085     2.3054
   61.0000   -31.4456     7.7778     7.8416     6.7516     8.2386   110.5254     0.0726     0.1872     2.3460
   61.5000   -32.0641     7.3123     7.3715     6.7583     8.0612   111.4246     0.0628     0.1803     2.3536
   62.0000   -32.9046     7.2168     7.2747     6.8091     7.9874   109.0646     0.0524     0.1760     2.3664
   62.5000   -33.3444     7.2224     7.2294     6.9094     8.0624   105.0749     0.0548     0.1592     2.3860
   63.0000   -33.4879     7.1778     7.1842     7.0600     8.0035   106.4186     0.0425     0.1601     2.3891
   63.5000   -33.7767     7.1834     7.1892     7.1145     7.9744   108.2067     0.0358     0.1604     2.3906
   64.0000   -34.6636     7.1888     7.1443     6.9732     8.0641   108.3652     0.0278     0.1585     2.3892
   64.5000   -35.2523     7.0962     7.1504     6.9786     8.4208   108.2248     0.0250     0.1711     2.3735
   65.0000   -35.9901     7.0037     7.0066     7.1308     8.5104   107.4970     0.0243     0.1630     2.3833
   65.5000   -36.5789     6.9592     6.9628     7.3891     8.5407   106.0258     0.0304     0.1575     2.3857
   66.0000   -36.8714     7.0631     7.0174     7.6027     8.5413   104.7028     0.0418     0.1554     2.3940
   66.5000   -37.0131     7.2674     7.1204     7.7684     8.5419   105.6021     0.0555     0.1575     2.3948
   67.0000   -37.3038     7.4259     7.3771     7.5616     8.5276   107.5383     0.0714     0.1524     2.4024
   67.5000   -37.2946     7.3801     7.4323     7.4616     8.3502   109.7709     0.0647     0.1601     2.3904
   68.0000   -37.4381     7.3856     7.3860     7.7860     8.1134   111.2627     0.0587     0.1556     2.3907
   68.5000   -37.4289     7.4427     7.3923     7.9557     7.9508   110.6805     0.0468     0.1610     2.3974
   69.0000   -37.7198     7.5524     7.3449     7.9067     7.9514   109.5052     0.0355     0.1729     2.3717
   69.5000   -37.8614     7.7171     7.4024     7.5377     8.0707   109.8122     0.0296     0.1735     2.3668
   70.0000   -38.1520     7.8854     7.4591     7.2849     8.1900   110.7115     0.0282     0.1678     2.3701
