~VERSION INFORMATION
 VERS.                2.0:   CWLS LOG ASCII STANDARD - VERSION 2.0
 WRAP.                 NO:   ONE LINE PER DEPTH STEP
~WELL INFORMATION
#MNEM.UNIT      DATA TYPE    INFORMATION
#----------   ------------   ------------------------------
 STRT.F           34.5000:   START DEPTH
 STOP.F          756.0000:   STOP DEPTH
 STEP.F            0.5000:   STEP LENGTH
 NULL.          -999.2500:   NO VALUE
 COMP. FENIX & SCISSON INC:   COMPANY
 WELL.    36 SX 11 #36-11:   WELL
 FLD .        TEAPOT DOME:   FIELD
 LOC .      S11 T38N R78W:   LOCATION
 CNTY.            NATRONA:   COUNTY
 STAT.            WYOMING:   STATE
 CTRY. UNITED STATES OF AMERICA:   COUNTRY
 SRVC.           BIRDWELL:   SERVICE COMPANY
 DATE.        21-FEB-1978:   LOGDATE
 API .       490251059700:   API NUMBER
~CURVE INFORMATION
#MNEM.UNIT       API CODE    CURVE DESCRIPTION
#----------   ------------   ------------------------------
 DEPT.F                  :   
 SPR .MV     05 010 01 00:   SPONTANEOUS POTENTIAL FROM RES.
 SN  .OHMM   05 040 16 00:   SHORT NORMAL 16"
 ILD .OHMM   05 120 46 00:   INDUCTION LOG DEEP
 RHOB.G/C3   45 350 01 00:   BULK DENSITY
 DPHI.DEC    45 890 12 00:   DENSITY POROSITY SANDSTONE
 GRD .GAPI   45 310 01 00:   GAMMA RAY FROM DENSITY LOG
 CALD.IN     45 280 60 00:   CALIPER
 CORR.G/C3   45 356 01 00:   DENSITY CORRECTION
~PARAMETER INFORMATION
#MNEM.UNIT          VALUE    DESCRIPTION
#----------   ------------   ------------------------------
 PD  .                 GL:   PERMANENT DATUM
 EPD .F              5175:   ELEVATION PERMANENT DATUM
 LMF .                 KB:   LOG MEASURED FROM
 DAPD.F                 4:   FEET ABOVE PERMANENT DATUM
 DMF .                 KB:   DRILLING MEASURED FROM
 EKB .F              5179:   KELLING BUSHING
 EGL .F              5175:   GROUND LEVEL
 DATE.          2-21-1978:   RUN DATE
 RUN .                  1:   RUN NUMBER
 DD  .F               765:   DEPTH DRILLER
 DL  .F               760:   DEPTH LOGGER
 BLI .F               754:   BOTTOM LOG INTERVAL
 TLI .F                40:   TOP LOG INTERVAL
 CS  .IN            8.625:   CASING SIZE
 CBD .F                39:   CASING BOTTOM DRILLER
 CBL .F                40:   CASING BOTTOM LOGGER
 BS  .IN            7.875:   BIT SIZE
 BSD .F               765:   BIT SIZE AT DEPTH
 DFT .         LIGNO/SULF:   DRILLING FLUID TYPE
 DFD .                8.6:   DRILLING FLUID DENSITY
 DFV .                 33:   DRILLING FLUID VISCOSITY
 DFPH.               10.5:   DRILLING FLUID PH
 DFL .                 84:   DRILLING FLUID LOSS
 MSS .          FLOW LINE:   MUD SAMPLE SOURCE
 RMS .OHMM            1.8:   RESISTIVITY MUD SAMPLE
 MST .F                56:   MUD SAMPLE TEMPERATURE
 RMF .OHMM            1.8:   RESISTIVITY MUD FILTRATE SAMPLE
 MFST.F                58:   MUD FILTRATE SAMPLE TEMPERATURE
 RMC .OHMM              4:   RESISTIVITY MUD CAKE
 MCST.F                62:   MUD CAKE SAMPLE TEMPERATURE
 MFSS.               MEAS:   MUD FILTRATE SAMPLE SOURCE
 RMB .OHMM           1.48:   RESISTIVITY MUD AT BHT
 BHT .F                68:   BOTTOM HOLE TEMPERATURE
 TCS .HRS               5:   TIME CURCULATED STOPPED
 MRT .F                68:   MAXIMUM RECORDED TEMPERATURE
 LUN .               2958:   LOGGING UNIT NUMBER
 LUL .               CASP:   LOGGING UNIT LOCATION
 ENGI.            POINTER:   RECORDING ENGINEER
 WITN.           MCGINLEY:   WITNESSED BY
 CLNT.            A2DTECH:   CLIENT CODE
 ORIG.       2", 5" PRINT:   ORIGIN OF DATA
 UWI .       490251059700:   UNIQUE WELL ID
 DICO. A2D Technologies, Inc.:   DIGITIZING COMPANY
~OTHER INFORMATION
~A   DEPT      SPR         SN        ILD       RHOB       DPHI         GRD      CALD       CORR   
# ...
   75.0000   -20.6231     6.0099     5.7528     2.3835     0.1698    90.9765     8.0068     0.0200
   75.5000   -20.5778     6.1048     5.7888     2.3819     0.1673    93.4388     8.0055     0.0254
   76.0000   -20.5331     6.1999     5.8250     2.3893     0.1647    92.8955     8.0042     0.0308
   76.5000   -20.4738     6.3060     5.8615     2.3910     0.1597    92.6446     8.0029     0.0363
   77.0000   -20.8029     6.4354     5.8981     2.3937     0.1506    92.8695     8.0015     0.0322
   77.5000   -21.1828     6.5674     5.9350     2.4090     0.1464    93.1208     8.0002     0.0263
   78.0000   -21.5754     6.6854     5.9721     2.4292     0.1450    93.0056     7.9989     0.0204
   78.5000   -21.9674     6.7005     6.0095     2.4256     0.1478    89.5954     7.9976     0.0151
   79.0000   -22.3578     6.7169     6.0471     2.4229     0.1460    83.4728     7.9963     0.0165
   79.5000   -22.7048     6.7333     6.0947     2.4306     0.1440    87.8024     7.9950     0.0180
   80.0000   -22.7905     6.7475     6.0750     2.4326     0.1455    94.6913     7.9952     0.0188
   80.5000   -22.8823     6.5714     6.0483     2.4257     0.1541    97.1905     8.0017     0.0152
   81.0000   -22.9740     6.4363     6.0216     2.4052     0.1572    92.7186     8.0081     0.0115
   81.5000   -23.0723     6.3938     5.9950     2.4028     0.1554    87.6711     8.0139     0.0080
   82.0000   -22.7445     6.3515     5.9686     2.4073     0.1596    83.1857     8.0121     0.0064
   82.5000   -22.1971     6.3246     5.9422     2.3954     0.1678    79.9222     8.0102     0.0175
   83.0000   -21.8589     6.4383     5.9160     2.3887     0.1722    78.3596     8.0082     0.0287
   83.5000   -21.7923     6.5629     5.8899     2.3856     0.1765    78.6202     8.0063     0.0361
   84.0000   -21.7240     5.6994     5.5427     2.3774     0.1842    82.3814     8.0044     0.0432
   84.5000   -21.6722     4.9217     4.7400     2.3661     0.2007    89.1080     8.0025     0.0608
   85.0000   -21.6733     4.2512     4.0535     2.3404     0.2176    90.6209     8.0005     0.0809
   85.5000   -21.6734     3.6725     3.4661     2.3115     0.2559    94.1073     7.9986     0.0931
   86.0000   -21.6734     3.1726     2.9631     2.2737     0.2986    99.3846     7.9967     0.0892
   86.5000   -21.6734     2.7393     2.5326     2.2004     0.2986    99.6150     7.9948     0.0692
   87.0000   -21.6734     2.4584     2.3664     2.1282     0.2986    94.8951     7.9928     0.0496
   87.5000   -21.6734     2.3329     2.2122     2.0600     0.2986    89.2415     7.9909     0.0312
   88.0000   -21.6733     2.2155     2.0675     2.0421     0.2986    87.8575     7.9890     0.0222
   88.5000   -21.6730     2.1044     1.9323     2.0401     0.2986    91.5791     7.9871     0.0177
   89.0000   -21.6729     2.0658     1.8149     2.0457     0.2986    92.4437     7.9851     0.0029
   89.5000   -21.7000     2.1165     1.8149     2.0518     0.2986    91.6255     7.9832    -0.0812
   90.0000   -21.9083     2.2659     2.0180     2.0996     0.2887    86.3831     7.9813    -0.0969
   90.5000   -22.1174     2.6491     2.4064     2.2566     0.2313    80.5471     7.9794    -0.0095
   91.0000   -22.3260     3.0745     2.9452     2.4008     0.1776    74.7642     7.9774     0.0377
   91.5000   -22.5344     5.1967     4.0074     2.4043     0.1531    71.3273     7.9755     0.0364
   92.0000   -22.7431     6.5749     5.4440     2.4138     0.1475    70.3154     7.9736     0.0362
   92.5000   -22.9516     7.6094     7.0329     2.4267     0.1414    68.4973     7.9717     0.0359
   93.0000   -23.1577     8.3040     7.7410     2.4296     0.1360    66.3913     7.9697     0.0355
   93.5000   -23.2388     9.0316     8.5205     2.4386     0.1398    66.0342     7.9678     0.0352
   94.0000   -23.1080     9.8231     9.1553     2.4309     0.1381    64.6013     7.9659     0.0361
   94.5000   -22.9828    10.6839     9.4128     2.4328     0.1350    64.1887     7.9640     0.0428
   95.0000   -22.9377    11.0152     9.1014     2.4381     0.1410    66.2132     7.9620     0.0456
   95.5000   -23.2390    10.7778     8.7508     2.4331     0.1566    68.4214     7.9601     0.0419
   96.0000   -23.2303    10.5083     8.5024     2.4115     0.1699    72.8574     7.9582     0.0419
   96.5000   -23.1122     9.7423     7.8670     2.3881     0.1833    83.1025     7.9563     0.0575
   97.0000   -22.6050     8.8101     7.0050     2.3648     0.2042   100.4404     7.9543     0.0725
   97.5000   -22.0259     7.7914     6.2374     2.3407     0.2295   100.8978     7.9571     0.0723
   98.0000   -21.4919     6.5045     5.5454     2.3064     0.2547    92.4375     7.9624     0.0305
   98.5000   -21.2649     5.7309     5.1539     2.2633     0.2605    84.1975     7.9678    -0.0067
   99.0000   -21.5674     5.4547     5.1624     2.2257     0.2365    82.3397     7.9731     0.0016
   99.5000   -21.9048     5.4734     5.1106     2.3432     0.1853    81.7361     7.9785     0.0144
  100.0000   -22.2418     5.9127     5.3683     2.3823     0.1687    81.3176     7.9839     0.0209
  100.5000   -22.5777     6.8237     6.0636     2.3903     0.1678    83.6862     7.9893     0.0204
  101.0000   -22.8956     7.8751     6.8491     2.3864     0.1669    88.4169     7.9934     0.0199
  101.5000   -23.2145     8.7683     7.7350     2.3883     0.1670    90.1505     7.9876     0.0194
  102.0000   -23.5062     9.4567     8.6626     2.3906     0.1693    93.5828     7.9819     0.0192
  102.5000   -23.5779    10.2298     9.2346     2.3866     0.1718    94.6300     7.9762     0.0268
  103.0000   -23.6554    10.3842     9.6677     2.3807     0.1687    91.9135     7.9738     0.0351
  103.5000   -23.7352    10.5474     9.9614     2.3848     0.1662    89.0548     7.9738     0.0435
  104.0000   -23.8169    10.8802    10.2676     2.3892     0.1662    88.9234     7.9738     0.0435
  104.5000   -23.8359    11.3454    10.5832     2.3935     0.1684    93.4070     7.9736     0.0410
  105.0000   -23.5132    11.8305    10.9085     2.3851     0.1731    93.4944     7.9622     0.0384
  105.5000   -23.0306    12.3363    11.2438     2.3818     0.1783    87.2093     7.9336     0.0392
  106.0000   -22.5564    12.5422    11.5895     2.3766     0.1835    84.1652     7.9052     0.0444
  106.5000   -22.4789    12.7330    11.7761     2.3659     0.1851    83.4610     7.8766     0.0494
  107.0000   -22.4800    12.9266    11.9346     2.3596     0.1858    84.3369     7.8811     0.0545
  107.5000   -22.4863    13.1232    12.0952     2.3629     0.1823    81.6145     7.8907     0.0485
  108.0000   -22.7148    13.3228    12.2580     2.3607     0.1857    74.2421     7.9003     0.0354
  108.5000   -22.7962    13.5240    12.4230     2.3534     0.1902    67.4323     7.9099     0.0219
  109.0000   -22.8812    13.6448    12.5910     2.3476     0.1914    68.0900     7.9194     0.0196
  109.5000   -22.9719    13.6765    12.7707     2.3458     0.1887    68.9858     7.9290     0.0205
  110.0000   -23.0494    13.7103    12.8368     2.3500     0.1722    69.0198     7.9302     0.0216
  110.5000   -23.2932    13.7441    12.9055     2.3782     0.1698    68.8611     7.9243     0.0226
  111.0000   -23.2255    13.9302    12.9753     2.3929     0.1702    69.4160     7.9183     0.0225
  111.5000   -23.1732    14.1693    13.0456     2.3784     0.1734    70.0472     7.9123     0.0212
  112.0000   -23.1197    14.4124    13.1162     2.3755     0.1693    69.3399     7.9063     0.0234
  112.5000   -23.0661    14.6598    13.3571     2.3870     0.1652    67.9868     7.9003     0.0289
  113.0000   -23.0125    14.8373    13.6487     2.3966     0.1668    69.4438     7.8943     0.0328
  113.5000   -22.9606    14.9087    13.8862     2.3995     0.1733    71.6338     7.8882     0.0277
  114.0000   -22.8935    14.9804    13.9043     2.3799     0.1842    72.9409     7.8823     0.0301
  114.5000   -23.2006    15.0525    13.9242     2.3611     0.1855    73.3570     7.8763     0.0365
  115.0000   -23.4585    15.1249    13.9437     2.3593     0.1856    73.2664     7.8730     0.0411
