~VERSION INFORMATION
 VERS.                2.0:   CWLS LOG ASCII STANDARD - VERSION 2.0
 WRAP.                 NO:   ONE LINE PER DEPTH STEP
~WELL INFORMATION
#MNEM.UNIT      DATA TYPE    INFORMATION
#----------   ------------   ------------------------------
 STRT.F           90.5000:   START DEPTH
 STOP.F          836.0000:   STOP DEPTH
 STEP.F            0.5000:   STEP LENGTH
 NULL.          -999.2500:   NO VALUE
 COMP.          U.S. NAVY:   COMPANY
 WELL.    NPR #3 #38-S-35:   WELL
 FLD .           TEAPOT E:   FIELD
 LOC .      S35 T39N R78W:   LOCATION
 CNTY.            NATRONA:   COUNTY
 STAT.            WYOMING:   STATE
 CTRY. UNITED STATES OF AMERICA:   COUNTRY
 SRVC. Schlumberger Well Surveying Corp:   SERVICE COMPANY
 DATE.        21-JUL-1963:   LOGDATE
 API .       490250649100:   API NUMBER
~CURVE INFORMATION
#MNEM.UNIT       API CODE    CURVE DESCRIPTION
#----------   ------------   ------------------------------
 DEPT.F                  :   
 SPR .MV     05 010 01 00:   SPONTANEOUS POTENTIAL FROM RES.
 ASN .OHMM   05 041 16 00:   AMPLIFIED SHORT NORMAL 16"
 ILD .OHMM   05 120 46 00:   INDUCTION LOG DEEP
 CILD.MMHO   05 110 46 00:   CONDUCTIVITY INDUCTION LOG DEEP
 DT  .US/F   60 520 33 00:   INTERVAL TRANSIT TIME
 GR  .GAPI   30 310 01 00:   GAMMA RAY
~PARAMETER INFORMATION
#MNEM.UNIT          VALUE    DESCRIPTION
#----------   ------------   ------------------------------
 LMF .                 KB:   LOG MEASURED FROM
 DMF .                 KB:   DRILLING MEASURED FROM
 EKB .F              5119:   KELLING BUSHING
 EGL .F              5114:   GROUND LEVEL
 DATE.          7-21-1963:   RUN DATE
 RUN .                  1:   RUN NUMBER
 DD  .F               836:   DEPTH DRILLER
 DL  .F               837:   DEPTH LOGGER
 BLI .F               836:   BOTTOM LOG INTERVAL
 TLI .F                90:   TOP LOG INTERVAL
 CBD .F                12:   CASING BOTTOM DRILLER
 BS  .IN             6.75:   BIT SIZE
 BSD .F               836:   BIT SIZE AT DEPTH
 DFT .            GEL-OIL:   DRILLING FLUID TYPE
 DFD .                9.2:   DRILLING FLUID DENSITY
 DFV .                 85:   DRILLING FLUID VISCOSITY
 DFPH.                  8:   DRILLING FLUID PH
 DFL .                3.6:   DRILLING FLUID LOSS
 MSS .           FLOWLINE:   MUD SAMPLE SOURCE
 RMS .OHMM           2.95:   RESISTIVITY MUD SAMPLE
 MST .F                88:   MUD SAMPLE TEMPERATURE
 RMF .OHMM           2.31:   RESISTIVITY MUD FILTRATE SAMPLE
 MFST.F                88:   MUD FILTRATE SAMPLE TEMPERATURE
 RMC .OHMM           2.65:   RESISTIVITY MUD CAKE
 MCST.F                88:   MUD CAKE SAMPLE TEMPERATURE
 MFSS.                  M:   MUD FILTRATE SAMPLE SOURCE
 MCSS.                  M:   MUD CAKE SAMPLE SOURCE
 TCS .HRS               1:   TIME CURCULATED STOPPED
 LUN .               2523:   LOGGING UNIT NUMBER
 LUL .              CSPR.:   LOGGING UNIT LOCATION
 ENGI.             KNOBEL:   RECORDING ENGINEER
 WITN.          JORGENSON:   WITNESSED BY
 CLNT.            A2DTECH:   CLIENT CODE
 ORIG.      2" , 5" PRINT:   ORIGIN OF DATA
 UWI .       490250649100:   UNIQUE WELL ID
 DICO. A2D Technologies, Inc.:   DIGITIZING COMPANY
~OTHER INFORMATION
~A   DEPT      SPR        ASN        ILD       CILD         DT         GR   
# ...
  714.5000   -11.5708     9.1835     7.0130   128.6338   100.8910    60.1820
  715.0000   -11.6102     9.2369     7.0275   129.9745   100.8747    59.3008
  715.5000   -11.6499     9.1950     7.0413   131.3001   100.8585    61.9232
  716.0000   -11.6915     9.1422     7.0597   132.6326   100.8423    63.0502
  716.5000   -11.6976     9.0372     7.2018   131.1769   100.8261    55.3488
  717.0000   -11.5228     8.9319     7.3523   129.0564   100.8105    52.6641
  717.5000   -11.0456     8.8872     7.5028   126.5766   100.7228    53.6351
  718.0000   -10.6709     8.9985     7.6531   124.0967   100.5097    55.0687
  718.5000   -10.5789     9.2678     7.5291   121.6216   100.2951    56.5245
  719.0000   -10.4839     9.5392     7.3071   125.9927    99.4101    56.0570
  719.5000   -10.3882     9.7528     7.0777   136.3891    98.2908    54.5305
  720.0000   -10.3062     9.8097     6.3156   147.8114    96.9152    52.9670
  720.5000   -10.4096     9.6074     5.4782   166.3864    95.5397    52.6043
  721.0000   -10.4737     8.7467     5.0955   182.5826    94.5032    53.2918
  721.5000   -10.3050     7.8511     4.9315   191.6917    94.3606    55.9075
  722.0000   -10.3614     6.9951     4.8543   189.6460    95.9315    57.4236
  722.5000   -10.4139     6.8401     4.8543   187.6877   101.7514    57.4150
  723.0000   -10.4662     7.0419     4.8479   188.7047   107.3926    59.8804
  723.5000   -10.5184     6.8100     5.0657   189.6897   107.8132    63.6380
  724.0000   -10.5707     7.0529     5.3493   180.9753   107.6397    64.3926
  724.5000   -10.6227     8.3017     6.2052   161.6967   107.1507    57.5420
  725.0000   -10.6745     9.7000     7.0729   138.1381   106.2188    53.3967
  725.5000   -10.6990     9.9931     7.9352   122.8556   100.4508    51.4742
  726.0000   -10.7322    10.0554     8.6349   109.5295    93.9061    49.5514
  726.5000   -10.9308    10.1144     8.8917   103.2154    94.9251    52.0605
  727.0000   -11.1268    10.1764     9.0212   103.1736    95.7230    55.3049
  727.5000   -11.3319    10.2376     8.9062   106.1292    96.2626    55.4250
  728.0000   -11.5583    10.3579     8.7898   107.7027    96.7270    56.3088
  728.5000   -11.7906    10.5062     8.6799   108.0714    97.1890    59.5006
  729.0000   -12.0225    10.6560     8.6659   106.3263    97.4186    54.2779
  729.5000   -12.2548    10.8025     9.1441   102.9594    97.2028    50.4282
  730.0000   -12.4939    11.0030     9.6509    98.4512    98.1291    43.7589
  730.5000   -12.8010    11.4000    10.1555    93.9431    99.0755    46.1451
  731.0000   -13.1334    12.3842    10.6592    89.4350    99.6004    45.8506
  731.5000   -13.9203    13.3287    11.1550    84.9278    98.4587    37.6779
  732.0000   -15.2990    14.2749    11.9538    80.4204    97.2101    29.5962
  732.5000   -16.6716    15.2202    12.8130    75.9144    98.4028    21.4911
  733.0000   -18.0481    16.1642    13.7745    70.4816    99.6307    18.7416
  733.5000   -19.4236    17.4986    15.2524    64.5646   101.1272    19.3760
  734.0000   -20.7990    19.5035    16.7518    58.6844   104.8962    20.0746
  734.5000   -22.1744    21.3808    18.2495    54.3076   109.3322    17.3752
  735.0000   -23.5498    22.3383    19.7466    50.8175   117.9940    16.8231
  735.5000   -24.9253    24.2445    21.2437    47.3273   127.6749    14.3441
  736.0000   -26.3013    26.5320    22.7408    43.8372   149.7502    10.3933
  736.5000   -27.6779    28.8193    24.2379    40.5405   154.4906     6.4064
  737.0000   -29.0468    31.2195    25.7354    38.1231   154.2990     2.7896
  737.5000   -30.1404    34.6438    27.2355    35.8327   150.4897     4.2895
  738.0000   -30.6661    38.0588    28.7304    33.5335   156.3164     6.5207
  738.5000   -30.0670    40.6835    29.9288    33.1858   160.4396     8.6366
  739.0000   -30.7306    40.1677    30.0109    32.8351   153.1469     7.8007
  739.5000   -31.7272    39.8961    30.1148    32.4874   206.8238     9.3230
  740.0000   -31.1264    42.1069    30.2160    32.1374   254.5016    10.8364
  740.5000   -30.1903    43.0874    30.1695    31.7915   221.8087     9.6216
  741.0000   -30.1276    43.2461    29.8909    31.7042   173.5173     7.5215
  741.5000   -31.9492    44.1540    29.6148    32.4069    93.5065     6.2975
  742.0000   -32.2018    44.5926    29.2590    33.1091   118.0420    11.6515
  742.5000   -32.1959    42.1905    28.4816    32.8050   138.8611    15.6431
  743.0000   -32.6723    40.4022    27.7031    34.1623   159.8402    19.6391
  743.5000   -32.8231    38.6146    26.9254    35.5196   150.5882    23.0864
  744.0000   -32.5080    36.8279    26.1477    36.8769   135.6643    25.1726
  744.5000   -31.2620    35.0388    25.3685    38.2342   153.5464    27.1007
  745.0000   -30.1050    33.2562    24.5853    39.5395   143.5464    29.5477
  745.5000   -29.7886    31.9820    24.4707    39.3221   135.3646    24.0615
  746.0000   -29.5032    32.3941    24.5136    39.1127   149.6503    19.9444
  746.5000   -29.2079    32.8829    24.8468    38.9033   154.7453    17.1792
  747.0000   -29.4481    32.7567    25.1829    38.6898   134.9650    17.0017
  747.5000   -30.0040    32.6531    25.6703    38.1986   149.8501    18.1620
  748.0000   -30.5706    34.3812    27.0939    36.8182   148.4418    19.3580
  748.5000   -31.0315    35.2449    28.6008    35.4531   145.6832    20.0934
  749.0000   -31.4900    34.6031    30.5959    34.0890   144.2557    17.5015
  749.5000   -31.6461    35.2534    29.6596    32.6999   145.9373    14.3327
  750.0000   -32.3739    36.0863    28.0803    34.0260   147.9685    13.8175
  750.5000   -33.7808    36.7168    26.4718    35.7617   149.7361    15.7734
  751.0000   -35.2417    35.9363    24.8657    37.5375   153.5871    15.9579
  751.5000   -34.4688    32.3247    23.2617    41.0376   174.7369    20.5252
  752.0000   -33.1303    28.5767    21.6577    44.6205   150.6819    20.9201
  752.5000   -31.7840    25.4223    20.0527    48.2034   145.9541    26.9703
  753.0000   -30.5111    23.7988    18.4470    51.7864   142.8631    27.6140
  753.5000   -28.1019    22.4724    16.8537    55.3776   139.1204    31.1544
  754.0000   -25.6518    21.2516    15.7188    58.5653   135.9318    31.3132
  754.5000   -23.6958    20.0280    15.3697    61.1662   132.7431    33.3590
  755.0000   -22.7220    18.8056    15.0153    63.7638   129.5544    32.8648
  755.5000   -22.5321    18.7007    14.7606    64.5646   128.6910    30.1924
  756.0000   -23.1957    19.1128    14.7656    64.3658   123.2631    28.1173
  756.5000   -24.2173    18.8568    14.7630    63.9947   120.6793    33.2418
  757.0000   -25.1460    18.4481    14.9115    63.6236   106.2526    36.0538
  757.5000   -25.2913    18.0703    15.1483    62.7897    96.4036    29.7763
  758.0000   -24.6173    18.2326    15.3873    61.5908   103.1748    27.0713
  758.5000   -24.2929    18.4270    15.6262    60.3919    98.5245    27.3237
  759.0000   -24.7352    18.6189    15.8650    59.1930    98.5937    23.5014
  759.5000   -25.3869    18.7422    16.1036    57.9941    98.6526    22.0308
  760.0000   -26.3839    18.5752    16.3431    57.7640    99.0560    18.9749
  760.5000   -27.3732    18.4073    16.5246    58.0877    99.8455    14.9704
  761.0000   -28.3613    18.3709    16.6467    58.4130   100.6993    12.5765
  761.5000   -29.3643    18.5290    16.7569    58.7380   103.6171    12.9425
  762.0000   -29.8831    18.7524    16.4908    59.0630   109.7902    13.6417
  762.5000   -30.3044    18.5329    16.2021    59.3875   108.9785    15.7670
  763.0000   -30.2403    18.1635    15.9154    59.9085   107.6823    19.1922
  763.5000   -28.7607    17.7846    15.6534    60.6507   106.3861    20.7935
  764.0000   -26.9677    17.7645    15.6219    61.3928   104.9198    23.7341
  764.5000   -25.7988    17.7502    15.5840    62.1350   102.5501    27.1292
  765.0000   -25.5802    17.7051    15.5457    62.8772   100.1760    24.2092
  765.5000   -25.3517    17.6601    15.5079    63.6193    98.6623    21.8186
  766.0000   -25.1264    17.6143    15.4654    64.3615    98.1439    26.7205
