~VERSION INFORMATION
 VERS.                2.0:   CWLS LOG ASCII STANDARD - VERSION 2.0
 WRAP.                 NO:   ONE LINE PER DEPTH STEP
~WELL INFORMATION
#MNEM.UNIT      DATA TYPE    INFORMATION
#----------   ------------   ------------------------------
 STRT.F           38.5000:   START DEPTH
 STOP.F          606.0000:   STOP DEPTH
 STEP.F            0.5000:   STEP LENGTH
 NULL.          -999.2500:   NO VALUE
 COMP. FENIX & SCISSON INC:   COMPANY
 WELL.      NPR-X3 #185-2:   WELL
 FLD .             TEAPOT:   FIELD
 LOC .       S2 T38N R78W:   LOCATION
 CNTY.            NATRONA:   COUNTY
 STAT.            WYOMING:   STATE
 CTRY. UNITED STATES OF AMERICA:   COUNTRY
 SRVC.            Unknown:   SERVICE COMPANY
 DATE.        30-JAN-1978:   LOGDATE
 API .       490251056200:   API NUMBER
~CURVE INFORMATION
#MNEM.UNIT       API CODE    CURVE DESCRIPTION
#----------   ------------   ------------------------------
 DEPT.F                  :   
 CALD.IN     45 280 60 00:   CALIPER
 GRD .GAPI   45 310 01 00:   GAMMA RAY FROM DENSITY LOG
 CORR.G/C3   45 356 01 00:   DENSITY CORRECTION
 RHOB.G/C3   45 350 01 00:   BULK DENSITY
 DPHI.DEC    45 890 12 00:   DENSITY POROSITY SANDSTONE
 SPR .MV     05 010 01 00:   SPONTANEOUS POTENTIAL FROM RES.
 SN  .OHMM   05 040 16 00:   SHORT NORMAL 16"
 ILD .OHMM   05 120 46 00:   INDUCTION LOG DEEP
~PARAMETER INFORMATION
#MNEM.UNIT          VALUE    DESCRIPTION
#----------   ------------   ------------------------------
 PD  .                 GL:   PERMANENT DATUM
 EPD .F              5134:   ELEVATION PERMANENT DATUM
 LMF .                 KB:   LOG MEASURED FROM
 DAPD.F                 4:   FEET ABOVE PERMANENT DATUM
 DMF .                 KB:   DRILLING MEASURED FROM
 EKB .F              5138:   KELLING BUSHING
 EGL .F              5134:   GROUND LEVEL
 DATE.            1-30-78:   RUN DATE
 RUN .                  1:   RUN NUMBER
 DD  .F               600:   DEPTH DRILLER
 DL  .F               604:   DEPTH LOGGER
 BLI .F               598:   BOTTOM LOG INTERVAL
 TLI .F                40:   TOP LOG INTERVAL
 CS  .IN            8.625:   CASING SIZE
 CBD .F                40:   CASING BOTTOM DRILLER
 CBL .F                41:   CASING BOTTOM LOGGER
 BS  .IN            7.875:   BIT SIZE
 BSD .F               600:   BIT SIZE AT DEPTH
 DFT .                KCL:   DRILLING FLUID TYPE
 DFD .                8.6:   DRILLING FLUID DENSITY
 DFV .                 34:   DRILLING FLUID VISCOSITY
 DFPH.                 10:   DRILLING FLUID PH
 DFL .                  7:   DRILLING FLUID LOSS
 MSS .                PIT:   MUD SAMPLE SOURCE
 RMS .OHMM            .65:   RESISTIVITY MUD SAMPLE
 MST .F                70:   MUD SAMPLE TEMPERATURE
 RMF .OHMM            1.2:   RESISTIVITY MUD FILTRATE SAMPLE
 MFST.F                64:   MUD FILTRATE SAMPLE TEMPERATURE
 MFSS.               MEAS:   MUD FILTRATE SAMPLE SOURCE
 RMB .OHMM            .64:   RESISTIVITY MUD AT BHT
 BHT .F                71:   BOTTOM HOLE TEMPERATURE
 TCS .HRS               3:   TIME CURCULATED STOPPED
 MRT .F                71:   MAXIMUM RECORDED TEMPERATURE
 LUN .               2958:   LOGGING UNIT NUMBER
 LUL .                CAS:   LOGGING UNIT LOCATION
 ENGI.           REYNOLDS:   RECORDING ENGINEER
 WITN.         HARRINGTON:   WITNESSED BY
 CLNT.            A2DTECH:   CLIENT CODE
 ORIG.        2" 5" PRINT:   ORIGIN OF DATA
 UWI .       490251056200:   UNIQUE WELL ID
 DICO. A2D Technologies, Inc.:   DIGITIZING COMPANY
~OTHER INFORMATION
~A   DEPT     CALD        GRD        CORR      RHOB       DPHI        SPR         SN        ILD   
# ...
  362.5000     8.1186   107.2457     0.1908     2.4655     0.1029   -62.2636     9.0166     7.8870
  363.0000     8.1170   105.9667     0.1251     2.4877     0.0770   -62.0499     9.0372     8.0581
  363.5000     8.1155   108.5516     0.0741     2.5162     0.0477   -61.8354     9.0579     8.2329
  364.0000     8.1140   108.3469     0.0750     2.5777     0.1066   -61.8824     9.0786     8.4390
  364.5000     8.1125   109.3866     0.0775     2.4848     0.1064   -62.1798     9.0994     8.3751
  365.0000     8.1110   110.9340     0.0724     2.4868     0.1058   -62.4785     9.1200     8.2472
  365.5000     8.1095   114.1242     0.0659     2.4890     0.1057   -62.7235     9.1420     8.0037
  366.0000     8.1080   116.6843     0.0673     2.4881     0.1124   -62.6746     9.1645     6.9772
  366.5000     8.1065   116.9837     0.0692     2.4662     0.1300   -62.6318     8.9928     6.0890
  367.0000     8.1049   121.2140     0.0774     2.4437     0.1451   -62.5895     8.5693     5.7301
  367.5000     8.1034   125.2112     0.0950     2.4213     0.1556   -62.5444     7.5789     5.7366
  368.0000     8.1019   131.0682     0.0871     2.3987     0.1591   -62.3880     6.6082     5.8806
  368.5000     8.1005   133.7646     0.0658     2.3920     0.1431   -62.1029     6.1022     5.8969
  369.0000     8.0999   132.6777     0.0870     2.4248     0.1384   -61.8190     6.0602     5.8969
  369.5000     8.0696   133.8985     0.0850     2.4282     0.1088   -61.5348     6.0952     5.8969
  370.0000     8.0605   136.1030     0.0715     2.4502     0.0904   -61.2485     6.1057     5.9718
  370.5000     8.0617   136.6125     0.0577     2.5131     0.0936   -61.1348     8.1097     6.7926
  371.0000     8.0631   128.0274     0.0512     2.5048     0.0949   -61.1319     9.5542     7.7263
  371.5000     8.0645   127.6091     0.0449     2.5003     0.0996   -61.1329    10.2495     8.7882
  372.0000     8.0659   127.8616     0.0386     2.4960     0.1065   -61.1947    10.6475     9.7715
  372.5000     8.0673   125.2963     0.0387     2.4847     0.1120   -61.4756    10.8626     9.5777
  373.0000     8.0687   123.7963     0.0406     2.4735     0.1153   -61.7435    11.0582     9.3362
  373.5000     8.0700   118.0526     0.0438     2.4669     0.1185   -61.9317    11.2568     9.2308
  374.0000     8.0714   112.8927     0.0437     2.4667     0.1184   -61.9271    11.4604     9.1632
  374.5000     8.0728   108.7383     0.0439     2.4668     0.1177   -61.8576    11.6302     9.3631
  375.0000     8.0742   109.6012     0.0504     2.4637     0.1221   -61.6590    11.7881     9.7686
  375.5000     8.0756   110.5862     0.0596     2.4584     0.1264   -61.4626    11.9547    10.5080
  376.0000     8.0770   106.7250     0.0598     2.4465     0.1312   -61.2659    12.4934    11.3126
  376.5000     8.0783   104.4154     0.0713     2.4374     0.1434   -61.0696    13.4817    12.1776
  377.0000     8.0793    99.3290     0.0872     2.4210     0.1622   -60.8739    14.9798    13.2142
  377.5000     8.0751    92.5053     0.1133     2.3863     0.1811   -60.6067    16.6444    14.5360
  378.0000     8.0699    85.8521     0.0858     2.3531     0.1959   -60.1693    18.4940    15.9901
  378.5000     8.0647    80.5445     0.0763     2.3318     0.1928   -59.7316    20.5492    17.5895
  379.0000     8.0594    80.0666     0.0994     2.3354     0.2049   -59.4861    22.5747    19.3490
  379.5000     8.0542    80.8692     0.1093     2.2927     0.2205   -59.3779    24.4775    21.5246
  380.0000     8.0490    82.0093     0.1695     2.3061     0.2186   -59.2730    25.2383    21.4478
  380.5000     8.0438    82.2006     0.1755     2.2702     0.1853   -59.1682    26.0387    21.3365
  381.0000     8.0386    82.9472     0.1661     2.2538     0.1913   -59.0635    26.6160    21.2245
  381.5000     8.0333    86.0051     0.1683     2.3288     0.1988   -58.9643    26.7052    21.1301
  382.0000     8.0281    86.6423     0.2048     2.3128     0.2132   -58.7463    26.7947    21.7265
  382.5000     8.0229    88.2298     0.1728     2.2827     0.2302   -58.5200    27.1503    22.3661
  383.0000     8.0211    85.1791     0.1634     2.2761     0.2237   -58.2952    27.7007    23.0225
  383.5000     8.0283    79.4722     0.1721     2.2961     0.2271   -58.1486    28.2623    23.6982
  384.0000     8.0352    78.0041     0.1667     2.2664     0.2235   -58.2001    28.8867    24.3937
  384.5000     8.0422    75.5630     0.1898     2.2821     0.2236   -58.4869    29.5347    25.1096
  385.0000     8.0492    74.5379     0.2026     2.2818     0.2251   -58.7694    30.1972    25.6275
  385.5000     8.0562    68.9533     0.1819     2.2798     0.2106   -59.0564    30.7941    25.6275
  386.0000     8.0474    69.2305     0.1636     2.3321     0.1850   -59.0576    30.8002    25.6273
  386.5000     8.0244    71.5721     0.1765     2.3869     0.1675   -58.9342    30.7939    25.6255
  387.0000     8.0196    71.5822     0.1689     2.3827     0.1837   -58.8052    30.7958    25.8257
  387.5000     8.0276    70.7212     0.1635     2.3453     0.1911   -58.9788    31.1496    26.1826
  388.0000     8.0378    69.8960     0.1705     2.3468     0.2018   -59.3993    32.2410    26.5427
  388.5000     8.0479    70.8538     0.1732     2.3185     0.2061   -59.7154    32.1582    26.9077
  389.0000     8.0580    70.6833     0.1186     2.3178     0.1951   -59.5012    32.0579    27.2795
  389.5000     8.0591    72.7071     0.1106     2.3341     0.1817   -59.2994    31.9463    27.3460
  390.0000     8.0693    74.0395     0.1243     2.3634     0.1781   -59.1263    32.6132    27.3721
  390.5000     8.0805    71.3693     0.1412     2.3172     0.2235   -58.7900    33.1415    27.3973
  391.0000     8.0917    68.8497     0.1561     2.2785     0.2272   -58.5766    33.0468    27.4230
  391.5000     8.0991    65.8948     0.1401     2.2758     0.2274   -58.7216    32.8687    27.4487
  392.0000     8.0990    66.5127     0.1395     2.2888     0.2070   -58.5818    32.6916    27.4744
  392.5000     8.0990    69.9323     0.1378     2.3214     0.1987   -58.3566    32.5154    27.5002
  393.0000     8.0966    71.7273     0.1178     2.3250     0.1928   -58.1305    32.3402    27.5260
  393.5000     8.0836    71.9005     0.1215     2.3350     0.1936   -57.9646    32.2410    27.5516
  394.0000     8.0770    73.4108     0.1347     2.3331     0.2108   -58.0611    32.2410    27.5800
  394.5000     8.0661    74.2624     0.1501     2.2963     0.2199   -58.1632    32.2410    27.4620
  395.0000     8.0556    73.3788     0.1542     2.2906     0.2191   -58.5077    32.2410    27.3245
  395.5000     8.0452    70.6702     0.1533     2.2928     0.2102   -58.8693    32.2410    27.1877
  396.0000     8.0348    70.6792     0.1551     2.3228     0.1802   -59.1591    32.0859    27.0516
  396.5000     8.0243    71.2220     0.1296     2.3619     0.1660   -59.1971    30.9843    26.9162
  397.0000     8.0199    72.4873     0.0827     2.3781     0.1646   -59.2823    30.4277    26.7382
  397.5000     8.0198    73.9842     0.0790     2.3842     0.1772   -59.3722    30.2865    26.1026
  398.0000     8.0198    75.3564     0.0787     2.3639     0.1899   -59.4619    29.6236    24.9312
  398.5000     8.0198    74.7685     0.0783     2.3350     0.1944   -59.5517    28.6336    24.3589
  399.0000     8.0198    69.9260     0.0778     2.3344     0.1905   -59.6415    27.6836    23.8105
  399.5000     8.0198    70.4099     0.0780     2.3438     0.1830   -59.7315    26.8316    23.2743
  400.0000     8.0198    73.2245     0.0822     2.3599     0.1797   -59.7082    26.1094    22.7503
  400.5000     8.0198    73.0311     0.0862     2.3593     0.1742   -59.6600    25.4572    22.2380
  401.0000     8.0198    75.4663     0.0911     2.3692     0.1728   -59.6117    24.8212    21.7373
  401.5000     8.0198    77.5352     0.0819     2.3699     0.1676   -59.5614    24.2011    20.9397
  402.0000     8.0197    77.2657     0.0672     2.3774     0.1694   -59.6928    23.5965    20.3235
  402.5000     8.0257    77.9881     0.0676     2.3911     0.1682   -59.9456    23.0070    19.7161
