~VERSION INFORMATION
 VERS.                2.0:   CWLS LOG ASCII STANDARD - VERSION 2.0
 WRAP.                 NO:   ONE LINE PER DEPTH STEP
~WELL INFORMATION
#MNEM.UNIT      DATA TYPE    INFORMATION
#----------   ------------   ------------------------------
 STRT.F           66.0000:   START DEPTH
 STOP.F          814.0000:   STOP DEPTH
 STEP.F            0.5000:   STEP LENGTH
 NULL.          -999.2500:   NO VALUE
 COMP.   FLUOR DANIEL INC:   COMPANY
 WELL. NAVAL PETROLEUM RESERVE 3 SX-2 #32-11-2:   WELL
 FLD .        N.P.R NO. 3:   FIELD
 LOC .       S2 T38N R78W:   LOCATION
 CNTY.            NATRONA:   COUNTY
 STAT.            WYOMING:   STATE
 CTRY. UNITED STATES OF AMERICA:   COUNTRY
 SRVC.      Dresser Atlas:   SERVICE COMPANY
 DATE.        15-AUG-1985:   LOGDATE
 API .       490251104000:   API NUMBER
~CURVE INFORMATION
#MNEM.UNIT       API CODE    CURVE DESCRIPTION
#----------   ------------   ------------------------------
 DEPT.F                  :   
 SPR .MV     07 010 01 00:   SPONTANEOUS POTENTIAL
 RILD.OHMM   07 120 46 00:   INDUCTION LOG DEEP RESISTIVITY
 RILM.OHMM   07 120 44 00:   INDUCTION LOG MEDIUM RESISTIVITY
 RFOC.OHMM   07 220 04 00:   RESISTIVITY FOCUSED LOG
 PORD.DEC    45 890 12 00:   POROSITY DENSITY SANDSTONE
 CNC .DEC    42 890 03 00:   NEUTRON POROSITY SANDSTONE
 GRD .GAPI   45 310 01 00:   GAMMA RAY FROM DENSITY LOG
 CALD.IN     45 280 60 00:   CALIPER FROM DENSITY LOG
 CORR.G/C3   45 356 01 00:   DENSITY CORRECTION
 DEN .G/C3   45 350 01 00:   COMPENSATED BULK DENSTIY
~PARAMETER INFORMATION
#MNEM.UNIT          VALUE    DESCRIPTION
#----------   ------------   ------------------------------
 PD  .                 GL:   PERMANENT DATUM
 EPD .F              5113:   ELEVATION PERMANENT DATUM
 LMF .                 GL:   LOG MEASURED FROM
 DMF .                 GL:   DRILLING MEASURED FROM
 EGL .F              5113:   GROUND LEVEL
 DATE.            8-15-85:   RUN DATE
 RUN .                  1:   RUN NUMBER
 DD  .F               817:   DEPTH DRILLER
 DL  .F               817:   DEPTH LOGGER
 BLI .F               814:   BOTTOM LOG INTERVAL
 CS  .IN            8.625:   CASING SIZE
 CBD .F                79:   CASING BOTTOM DRILLER
 CBL .F                79:   CASING BOTTOM LOGGER
 BS  .IN            7.875:   BIT SIZE
 BSD .F               817:   BIT SIZE AT DEPTH
 DFT .          KCL WATER:   DRILLING FLUID TYPE
 MSS .               TANK:   MUD SAMPLE SOURCE
 RMS .OHMM            .25:   RESISTIVITY MUD SAMPLE
 MST .F                70:   MUD SAMPLE TEMPERATURE
 BHT .F               100:   BOTTOM HOLE TEMPERATURE
 TCS .HRS               2:   TIME CURCULATED STOPPED
 MRT .F               100:   MAXIMUM RECORDED TEMPERATURE
 LUN .            HL-6274:   LOGGING UNIT NUMBER
 LUL .           GILLETTE:   LOGGING UNIT LOCATION
 ENGI.             RAUTIO:   RECORDING ENGINEER
 WITN.           JENNINGS:   WITNESSED BY
 CLNT.            A2DTECH:   CLIENT CODE
 ORIG.       2", 5" PRINT:   ORIGIN OF DATA
 UWI .       490251104000:   UNIQUE WELL ID
 DICO. A2D Technologies, Inc.:   DIGITIZING COMPANY
~OTHER INFORMATION
~A   DEPT      SPR       RILD       RILM       RFOC       PORD        CNC        GRD       CALD       CORR        DEN   
# ...
  401.0000   -36.6048     7.0534     7.0574     8.0406     0.1415     0.3182   107.4955     8.3738     0.0011     2.4342
  401.5000   -36.3590     6.9497     6.8836     7.9120     0.1460     0.3042   102.0829     8.3924    -0.0049     2.4305
  402.0000   -36.3576     6.8569     6.7425     7.8043     0.1485     0.3006    99.0742     8.3915     0.0088     2.4304
  402.5000   -36.3561     6.8107     6.6505     7.7518     0.1494     0.2994   100.5699     8.4060     0.0252     2.4319
  403.0000   -36.0512     6.7183     6.6514     7.8079     0.1479     0.2995   103.2669     8.4201     0.0252     2.4327
  403.5000   -35.8983     6.7197     6.6060     7.5953     0.1464     0.2996   108.0660     8.4194     0.0086     2.4334
  404.0000   -35.8968     6.7210     6.6531     7.3885     0.1533     0.2951   113.2292     8.4187    -0.0169     2.4244
  404.5000   -35.7438     6.6758     6.7004     7.2879     0.1633     0.2909   114.6611     8.4178    -0.0455     2.4056
  405.0000   -35.5909     6.6311     6.7013     7.2389     0.1642     0.2919   110.4497     8.4171    -0.0515     2.4072
  405.5000   -35.4379     6.6325     6.7025     7.3417     0.1564     0.2945   104.7382     8.4163    -0.0530     2.4176
  406.0000   -35.2845     6.6801     6.6567     7.3948     0.1506     0.2915    99.9277     8.4156    -0.0515     2.4296
  406.5000   -35.1316     6.7751     6.7042     7.4479     0.1433     0.2975   100.5285     8.4149    -0.0455     2.4371
  407.0000   -34.9786     6.8714     6.7519     7.5013     0.1400     0.2994   104.4193     8.4142    -0.0349     2.4416
  407.5000   -34.8256     6.9208     6.8951     7.6079     0.1410     0.2997   105.3144     8.4285    -0.0244     2.4416
  408.0000   -34.8242     7.0194     7.0413     7.6625     0.1453     0.2994   105.3087     8.4276    -0.0169     2.4354
  408.5000   -34.9742     7.0698     7.1411     7.7175     0.1474     0.3148   105.3029     8.4269    -0.0109     2.4317
  409.0000   -35.1243     7.0713     7.1919     7.7732     0.1395     0.3178   104.3963     8.4262    -0.0079     2.4355
  409.5000   -35.4255     7.1220     7.2935     7.8836     0.1338     0.3078   102.5365     8.4254    -0.0079     2.4430
  410.0000   -35.5759     7.2233     7.3966     7.8852     0.1283     0.2966    99.8788     8.4247    -0.0109     2.4512
  410.5000   -35.5741     7.2837     7.4492     7.9418     0.1268     0.2948    99.5742     8.4088    -0.0139     2.4595
  411.0000   -36.0272     7.3789     7.5022     8.0546     0.1244     0.2970   100.7682     8.4080    -0.0109     2.4655
  411.5000   -36.4803     7.4838     7.5558     8.1690     0.1193     0.2993   101.0642     8.4073     0.0086     2.4722
  412.0000   -36.7839     7.5376     7.5568     8.2281     0.1147     0.2990   100.1561     8.4066     0.0522     2.4790
  412.5000   -36.9319     7.5391     7.5578     8.2297     0.1114     0.3002   101.3502     8.4059     0.0702     2.4865
  413.0000   -37.0819     7.5406     7.5062     8.2888     0.1086     0.3036   101.9464     8.4050     0.0582     2.4910
  413.5000   -37.2320     7.5509     7.4554     8.4065     0.1102     0.3103   101.6390     8.4193     0.0491     2.4955
  414.0000   -37.0787     7.5436     7.4048     8.4668     0.1130     0.3129   103.1347     8.4186     0.0417     2.4954
  414.5000   -36.9257     7.4412     7.4060     8.2938     0.1157     0.3011   106.1320     8.4028     0.0402     2.4924
  415.0000   -36.9242     7.3395     7.3045     7.9566     0.1181     0.3002   106.1261     8.4021     0.0282     2.4872
  415.5000   -36.9227     7.2904     7.1549     7.9030     0.1196     0.3066   106.1190     8.4014     0.0101     2.4834
  416.0000   -36.7694     7.2919     7.0569     7.9050     0.1209     0.3123   107.0142     8.4308    -0.0184     2.4804
  416.5000   -36.7680     7.1844     7.0580     7.9617     0.1209     0.3051   109.1105     8.4602    -0.0324     2.4773
  417.0000   -36.4635     7.0455     7.1082     7.9082     0.1218     0.3014   109.7068     8.4442    -0.0109     2.4773
  417.5000   -36.3105     7.1460     7.2088     7.8550     0.1234     0.2999   106.0960     8.4435     0.0162     2.4758
  418.0000   -36.4606     7.2476     7.2600     7.8565     0.1258     0.3020   101.1094     8.4277     0.0312     2.4735
  418.5000   -36.6106     7.3506     7.3119     7.8037     0.1233     0.3008    99.4779     8.4270     0.0432     2.4705
  419.0000   -36.7848     7.3520     7.4152     7.8056     0.1188     0.2881   103.3761     8.4261     0.0402     2.4735
  419.5000   -36.9107     7.4653     7.5200     7.8072     0.1240     0.2816   102.1677     8.4253     0.0447     2.4781
  420.0000   -36.9089     7.6689     7.6263     7.8088     0.1258     0.2793   101.2611     8.4096     0.0552     2.4757
  420.5000   -36.7559     7.8321     7.7881     7.8103     0.1258     0.2914   101.5836     8.4088     0.0687     2.4720
  421.0000   -36.7545     7.9435     7.9060     7.8664     0.1361     0.2944   104.5514     8.4081     0.0778     2.4689
  421.5000   -36.7530     8.1126     8.0659     8.0342     0.1518     0.3020   106.9481     8.4074     0.0507     2.4599
  422.0000   -36.7636     8.2854     8.2370     8.3780     0.1640     0.3165   107.5444     8.4065    -0.0248     2.4178
  422.5000   -36.9016     8.4618     8.3534     8.6761     0.1606     0.3199   100.0297     8.4058    -0.0665     2.4028
  423.0000   -36.8998     8.5825     8.5306     8.8607     0.1546     0.3023    95.8197     8.4051    -0.0605     2.4163
  423.5000   -37.0502     8.7652     8.7115     8.9865     0.1513     0.2989    98.6688     8.3893    -0.0470     2.4245
  424.0000   -37.3518     8.8898     8.9684     9.2418     0.1485     0.2935   104.2152     8.3886    -0.0289     2.4305
  424.5000   -37.9560     9.0162     9.1486     9.3085     0.1464     0.2859   104.8115     8.3878    -0.0124     2.4328
  425.0000   -38.5606     9.2081     9.3427     9.2455     0.1440     0.2817   101.5010     8.4022     0.0011     2.4358
  425.5000   -39.0368     9.4043     9.4747     9.2478     0.1428     0.2768    97.2911     8.4013     0.0026     2.4350
  426.0000   -39.6179     9.6720     9.6757     9.4445     0.1456     0.2801    94.2662     8.4005    -0.0094     2.4335
  426.5000   -40.0714     9.8095     9.8809     9.6455     0.1474     0.2823    92.7751     8.3998    -0.0274     2.4342
  427.0000   -40.3730     9.9489    10.0209     9.8507     0.1448     0.2819    94.5697     8.3991    -0.0229     2.4380
  427.5000   -40.5230    10.0903    10.0921    10.0000     0.1368     0.2695    96.9663     8.3982    -0.0107     2.4470
  428.0000   -40.6727    10.1628    10.1639    10.2037     0.1308     0.2598    98.1632     8.3975     0.0011     2.4591
  428.5000   -40.9743    10.2358    10.3075    10.4208     0.1259     0.2677    94.8528     8.3968     0.0071     2.4665
  429.0000   -40.9724    10.3098    10.3089    10.4229     0.1238     0.2756    94.2462     8.4113     0.0071     2.4702
  429.5000   -40.8195    10.3119    10.2389    10.7189     0.1241     0.2756    94.2392     8.4405     0.0041     2.4672
  430.0000   -40.6665    10.2424    10.0992    10.8712     0.1296     0.2710    92.4317     8.4699     0.0011     2.4619
  430.5000   -40.5135    10.1735     9.9611    10.8734     0.1332     0.2650    89.7232     8.4690     0.0011     2.4596
  431.0000   -40.3605    10.0349     9.8246    10.7256     0.1305     0.2610    88.5177     8.4080     0.0056     2.4628
  431.5000   -40.3591     9.8982     9.8262    10.5796     0.1210     0.2573    90.9169     8.3621     0.0207     2.4754
  432.0000   -40.2061     9.7634     9.8275    10.5084     0.1125     0.2531    93.3081     8.3915     0.0372     2.4866
  432.5000   -40.2043     9.6977     9.8288    10.4377     0.1079     0.2562    94.5050     8.4059     0.0402     2.4964
  433.0000   -40.2028     9.7678     9.8304    10.4404     0.1121     0.2616    92.0954     8.4051     0.0101     2.4919
  433.5000   -40.2014     9.7698     9.8318    10.3696     0.1242     0.2628    89.0867     8.4195     0.0131     2.4723
  434.0000   -40.3514     9.7040     9.8331    10.3002     0.1345     0.2659    85.7776     8.4186     0.0477     2.4554
