~VERSION INFORMATION
 VERS.                2.0:   CWLS LOG ASCII STANDARD - VERSION 2.0
 WRAP.                 NO:   ONE LINE PER DEPTH STEP
~WELL INFORMATION
#MNEM.UNIT      DATA TYPE    INFORMATION
#----------   ------------   ------------------------------
 STRT.F            0.0000:   START DEPTH
 STOP.F         2694.5000:   STOP DEPTH
 STEP.F            0.5000:   STEP LENGTH
 NULL.          -999.2500:   NO VALUE
 COMP. FENIX & SCISSON INC:   COMPANY
 WELL.       102 A #20-20:   WELL
 FLD .        TEAPOT DOME:   FIELD
 LOC .      S20 T39N R78W:   LOCATION
 CNTY.            NATRONA:   COUNTY
 STAT.            WYOMING:   STATE
 CTRY. UNITED STATES OF AMERICA:   COUNTRY
 SRVC.            Unknown:   SERVICE COMPANY
 DATE.        17-AUG-1965:   LOGDATE
 API .       490251022200:   API NUMBER
~CURVE INFORMATION
#MNEM.UNIT       API CODE    CURVE DESCRIPTION
#----------   ------------   ------------------------------
 DEPT.F                  :   
 CALI.IN     30 280 01 00:   CALIPER FROM GAMMA RAY LOG
 GR  .GAPI   30 310 01 00:   GAMMA RAY
~PARAMETER INFORMATION
#MNEM.UNIT          VALUE    DESCRIPTION
#----------   ------------   ------------------------------
 PD  .                 GL:   PERMANENT DATUM
 LMF .                 GL:   LOG MEASURED FROM
 DMF .                 GL:   DRILLING MEASURED FROM
 DATE.            8-17-65:   RUN DATE
 RUN .                  1:   RUN NUMBER
 DD  .F            2696.5:   DEPTH DRILLER
 DL  .F              2697:   DEPTH LOGGER
 BLI .F              2695:   BOTTOM LOG INTERVAL
 TLI .F              2000:   TOP LOG INTERVAL
 CS  .IN                7:   CASING SIZE
 CBD .F              2678:   CASING BOTTOM DRILLER
 DFT .                OIL:   DRILLING FLUID TYPE
 TCS .HRS               1:   TIME CURCULATED STOPPED
 ENGI.            JACKSON:   RECORDING ENGINEER
 WITN.          JORGENSEN:   WITNESSED BY
 CLNT.            A2DTECH:   CLIENT CODE
 ORIG.           5" PRINT:   ORIGIN OF DATA
 UWI .       490251022200:   UNIQUE WELL ID
 DICO. A2D Technologies, Inc.:   DIGITIZING COMPANY
~OTHER INFORMATION
~A    DEPT      CALI       GR   
# ...
 1579.5000     6.4195  -999.2500
 1580.0000     6.4033  -999.2500
 1580.5000     6.3910  -999.2500
 1581.0000     6.4201  -999.2500
 1581.5000     6.4230  -999.2500
 1582.0000     6.4216  -999.2500
 1582.5000     6.4201  -999.2500
 1583.0000     6.4187  -999.2500
 1583.5000     6.4172  -999.2500
 1584.0000     6.4155  -999.2500
 1584.5000     6.4155  -999.2500
 1585.0000     6.4479  -999.2500
 1585.5000     6.4506  -999.2500
 1586.0000     6.4470  -999.2500
 1586.5000     6.4445  -999.2500
 1587.0000     6.4481  -999.2500
 1587.5000     6.4514  -999.2500
 1588.0000     6.4553  -999.2500
 1588.5000     6.5017  -999.2500
 1589.0000     6.5222  -999.2500
 1589.5000     6.4324  -999.2500
 1590.0000     6.4307  -999.2500
 1590.5000     6.4253  -999.2500
 1591.0000     6.4270  -999.2500
 1591.5000     6.4309  -999.2500
 1592.0000     6.4435  -999.2500
 1592.5000     6.4391  -999.2500
 1593.0000     6.4399  -999.2500
 1593.5000     6.4677  -999.2500
 1594.0000     6.4545  -999.2500
 1594.5000     6.4608  -999.2500
 1595.0000     6.4682  -999.2500
 1595.5000     6.4670  -999.2500
 1596.0000     6.4447  -999.2500
 1596.5000     6.4498  -999.2500
 1597.0000     6.4566  -999.2500
 1597.5000     6.4633  -999.2500
 1598.0000     6.4573  -999.2500
 1598.5000     6.4594  -999.2500
 1599.0000     6.4706  -999.2500
 1599.5000     6.4750  -999.2500
 1600.0000     6.4774  -999.2500
 1600.5000     6.4798  -999.2500
 1601.0000     6.4821  -999.2500
 1601.5000     6.4761  -999.2500
 1602.0000     6.4911  -999.2500
 1602.5000     6.5010  -999.2500
 1603.0000     6.4947  -999.2500
 1603.5000     6.4887  -999.2500
 1604.0000     6.4824  -999.2500
 1604.5000     6.4762  -999.2500
 1605.0000     6.4666  -999.2500
 1605.5000     6.4543  -999.2500
 1606.0000     6.4500  -999.2500
 1606.5000     6.4935  -999.2500
 1607.0000     6.4941  -999.2500
 1607.5000     6.4831  -999.2500
 1608.0000     6.4741  -999.2500
 1608.5000     6.4803  -999.2500
 1609.0000     6.5010  -999.2500
 1609.5000     6.5343  -999.2500
 1610.0000     6.4749  -999.2500
 1610.5000     6.4740  -999.2500
 1611.0000     6.4556  -999.2500
 1611.5000     6.4385  -999.2500
 1612.0000     6.4308  -999.2500
 1612.5000     6.4240  -999.2500
 1613.0000     6.4242  -999.2500
 1613.5000     6.4242  -999.2500
 1614.0000     6.4242  -999.2500
 1614.5000     6.4244  -999.2500
 1615.0000     6.4184  -999.2500
 1615.5000     6.4112  -999.2500
 1616.0000     6.4053  -999.2500
 1616.5000     6.4247  -999.2500
 1617.0000     6.4437  -999.2500
 1617.5000     6.4516  -999.2500
 1618.0000     6.4590  -999.2500
 1618.5000     6.4664  -999.2500
 1619.0000     6.4733  -999.2500
 1619.5000     6.4735  -999.2500
 1620.0000     6.4734  -999.2500
 1620.5000     6.4689  -999.2500
 1621.0000     6.4583  -999.2500
 1621.5000     6.4467  -999.2500
 1622.0000     6.4358  -999.2500
 1622.5000     6.4685  -999.2500
 1623.0000     6.4549  -999.2500
 1623.5000     6.4482  -999.2500
 1624.0000     6.4587  -999.2500
 1624.5000     6.4772  -999.2500
 1625.0000     6.4921  -999.2500
 1625.5000     6.4695  -999.2500
 1626.0000     6.4637  -999.2500
 1626.5000     6.4616  -999.2500
 1627.0000     6.4577  -999.2500
 1627.5000     6.4538  -999.2500
 1628.0000     6.4538  -999.2500
 1628.5000     6.4591  -999.2500
 1629.0000     6.4778  -999.2500
 1629.5000     6.4926  -999.2500
 1630.0000     6.4672  -999.2500
 1630.5000     6.4299  -999.2500
 1631.0000     6.4341  -999.2500
 1631.5000     6.4340  -999.2500
 1632.0000     6.4322  -999.2500
 1632.5000     6.4198  -999.2500
 1633.0000     6.4074  -999.2500
 1633.5000     6.3951  -999.2500
 1634.0000     6.3840  -999.2500
 1634.5000     6.3816  -999.2500
 1635.0000     6.3790  -999.2500
 1635.5000     6.3762  -999.2500
 1636.0000     6.3868  -999.2500
 1636.5000     6.4064  -999.2500
 1637.0000     6.4042  -999.2500
 1637.5000     6.3881  -999.2500
 1638.0000     6.3746  -999.2500
 1638.5000     6.3750  -999.2500
 1639.0000     6.3750  -999.2500
 1639.5000     6.3777  -999.2500
 1640.0000     6.3855  -999.2500
 1640.5000     6.4104  -999.2500
 1641.0000     6.4047  -999.2500
 1641.5000     6.3933  -999.2500
 1642.0000     6.3817  -999.2500
 1642.5000     6.3779  -999.2500
 1643.0000     6.3845  -999.2500
 1643.5000     6.3910  -999.2500
 1644.0000     6.3965  -999.2500
 1644.5000     6.4046  -999.2500
 1645.0000     6.4107  -999.2500
 1645.5000     6.4166  -999.2500
 1646.0000     6.4226  -999.2500
 1646.5000     6.4307  -999.2500
 1647.0000     6.4220  -999.2500
 1647.5000     6.4176  -999.2500
 1648.0000     6.4158  -999.2500
 1648.5000     6.4432  -999.2500
 1649.0000     6.4281  -999.2500
 1649.5000     6.4094  -999.2500
 1650.0000     6.4077  -999.2500
 1650.5000     6.4123  -999.2500
 1651.0000     6.4151  -999.2500
 1651.5000     6.4425  -999.2500
 1652.0000     6.4530  -999.2500
 1652.5000     6.4140  -999.2500
 1653.0000     6.4109  -999.2500
 1653.5000     6.4096  -999.2500
 1654.0000     6.4079  -999.2500
 1654.5000     6.4062  -999.2500
 1655.0000     6.4041  -999.2500
 1655.5000     6.3959  -999.2500
 1656.0000     6.3988  -999.2500
 1656.5000     6.4142  -999.2500
 1657.0000     6.4101  -999.2500
 1657.5000     6.4052  -999.2500
 1658.0000     6.4187  -999.2500
 1658.5000     6.4349  -999.2500
 1659.0000     6.4421  -999.2500
 1659.5000     6.4383  -999.2500
 1660.0000     6.4346  -999.2500
 1660.5000     6.4247  -999.2500
 1661.0000     6.4140  -999.2500
 1661.5000     6.4055  -999.2500
 1662.0000     6.4244  -999.2500
 1662.5000     6.4242  -999.2500
 1663.0000     6.4259  -999.2500
 1663.5000     6.4336  -999.2500
 1664.0000     6.4414  -999.2500
 1664.5000     6.4375  -999.2500
 1665.0000     6.4278  -999.2500
 1665.5000     6.4177  -999.2500
 1666.0000     6.4276  -999.2500
 1666.5000     6.4478  -999.2500
 1667.0000     6.4626  -999.2500
 1667.5000     6.4539  -999.2500
 1668.0000     6.4719  -999.2500
 1668.5000     6.4536  -999.2500
 1669.0000     6.4378  -999.2500
 1669.5000     6.4310  -999.2500
 1670.0000     6.4437  -999.2500
 1670.5000     6.4397  -999.2500
 1671.0000     6.4361  -999.2500
 1671.5000     6.4332  -999.2500
 1672.0000     6.4613  -999.2500
 1672.5000     6.4910  -999.2500
 1673.0000     6.4447  -999.2500
 1673.5000     6.4163  -999.2500
 1674.0000     6.4204  -999.2500
 1674.5000     6.4238  -999.2500
 1675.0000     6.4144  -999.2500
 1675.5000     6.4048  -999.2500
 1676.0000     6.4062  -999.2500
 1676.5000     6.4080  -999.2500
 1677.0000     6.4098  -999.2500
 1677.5000     6.4115  -999.2500
 1678.0000     6.4133  -999.2500
 1678.5000     6.4144  -999.2500
 1679.0000     6.4144  -999.2500
 1679.5000     6.4145  -999.2500
 1680.0000     6.4216  -999.2500
 1680.5000     6.4300  -999.2500
 1681.0000     6.4184  -999.2500
 1681.5000     6.4065  -999.2500
 1682.0000     6.4148  -999.2500
 1682.5000     6.4472  -999.2500
 1683.0000     6.4346  -999.2500
 1683.5000     6.4102  -999.2500
 1684.0000     6.3860  -999.2500
 1684.5000     6.4049  -999.2500
 1685.0000     6.3981  -999.2500
 1685.5000     6.3872  -999.2500
 1686.0000     6.3928  -999.2500
 1686.5000     6.4230  -999.2500
 1687.0000     6.4037  -999.2500
 1687.5000     6.3842  -999.2500
 1688.0000     6.3848  -999.2500
 1688.5000     6.3849  -999.2500
 1689.0000     6.3848  -999.2500
 1689.5000     6.3844  -999.2500
 1690.0000     6.4032  -999.2500
 1690.5000     6.4242  -999.2500
 1691.0000     6.4243  -999.2500
 1691.5000     6.4242  -999.2500
 1692.0000     6.4255  -999.2500
 1692.5000     6.4367  -999.2500
 1693.0000     6.4590  -999.2500
 1693.5000     6.5564  -999.2500
 1694.0000     6.4793  -999.2500
 1694.5000     6.4264  -999.2500
 1695.0000     6.4175  -999.2500
 1695.5000     6.4241  -999.2500
 1696.0000     6.4305  -999.2500
 1696.5000     6.4370  -999.2500
 1697.0000     6.4438  -999.2500
 1697.5000     6.4360  -999.2500
 1698.0000     6.4247  -999.2500
 1698.5000     6.4241  -999.2500
 1699.0000     6.4242  -999.2500
 1699.5000     6.4242  -999.2500
 1700.0000     6.4242  -999.2500
 1700.5000     6.4242  -999.2500
