~VERSION INFORMATION
 VERS.                2.0:   CWLS LOG ASCII STANDARD - VERSION 2.0
 WRAP.                 NO:   ONE LINE PER DEPTH STEP
~WELL INFORMATION
#MNEM.UNIT      DATA TYPE    INFORMATION
#----------   ------------   ------------------------------
 STRT.F           31.0000:   START DEPTH
 STOP.F         1450.0000:   STOP DEPTH
 STEP.F            0.5000:   STEP LENGTH
 NULL.          -999.2500:   NO VALUE
 COMP. FENIX & SCISSON INC:   COMPANY
 WELL.    NPR-3 SX #86-14:   WELL
 FLD .             TEAPOT:   FIELD
 LOC .      S14 T38N R78W:   LOCATION
 CNTY.            NATRONA:   COUNTY
 STAT.            WYOMING:   STATE
 CTRY. UNITED STATES OF AMERICA:   COUNTRY
 SRVC.            Unknown:   SERVICE COMPANY
 DATE.        05-APR-1978:   LOGDATE
 API .       490251060800:   API NUMBER
~CURVE INFORMATION
#MNEM.UNIT       API CODE    CURVE DESCRIPTION
#----------   ------------   ------------------------------
 DEPT.F                  :   
 CALD.IN     45 280 60 00:   CALIPER
 GRD .GAPI   45 310 01 00:   GAMMA RAY FROM DENSITY LOG
 RHOB.G/C3   45 350 01 00:   BULK DENSITY
 CORR.G/C3   45 356 01 00:   DENSITY CORRECTION
 DPHI.DEC    45 890 12 00:   DENSITY POROSITY SANDSTONE
 SPR .MV     05 010 01 00:   SPONTANEOUS POTENTIAL FROM RES.
 SN  .OHMM   05 040 16 00:   SHORT NORMAL 16"
 ILD .OHMM   05 120 46 00:   INDUCTION LOG DEEP
~PARAMETER INFORMATION
#MNEM.UNIT          VALUE    DESCRIPTION
#----------   ------------   ------------------------------
 PD  .                 GL:   PERMANENT DATUM
 EPD .F              5367:   ELEVATION PERMANENT DATUM
 LMF .                 KB:   LOG MEASURED FROM
 DMF .                 KB:   DRILLING MEASURED FROM
 EKB .F              5371:   KELLING BUSHING
 EGL .F              5369:   GROUND LEVEL
 DATE.           4-5-1978:   RUN DATE
 RUN .                  1:   RUN NUMBER
 DD  .F              1455:   DEPTH DRILLER
 DL  .F              1446:   DEPTH LOGGER
 BLI .F              1440:   BOTTOM LOG INTERVAL
 TLI .F               100:   TOP LOG INTERVAL
 CS  .IN            8.625:   CASING SIZE
 CBD .F                40:   CASING BOTTOM DRILLER
 BS  .IN            7.875:   BIT SIZE
 BSD .F              1455:   BIT SIZE AT DEPTH
 DFT .                KCL:   DRILLING FLUID TYPE
 DFD .                8.6:   DRILLING FLUID DENSITY
 DFV .                 31:   DRILLING FLUID VISCOSITY
 DFPH.                 10:   DRILLING FLUID PH
 DFL .                8.4:   DRILLING FLUID LOSS
 MSS .           FLOWLINE:   MUD SAMPLE SOURCE
 RMS .OHMM            .95:   RESISTIVITY MUD SAMPLE
 MST .F                54:   MUD SAMPLE TEMPERATURE
 RMF .OHMM            .95:   RESISTIVITY MUD FILTRATE SAMPLE
 MFST.F                62:   MUD FILTRATE SAMPLE TEMPERATURE
 RMC .OHMM             .8:   RESISTIVITY MUD CAKE
 MCST.F                62:   MUD CAKE SAMPLE TEMPERATURE
 MFSS.               MEAS:   MUD FILTRATE SAMPLE SOURCE
 RMB .OHMM            .66:   RESISTIVITY MUD AT BHT
 BHT .F                78:   BOTTOM HOLE TEMPERATURE
 TCS .HRS               6:   TIME CURCULATED STOPPED
 MRT .F                78:   MAXIMUM RECORDED TEMPERATURE
 LUN .               2958:   LOGGING UNIT NUMBER
 LUL .               CASP:   LOGGING UNIT LOCATION
 ENGI.             MILLER:   RECORDING ENGINEER
 WITN.           MCGINLEY:   WITNESSED BY
 CLNT.            A2DTECH:   CLIENT CODE
 ORIG.        2" 5" PRINT:   ORIGIN OF DATA
 UWI .       490251060800:   UNIQUE WELL ID
 DICO. A2D Technologies, Inc.:   DIGITIZING COMPANY
~OTHER INFORMATION
~A   DEPT     CALD         GRD      RHOB       CORR       DPHI        SPR         SN        ILD   
# ...
  152.5000     8.2226    85.0438     2.3779     0.0192     0.1627    11.4171     5.8745     5.3553
  153.0000     8.2162    86.6801     2.3737     0.0182     0.1631    11.1070     5.8844     5.3047
  153.5000     8.2102    87.2333     2.3701     0.0214     0.1613    10.7913     5.9017     5.2673
  154.0000     8.2116    85.5216     2.3705     0.0269     0.1575    10.5008     5.9192     5.2303
  154.5000     8.2132    84.5121     2.3770     0.0303     0.1538    10.0634     5.9290     5.1904
  155.0000     8.2148    84.5570     2.3839     0.0302     0.1554     9.2995     5.8976     5.1464
  155.5000     8.2164    84.5933     2.3861     0.0302     0.1592     8.4944     5.8755     5.1027
  156.0000     8.2180    84.6321     2.3831     0.0302     0.1630     7.6774     5.8535     5.0594
  156.5000     8.2196    84.6772     2.3721     0.0302     0.1647     7.4103     5.8326     5.0199
  157.0000     8.2212    85.1012     2.3625     0.0302     0.1630     6.8883     5.7637     5.0050
  157.5000     8.2228    86.4116     2.3655     0.0302     0.1613     6.8073     5.6521     4.9833
  158.0000     8.2244    87.5656     2.3726     0.0302     0.1631     6.7468     5.5413     4.9617
  158.5000     8.2260    85.9612     2.3705     0.0309     0.1656     6.5760     5.4330     4.9402
  159.0000     8.2276    83.9157     2.3711     0.0322     0.1657     5.7454     5.4010     4.9188
  159.5000     8.2292    83.1129     2.3665     0.0335     0.1635     4.9113     5.3931     4.8975
  160.0000     8.2308    83.0991     2.3734     0.0353     0.1659     4.4348     5.3852     4.8763
  160.5000     8.2324    83.0996     2.3666     0.0372     0.1659     3.9743     5.3774     4.8551
  161.0000     8.2340    83.0869     2.3623     0.0390     0.1687     3.7205     5.3695     4.8342
  161.5000     8.2356    82.3746     2.3635     0.0408     0.1719     3.8045     5.3616     4.8134
  162.0000     8.2372    80.7879     2.3153     0.0423     0.1647     3.8950     5.3555     4.7928
  162.5000     8.2388    79.6984     2.3782     0.0382     0.1719     3.3534     5.3556     4.7249
  163.0000     8.2404    83.5191     2.3599     0.0342     0.1755     2.7055     5.3556     4.6595
  163.5000     8.2420    87.9112     2.3494     0.0342     0.1715     2.3379     5.3556     4.5951
  164.0000     8.2436    88.5121     2.3567     0.0315     0.1704     2.1028     5.3566     4.5317
  164.5000     8.2452    85.9175     2.3591     0.0250     0.1718     1.9043     5.3199     4.4692
  165.0000     8.2468    83.2986     2.3560     0.0201     0.1731     2.0478     5.2491     4.4513
  165.5000     8.2484    81.5142     2.3529     0.0210     0.1676     2.6950     5.1793     4.4513
  166.0000     8.2500    83.2327     2.3683     0.0217     0.1658     3.5259     5.1611     4.4622
  166.5000     8.2473    83.6140     2.3652     0.0214     0.1612     3.8919     5.2766     4.5382
  167.0000     8.2439    82.9652     2.3650     0.0183     0.1597     3.6373     5.3794     4.6155
  167.5000     8.2405    82.3065     2.3787     0.0170     0.1615     3.0350     5.4843     4.6940
  168.0000     8.2371    81.7141     2.3756     0.0238     0.1443     2.2472     5.6075     4.7739
  168.5000     8.2337    82.1177     2.3825     0.0204     0.1510     1.4547     5.7816     4.8503
  169.0000     8.2303    82.9958     2.3872     0.0164     0.1591     0.7276     5.9611     4.9100
  169.5000     8.2269    83.9088     2.3760     0.0194     0.1583     0.4819     6.1462     4.9704
  170.0000     8.2235    83.4934     2.3776     0.0217     0.1597     0.5001     6.3256     5.0316
  170.5000     8.2201    82.6636     2.3768     0.0182     0.1628     0.4834     6.2710     5.0935
  171.0000     8.2167    82.3080     2.3679     0.0159     0.1659     0.4131     6.2084     5.1499
  171.5000     8.2133    82.3825     2.3593     0.0261     0.1676     0.3469     6.1587     5.2038
  172.0000     8.2103    82.4340     2.3671     0.0385     0.1602     0.3288     6.2897     5.2583
  172.5000     8.2169    84.4394     2.3858     0.0308     0.1562     0.4327     6.4178     5.3169
  173.0000     8.2239    86.8564     2.3920     0.0221     0.1560     0.5343     6.5489     5.4007
  173.5000     8.2308    87.3816     2.3769     0.0218     0.1535     0.6307     6.6865     5.4858
  174.0000     8.2377    85.9277     2.3880     0.0129     0.1571     0.4653     6.6404     5.5722
  174.5000     8.2447    84.5073     2.3765     0.0041     0.1624    -0.1979     6.5927     5.6612
  175.0000     8.2516    83.4808     2.3613    -0.0039     0.1665    -0.8562     6.5640     5.7001
  175.5000     8.2585    83.5019     2.3644    -0.0061     0.1712    -1.4732     6.6644     5.7398
  176.0000     8.2655    83.5365     2.3562    -0.0076     0.1778    -1.2937     6.7140     5.7798
  176.5000     8.2828    81.8243     2.3467    -0.0053     0.1795    -1.1161     6.7638     5.8201
  177.0000     8.3223    79.5588     2.3414    -0.0030     0.1757    -1.4573     6.8114     5.8607
  177.5000     8.3258    77.2892     2.3428    -0.0007     0.1700    -1.8096     6.8276     5.9355
  178.0000     8.3204    75.5183     2.3545     0.0016     0.1735    -2.1594     6.8529     6.0290
  178.5000     8.3148    75.4947     2.3547     0.0039     0.1752    -2.5087     6.8738     6.1239
  179.0000     8.3093    75.4980     2.3476     0.0061     0.1709    -2.8528     6.7704     6.2097
  179.5000     8.3038    75.4995     2.3544     0.0062     0.1691    -3.0974     6.6872     6.1816
  180.0000     8.2983    75.4997     2.3656     0.0062     0.1675    -3.1224     6.7308     6.1565
  180.5000     8.2928    75.5042     2.3575     0.0061     0.1764    -3.3436     6.7705     6.1314
  181.0000     8.2900    75.7348     2.3483     0.0100     0.1795    -3.5641     6.8111     6.1065
  181.5000     8.2900    76.2223     2.3424     0.0179     0.1662    -3.7841     6.7788     6.0661
  182.0000     8.2900    76.7084     2.3698     0.0210     0.1587    -4.0051     6.7455     6.0146
  182.5000     8.2913    77.1960     2.3874     0.0152     0.1600    -4.1418     6.7123     5.9636
  183.0000     8.2931    77.6884     2.3860     0.0096     0.1627    -4.2270     6.6735     5.9129
  183.5000     8.2949    76.6529     2.3669     0.0041     0.1667    -4.3114     6.6151     5.8653
  184.0000     8.2968    74.8148     2.3608     0.0001     0.1708    -4.3960     6.5572     5.8261
  184.5000     8.2986    73.4176     2.3550     0.0019     0.1727    -4.4813     6.5035     5.7872
  185.0000     8.3004    75.8128     2.3513     0.0043     0.1712    -4.4548     6.5035     5.7486
  185.5000     8.3022    76.6801     2.3571     0.0066     0.1682    -4.4125     6.5035     5.7102
  186.0000     8.3040    81.6457     2.3613     0.0081     0.1673    -4.3691     6.4889     5.6614
  186.5000     8.3058    83.2781     2.3613     0.0071     0.1668    -4.3267     6.4411     5.6823
  187.0000     8.3076    82.3073     2.3671     0.0062     0.1651    -4.3433     6.3936     5.7118
  187.5000     8.3094    77.1761     2.3641     0.0052     0.1649    -4.7490     6.3464     5.7417
  188.0000     8.3160    73.0630     2.3651     0.0043     0.1652    -5.1419     6.3177     5.7717
  188.5000     8.3244    73.0487     2.3696     0.0065     0.1655    -5.4220     6.3036     5.8022
  189.0000     8.3329    72.8806     2.3626     0.0095     0.1631    -5.9466     6.2896     5.8204
  189.5000     8.3415    73.1123     2.3523     0.0120     0.1601    -6.5326     6.2756     5.7928
  190.0000     8.3496    75.3257     2.3838     0.0090     0.1612    -7.1207     6.2674     5.7730
  190.5000     8.3447    78.0058     2.3770     0.0059     0.1657    -7.6771     6.2982     5.7532
  191.0000     8.3391    79.0807     2.3642     0.0069     0.1707    -7.8104     6.3201     5.7335
  191.5000     8.3336    79.5314     2.3579     0.0126     0.1612    -7.9272     6.3422     5.7139
  192.0000     8.3281    78.6535     2.3703     0.0124     0.1576    -8.0485     6.3644     5.6943
  192.5000     8.3226    77.7356     2.3754     0.0099     0.1655    -8.0046     6.3844     5.6748
