~VERSION INFORMATION
 VERS.                2.0:   CWLS LOG ASCII STANDARD - VERSION 2.0
 WRAP.                 NO:   ONE LINE PER DEPTH STEP
~WELL INFORMATION
#MNEM.UNIT      DATA TYPE    INFORMATION
#----------   ------------   ------------------------------
 STRT.F           28.5000:   START DEPTH
 STOP.F          781.0000:   STOP DEPTH
 STEP.F            0.5000:   STEP LENGTH
 NULL.          -999.2500:   NO VALUE
 COMP. FENIX & SCISSON INC:   COMPANY
 WELL. NPR 3 23 SX 14 #23-14:   WELL
 FLD .        TEAPOT DOME:   FIELD
 LOC .      S14 T38N R78W:   LOCATION
 CNTY.            NATRONA:   COUNTY
 STAT.            WYOMING:   STATE
 CTRY. UNITED STATES OF AMERICA:   COUNTRY
 SRVC.            Unknown:   SERVICE COMPANY
 DATE.        13-MAY-1978:   LOGDATE
 API .       490251063400:   API NUMBER
~CURVE INFORMATION
#MNEM.UNIT       API CODE    CURVE DESCRIPTION
#----------   ------------   ------------------------------
 DEPT.F                  :   
 RHOB.G/C3   45 350 01 00:   BULK DENSITY
 DPHI.DEC    45 890 12 00:   DENSITY POROSITY SANDSTONE
 GRD .GAPI   45 310 01 00:   GAMMA RAY FROM DENSITY LOG
 CALD.IN     45 280 60 00:   CALIPER FROM DENSITY LOG
 CORR.G/C3   45 356 01 00:   DENSITY CORRECTION
 SN  .OHMM   05 040 16 00:   SHORT NORMAL 16"
 SPR .MV     05 010 01 00:   SPONTANEOUS POTENTIAL FROM RES.
 ILD .OHMM   05 120 46 00:   INDUCTION LOG DEEP
~PARAMETER INFORMATION
#MNEM.UNIT          VALUE    DESCRIPTION
#----------   ------------   ------------------------------
 PD  .                 GL:   PERMANENT DATUM
 EPD .F              5202:   ELEVATION PERMANENT DATUM
 LMF .                 KB:   LOG MEASURED FROM
 DMF .                 KB:   DRILLING MEASURED FROM
 EKB .F              5206:   KELLING BUSHING
 EGL .F              5202:   GROUND LEVEL
 DATE.          5-13-1978:   RUN DATE
 RUN .                  1:   RUN NUMBER
 DD  .F               785:   DEPTH DRILLER
 DL  .F               776:   DEPTH LOGGER
 BLI .F               770:   BOTTOM LOG INTERVAL
 TLI .F                50:   TOP LOG INTERVAL
 CS  .IN            8.625:   CASING SIZE
 CBD .F                40:   CASING BOTTOM DRILLER
 CBL .F                40:   CASING BOTTOM LOGGER
 BS  .IN            7.875:   BIT SIZE
 BSD .F               785:   BIT SIZE AT DEPTH
 DFT .                KCL:   DRILLING FLUID TYPE
 DFD .                8.6:   DRILLING FLUID DENSITY
 DFV .                 30:   DRILLING FLUID VISCOSITY
 DFPH.                 10:   DRILLING FLUID PH
 DFL .                 14:   DRILLING FLUID LOSS
 MSS .           FLOWLINE:   MUD SAMPLE SOURCE
 RMS .OHMM             .4:   RESISTIVITY MUD SAMPLE
 MST .F                69:   MUD SAMPLE TEMPERATURE
 RMF .OHMM            .36:   RESISTIVITY MUD FILTRATE SAMPLE
 MFST.F                72:   MUD FILTRATE SAMPLE TEMPERATURE
 RMC .OHMM            .56:   RESISTIVITY MUD CAKE
 MCST.F                73:   MUD CAKE SAMPLE TEMPERATURE
 MFSS.               MEAS:   MUD FILTRATE SAMPLE SOURCE
 RMB .OHMM            .35:   RESISTIVITY MUD AT BHT
 BHT .F                79:   BOTTOM HOLE TEMPERATURE
 TCS .HRS               2:   TIME CURCULATED STOPPED
 MRT .F                79:   MAXIMUM RECORDED TEMPERATURE
 LUN .               3006:   LOGGING UNIT NUMBER
 LUL .              CASP.:   LOGGING UNIT LOCATION
 ENGI.             MILLER:   RECORDING ENGINEER
 WITN.           MCGINLEY:   WITNESSED BY
 CLNT.            A2DTECH:   CLIENT CODE
 ORIG.           5" PRINT:   ORIGIN OF DATA
 UWI .       490251063400:   UNIQUE WELL ID
 DICO. A2D Technologies, Inc.:   DIGITIZING COMPANY
~OTHER INFORMATION
~A   DEPT     RHOB       DPHI         GRD      CALD       CORR         SN        SPR        ILD   
# ...
  717.0000     2.3212     0.2127    75.6364     7.7419     0.0304     4.5652   -67.0975     3.0131
  717.5000     2.2908     0.2290    78.3482     7.6753     0.0350     4.0910   -67.0083     2.8180
  718.0000     2.2596     0.2358    79.9447     7.6089     0.0424     3.7250   -66.9032     2.6309
  718.5000     2.2546     0.2218    79.1293     7.5967     0.0610     3.5972   -66.7978     2.5842
  719.0000     2.2919     0.1824    77.0623     7.6055     0.0681     3.5942   -66.6924     2.5842
  719.5000     2.3082     0.1109    73.9264     7.6391     0.0724     3.7308   -66.5874     2.5842
  720.0000     2.4326     0.0950    70.7682     7.6924     0.1000     4.3193   -66.4986     2.7432
  720.5000     2.5075     0.0782    69.8261     7.7458     0.0796     4.8927   -66.5007     3.0447
  721.0000     2.5183     0.0829    70.3038     7.7994     0.0619     5.5406   -66.5010     3.5616
  721.5000     2.5160     0.0880    70.5130     7.8489     0.0622     6.2742   -66.5010     4.3280
  722.0000     2.5089     0.0886    69.7687     7.8383     0.0625     7.1051   -66.5010     5.2518
  722.5000     2.5059     0.0854    71.0479     7.8117     0.0636     7.7118   -66.5010     6.1857
  723.0000     2.5098     0.0791    72.3857     7.7854     0.0685     8.0868   -66.5011     6.2910
  723.5000     2.5139     0.0678    72.9278     7.7591     0.0754     8.3000   -66.5013     6.3980
  724.0000     2.5262     0.0682    73.2525     7.7328     0.0823     8.5189   -66.5002     6.5068
  724.5000     2.5314     0.0765    73.5564     7.7066     0.0798     8.7436   -66.4384     6.6175
  725.0000     2.5239     0.0777    74.7215     7.6801     0.0661     8.9742   -66.2634     6.7190
  725.5000     2.5207     0.0760    78.0775     7.6718     0.0534     9.1827   -66.0901     6.7841
  726.0000     2.5225     0.0745    79.9623     7.6744     0.0507     9.1827   -65.9165     6.8440
  726.5000     2.5243     0.0820    81.0858     7.6772     0.0477     9.2675   -65.7430     6.9044
  727.0000     2.5167     0.0879    80.8507     7.6800     0.0447     9.2675   -65.5694     6.9653
  727.5000     2.5084     0.0839    80.6518     7.6827     0.0440     9.2501   -65.3956     7.0268
  728.0000     2.5112     0.0800    81.0849     7.6855     0.0477     9.2057   -65.2247     7.0888
  728.5000     2.5159     0.0754    85.7836     7.6883     0.0523     9.1616   -65.1466     7.1051
  729.0000     2.5199     0.0687    90.5775     7.6971     0.0568     9.1177   -65.2659     7.1116
  729.5000     2.5309     0.0665    91.5695     7.7169     0.0598     9.0739   -65.3816     7.1181
  730.0000     2.5378     0.0762    90.7685     7.7365     0.0583     9.0304   -65.4979     7.1245
  730.5000     2.5337     0.0848    90.7932     7.7563     0.0568     8.9871   -65.6141     7.1310
  731.0000     2.5214     0.0842    93.2401     7.7758     0.0553     8.9440   -65.7301     7.1375
  731.5000     2.5125     0.0838    94.3021     7.7874     0.0541     8.9286   -65.8462     7.1440
  732.0000     2.5134     0.0813    93.8710     7.7746     0.0546     8.9225   -65.9019     7.1505
  732.5000     2.5150     0.0798    93.4485     7.7624     0.0550     8.9165   -65.8963     7.1570
  733.0000     2.5165     0.0810    93.0232     7.7508     0.0555     8.9104   -65.8909     7.1635
  733.5000     2.5163     0.0807    92.6198     7.7685     0.0559     8.9044   -65.8853     7.1701
  734.0000     2.5159     0.0805    90.9733     7.7883     0.0564     8.8983   -65.8797     7.1766
  734.5000     2.5157     0.0850    89.0237     7.8081     0.0568     8.8923   -65.8742     7.1831
  735.0000     2.5124     0.0810    87.7626     7.8279     0.0572     8.8862   -65.8687     7.1897
  735.5000     2.5151     0.0753    87.5168     7.8485     0.0577     8.8802   -65.8632     7.1962
  736.0000     2.5220     0.0733    87.8172     7.8130     0.0581     8.8742   -65.8577     7.2028
  736.5000     2.5265     0.0759    88.1997     7.7698     0.0575     8.8680   -65.8521     7.2093
  737.0000     2.5247     0.0787    89.0711     7.7266     0.0569     8.8617   -65.8466     7.2159
  737.5000     2.5198     0.0815    90.5547     7.6870     0.0563     8.8561   -65.8411     7.2227
  738.0000     2.5150     0.0842    92.2357     7.6739     0.0557     8.9331   -65.8356     7.2315
  738.5000     2.5101     0.0847    92.9567     7.6601     0.0551     8.7617   -65.8300     7.2329
  739.0000     2.5065     0.0855    92.0106     7.6461     0.0544     8.5969   -65.8245     7.0401
  739.5000     2.5065     0.0885    91.4739     7.6322     0.0545     8.4351   -65.8190     6.8888
  740.0000     2.5044     0.0930    92.4296     7.6238     0.0554     8.2764   -65.8135     6.7409
  740.5000     2.4953     0.0979    93.1318     7.6164     0.0563     8.1206   -65.8080     6.5961
  741.0000     2.4867     0.1028    93.2030     7.6115     0.0572     7.9678   -65.8025     6.4544
  741.5000     2.4793     0.1042    93.3157     7.6274     0.0582     7.8179   -65.7969     6.3157
  742.0000     2.4838     0.0925    94.7765     7.6433     0.0630     7.7830   -65.7914     6.1801
  742.5000     2.4960     0.0793    97.7286     7.6592     0.0648     7.7830   -65.7859     6.0731
  743.0000     2.5081     0.0825    98.6865     7.6750     0.0610     7.7830   -65.7804     6.0731
  743.5000     2.5144     0.0874   100.4005     7.6909     0.0574     8.0349   -65.7748     6.0731
  744.0000     2.5087     0.0892   100.7514     7.7068     0.0558     8.2896   -65.7693     6.1292
  744.5000     2.5036     0.0888    99.0606     7.7226     0.0553     8.5529   -65.7638     6.4750
  745.0000     2.5057     0.0834    95.7726     7.7385     0.0547     8.8243   -65.7583     6.8270
  745.5000     2.5104     0.0831    93.6250     7.7543     0.0542     9.1043   -65.7528     7.1986
  746.0000     2.5131     0.0817    92.4194     7.7702     0.0537     9.3932   -65.7472     7.5932
  746.5000     2.5142     0.0792    92.7646     7.7867     0.0532     9.6913   -65.7417     7.8689
  747.0000     2.5153     0.0788    93.7358     7.7842     0.0527    10.0011   -65.7362     7.9090
  747.5000     2.5164     0.0790    96.4481     7.7767     0.0522    10.0981   -65.7307     7.9492
  748.0000     2.5162     0.0793    96.2301     7.7689     0.0516    10.1403   -65.7252     7.9896
  748.5000     2.5160     0.0795    92.1453     7.7613     0.0511    10.1813   -65.7196     8.0303
  749.0000     2.5157     0.0798    91.2186     7.7536     0.0506    10.2228   -65.7141     8.0711
  749.5000     2.5146     0.0860    90.3953     7.7459     0.0501    10.2531   -65.7087     8.1122
  750.0000     2.5106     0.0890    90.2962     7.7382     0.0496    10.2531   -65.7100     8.1535
  750.5000     2.5067     0.0810    90.3253     7.7304     0.0490    10.2531   -65.7187     8.1949
  751.0000     2.5112     0.0804    90.5630     7.7299     0.0485    10.2531   -65.7274     8.2366
  751.5000     2.5117     0.0873    90.8010     7.7300     0.0482    10.2531   -65.7361     8.2785
  752.0000     2.5066     0.0884    91.0385     7.7300     0.0489    10.2533   -65.7448     8.3206
  752.5000     2.5059     0.0868    91.2773     7.7300     0.0496    10.2404   -65.7535     8.3629
  753.0000     2.5093     0.0851    91.5131     7.7300     0.0496    10.2196   -65.7622     8.4055
  753.5000     2.5091     0.0847    91.6150     7.7300     0.0466    10.1987   -65.7709     8.4540
  754.0000     2.5070     0.0877    91.1168     7.7300     0.0436    10.1779   -65.7796     8.4078
  754.5000     2.5048     0.0907    90.6301     7.7300     0.0425    10.1571   -65.7883     8.3549
  755.0000     2.5026     0.0880    90.1483     7.7300     0.0433    10.1364   -65.7970     8.3023
  755.5000     2.5034     0.0834    89.6697     7.7296     0.0445    10.1157   -65.8056     8.2500
  756.0000     2.5095     0.0789    90.2858     7.7511     0.0474    10.0950   -65.8143     8.1981
  756.5000     2.5140     0.0778    91.8944     7.7825     0.0505    10.0744   -65.8230     8.1465
  757.0000     2.5171     0.0785    93.3360     7.7908     0.0536    10.0538   -65.8317     8.0952
