~VERSION INFORMATION
 VERS.                2.0:   CWLS LOG ASCII STANDARD - VERSION 2.0
 WRAP.                 NO:   ONE LINE PER DEPTH STEP
~WELL INFORMATION
#MNEM.UNIT      DATA TYPE    INFORMATION
#----------   ------------   ------------------------------
 STRT.F           80.0000:   START DEPTH
 STOP.F         1056.0000:   STOP DEPTH
 STEP.F            0.5000:   STEP LENGTH
 NULL.          -999.2500:   NO VALUE
 COMP. U S NAVY-INTEX OIL:   COMPANY
 WELL.      NPR 3 #68-S-2:   WELL
 FLD .        TEAPOT DOME:   FIELD
 LOC .       S2 T38N R78W:   LOCATION
 CNTY.            NATRONA:   COUNTY
 STAT.            WYOMING:   STATE
 CTRY. UNITED STATES OF AMERICA:   COUNTRY
 SRVC.       Schlumberger:   SERVICE COMPANY
 DATE.        21-JUL-1964:   LOGDATE
 API .       490250638800:   API NUMBER
~CURVE INFORMATION
#MNEM.UNIT       API CODE    CURVE DESCRIPTION
#----------   ------------   ------------------------------
 DEPT.F                  :   
 SPR .MV     05 010 01 00:   SPONTANEOUS POTENTIAL FROM RES.
 ASN .OHMM   05 041 16 00:   AMPLIFIED SHORT NORMAL 16"
 ILD .OHMM   05 120 46 00:   INDUCTION LOG DEEP
 CILD.MMHO   05 110 46 00:   CONDUCTIVITY INDUCTION LOG DEEP
 GR  .GAPI   30 310 01 00:   GAMMA RAY
 CALS.IN     60 280 50 00:   CALIPER FROM SONIC LOG
 DT  .US/F   60 520 00 00:   INTERVAL TRANSIT TIME
~PARAMETER INFORMATION
#MNEM.UNIT          VALUE    DESCRIPTION
#----------   ------------   ------------------------------
 PD  .                 GL:   PERMANENT DATUM
 EPD .F              5201:   ELEVATION PERMANENT DATUM
 LMF .                 KB:   LOG MEASURED FROM
 DAPD.F                 5:   FEET ABOVE PERMANENT DATUM
 DMF .                 KB:   DRILLING MEASURED FROM
 EKB .F              5206:   KELLING BUSHING
 EGL .F              5201:   GROUND LEVEL
 DATE.          8-12-1964:   RUN DATE
 RUN .                  1:   RUN NUMBER
 DD  .F              1055:   DEPTH DRILLER
 DL  .F              1057:   DEPTH LOGGER
 BLI .F              1055:   BOTTOM LOG INTERVAL
 TLI .F               450:   TOP LOG INTERVAL
 CS  .IN              4.5:   CASING SIZE
 BS  .IN             6.75:   BIT SIZE
 DFT .            GEL OIL:   DRILLING FLUID TYPE
 DFD .                9.3:   DRILLING FLUID DENSITY
 DFV .                 48:   DRILLING FLUID VISCOSITY
 DFPH.                 10:   DRILLING FLUID PH
 DFL .                 10:   DRILLING FLUID LOSS
 MSS .           FLOWLINE:   MUD SAMPLE SOURCE
 RMS .OHMM           1.07:   RESISTIVITY MUD SAMPLE
 MST .F                95:   MUD SAMPLE TEMPERATURE
 RMF .OHMM            .67:   RESISTIVITY MUD FILTRATE SAMPLE
 MFST.F                95:   MUD FILTRATE SAMPLE TEMPERATURE
 RMC .OHMM           1.44:   RESISTIVITY MUD CAKE
 MCST.F                95:   MUD CAKE SAMPLE TEMPERATURE
 MFSS.                 FP:   MUD FILTRATE SAMPLE SOURCE
 MCSS.                 FP:   MUD CAKE SAMPLE SOURCE
 TCS .HRS               1:   TIME CURCULATED STOPPED
 LUN .               4507:   LOGGING UNIT NUMBER
 LUL .               CSPR:   LOGGING UNIT LOCATION
 ENGI.             DANNER:   RECORDING ENGINEER
 WITN.         JORGENESEN:   WITNESSED BY
 CLNT.            A2DTECH:   CLIENT CODE
 ORIG.           2" PRINT:   ORIGIN OF DATA
 UWI .       490250638800:   UNIQUE WELL ID
 DICO. A2D Technologies, Inc.:   DIGITIZING COMPANY
~OTHER INFORMATION
~A   DEPT      SPR          ASN        ILD      CILD        GR       CALS         DT   
   80.0000   -43.5772     2.6207     6.4371   158.7810  -999.2500  -999.2500  -999.2500
   80.5000   -43.4046     2.6058     6.2874   163.9801  -999.2500  -999.2500  -999.2500
   81.0000   -43.1265     2.5909     6.1492   166.1855  -999.2500  -999.2500  -999.2500
   81.5000   -42.9212     2.5863     5.9854   168.5738  -999.2500  -999.2500  -999.2500
   82.0000   -42.6766     2.5760     5.8648   172.1415  -999.2500  -999.2500  -999.2500
   82.5000   -42.2888     2.5761     5.7442   174.3302  -999.2500  -999.2500  -999.2500
   83.0000   -42.0169     2.5612     5.6138   176.5919  -999.2500  -999.2500  -999.2500
   83.5000   -41.6287     2.5613     5.5029   178.4722  -999.2500  -999.2500  -999.2500
   84.0000   -41.6274     2.5613     5.4641   179.5542  -999.2500  -999.2500  -999.2500
   84.5000   -41.6260     2.5614     5.3892   180.2890  -999.2500  -999.2500  -999.2500
   85.0000   -41.6244     2.5615     5.3892   181.2997  -999.2500  -999.2500  -999.2500
   85.5000   -41.6230     2.5765     5.4641   181.0192  -999.2500  -999.2500  -999.2500
   86.0000   -41.6213     2.6066     5.4641   178.6509  -999.2500  -999.2500  -999.2500
   86.5000   -41.6200     2.7158     5.4755   176.2475  -999.2500  -999.2500  -999.2500
   87.0000   -41.7676     4.8467     5.5389   173.5557  -999.2500  -999.2500  -999.2500
   87.5000   -41.9148     6.1151     5.6418   171.4410  -999.2500  -999.2500  -999.2500
   88.0000   -42.1103     6.8594     5.7635   169.7816  -999.2500  -999.2500  -999.2500
   88.5000   -42.3591     7.0448     5.8083   167.8522  -999.2500  -999.2500  -999.2500
   89.0000   -42.6557     7.0373     5.9289   166.2799  -999.2500  -999.2500  -999.2500
   89.5000   -42.8034     7.0539     6.0629   163.8461  -999.2500  -999.2500  -999.2500
   90.0000   -42.8016     7.2099     6.0629   162.7480  -999.2500  -999.2500  -999.2500
   90.5000   -42.8003     7.3819     6.1377   161.5427  -999.2500  -999.2500  -999.2500
   91.0000   -42.7988     7.5699     6.1869   161.3591  -999.2500  -999.2500  -999.2500
   91.5000   -42.7076     7.4606     6.2126   162.7702  -999.2500  -999.2500  -999.2500
   92.0000   -42.4660     7.3817     6.1377   164.5531  -999.2500  -999.2500  -999.2500
   92.5000   -42.1981     7.3152     6.1009   166.4187  -999.2500  -999.2500  -999.2500
   93.0000   -42.1967     7.2729     6.0629   166.8650  -999.2500  -999.2500  -999.2500
   93.5000   -42.0462     7.2096     6.0629   168.2503  -999.2500  -999.2500  -999.2500
   94.0000   -41.9464     7.1709     6.0629   167.9860  -999.2500  -999.2500  -999.2500
   94.5000   -41.8942     7.1356     6.0629   167.4924  -999.2500  -999.2500  -999.2500
   95.0000   -42.0416     7.3006     6.1377   166.7411  -999.2500  -999.2500  -999.2500
   95.5000   -42.0403     7.3972     6.1377   166.7337  -999.2500  -999.2500  -999.2500
   96.0000   -42.0546     7.4207     6.1377   167.4693  -999.2500  -999.2500  -999.2500
   96.5000   -42.1863     7.3008     6.0629   168.5020  -999.2500  -999.2500  -999.2500
   97.0000   -42.1848     7.1971     6.0629   169.6925  -999.2500  -999.2500  -999.2500
   97.5000   -42.1833     7.1061     5.8969   171.3419  -999.2500  -999.2500  -999.2500
   98.0000   -42.3308     7.0830     5.7470   172.9861  -999.2500  -999.2500  -999.2500
   98.5000   -42.5030     6.9779     5.6138   175.6168  -999.2500  -999.2500  -999.2500
   99.0000   -42.7748     6.6865     5.5057   177.4306  -999.2500  -999.2500  -999.2500
   99.5000   -42.7734     6.8543     5.4641   177.8351  -999.2500  -999.2500  -999.2500
  100.0000   -42.9210     7.1064     5.5888   177.0833  -999.2500  -999.2500  -999.2500
  100.5000   -43.0107     6.9648     5.6138   177.0759  -999.2500  -999.2500  -999.2500
  101.0000   -43.0673     6.8865     5.5389   177.8120  -999.2500  -999.2500  -999.2500
  101.5000   -43.0654     6.8368     5.5014   179.6576  -999.2500  -999.2500  -999.2500
  102.0000   -42.8485     6.7879     5.4641   181.7558  -999.2500  -999.2500  -999.2500
  102.5000   -42.7645     6.6271     5.3892   184.4853  -999.2500  -999.2500  -999.2500
  103.0000   -42.6632     6.6272     5.3640   184.7222  -999.2500  -999.2500  -999.2500
  103.5000   -42.5705     6.6272     5.2395   185.2158  -999.2500  -999.2500  -999.2500
  104.0000   -42.4619     6.6273     5.1976   185.6151  -999.2500  -999.2500  -999.2500
  104.5000   -42.5358     6.5057     5.1518   187.6664  -999.2500  -999.2500  -999.2500
  105.0000   -42.7572     6.4625     5.0150   191.1448  -999.2500  -999.2500  -999.2500
  105.5000   -42.7553     6.4776     4.9106   194.4916  -999.2500  -999.2500  -999.2500
  106.0000   -42.7034     6.4560     4.8653   199.3154  -999.2500  -999.2500  -999.2500
  106.5000   -42.3055     6.3128     4.8190   201.6839  -999.2500  -999.2500  -999.2500
  107.0000   -41.6240     6.1314     4.7732   204.0724  -999.2500  -999.2500  -999.2500
  107.5000   -41.5575     6.0401     4.7156   205.2455  -999.2500  -999.2500  -999.2500
  108.0000   -41.8540     6.0282     4.7156   203.5418  -999.2500  -999.2500  -999.2500
  108.5000   -41.9422     6.0410     4.7205   199.1690  -999.2500  -999.2500  -999.2500
  109.0000   -41.5514     6.0919     4.8411   194.8512  -999.2500  -999.2500  -999.2500
  109.5000   -41.4951     6.2665     5.1329   189.3802  -999.2500  -999.2500  -999.2500
  110.0000   -41.7685     6.6042     5.3892   182.1422  -999.2500  -999.2500  -999.2500
  110.5000   -42.2934     6.7782     5.5790   176.6419  -999.2500  -999.2500  -999.2500
  111.0000   -42.4411     6.8454     5.7912   172.2620  -999.2500  -999.2500  -999.2500
  111.5000   -42.5887     6.9015     6.0629   168.7263  -999.2500  -999.2500  -999.2500
  112.0000   -42.4379     7.0033     6.1118   167.5199  -999.2500  -999.2500  -999.2500
  112.5000   -42.3932     7.0983     5.9880   167.9684  -999.2500  -999.2500  -999.2500
  113.0000   -42.1370     7.2583     5.8705   171.3692  -999.2500  -999.2500  -999.2500
  113.5000   -41.9054     7.2716     5.7635   173.4670  -999.2500  -999.2500  -999.2500
  114.0000   -41.5002     7.2357     5.6886   176.1298  -999.2500  -999.2500  -999.2500
  114.5000   -40.7911     7.1386     5.6583   177.3984  -999.2500  -999.2500  -999.2500
  115.0000   -40.6930     6.9827     5.6138   178.3483  -999.2500  -999.2500  -999.2500
  115.5000   -41.0864     6.8381     5.6138   178.7698  -999.2500  -999.2500  -999.2500
  116.0000   -41.5539     6.7790     5.6886   179.0782  -999.2500  -999.2500  -999.2500
  116.5000   -42.1819     6.7791     5.7635   178.3250  -999.2500  -999.2500  -999.2500
  117.0000   -42.7211     6.8092     5.7982   177.7133  -999.2500  -999.2500  -999.2500
  117.5000   -42.8080     6.8602     5.9936   175.3099  -999.2500  -999.2500  -999.2500
  118.0000   -42.7123     6.9988     6.0629   172.9067  -999.2500  -999.2500  -999.2500
  118.5000   -42.3247     7.1692     6.1601   169.9355  -999.2500  -999.2500  -999.2500
  119.0000   -42.1192     7.2234     6.2126   167.1273  -999.2500  -999.2500  -999.2500
  119.5000   -41.9686     7.2593     6.2874   164.9529  -999.2500  -999.2500  -999.2500
  120.0000   -41.8977     7.3283     6.2774   163.3932  -999.2500  -999.2500  -999.2500
  120.5000   -41.9774     7.4354     6.1377   165.1364  -999.2500  -999.2500  -999.2500
  121.0000   -42.1133     7.6493     6.1110   167.5247  -999.2500  -999.2500  -999.2500
  121.5000   -42.2611     7.6926     6.0629   169.3224  -999.2500  -999.2500  -999.2500
  122.0000   -42.4083     7.5895     5.9446   172.6785  -999.2500  -999.2500  -999.2500
  122.5000   -42.3286     7.3587     5.7491   176.2647  -999.2500  -999.2500  -999.2500
  123.0000   -42.1073     7.1015     5.4641   181.2041  -999.2500  -999.2500  -999.2500
  123.5000   -41.9565     6.8101     5.2523   185.9281  -999.2500  -999.2500  -999.2500
  124.0000   -41.8063     6.7388     5.0878   192.3509  -999.2500  -999.2500  -999.2500
  124.5000   -41.8047     6.6264     5.0150   194.2460  -999.2500  -999.2500  -999.2500
  125.0000   -41.8033     6.5055     5.0524   191.0958  -999.2500  -999.2500  -999.2500
