~VERSION INFORMATION
 VERS.                2.0:   CWLS LOG ASCII STANDARD - VERSION 2.0
 WRAP.                 NO:   ONE LINE PER DEPTH STEP
~WELL INFORMATION
#MNEM.UNIT      DATA TYPE    INFORMATION
#----------   ------------   ------------------------------
 STRT.F           60.0000:   START DEPTH
 STOP.F          945.0000:   STOP DEPTH
 STEP.F            0.5000:   STEP LENGTH
 NULL.          -999.2500:   NO VALUE
 COMP.          U.S. NAVY:   COMPANY
 WELL. RES 3 TEAPOT DOM #48S-35:   WELL
 FLD .           TEAPOT E:   FIELD
 LOC .      S35 T39N R78W:   LOCATION
 CNTY.            NATRONA:   COUNTY
 STAT.            WYOMING:   STATE
 CTRY. UNITED STATES OF AMERICA:   COUNTRY
 SRVC.       Schlumberger:   SERVICE COMPANY
 DATE.        15-JUL-1964:   LOGDATE
 API .       490250649200:   API NUMBER
~CURVE INFORMATION
#MNEM.UNIT       API CODE    CURVE DESCRIPTION
#----------   ------------   ------------------------------
 DEPT.F                  :   
 SPR .MV     05 010 01 00:   SPONTANEOUS POTENTIAL FROM RES.
 ILD .OHMM   05 120 46 00:   INDUCTION LOG DEEP
 ASN .OHMM   05 041 18 00:   AMPLIFIED SHORT NORMAL 18"
 CILD.MMHO   05 110 46 00:   CONDUCTIVITY INDUCTION LOG DEEP
 CALS.IN     60 280 50 00:   CALIPER FROM SONIC LOG
 DT  .US/F   60 520 00 00:   INTERVAL TRANSIT TIME
 GR  .GAPI   30 310 01 00:   GAMMA RAY
~PARAMETER INFORMATION
#MNEM.UNIT          VALUE    DESCRIPTION
#----------   ------------   ------------------------------
 PD  .                 GL:   PERMANENT DATUM
 EPD .F              5123:   ELEVATION PERMANENT DATUM
 LMF .                 KB:   LOG MEASURED FROM
 DAPD.F                 5:   FEET ABOVE PERMANENT DATUM
 DMF .                 KB:   DRILLING MEASURED FROM
 EKB .F              5128:   KELLING BUSHING
 EGL .F              5123:   GROUND LEVEL
 DATE.        15-JUL-1964:   RUN DATE
 RUN .                  1:   RUN NUMBER
 DD  .F               945:   DEPTH DRILLER
 DL  .F               946:   DEPTH LOGGER
 BLI .F               945:   BOTTOM LOG INTERVAL
 TLI .F                94:   TOP LOG INTERVAL
 CS  .IN            8.625:   CASING SIZE
 CBD .F                10:   CASING BOTTOM DRILLER
 BS  .IN             6.75:   BIT SIZE
 BSD .F               945:   BIT SIZE AT DEPTH
 DFT .                GEL:   DRILLING FLUID TYPE
 DFD .                9.5:   DRILLING FLUID DENSITY
 DFV .                 44:   DRILLING FLUID VISCOSITY
 DFPH.                8.0:   DRILLING FLUID PH
 DFL .               10.5:   DRILLING FLUID LOSS
 MSS .           FLOWLINE:   MUD SAMPLE SOURCE
 RMS .OHMM           3.37:   RESISTIVITY MUD SAMPLE
 MST .F                74:   MUD SAMPLE TEMPERATURE
 RMF .OHMM           2.97:   RESISTIVITY MUD FILTRATE SAMPLE
 MFST.F                78:   MUD FILTRATE SAMPLE TEMPERATURE
 MFSS.                 FP:   MUD FILTRATE SAMPLE SOURCE
 TCS .HRS             1.5:   TIME CURCULATED STOPPED
 MRT .F       T. L. T. M.:   MAXIMUM RECORDED TEMPERATURE
 LUN .               3527:   LOGGING UNIT NUMBER
 LUL .               CSPR:   LOGGING UNIT LOCATION
 ENGI.            WINKLER:   RECORDING ENGINEER
 WITN.          JORGENSEN:   WITNESSED BY
 CLNT.            A2DTECH:   CLIENT CODE
 ORIG.           2" PRINT:   ORIGIN OF DATA
 UWI .       490250649200:   UNIQUE WELL ID
 DICO. A2D Technologies, Inc.:   DIGITIZING COMPANY
~OTHER INFORMATION
~A   DEPT      SPR        ILD        ASN       CILD         CALS       DT         GR   
# ...
  151.0000   -60.8696     6.5060     7.9793   151.1991     6.6970   115.5647  -999.2500
  151.5000   -60.7893     6.5072     7.9216   151.1951     6.6935   115.2648  -999.2500
  152.0000   -60.7196     6.5083     7.8195   150.4374     6.7083   114.5127  -999.2500
  152.5000   -60.7196     6.5846     7.8045   148.7306     6.7080   114.1373  -999.2500
  153.0000   -60.8051     6.6609     7.8237   148.1673     6.7228   113.6867  -999.2500
  153.5000   -60.9068     6.6620     7.8947   146.4620     6.7376   113.5370  -999.2500
  154.0000   -61.1694     6.6634     7.9861   144.6707     6.7525   114.5939  -999.2500
  154.5000   -61.2601     6.6915     8.0847   142.1229     6.7673   114.8214  -999.2500
  155.0000   -61.3193     6.7444     8.1504   142.1184     6.7973   114.8229  -999.2500
  155.5000   -61.3193     6.8171     8.1743   142.3932     6.7970   114.4777  -999.2500
  156.0000   -61.4693     6.8181     8.1612   144.4544     6.7664   113.0176  -999.2500
  156.5000   -61.6192     6.7353     8.1353   151.1570     6.7207   114.4509  -999.2500
  157.0000   -61.4693     6.5197     8.0905   157.3906     6.6902   113.3974  -999.2500
  157.5000   -61.4693     6.3346     7.9278   161.1172     6.6747   112.9467  -999.2500
  158.0000   -61.4693     6.1323     7.7408   163.2122     6.6745   113.5510  -999.2500
  158.5000   -61.4693     5.9215     7.5489   163.2089     6.6893   113.8539  -999.2500
  159.0000   -61.4693     5.8474     7.4057   163.9596     6.7192   114.2322  -999.2500
  159.5000   -61.4110     5.7731     7.2899   164.7093     6.7416   114.9872  -999.2500
  160.0000   -61.3193     5.7745     7.2632   165.1081     6.7640   115.8930  -999.2500
  160.5000   -61.1694     5.7755     7.2779   165.4568     6.7637   118.1779  -999.2500
  161.0000   -60.9560     5.8752     7.3531   163.1898     6.7634   125.7682  -999.2500
  161.5000   -60.7196     6.1538     7.6992   157.5069     6.7479   122.0018  -999.2500
  162.0000   -60.7196     6.7566     7.9086   151.3876     6.7023   119.2150  -999.2500
  162.5000   -60.5697     7.0865     8.0451   144.3250     6.6566   117.4079  -999.2500
  163.0000   -60.5697     7.2897     8.1353   139.8490     6.6412   115.5254  -999.2500
  163.5000   -60.5697     7.4366     8.1598   137.0350     6.6257   112.7386  -999.2500
  164.0000   -60.5697     7.6211     8.2099   136.0079     6.6103   112.0619  -999.2500
  164.5000   -60.7196     7.7395     8.2865   134.5054     6.6251   112.0633  -999.2500
  165.0000   -60.7196     7.7407     8.5414   133.4590     6.6248   111.9894  -999.2500
  165.5000   -60.7989     7.7797     8.7119   132.2361     6.6396   111.5991  -999.2500
  166.0000   -60.8696     7.8180     8.8782   132.2317     6.6393   110.4102  -999.2500
  166.5000   -60.8696     7.8193     8.9774   132.2285     6.6541   107.0206  -999.2500
  167.0000   -61.0195     7.8203     8.9843   132.2247     6.6538   105.9671  -999.2500
  167.5000   -61.0195     7.8215     8.9925   132.2205     6.6687   105.2150  -999.2500
  168.0000   -61.0195     7.8226     8.9925   132.5893     6.6835   105.2918  -999.2500
  168.5000   -61.0195     7.8237     8.9925   132.9680     6.6983   106.1222  -999.2500
  169.0000   -61.0195     7.7494     8.9925   133.7177     6.7132   106.6512  -999.2500
  169.5000   -61.0195     7.7507     8.9925   134.1277     6.7129   106.8034  -999.2500
  170.0000   -61.0195     7.6767     8.9925   134.6405     6.7277   106.8802  -999.2500
  170.5000   -61.0195     7.6778     8.9687   135.2150     6.7274   108.9691  -999.2500
  171.0000   -61.0195     7.6790     8.8872   135.9653     6.7271   109.3699  -999.2500
  171.5000   -60.8696     7.6802     8.8421   136.1791     6.7116   109.2960  -999.2500
  172.0000   -60.8696     7.6060     8.8120   137.4660     6.6811   110.2022  -999.2500
  172.5000   -60.8658     7.6071     8.7962   138.7129     6.6656   110.8065  -999.2500
  173.0000   -60.7196     7.5332     8.7519   138.9668     6.6502   111.2598  -999.2500
  173.5000   -60.7196     7.4952     8.7174   138.9630     6.6196   110.8095  -999.2500
  174.0000   -60.7196     7.4600     8.6545   138.9586     6.6194   110.8863  -999.2500
  174.5000   -60.7196     7.3862     8.5113   138.9555     6.6191   111.7921  -999.2500
  175.0000   -60.5697     7.3872     8.4812   138.9517     6.6641   112.4717  -999.2500
  175.5000   -60.5697     7.3884     8.4812   138.9474     6.7092   113.1514  -999.2500
  176.0000   -60.5697     7.3895     8.4812   138.9442     6.7543   112.8515  -999.2500
  176.5000   -60.5697     7.3906     8.4962   138.1863     6.7692   112.3258  -999.2500
  177.0000   -60.5697     7.3664     8.4962   138.1821     6.7235   111.9505  -999.2500
  177.5000   -60.5697     7.3158     8.4962   137.7955     6.6778   111.5752  -999.2500
  178.0000   -60.5697     7.1686     8.5113   136.6667     6.6245   111.5009  -999.2500
  178.5000   -60.5697     7.0944     8.5162   136.6626     6.6091   111.6535  -999.2500
  179.0000   -60.5697     7.0955     8.5414   137.8381     6.6163   112.1824  -999.2500
  179.5000   -60.5697     7.0216     8.5414   139.1051     6.6614   112.4175  -999.2500
  180.0000   -60.5697     7.0225     8.5414   140.4222     6.7065   111.2811  -999.2500
  180.5000   -60.5697     6.9484     8.5059   141.6390     6.7213   110.9811  -999.2500
  181.0000   -60.5697     6.9497     8.3910   143.1348     6.7210   112.0380  -999.2500
  181.5000   -60.5697     6.9108     8.2804   144.9359     6.7207   112.1898  -999.2500
  182.0000   -60.5697     6.8765     8.1281   147.1938     6.7204   110.9859  -999.2500
  182.5000   -60.5697     6.8027     8.0602   148.2152     6.7201   110.8363  -999.2500
  183.0000   -60.5697     6.8038     7.9988   150.2037     6.7198   111.7424  -999.2500
  183.5000   -60.5697     6.8049     7.9445   150.9534     6.7195   112.1960  -999.2500
  184.0000   -60.5697     6.8060     7.8947   151.2620     6.7041   112.4989  -999.2500
  184.5000   -60.5697     6.8072     7.9039   151.7748     6.6887   112.5758  -999.2500
  185.0000   -60.5697     6.7819     7.9488   152.4510     6.6732   112.5019  -999.2500
  185.5000   -60.5697     6.7342     8.0150   152.4472     6.6729   112.0286  -999.2500
  186.0000   -60.5697     6.7355     8.0602   152.4435     6.6575   111.2995  -999.2500
  186.5000   -60.5669     6.7365     8.0395   152.4393     6.6572   110.8488  -999.2500
  187.0000   -60.4198     6.7376     8.0141   152.4359     6.6417   110.4735  -999.2500
  187.5000   -60.4198     6.7389     7.9699   152.4321     6.6415   110.2485  -999.2500
  188.0000   -60.4118     6.7398     7.9483   151.6740     6.6412   110.0243  -999.2500
  188.5000   -60.2699     6.7410     7.9228   151.6704     6.6257   110.1011  -999.2500
  189.0000   -60.2699     6.6670     7.8947   150.7140     6.6254   110.3286  -999.2500
  189.5000   -60.2699     6.7090     7.8947   149.4003     6.6251   110.7822  -999.2500
  190.0000   -60.2699     6.7444     7.9188   148.1650     6.6400   111.4619  -999.2500
  190.5000   -60.2699     6.7455     8.0301   147.8846     6.6396   112.4658  -999.2500
  191.0000   -60.2699     6.7466     8.1251   147.8783     6.6544   113.0478  -999.2500
  191.5000   -60.2699     6.7477     8.2349   147.1222     6.6541   112.8985  -999.2500
  192.0000   -60.2699     6.7489     8.3759   147.1192     6.6690   111.3928  -999.2500
  192.5000   -60.2699     6.7502     8.4459   147.1154     6.6687   110.5654  -999.2500
  193.0000   -60.2699     6.8263     8.3853   147.1110     6.6684   110.0393  -999.2500
  193.5000   -60.2699     6.8313     8.1919   146.0307     6.6832   109.6640  -999.2500
  194.0000   -60.2699     6.9039     8.0150   144.8416     6.6829   109.5898  -999.2500
  194.5000   -60.4198     7.0445     8.0397   144.0833     6.6977   110.4959  -999.2500
  195.0000   -60.4198     7.1403     8.2225   142.2071     6.7126   111.9292  -999.2500
  195.5000   -60.4198     7.3584     8.4060   140.8055     6.7274   113.6112  -999.2500
  196.0000   -60.4198     7.4717     8.5173   138.7930     6.7422   114.4193  -999.2500
