~VERSION INFORMATION
 VERS.                2.0:   CWLS LOG ASCII STANDARD - VERSION 2.0
 WRAP.                 NO:   ONE LINE PER DEPTH STEP
~WELL INFORMATION
#MNEM.UNIT      DATA TYPE    INFORMATION
#----------   ------------   ------------------------------
 STRT.F          148.5000:   START DEPTH
 STOP.F          882.5000:   STOP DEPTH
 STEP.F            0.5000:   STEP LENGTH
 NULL.          -999.2500:   NO VALUE
 COMP.               NAVY:   COMPANY
 WELL. RES 3 TEAPOT DOM #55S-11:   WELL
 FLD .             TEAPOT:   FIELD
 LOC .      S11 T38N R78W:   LOCATION
 CNTY.            NATRONA:   COUNTY
 STAT.            WYOMING:   STATE
 CTRY. UNITED STATES OF AMERICA:   COUNTRY
 SRVC.       Schlumberger:   SERVICE COMPANY
 DATE.        05-AUG-1961:   LOGDATE
 API .       490250634000:   API NUMBER
~CURVE INFORMATION
#MNEM.UNIT       API CODE    CURVE DESCRIPTION
#----------   ------------   ------------------------------
 DEPT.F                  :   
 GR  .GAPI   30 310 01 00:   GAMMA RAY
 SPR .MV     05 010 01 00:   SPONTANEOUS POTENTIAL FROM RES.
 CILD.MMHO   05 110 46 00:   CONDUCTIVITY INDUCTION LOG DEEP
 ASN .OHMM   05 041 16 00:   AMPLIFIED SHORT NORMAL 16"
 ILD .OHMM   05 120 46 00:   INDUCTION LOG DEEP
~PARAMETER INFORMATION
#MNEM.UNIT          VALUE    DESCRIPTION
#----------   ------------   ------------------------------
 PD  .                 GL:   PERMANENT DATUM
 EPD .F              5201:   ELEVATION PERMANENT DATUM
 LMF .                 KB:   LOG MEASURED FROM
 DAPD.F                 6:   FEET ABOVE PERMANENT DATUM
 DMF .                 KB:   DRILLING MEASURED FROM
 EKB .F              5207:   KELLING BUSHING
 EGL .F              5201:   GROUND LEVEL
 DATE.             8-5-61:   RUN DATE
 RUN .                  1:   RUN NUMBER
 DD  .F               880:   DEPTH DRILLER
 DL  .F               882:   DEPTH LOGGER
 BLI .F               881:   BOTTOM LOG INTERVAL
 TLI .F               150:   TOP LOG INTERVAL
 BS  .IN            7.875:   BIT SIZE
 BSD .F               880:   BIT SIZE AT DEPTH
 DFT .       OIL EMULSION:   DRILLING FLUID TYPE
 DFV .                 40:   DRILLING FLUID VISCOSITY
 MSS .           FLOWLINE:   MUD SAMPLE SOURCE
 RMS .OHMM            .96:   RESISTIVITY MUD SAMPLE
 MST .F                74:   MUD SAMPLE TEMPERATURE
 TCS .HRS               1:   TIME CURCULATED STOPPED
 LUN .               2544:   LOGGING UNIT NUMBER
 LUL .                 NC:   LOGGING UNIT LOCATION
 ENGI.            EARNEST:   RECORDING ENGINEER
 WITN.          JORGENSEN:   WITNESSED BY
 CLNT.            A2DTECH:   CLIENT CODE
 ORIG.       2", 5" PRINT:   ORIGIN OF DATA
 UWI .       490250634000:   UNIQUE WELL ID
 DICO. A2D Technologies, Inc.:   DIGITIZING COMPANY
~OTHER INFORMATION
~A   DEPT       GR        SPR       CILD        ASN        ILD   
# ...
  209.5000  -999.2500   -52.6651   206.1461     6.1667     5.0114
  210.0000  -999.2500   -52.8349   212.4874     6.0217     4.8646
  210.5000  -999.2500   -53.0081   218.8287     5.8223     4.7178
  211.0000  -999.2500   -53.1739   225.9013     5.5760     4.5712
  211.5000  -999.2500   -53.3552   234.0181     5.2984     4.4240
  212.0000  -999.2500   -53.4454   242.1349     5.1368     4.2778
  212.5000  -999.2500   -53.4296   250.2518     4.9481     4.1290
  213.0000  -999.2500   -53.4449   254.7835     4.6880     3.9898
  213.5000  -999.2500   -53.3705   254.7835     4.4597     3.9716
  214.0000  -999.2500   -53.2291   254.7835     4.4093     3.9930
  214.5000  -999.2500   -53.0913   244.7155     4.4505     4.2038
  215.0000  -999.2500   -52.9632   234.2313     4.6286     4.4471
  215.5000  -999.2500   -52.7948   223.7471     4.8299     4.6894
  216.0000  -999.2500   -52.5402   213.2628     5.0290     4.9236
  216.5000  -999.2500   -52.4187   202.7786     5.2163     5.1790
  217.0000  -999.2500   -52.2687   190.3323     5.2987     5.2997
  217.5000  -999.2500   -52.2202   190.3323     5.3649     5.2837
  218.0000  -999.2500   -52.1539   190.3323     5.4396     5.2930
  218.5000  -999.2500   -52.0047   195.6539     5.4729     5.2866
  219.0000  -999.2500   -52.1779   200.8718     5.4649     5.2947
  219.5000  -999.2500   -52.4885   206.0898     5.4099     5.2687
  220.0000  -999.2500   -52.7687   213.8397     5.3590     5.0842
  220.5000  -999.2500   -53.0538   223.6959     5.2686     4.8658
  221.0000  -999.2500   -53.3459   233.5520     5.1612     4.6906
  221.5000  -999.2500   -53.4178   242.6989     5.0042     4.3096
  222.0000  -999.2500   -53.3602   283.3031     4.8042     3.7391
  222.5000  -999.2500   -53.3105   321.1816     4.6072     3.2844
  223.0000  -999.2500   -53.2861   355.4884     4.4316     3.0115
  223.5000  -999.2500   -53.1762   379.9144     4.1335     2.7914
  224.0000  -999.2500   -53.0393   402.2357     3.7171     2.5469
  224.5000  -999.2500   -52.7865   421.9537     3.3939     2.4577
  225.0000  -999.2500   -52.2935   419.9396     3.1423     2.4592
  225.5000  -999.2500   -51.9438   406.7758     3.0635     2.5034
  226.0000  -999.2500   -51.4456   385.8073     3.0831     2.8910
  226.5000  -999.2500   -51.3418   364.8389     3.1541     3.2686
  227.0000  -999.2500   -51.5124   331.8717     3.1890     3.6473
  227.5000  -999.2500   -51.5814   292.4471     3.4536     4.0257
  228.0000  -999.2500   -51.7043   253.0453     3.8742     4.4016
  228.5000  -999.2500   -51.7944   220.2435     4.2520     4.7845
  229.0000  -999.2500   -51.8811   202.5593     4.5582     5.0986
  229.5000  -999.2500   -52.0640   197.8813     4.5833     5.2034
  230.0000  -999.2500   -52.2500   208.0332     4.5834     5.1439
  230.5000  -999.2500   -52.4362   219.7446     4.5881     4.7575
  231.0000  -999.2500   -52.6238   231.4770     4.6336     4.4774
  231.5000  -999.2500   -52.8083   240.6848     4.6707     4.3443
  232.0000  -999.2500   -52.8378   244.5384     4.6918     4.2292
  232.5000  -999.2500   -52.8229   247.6950     4.6917     4.1150
  233.0000  -999.2500   -52.8443   250.8515     4.6694     4.0008
  233.5000  -999.2500   -52.6800   254.7835     4.6455     3.8855
  234.0000  -999.2500   -52.5930   264.3505     4.5558     3.7737
  234.5000  -999.2500   -52.3058   277.0330     4.4221     3.6519
  235.0000  -999.2500   -51.9320   289.7155     4.2836     3.5153
  235.5000  -999.2500   -51.5784   305.1360     4.1164     3.3412
  236.0000  -999.2500   -51.2387   325.9975     3.9348     3.1526
  236.5000  -999.2500   -51.2116   352.6027     3.7582     2.9694
  237.0000  -999.2500   -51.2821   379.2078     3.5784     2.7817
  237.5000  -999.2500   -51.3575   405.8129     3.4008     2.5908
  238.0000  -999.2500   -51.4292   423.9678     3.2086     2.5520
  238.5000  -999.2500   -51.5094   421.9537     3.1175     2.6669
  239.0000  -999.2500   -51.5718   409.6838     3.1062     3.1394
  239.5000  -999.2500   -51.7402   379.6334     3.1441     3.7529
  240.0000  -999.2500   -52.0148   344.0876     3.2825     4.3076
  240.5000  -999.2500   -52.2569   317.2647     3.4295     4.9652
  241.0000  -999.2500   -52.5281   285.7800     3.6959     5.2926
  241.5000  -999.2500   -52.6362   254.2833     4.1080     5.1642
  242.0000  -999.2500   -52.6266   219.0096     4.5648     5.1072
  242.5000  -999.2500   -52.6263   210.8688     4.8874     5.0124
  243.0000  -999.2500   -52.6362   200.6308     4.9739     4.9383
  243.5000  -999.2500   -52.4851   200.4028     5.0514     4.8526
  244.0000  -999.2500   -52.3163   207.9221     5.1278     4.7737
  244.5000  -999.2500   -52.1396   221.4501     5.1750     4.6788
  245.0000  -999.2500   -51.9669   234.9782     5.1638     4.4860
  245.5000  -999.2500   -51.7848   248.5062     5.1740     4.2648
  246.0000  -999.2500   -51.5120   262.8399     5.0507     4.0485
  246.5000  -999.2500   -51.4511   280.8330     4.8088     3.8293
  247.0000  -999.2500   -51.7197   299.9655     4.5795     3.6130
  247.5000  -999.2500   -51.9846   319.0980     4.3428     3.3917
  248.0000  -999.2500   -52.2467   331.8295     4.1103     3.1893
  248.5000  -999.2500   -52.5116   337.3615     3.8744     3.1647
  249.0000  -999.2500   -52.7710   339.3756     3.6645     3.1861
  249.5000  -999.2500   -53.0425   335.3474     3.5866     3.3670
  250.0000  -999.2500   -53.2332   328.6338     3.5983     3.5747
  250.5000  -999.2500   -53.2032   315.0554     3.6272     3.7761
  251.0000  -999.2500   -53.0948   294.9857     3.7856     3.9806
  251.5000  -999.2500   -52.9825   274.6461     3.9609     4.1690
  252.0000  -999.2500   -52.8708   254.3055     4.1333     4.3426
  252.5000  -999.2500   -52.7589   234.7119     4.2998     4.5186
  253.0000  -999.2500   -52.6358   229.7689     4.4243     4.6804
  253.5000  -999.2500   -52.5156   224.9977     4.5533     4.7749
  254.0000  -999.2500   -52.3781   220.5177     4.6887     4.8635
  254.5000  -999.2500   -52.2368   218.4837     4.8253     4.9462
  255.0000  -999.2500   -52.2223   216.5156     4.9369     5.0608
  255.5000  -999.2500   -52.3126   219.0073     4.9502     5.0393
  256.0000  -999.2500   -52.4229   221.3264     4.9318     4.9787
  256.5000  -999.2500   -52.5321   223.6455     4.9221     4.9369
  257.0000  -999.2500   -52.6403   234.3202     4.8142     4.8579
  257.5000  -999.2500   -52.7522   250.5539     4.6261     4.5687
  258.0000  -999.2500   -52.8568   264.8540     4.4611     4.2803
  258.5000  -999.2500   -52.9776   283.0211     4.2847     3.9904
  259.0000  -999.2500   -53.0357   299.2548     4.1157     3.7063
  259.5000  -999.2500   -53.0342   313.1924     3.9405     3.4097
  260.0000  -999.2500   -53.0271   319.3689     3.7899     3.1833
  260.5000  -999.2500   -53.0475   324.7801     3.6540     3.1702
  261.0000  -999.2500   -52.8724   330.1913     3.5533     3.1717
  261.5000  -999.2500   -52.4745   335.6025     3.4971     3.1707
  262.0000  -999.2500   -52.1142   341.0138     3.4508     3.1748
  262.5000  -999.2500   -51.7261   345.4179     3.4292     3.1565
  263.0000  -999.2500   -51.3670   352.5646     3.4413     3.0216
  263.5000  -999.2500   -50.9650   360.0050     3.3763     2.8956
  264.0000  -999.2500   -50.8075   367.4455     3.2834     2.7675
  264.5000  -999.2500   -51.0344   391.2639     3.1873     2.6528
  265.0000  -999.2500   -51.2437   421.7019     3.0736     2.4791
  265.5000  -999.2500   -51.4680   452.1400     2.9717     2.3628
  266.0000  -999.2500   -51.6822   473.6354     2.8713     2.3005
  266.5000  -999.2500   -51.9042   478.3484     2.7539     2.2656
  267.0000  -999.2500   -52.1182   476.3344     2.6800     2.2675
  267.5000  -999.2500   -52.3418   453.0787     2.6928     2.3990
  268.0000  -999.2500   -52.4501   422.3507     2.7380     2.5902
  268.5000  -999.2500   -52.4693   391.6228     2.8082     2.7740
  269.0000  -999.2500   -52.5054   362.5713     2.9191     2.9564
  269.5000  -999.2500   -52.5274   337.7700     3.0732     3.1538
  270.0000  -999.2500   -52.5663   312.9686     3.3674     3.3392
