~VERSION INFORMATION
 VERS.                2.0:   CWLS LOG ASCII STANDARD - VERSION 2.0
 WRAP.                 NO:   ONE LINE PER DEPTH STEP
~WELL INFORMATION
#MNEM.UNIT      DATA TYPE    INFORMATION
#----------   ------------   ------------------------------
 STRT.F           40.0000:   START DEPTH
 STOP.F          684.0000:   STOP DEPTH
 STEP.F            0.5000:   STEP LENGTH
 NULL.          -999.2500:   NO VALUE
 COMP.    FENIX & SCISSON:   COMPANY
 WELL.   N P R-3 #26SX2-2:   WELL
 FLD .             TEAPOT:   FIELD
 LOC .       S2 T38N R78W:   LOCATION
 CNTY.            NATRONA:   COUNTY
 STAT.            WYOMING:   STATE
 CTRY. UNITED STATES OF AMERICA:   COUNTRY
 SRVC.            Unknown:   SERVICE COMPANY
 DATE.        26-JAN-1978:   LOGDATE
 API .       490251056400:   API NUMBER
~CURVE INFORMATION
#MNEM.UNIT       API CODE    CURVE DESCRIPTION
#----------   ------------   ------------------------------
 DEPT.F                  :   
 ILD .OHMM   05 120 46 00:   INDUCTION LOG DEEP
 SN  .OHMM   05 040 16 00:   SHORT NORMAL 16"
 SPR .MV     05 010 01 00:   SPONTANEOUS POTENTIAL FROM RES.
 CALD.IN     45 280 60 00:   CALIPER FROM DENSITY LOG
 CORR.G/C3   45 356 01 00:   DENSITY CORRECTION
 DPHI.DEC    45 890 12 00:   DENSITY POROSITY SANDSTONE
 GRD .GAPI   45 310 01 00:   GAMMA RAY FROM DENSITY LOG
 RHOB.G/C3   45 350 01 00:   BULK DENSITY
~PARAMETER INFORMATION
#MNEM.UNIT          VALUE    DESCRIPTION
#----------   ------------   ------------------------------
 PD  .                 GL:   PERMANENT DATUM
 EPD .F              5142:   ELEVATION PERMANENT DATUM
 LMF .                 KB:   LOG MEASURED FROM
 DMF .                 KB:   DRILLING MEASURED FROM
 EKB .F              5146:   KELLING BUSHING
 EGL .F              5142:   GROUND LEVEL
 DATE.        26-JAN-1978:   RUN DATE
 RUN .                  1:   RUN NUMBER
 DD  .F               690:   DEPTH DRILLER
 DL  .F               684:   DEPTH LOGGER
 BLI .F               684:   BOTTOM LOG INTERVAL
 TLI .F                50:   TOP LOG INTERVAL
 CS  .IN            8.625:   CASING SIZE
 CBD .F                39:   CASING BOTTOM DRILLER
 CBL .F                40:   CASING BOTTOM LOGGER
 BS  .IN            7.875:   BIT SIZE
 BSD .F               690:   BIT SIZE AT DEPTH
 DFT .                KCL:   DRILLING FLUID TYPE
 DFD .                8.5:   DRILLING FLUID DENSITY
 DFV .                 33:   DRILLING FLUID VISCOSITY
 DFPH.                  9:   DRILLING FLUID PH
 MSS .           FLOWLINE:   MUD SAMPLE SOURCE
 RMS .OHMM           0.48:   RESISTIVITY MUD SAMPLE
 MST .F                75:   MUD SAMPLE TEMPERATURE
 RMF .OHMM           0.46:   RESISTIVITY MUD FILTRATE SAMPLE
 MFST.F                75:   MUD FILTRATE SAMPLE TEMPERATURE
 RMC .OHMM              1:   RESISTIVITY MUD CAKE
 MCST.F                75:   MUD CAKE SAMPLE TEMPERATURE
 MFSS.               MEAS:   MUD FILTRATE SAMPLE SOURCE
 MCSS.               MEAS:   MUD CAKE SAMPLE SOURCE
 RMB .OHMM           0.47:   RESISTIVITY MUD AT BHT
 BHT .F                76:   BOTTOM HOLE TEMPERATURE
 TCS .HRS               1:   TIME CURCULATED STOPPED
 MRT .F                76:   MAXIMUM RECORDED TEMPERATURE
 LUN .               2958:   LOGGING UNIT NUMBER
 LUL .             CASPER:   LOGGING UNIT LOCATION
 ENGI.           REYNOLDS:   RECORDING ENGINEER
 WITN.       MR. MCGINLEY:   WITNESSED BY
 CLNT.            A2DTECH:   CLIENT CODE
 ORIG.      2.5" 5" PRINT:   ORIGIN OF DATA
 UWI .       490251056400:   UNIQUE WELL ID
 DICO. A2D Technologies, Inc.:   DIGITIZING COMPANY
~OTHER INFORMATION
~A   DEPT      ILD         SN        SPR       CALD       CORR       DPHI         GRD        RHOB 
# ...
  647.5000    10.1369    10.1990   -57.7213     8.8906     0.2116     0.1729    77.7707     2.3742
  648.0000    10.0715    10.1904   -57.8610     8.8852     0.2115     0.1705    78.9902     2.3758
  648.5000    10.0756    10.1818   -58.0083     8.8602     0.2085     0.1687    79.5986     2.3788
  649.0000    10.0796    10.1749   -58.1614     8.8513     0.2055     0.1674    79.5944     2.3833
  649.5000    10.0837    10.1817   -58.2796     8.8298     0.2024     0.1667    78.9790     2.3879
  650.0000    10.0877    10.2576   -58.2687     8.8298     0.1994     0.1640    78.3637     2.3924
  650.5000    10.0919    10.2295   -58.3284     8.8298     0.1994     0.1606    78.3600     2.3924
  651.0000    10.0590    10.1099   -58.5122     8.8067     0.1963     0.1565    78.9678     2.3942
  651.5000     9.9941     9.9903   -58.6959     8.7994     0.1933     0.1548    78.6583     2.3991
  652.0000     9.9293     9.9332   -58.8797     8.7994     0.1873     0.1574    79.6739     2.4030
  652.5000     9.8645     9.9390   -59.1226     8.7994     0.1842     0.1492    82.0973     2.4030
  653.0000     9.7997     9.8775   -59.2637     8.8298     0.1807     0.1336    81.5328     2.4125
  653.5000     9.7349     9.8831   -59.2562     8.7994     0.1751     0.1388    80.7103     2.4348
  654.0000     9.6669     9.8194   -59.2474     8.7994     0.1751     0.1437    80.1682     2.4307
  654.5000     9.6069     9.8263   -59.2402     8.7994     0.1721     0.1451    80.5753     2.4245
  655.0000     9.6135     9.6974   -59.2330     8.7994     0.1679     0.1463    81.5048     2.4227
  655.5000     9.6200     9.6349   -59.2258     8.7994     0.1630     0.1457    81.9916     2.4220
  656.0000     9.5604     9.5742   -59.2186     8.7994     0.1600     0.1360    81.8349     2.4261
  656.5000     9.4377     9.5809   -59.2114     8.7994     0.1492     0.1233    81.2035     2.4409
  657.0000     9.3778     9.5205   -59.2042     8.7994     0.1357     0.1240    81.0620     2.4667
  657.5000     9.2574     9.4605   -59.3453     8.7994     0.1267     0.1259    81.9757     2.4652
  658.0000     9.1370     9.3896   -59.3363     8.7994     0.1206     0.1285    82.5835     2.4576
  658.5000     9.0790     9.2788   -59.4792     8.7690     0.1145     0.1308    82.6535     2.4500
  659.0000     8.9609     9.1571   -59.7667     8.7690     0.1145     0.1326    82.2703     2.4470
  659.5000     8.9068     9.0981   -60.2043     8.7690     0.1115     0.1330    82.2666     2.4439
  660.0000     8.7912     8.8572   -60.4954     8.7690     0.1054     0.1268    82.2628     2.4439
  660.5000     8.6769     8.7410   -60.9312     8.7386     0.1024     0.1219    82.2591     2.4485
  661.0000     8.4485     8.5083   -61.2206     8.7386     0.0962     0.1160    81.9495     2.4607
  661.5000     8.2815     8.3391   -61.5123     8.7386     0.0903     0.1124    81.9457     2.4684
  662.0000     8.0622     8.1732   -61.8188     8.7082     0.0868     0.1112    84.0061     2.4714
  662.5000     7.7948     7.8997   -62.2369     8.7082     0.0812     0.1179    87.4618     2.4727
  663.0000     7.3824     7.5275   -62.8209     8.7082     0.0782     0.1257    90.7773     2.4642
  663.5000     6.8963     6.9892   -63.4086     8.6778     0.0781     0.1378    93.6756     2.4564
  664.0000     6.5315     6.6641   -63.9927     8.6470     0.0864     0.1475    97.4206     2.4481
  664.5000     5.6180     6.2243   -64.2820     8.5540     0.1018     0.1596   104.0139     2.4347
  665.0000     5.2843     5.8941   -64.5717     8.4915     0.1128     0.1663   110.1686     2.4139
  665.5000     5.6256     5.6979   -65.1572     8.4043     0.1220     0.1599   116.1341     2.4024
  666.0000     5.4775     5.5082   -65.9111     8.3739     0.1294     0.1318   120.3541     2.4113
  666.5000     5.4811     5.4727   -66.9203     8.3343     0.1264     0.0969   123.4970     2.4541
  667.0000     5.4848     5.5144   -66.0235     8.2827     0.1143     0.0809   121.3525     2.5061
  667.5000     5.5645     5.5556   -65.1266     8.2827     0.1022     0.0797   117.3733     2.5318
  668.0000     6.4336     7.3485   -66.8987     8.2827     0.0961     0.0834   115.5347     2.5273
  668.5000     7.4897     8.2528   -76.0842     8.2827     0.0901     0.0860   114.6135     2.5197
  669.0000     8.1396     8.4700   -73.1116     8.2827     0.0810     0.0858   113.6924     2.5167
  669.5000     8.4301     8.4747   -47.4537     8.2827     0.0780     0.0736   113.3829     2.5242
  670.0000     8.4940     8.4213   -47.1499     8.2827     0.0779     0.0700   113.0733     2.5318
  670.5000     8.4998     8.4260   -49.0702     8.3131     0.0777     0.0840   113.6812     2.5409
  671.0000     8.5057     8.3936   -49.2113     8.3131     0.0749     0.0894   114.6139     2.5348
  671.5000  -999.2500  -999.2500  -999.2500     8.3131     0.0749     0.0924   115.2028     2.5166
  672.0000  -999.2500  -999.2500  -999.2500     8.3131     0.0779     0.0949   114.7399     2.5029
  672.5000  -999.2500  -999.2500  -999.2500     8.3131     0.0779     0.0967   113.5990     2.5015
  673.0000  -999.2500  -999.2500  -999.2500     8.1724     0.0779     0.0973   113.3563     2.5015
  673.5000  -999.2500  -999.2500  -999.2500     7.2796     0.0821     0.0985   113.7570     2.5015
  674.0000  -999.2500  -999.2500  -999.2500     7.9278     0.0883     0.0985   114.6865     2.5019
  674.5000  -999.2500  -999.2500  -999.2500     8.0091     0.0931     0.0984   114.8739     2.5035
  675.0000  -999.2500  -999.2500  -999.2500     8.0091     0.0989     0.0959   114.2711     2.5051
  675.5000  -999.2500  -999.2500  -999.2500     8.0091     0.1019     0.0929   113.6430     2.5066
  676.0000  -999.2500  -999.2500  -999.2500     7.9972     0.0989     0.0912   113.3333     2.5076
  676.5000  -999.2500  -999.2500  -999.2500     7.9787     0.0989     0.0918  -999.2500     2.5091
  677.0000  -999.2500  -999.2500  -999.2500     7.9787     0.0959     0.0924  -999.2500     2.5106
  677.5000  -999.2500  -999.2500  -999.2500     7.9787     0.0958     0.0882  -999.2500     2.5121
  678.0000  -999.2500  -999.2500  -999.2500     7.9787     0.0958     0.0846  -999.2500     2.5152
  678.5000  -999.2500  -999.2500  -999.2500     7.9787     0.0958     0.0867  -999.2500     2.5197
  679.0000  -999.2500  -999.2500  -999.2500     7.9787     0.0988     0.0888  -999.2500     2.5227
  679.5000  -999.2500  -999.2500  -999.2500     7.9787     0.0990     0.0907  -999.2500     2.5242
  680.0000  -999.2500  -999.2500  -999.2500     7.9787     0.1018     0.0924  -999.2500     2.5258
  680.5000  -999.2500  -999.2500  -999.2500     7.9787     0.1024     0.0912  -999.2500     2.5333
  681.0000  -999.2500  -999.2500  -999.2500     7.9787     0.1078     0.0870  -999.2500     2.5379
  681.5000  -999.2500  -999.2500  -999.2500     7.9787     0.1108     0.0858  -999.2500     2.5409
  682.0000  -999.2500  -999.2500  -999.2500     7.9787     0.1138     0.0870  -999.2500     2.5136
  682.5000  -999.2500  -999.2500  -999.2500     7.9787     0.1108     0.0870  -999.2500     2.5122
  683.0000  -999.2500  -999.2500  -999.2500     7.9787     0.1078     0.0858  -999.2500     2.5230
  683.5000  -999.2500  -999.2500  -999.2500     7.9787     0.1047     0.0870  -999.2500     2.5288
  684.0000  -999.2500  -999.2500  -999.2500     7.9787     0.1017     0.0894  -999.2500     2.5285
