~VERSION INFORMATION
 VERS.                2.0:   CWLS LOG ASCII STANDARD - VERSION 2.0
 WRAP.                 NO:   ONE LINE PER DEPTH STEP
~WELL INFORMATION
#MNEM.UNIT      DATA TYPE    INFORMATION
#----------   ------------   ------------------------------
 STRT.F            0.0000:   START DEPTH
 STOP.F         2838.0000:   STOP DEPTH
 STEP.F            0.5000:   STEP LENGTH
 NULL.          -999.2500:   NO VALUE
 COMP. INTEX OIL CO U S NAVY:   COMPANY
 WELL. NAVAL PETROLEUM RESERVE 3 29 #NPR #3 (204A29)-29:   WELL
 FLD .                N/A:   FIELD
 LOC .      S29 T39N R78W:   LOCATION
 CNTY.            NATRONA:   COUNTY
 STAT.            WYOMING:   STATE
 CTRY. UNITED STATES OF AMERICA:   COUNTRY
 SRVC.      NL McCullough:   SERVICE COMPANY
 DATE.        24-JUN-1965:   LOGDATE
 API .       490251021700:   API NUMBER
~CURVE INFORMATION
#MNEM.UNIT       API CODE    CURVE DESCRIPTION
#----------   ------------   ------------------------------
 DEPT.F                  :   
 GR  .GAPI   30 310 01 00:   GAMMA RAY
 HD  .IN     70 280 01 00:   DAIMETER
~PARAMETER INFORMATION
#MNEM.UNIT          VALUE    DESCRIPTION
#----------   ------------   ------------------------------
 PD  .                 GL:   PERMANENT DATUM
 LMF .                 GL:   LOG MEASURED FROM
 EDF .F              5016:   DRILLING FLOOR
 DATE.        24-JUN-1965:   RUN DATE
 RUN .                  1:   RUN NUMBER
 DD  .F              2838:   DEPTH DRILLER
 DL  .F              2838:   DEPTH LOGGER
 BLI .F              2836:   BOTTOM LOG INTERVAL
 TLI .F              2400:   TOP LOG INTERVAL
 CS  .IN            6.625:   CASING SIZE
 CBD .F              2820:   CASING BOTTOM DRILLER
 BSD .F              2838:   BIT SIZE AT DEPTH
 LUN .               1497:   LOGGING UNIT NUMBER
 ENGI.         COWLTHORPE:   RECORDING ENGINEER
 WITN.         MR. HUDSON:   WITNESSED BY
 CLNT.            A2DTECH:   CLIENT CODE
 ORIG.           5" PRINT:   ORIGIN OF DATA
 UWI .       490251021700:   UNIQUE WELL ID
 DICO. A2D Technologies, Inc.:   DIGITIZING COMPANY
~OTHER INFORMATION
~A    DEPT      GR           HD 
# ...
 1822.5000  -999.2500     6.4608
 1823.0000  -999.2500     6.4614
 1823.5000  -999.2500     6.4620
 1824.0000  -999.2500     6.4627
 1824.5000  -999.2500     6.4633
 1825.0000  -999.2500     6.4639
 1825.5000  -999.2500     6.4645
 1826.0000  -999.2500     6.4651
 1826.5000  -999.2500     6.4657
 1827.0000  -999.2500     6.4663
 1827.5000  -999.2500     6.4669
 1828.0000  -999.2500     6.4675
 1828.5000  -999.2500     6.4681
 1829.0000  -999.2500     6.4687
 1829.5000  -999.2500     6.4693
 1830.0000  -999.2500     6.4699
 1830.5000  -999.2500     6.4705
 1831.0000  -999.2500     6.4711
 1831.5000  -999.2500     6.4717
 1832.0000  -999.2500     6.4723
 1832.5000  -999.2500     6.4729
 1833.0000  -999.2500     6.4735
 1833.5000  -999.2500     6.4742
 1834.0000  -999.2500     6.4748
 1834.5000  -999.2500     6.4753
 1835.0000  -999.2500     6.4759
 1835.5000  -999.2500     6.4765
 1836.0000  -999.2500     6.4771
 1836.5000  -999.2500     6.4777
 1837.0000  -999.2500     6.4783
 1837.5000  -999.2500     6.4639
 1838.0000  -999.2500     6.4646
 1838.5000  -999.2500     6.4651
 1839.0000  -999.2500     6.4808
 1839.5000  -999.2500     6.4814
 1840.0000  -999.2500     6.4669
 1840.5000  -999.2500     6.4675
 1841.0000  -999.2500     6.4681
 1841.5000  -999.2500     6.4687
 1842.0000  -999.2500     6.4693
 1842.5000  -999.2500     6.4700
 1843.0000  -999.2500     6.4706
 1843.5000  -999.2500     6.4712
 1844.0000  -999.2500     6.4566
 1844.5000  -999.2500     6.4573
 1845.0000  -999.2500     6.4729
 1845.5000  -999.2500     6.5187
 1846.0000  -999.2500     6.5645
 1846.5000  -999.2500     6.5952
 1847.0000  -999.2500     6.5958
 1847.5000  -999.2500     6.5813
 1848.0000  -999.2500     6.5820
 1848.5000  -999.2500     6.5826
 1849.0000  -999.2500     6.5983
 1849.5000  -999.2500     6.5989
 1850.0000  -999.2500     6.5994
 1850.5000  -999.2500     6.6001
 1851.0000  -999.2500     6.6006
 1851.5000  -999.2500     6.6013
 1852.0000  -999.2500     6.6170
 1852.5000  -999.2500     6.6326
 1853.0000  -999.2500     6.6633
 1853.5000  -999.2500     6.6639
 1854.0000  -999.2500     6.6645
 1854.5000  -999.2500     6.6802
 1855.0000  -999.2500     6.6807
 1855.5000  -999.2500     6.6813
 1856.0000  -999.2500     6.6819
 1856.5000  -999.2500     6.6675
 1857.0000  -999.2500     6.6682
 1857.5000  -999.2500     6.6385
 1858.0000  -999.2500     6.5941
 1858.5000  -999.2500     6.5644
 1859.0000  -999.2500     6.5499
 1859.5000  -999.2500     6.5507
 1860.0000  -999.2500     6.5663
 1860.5000  -999.2500     6.5669
 1861.0000  -999.2500     6.5825
 1861.5000  -999.2500     6.5831
 1862.0000  -999.2500     6.5988
 1862.5000  -999.2500     6.5994
 1863.0000  -999.2500     6.6152
 1863.5000  -999.2500     6.6158
 1864.0000  -999.2500     6.6163
 1864.5000  -999.2500     6.6169
 1865.0000  -999.2500     6.6175
 1865.5000  -999.2500     6.6029
 1866.0000  -999.2500     6.6187
 1866.5000  -999.2500     6.6193
 1867.0000  -999.2500     6.6198
 1867.5000  -999.2500     6.6205
 1868.0000  -999.2500     6.6211
 1868.5000  -999.2500     6.6218
 1869.0000  -999.2500     6.6224
 1869.5000  -999.2500     6.6229
 1870.0000  -999.2500     6.6235
 1870.5000  -999.2500     6.6242
 1871.0000  -999.2500     6.6248
 1871.5000  -999.2500     6.6253
 1872.0000  -999.2500     6.6259
 1872.5000  -999.2500     6.6265
 1873.0000  -999.2500     6.6271
 1873.5000  -999.2500     6.6277
 1874.0000  -999.2500     6.6132
 1874.5000  -999.2500     6.5988
 1875.0000  -999.2500     6.5843
 1875.5000  -999.2500     6.5549
 1876.0000  -999.2500     6.5254
 1876.5000  -999.2500     6.5109
 1877.0000  -999.2500     6.5115
 1877.5000  -999.2500     6.4969
 1878.0000  -999.2500     6.4826
 1878.5000  -999.2500     6.4831
 1879.0000  -999.2500     6.4687
 1879.5000  -999.2500     6.4693
 1880.0000  -999.2500     6.4700
 1880.5000  -999.2500     6.4856
 1881.0000  -999.2500     6.5164
 1881.5000  -999.2500     6.5471
 1882.0000  -999.2500     6.5778
 1882.5000  -999.2500     6.5934
 1883.0000  -999.2500     6.5940
 1883.5000  -999.2500     6.5946
 1884.0000  -999.2500     6.6103
 1884.5000  -999.2500     6.6108
 1885.0000  -999.2500     6.6275
 1885.5000  -999.2500     6.6572
 1886.0000  -999.2500     6.6579
 1886.5000  -999.2500     6.6736
 1887.0000  -999.2500     6.6590
 1887.5000  -999.2500     6.6445
 1888.0000  -999.2500     6.6603
 1888.5000  -999.2500     6.6609
 1889.0000  -999.2500     6.6615
 1889.5000  -999.2500     6.6621
 1890.0000  -999.2500     6.6627
 1890.5000  -999.2500     6.6632
 1891.0000  -999.2500     6.6638
 1891.5000  -999.2500     6.6646
 1892.0000  -999.2500     6.6652
 1892.5000  -999.2500     6.6658
 1893.0000  -999.2500     6.6663
 1893.5000  -999.2500     6.6519
 1894.0000  -999.2500     6.6525
 1894.5000  -999.2500     6.6681
 1895.0000  -999.2500     6.6687
 1895.5000  -999.2500     6.6692
 1896.0000  -999.2500     6.6699
 1896.5000  -999.2500     6.6705
 1897.0000  -999.2500     6.6861
 1897.5000  -999.2500     6.6869
 1898.0000  -999.2500     6.6874
 1898.5000  -999.2500     6.7031
 1899.0000  -999.2500     6.7187
 1899.5000  -999.2500     6.7193
 1900.0000  -999.2500     6.6897
 1900.5000  -999.2500     6.6904
 1901.0000  -999.2500     6.7060
 1901.5000  -999.2500     6.7368
 1902.0000  -999.2500     6.7524
 1902.5000  -999.2500     6.7515
 1903.0000  -999.2500     6.6463
 1903.5000  -999.2500     6.6165
 1904.0000  -999.2500     6.6018
 1904.5000  -999.2500     6.5870
 1905.0000  -999.2500     6.5873
 1905.5000  -999.2500     6.5877
 1906.0000  -999.2500     6.5880
 1906.5000  -999.2500     6.6034
 1907.0000  -999.2500     6.6187
 1907.5000  -999.2500     6.6190
 1908.0000  -999.2500     6.6344
 1908.5000  -999.2500     6.6346
 1909.0000  -999.2500     6.6349
 1909.5000  -999.2500     6.6202
 1910.0000  -999.2500     6.6205
 1910.5000  -999.2500     6.6057
 1911.0000  -999.2500     6.6061
 1911.5000  -999.2500     6.5912
 1912.0000  -999.2500     6.5916
 1912.5000  -999.2500     6.5919
 1913.0000  -999.2500     6.5771
 1913.5000  -999.2500     6.5774
 1914.0000  -999.2500     6.5777
 1914.5000  -999.2500     6.5630
 1915.0000  -999.2500     6.5633
 1915.5000  -999.2500     6.5636
 1916.0000  -999.2500     6.5639
 1916.5000  -999.2500     6.5642
 1917.0000  -999.2500     6.5645
 1917.5000  -999.2500     6.5648
 1918.0000  -999.2500     6.5651
 1918.5000  -999.2500     6.5654
 1919.0000  -999.2500     6.5657
 1919.5000  -999.2500     6.5509
 1920.0000  -999.2500     6.5663
 1920.5000  -999.2500     6.5666
 1921.0000  -999.2500     6.5669
 1921.5000  -999.2500     6.5672
 1922.0000  -999.2500     6.5674
 1922.5000  -999.2500     6.5527
 1923.0000  -999.2500     6.5681
 1923.5000  -999.2500     6.5684
 1924.0000  -999.2500     6.5687
 1924.5000  -999.2500     6.5690
 1925.0000  -999.2500     6.5542
 1925.5000  -999.2500     6.5545
 1926.0000  -999.2500     6.5548
 1926.5000  -999.2500     6.5551
 1927.0000  -999.2500     6.5554
 1927.5000  -999.2500     6.5558
 1928.0000  -999.2500     6.5561
 1928.5000  -999.2500     6.5564
 1929.0000  -999.2500     6.5567
 1929.5000  -999.2500     6.5570
 1930.0000  -999.2500     6.5572
 1930.5000  -999.2500     6.5575
 1931.0000  -999.2500     6.5578
 1931.5000  -999.2500     6.5431
 1932.0000  -999.2500     6.5434
 1932.5000  -999.2500     6.5437
 1933.0000  -999.2500     6.5440
 1933.5000  -999.2500     6.5443
 1934.0000  -999.2500     6.5446
 1934.5000  -999.2500     6.5449
 1935.0000  -999.2500     6.5602
 1935.5000  -999.2500     6.5579
 1936.0000  -999.2500     6.5546
 1936.5000  -999.2500     6.5513
 1937.0000  -999.2500     6.5481
 1937.5000  -999.2500     6.5448
 1938.0000  -999.2500     6.5415
 1938.5000  -999.2500     6.5382
 1939.0000  -999.2500     6.5350
 1939.5000  -999.2500     6.5328
 1940.0000  -999.2500     6.5332
 1940.5000  -999.2500     6.5335
 1941.0000  -999.2500     6.5488
 1941.5000  -999.2500     6.5491
 1942.0000  -999.2500     6.5645
 1942.5000  -999.2500     6.5798
 1943.0000  -999.2500     6.5801
 1943.5000  -999.2500     6.5805
