~VERSION INFORMATION
 VERS.                2.0:   CWLS LOG ASCII STANDARD - VERSION 2.0
 WRAP.                 NO:   ONE LINE PER DEPTH STEP
~WELL INFORMATION
#MNEM.UNIT      DATA TYPE    INFORMATION
#----------   ------------   ------------------------------
 STRT.F            0.0000:   START DEPTH
 STOP.F         1110.0000:   STOP DEPTH
 STEP.F            0.5000:   STEP LENGTH
 NULL.          -999.2500:   NO VALUE
 COMP. FENIX & SCISSON INC:   COMPANY
 WELL. NAVAL PETROLEUM RESERVE 3 SX-1 #63-14:   WELL
 FLD .       TEA POT DOME:   FIELD
 LOC .      S14 T38N R78W:   LOCATION
 CNTY.            NATRONA:   COUNTY
 STAT.            WYOMING:   STATE
 CTRY. UNITED STATES OF AMERICA:   COUNTRY
 SRVC.            Unknown:   SERVICE COMPANY
 DATE.        15-APR-1978:   LOGDATE
 API .       490251061500:   API NUMBER
~CURVE INFORMATION
#MNEM.UNIT       API CODE    CURVE DESCRIPTION
#----------   ------------   ------------------------------
 DEPT.F                  :   
 NPHI.DEC    42 890 03 00:   NEUTRON POROSITY SANDSTONE
 GRD .GAPI   45 310 01 00:   GAMMA RAY FROM DENSITY LOG
 CALD.IN     45 280 60 00:   CALIPER FROM DENSITY LOG
 RHOB.G/C3   45 350 01 00:   BULK DENSITY
 DPHI.DEC    45 890 12 00:   DENSITY POROSITY SANDSTONE
 CORR.G/C3   45 356 01 00:   DENSITY CORRECTION
 SPR .MV     05 010 01 00:   SPONTANEOUS POTENTIAL FROM RES.
 SN  .OHMM   05 040 16 00:   SHORT NORMAL 16"
 ILD .OHMM   05 120 46 00:   INDUCTION LOG DEEP
~PARAMETER INFORMATION
#MNEM.UNIT          VALUE    DESCRIPTION
#----------   ------------   ------------------------------
 PD  .                 GL:   PERMANENT DATUM
 EPD .F              5253:   ELEVATION PERMANENT DATUM
 LMF .                 KB:   LOG MEASURED FROM
 DAPD.F                 4:   FEET ABOVE PERMANENT DATUM
 DMF .                 KB:   DRILLING MEASURED FROM
 EKB .F              5257:   KELLING BUSHING
 EGL .F              5253:   GROUND LEVEL
 DATE.          4-15-1978:   RUN DATE
 RUN .                  1:   RUN NUMBER
 DD  .F              1095:   DEPTH DRILLER
 DL  .F              1102:   DEPTH LOGGER
 BLI .F              1100:   BOTTOM LOG INTERVAL
 TLI .F               850:   TOP LOG INTERVAL
 CS  .IN            9.625:   CASING SIZE
 CBD .F                40:   CASING BOTTOM DRILLER
 CBL .F                40:   CASING BOTTOM LOGGER
 BS  .IN            7.875:   BIT SIZE
 BSD .F              1095:   BIT SIZE AT DEPTH
 DFT .                KCL:   DRILLING FLUID TYPE
 DFD .                8.6:   DRILLING FLUID DENSITY
 DFV .                 30:   DRILLING FLUID VISCOSITY
 DFPH.                 10:   DRILLING FLUID PH
 DFL .                  8:   DRILLING FLUID LOSS
 MSS .           FLOWLINE:   MUD SAMPLE SOURCE
 RMS .OHMM            .46:   RESISTIVITY MUD SAMPLE
 MST .F                58:   MUD SAMPLE TEMPERATURE
 RMF .OHMM             .5:   RESISTIVITY MUD FILTRATE SAMPLE
 MFST.F                60:   MUD FILTRATE SAMPLE TEMPERATURE
 RMC .OHMM             .5:   RESISTIVITY MUD CAKE
 MCST.F                60:   MUD CAKE SAMPLE TEMPERATURE
 MFSS.           MEASURED:   MUD FILTRATE SAMPLE SOURCE
 RMB .OHMM            .33:   RESISTIVITY MUD AT BHT
 BHT .F                80:   BOTTOM HOLE TEMPERATURE
 TCS .HRS               6:   TIME CURCULATED STOPPED
 MRT .F                80:   MAXIMUM RECORDED TEMPERATURE
 LUN .               2958:   LOGGING UNIT NUMBER
 LUL .               CASP:   LOGGING UNIT LOCATION
 ENGI.             MILLER:   RECORDING ENGINEER
 WITN.           MCGINLEY:   WITNESSED BY
 CLNT.            A2DTECH:   CLIENT CODE
 ORIG.      2" & 5" PRINT:   ORIGIN OF DATA
 UWI .       490251061500:   UNIQUE WELL ID
 DICO. A2D Technologies, Inc.:   DIGITIZING COMPANY
~OTHER INFORMATION
~A    DEPT    NPHI         GRD      CALD       RHOB       DPHI       CORR        SPR         SN        ILD   
# ...
  255.5000  -999.2500    91.7355     7.5732     2.3880     0.1509     0.0485   -50.9980     6.0749     5.8704
  256.0000  -999.2500    93.6337     7.5997     2.3912     0.1471     0.0480   -50.9980     6.1704     5.9032
  256.5000  -999.2500    95.0385     7.5602     2.3992     0.1429     0.0476   -50.9980     6.2673     5.9365
  257.0000  -999.2500    93.0672     7.4782     2.4008     0.1431     0.0471   -50.9980     6.3658     5.9699
  257.5000  -999.2500    89.2236     7.4613     2.3980     0.1432     0.0465   -50.9980     6.5318     6.0121
  258.0000  -999.2500    85.2694     7.5290     2.4064     0.1389     0.0508   -50.9980     6.4630     5.9678
  258.5000  -999.2500    84.7479     7.6037     2.3991     0.1368     0.0565   -50.9980     6.3740     5.9087
  259.0000  -999.2500    88.9162     7.6569     2.3920     0.1418     0.0623   -50.9980     6.2735     5.8501
  259.5000  -999.2500    90.2432     7.6320     2.3930     0.1469     0.0641   -50.9980     6.1710     5.7922
  260.0000  -999.2500    93.7004     7.6079     2.3937     0.1458     0.0635   -50.9980     6.0704     5.7348
  260.5000  -999.2500    97.6671     7.6191     2.3908     0.1448     0.0628   -50.9980     5.9714     5.6780
  261.0000  -999.2500    98.0485     7.6486     2.3883     0.1493     0.0592   -50.9980     5.8740     5.6218
  261.5000  -999.2500    97.1207     7.7104     2.3876     0.1524     0.0542   -50.9980     5.7782     5.5661
  262.0000  -999.2500    96.8362     7.7781     2.3909     0.1483     0.0509   -50.9980     5.6840     5.5109
  262.5000  -999.2500    96.8315     7.7627     2.3943     0.1450     0.0527   -50.9980     5.6368     5.4832
  263.0000  -999.2500    96.8356     7.6935     2.3978     0.1420     0.0544   -50.9980     5.6368     5.4832
  263.5000  -999.2500    96.8424     7.6274     2.3938     0.1428     0.0562   -50.9980     5.6368     5.4832
  264.0000  -999.2500    96.5984     7.5612     2.3881     0.1464     0.0560   -50.9980     5.6368     5.4832
  264.5000  -999.2500    93.7491     7.4929     2.3888     0.1500     0.0551   -50.9980     5.6368     5.4832
  265.0000  -999.2500    91.4572     7.5026     2.3898     0.1495     0.0543   -50.9980     5.6367     5.4832
  265.5000  -999.2500    93.4970     7.5556     2.3908     0.1488     0.0535   -50.9980     5.6369     5.4831
  266.0000  -999.2500    93.6335     7.6499     2.3918     0.1479     0.0526   -50.9980     5.6475     5.4821
  266.5000  -999.2500    94.4797     7.7433     2.3928     0.1450     0.0553   -50.9980     5.6740     5.4795
  267.0000  -999.2500    94.8005     7.7906     2.3916     0.1420     0.0587   -50.9980     5.7006     5.4769
  267.5000  -999.2500    94.1302     7.8419     2.3896     0.1461     0.0621   -50.9980     5.7273     5.4743
  268.0000  -999.2500    92.6070     7.9460     2.3874     0.1521     0.0626   -50.9980     5.7542     5.4717
  268.5000  -999.2500    92.4013     8.0451     2.3907     0.1476     0.0627   -50.9980     5.7811     5.4692
  269.0000  -999.2500    91.5577     8.1096     2.3962     0.1420     0.0647   -50.9980     5.8083     5.4666
  269.5000  -999.2500    89.1507     8.1266     2.3989     0.1442     0.0667   -50.9980     5.8483     5.4640
  270.0000  -999.2500    87.6645     8.1069     2.3961     0.1420     0.0686   -50.9980     5.8360     5.4614
  270.5000  -999.2500    87.8004     8.1460     2.3924     0.1380     0.0706   -50.9980     5.8129     5.4588
  271.0000  -999.2500    87.6505     8.2188     2.3885     0.1448     0.0725   -50.9980     5.7899     5.4563
  271.5000  -999.2500    84.5537     8.1021     2.3819     0.1513     0.0722   -50.9980     5.7670     5.4537
  272.0000  -999.2500    83.7546     7.7376     2.3579     0.1629     0.0719   -50.9980     5.7442     5.4511
  272.5000  -999.2500    85.3715     7.4952     2.3540     0.1636     0.0715   -50.9980     5.7214     5.4485
  273.0000  -999.2500    87.2286     7.3558     2.3541     0.1644     0.0711   -50.9980     5.6988     5.4459
  273.5000  -999.2500    87.8925     7.3176     2.3543     0.1652     0.0707   -50.9980     5.6762     5.4434
  274.0000  -999.2500    87.9504     7.3122     2.3545     0.1660     0.0695   -50.9980     5.6538     5.4408
  274.5000  -999.2500    88.0004     7.3072     2.3547     0.1653     0.0671   -50.9980     5.6314     5.4382
  275.0000  -999.2500    88.0639     7.3018     2.3549     0.1645     0.0647   -50.9980     5.6091     5.4355
  275.5000  -999.2500    88.0570     7.3015     2.3522     0.1649     0.0588   -50.9968     5.5851     5.4318
  276.0000  -999.2500    84.3032     7.3691     2.3485     0.1688     0.0525   -50.9869     5.6592     5.4918
  276.5000  -999.2500    78.6602     7.4148     2.3488     0.1737     0.0459   -50.9768     5.7637     5.5746
  277.0000  -999.2500    73.8758     7.4327     2.3635     0.1668     0.0463   -50.9667     5.8704     5.6587
  277.5000  -999.2500    72.7776     7.5276     2.3792     0.1544     0.0554   -50.9567     5.9786     5.7441
  278.0000  -999.2500    76.7324     7.6229     2.3854     0.1444     0.0659   -50.9467     6.0686     5.8489
  278.5000  -999.2500    81.9995     7.6268     2.3615     0.1532     0.0565   -50.9366     6.0685     5.8481
  279.0000  -999.2500    83.5484     7.6117     2.3576     0.1606     0.0462   -50.9266     6.0679     5.8484
  279.5000  -999.2500    83.9334     7.6190     2.3525     0.1648     0.0438   -50.9165     6.0678     5.8483
  280.0000  -999.2500    84.9320     7.7153     2.3555     0.1673     0.0429   -50.9065     6.0677     5.8483
  280.5000  -999.2500    85.0075     7.8103     2.3599     0.1639     0.0420   -50.8965     6.0678     5.8483
  281.0000  -999.2500    83.9848     7.8190     2.3639     0.1589     0.0412   -50.8864     6.0729     5.8483
  281.5000  -999.2500    83.4806     7.7920     2.3645     0.1627     0.0403   -50.8764     6.0949     5.8483
  282.0000  -999.2500    83.6250     7.7639     2.3660     0.1629     0.0394   -50.8663     6.1161     5.8483
  282.5000  -999.2500    85.9454     7.7358     2.3740     0.1541     0.0385   -50.8563     6.1373     5.8483
  283.0000  -999.2500    89.6361     7.7075     2.3741     0.1569     0.0376   -50.8463     6.1586     5.8483
  283.5000  -999.2500    89.6511     7.6814     2.3797     0.1562     0.0366   -50.8362     6.1806     5.8483
  284.0000  -999.2500    89.6652     7.7279     2.3884     0.1501     0.0405   -50.8262     6.1474     5.8483
  284.5000  -999.2500    89.7416     7.7790     2.3967     0.1440     0.0455   -50.8162     6.1051     5.8483
  285.0000  -999.2500    90.1939     7.8338     2.3971     0.1416     0.0507   -50.8061     6.0628     5.8486
  285.5000  -999.2500    89.9770     7.9074     2.3906     0.1474     0.0521   -50.7961     6.0209     5.8323
  286.0000  -999.2500    89.6907     7.9184     2.3849     0.1505     0.0514   -50.7860     5.9794     5.7958
  286.5000  -999.2500    90.1912     7.9192     2.3884     0.1484     0.0505   -50.7760     5.9380     5.7592
  287.0000  -999.2500    90.6393     7.9605     2.3912     0.1452     0.0557   -50.7659     5.8970     5.7229
  287.5000  -999.2500    90.4381     8.0495     2.3977     0.1419     0.0616   -50.7559     5.8563     5.6868
  288.0000  -999.2500    90.3283     8.1365     2.4042     0.1387     0.0654   -50.7459     5.8158     5.6508
  288.5000  -999.2500    92.0507     8.1862     2.4106     0.1354     0.0673   -50.7358     5.7757     5.6153
  289.0000  -999.2500    94.7070     8.1463     2.4103     0.1320     0.0691   -50.7258     5.7416     5.5851
  289.5000  -999.2500    96.8178     8.1082     2.4065     0.1381     0.0704   -50.7158     5.8854     5.6780
  290.0000  -999.2500    97.6564     8.0698     2.3909     0.1445     0.0691   -50.7057     6.0678     5.7603
  290.5000  -999.2500    96.9842     8.0315     2.3886     0.1496     0.0678   -50.6957     6.0595     5.7947
  291.0000  -999.2500    93.1290     7.9932     2.3910     0.1478     0.0668   -50.6856     6.0453     5.7947
  291.5000  -999.2500    89.2641     7.9553     2.3936     0.1460     0.0725   -50.6756     6.0312     5.7947
