~VERSION INFORMATION
 VERS.                2.0:   CWLS LOG ASCII STANDARD - VERSION 2.0
 WRAP.                 NO:   ONE LINE PER DEPTH STEP
~WELL INFORMATION
#MNEM.UNIT      DATA TYPE    INFORMATION
#----------   ------------   ------------------------------
 STRT.F          588.0000:   START DEPTH
 STOP.F         1583.5000:   STOP DEPTH
 STEP.F            0.5000:   STEP LENGTH
 NULL.          -999.2500:   NO VALUE
 COMP.   FENIX & SCISSONS:   COMPANY
 WELL.   NPR 3 #23STX1-11:   WELL
 FLD .             TEAPOT:   FIELD
 LOC .      S11 T38N R78W:   LOCATION
 CNTY.            NATRONA:   COUNTY
 STAT.            WYOMING:   STATE
 CTRY. UNITED STATES OF AMERICA:   COUNTRY
 SRVC.            Unknown:   SERVICE COMPANY
 DATE.        15-JUN-1979:   LOGDATE
 API .       490251078300:   API NUMBER
~CURVE INFORMATION
#MNEM.UNIT       API CODE    CURVE DESCRIPTION
#----------   ------------   ------------------------------
 DEPT.F                  :   
 RHOB.G/C3   45 350 01 00:   BULK DENSITY
 DPHI.DEC    45 890 10 00:   DENSITY POROSITY LIMESTONE
 CORR.G/C3   45 356 01 00:   DENSITY CORRECTION
 GRD .GAPI   45 310 01 00:   GAMMA RAY FROM DENSITY LOG
 CALD.IN     45 280 60 00:   CALIPER FROM DENSITY LOG
~PARAMETER INFORMATION
#MNEM.UNIT          VALUE    DESCRIPTION
#----------   ------------   ------------------------------
 PD  .                 GL:   PERMANENT DATUM
 EPD .F              5168:   ELEVATION PERMANENT DATUM
 LMF .                 KB:   LOG MEASURED FROM
 DAPD.F                10:   FEET ABOVE PERMANENT DATUM
 DMF .                 KB:   DRILLING MEASURED FROM
 EKB .F              5178:   KELLING BUSHING
 EGL .F              5168:   GROUND LEVEL
 DATE.            6-15-79:   RUN DATE
 RUN .                  1:   RUN NUMBER
 DD  .F              1580:   DEPTH DRILLER
 DL  .F              1580:   DEPTH LOGGER
 BLI .F              1578:   BOTTOM LOG INTERVAL
 TLI .F               680:   TOP LOG INTERVAL
 CS  .IN            9.625:   CASING SIZE
 CBD .F               660:   CASING BOTTOM DRILLER
 CBL .F               670:   CASING BOTTOM LOGGER
 BS  .IN             8.75:   BIT SIZE
 BSD .F              1580:   BIT SIZE AT DEPTH
 DFT .                OIL:   DRILLING FLUID TYPE
 TCS .HRS               4:   TIME CURCULATED STOPPED
 MRT .F                80:   MAXIMUM RECORDED TEMPERATURE
 LUN .               3029:   LOGGING UNIT NUMBER
 LUL .             CASPER:   LOGGING UNIT LOCATION
 ENGI.            MULLINS:   RECORDING ENGINEER
 CLNT.            A2DTECH:   CLIENT CODE
 ORIG.     1", 2.5" PRINT:   ORIGIN OF DATA
 UWI .       490251078300:   UNIQUE WELL ID
 DICO. A2D Technologies, Inc.:   DIGITIZING COMPANY
~OTHER INFORMATION
~A   DEPT     RHOB       DPHI       CORR         GRD      CALD   
# ...
 1259.0000     2.5149     0.0251    -0.0204    88.7828     9.5975
 1259.5000     2.5234     0.0188    -0.0152    87.0372     9.5976
 1260.0000     2.5307     0.0138    -0.0064    85.1423     9.5976
 1260.5000     2.5221     0.0211    -0.0038    84.7477     9.5986
 1261.0000     2.5138     0.0267    -0.0038    86.9689     9.5995
 1261.5000     2.5102     0.0262    -0.0001    87.3016     9.6004
 1262.0000     2.5149     0.0243     0.0032    85.4332     9.6012
 1262.5000     2.5188     0.0239     0.0025    84.7337     9.6021
 1263.0000     2.5124     0.0272     0.0003    87.4287     9.6030
 1263.5000     2.5059     0.0304    -0.0016    87.9401     9.6039
 1264.0000     2.5028     0.0314    -0.0036    86.7438     9.6048
 1264.5000     2.5095     0.0273     0.0010    85.8153     9.6056
 1265.0000     2.5167     0.0239     0.0075    87.9727     9.6065
 1265.5000     2.5163     0.0227     0.0047    91.7007     9.6074
 1266.0000     2.5160     0.0232     0.0012    92.7152     9.6083
 1266.5000     2.5119     0.0273    -0.0027    92.5730     9.6091
 1267.0000     2.5036     0.0301    -0.0065    92.2626     9.6100
 1267.5000     2.5042     0.0281    -0.0082    91.9602     9.6109
 1268.0000     2.5129     0.0245    -0.0081    89.1951     9.6118
 1268.5000     2.5113     0.0305    -0.0081    90.0309     9.6127
 1269.0000     2.5028     0.0339    -0.0081    92.5425     9.6136
 1269.5000     2.4972     0.0333    -0.0081    94.9829     9.6144
 1270.0000     2.5012     0.0309    -0.0081    92.4126     9.6153
 1270.5000     2.5065     0.0294    -0.0070    89.7166     9.6162
 1271.0000     2.5048     0.0304    -0.0060    87.1209     9.6171
 1271.5000     2.5031     0.0315    -0.0050    85.4947     9.6179
 1272.0000     2.5029     0.0324    -0.0039    85.8608     9.6188
 1272.5000     2.5030     0.0325    -0.0025    86.8995     9.6197
 1273.0000     2.5029     0.0338    -0.0006    92.5839     9.6206
 1273.5000     2.4962     0.0351    -0.0124    91.7224     9.6215
 1274.0000     2.5036     0.0303    -0.0064    87.1124     9.6223
 1274.5000     2.5219     0.0207     0.0034    85.5292     9.6232
 1275.0000     2.5358     0.0113     0.0153    87.6800     9.6241
 1275.5000     2.5349     0.0131     0.0113    88.5288     9.6250
 1276.0000     2.5278     0.0175     0.0057    88.8599     9.6258
 1276.5000     2.5210     0.0218    -0.0008    91.5329     9.6267
 1277.0000     2.5115     0.0267    -0.0065    93.6694     9.6276
 1277.5000     2.5018     0.0327    -0.0116    95.4023     9.6285
 1278.0000     2.5005     0.0337    -0.0065    97.2087     9.6294
 1278.5000     2.5042     0.0320    -0.0017    96.9511     9.6302
 1279.0000     2.5012     0.0333    -0.0051    96.4490     9.6311
 1279.5000     2.4891     0.0429    -0.0123    96.4518     9.6320
 1280.0000     2.4854     0.0406    -0.0207    96.1059     9.6329
 1280.5000     2.4961     0.0340    -0.0121    93.1780     9.6337
 1281.0000     2.5046     0.0275     0.0040    89.3702     9.6346
 1281.5000     2.5174     0.0210     0.0181    90.7290     9.6355
 1282.0000     2.5327     0.0146     0.0293    94.6893     9.6364
 1282.5000     2.5398     0.0115     0.0258    97.4875     9.6372
 1283.0000     2.5260     0.0154     0.0124    96.4171     9.6382
 1283.5000     2.5274     0.0193     0.0047    95.4830     9.6382
 1284.0000     2.5190     0.0233     0.0000    96.9588     9.6382
 1284.5000     2.5047     0.0291    -0.0046    97.9143     9.6382
 1285.0000     2.5090     0.0256    -0.0077    97.2095     9.6382
 1285.5000     2.5188     0.0183    -0.0058    93.2127     9.6382
 1286.0000     2.5378     0.0122    -0.0045    88.0235     9.6382
 1286.5000     2.5478     0.0057    -0.0080    80.7435     9.6382
 1287.0000     2.5423     0.0078    -0.0113    79.3249     9.6382
 1287.5000     2.5363     0.0116    -0.0082    84.3310     9.6382
 1288.0000     2.5306     0.0150    -0.0030    93.1860     9.6382
 1288.5000     2.5275     0.0131     0.0023    98.5476     9.6382
 1289.0000     2.5361     0.0093     0.0041    97.3751     9.6382
 1289.5000     2.5465     0.0058     0.0040    94.7466     9.6382
 1290.0000     2.5397     0.0143     0.0026    91.4210     9.6382
 1290.5000     2.5257     0.0223     0.0015    87.8414     9.6382
 1291.0000     2.5108     0.0270     0.0004    87.0454     9.6382
 1291.5000     2.5162     0.0214     0.0063    87.9867     9.6382
 1292.0000     2.5334     0.0152     0.0130    87.0275     9.6382
 1292.5000     2.5546     0.0070     0.0207    85.4319     9.6382
 1293.0000     2.5662    -0.0032     0.0211    83.8890     9.6382
 1293.5000     2.5515     0.0065     0.0100    84.7957     9.6382
 1294.0000     2.5377     0.0165     0.0034    88.3738     9.6382
 1294.5000     2.5230     0.0243    -0.0034    91.5266     9.6382
 1295.0000     2.5124     0.0236    -0.0021    94.8045     9.6382
 1295.5000     2.5179     0.0202     0.0001    97.9600     9.6379
 1296.0000     2.5272     0.0170     0.0024   100.8610     9.6413
 1296.5000     2.5247     0.0214     0.0038    98.7662     9.6492
 1297.0000     2.5157     0.0255    -0.0013    94.9750     9.6568
 1297.5000     2.5078     0.0296    -0.0069    91.3595     9.6644
 1298.0000     2.5012     0.0324    -0.0122    87.7328     9.6721
 1298.5000     2.5018     0.0325    -0.0120    87.6155     9.6798
 1299.0000     2.5030     0.0308    -0.0114    89.2018     9.6875
 1299.5000     2.5105     0.0256    -0.0022    86.2678     9.6951
 1300.0000     2.5223     0.0202     0.0074    85.4456     9.7028
 1300.5000     2.5218     0.0203     0.0063    87.4128     9.7105
 1301.0000     2.5202     0.0208     0.0016    89.0869     9.7181
 1301.5000     2.5187     0.0211    -0.0029    90.4243     9.7258
 1302.0000     2.5119     0.0275    -0.0076    91.8828     9.7334
 1302.5000     2.5113     0.0257    -0.0041    93.2873     9.7411
 1303.0000     2.5171     0.0220     0.0001    94.6287     9.7488
 1303.5000     2.5220     0.0189     0.0040    96.0763     9.7564
 1304.0000     2.5272     0.0165     0.0032    94.9182     9.7641
 1304.5000     2.5292     0.0154     0.0023    92.5634     9.7718
 1305.0000     2.5232     0.0202     0.0011    92.0296     9.7794
 1305.5000     2.5193     0.0215     0.0000    90.3480     9.7871
 1306.0000     2.5168     0.0235    -0.0041    86.9472     9.7948
 1306.5000     2.5094     0.0299    -0.0099    89.2222     9.8019
 1307.0000     2.4961     0.0356    -0.0101    91.6955     9.8074
 1307.5000     2.5011     0.0312    -0.0045    96.2760     9.8128
 1308.0000     2.5122     0.0242    -0.0002   100.3673     9.8182
 1308.5000     2.5226     0.0183     0.0000   101.3072     9.8237
 1309.0000     2.5198     0.0217     0.0000   102.4756     9.8291
 1309.5000     2.5138     0.0260    -0.0004   103.3520     9.8345
 1310.0000     2.5063     0.0304    -0.0068   102.5803     9.8400
 1310.5000     2.4994     0.0348    -0.0139   101.8897     9.8452
 1311.0000     2.5006     0.0360    -0.0158    99.3311     9.8506
 1311.5000     2.5013     0.0339    -0.0140    94.9314     9.8559
 1312.0000     2.5027     0.0340    -0.0125    93.0966     9.8611
 1312.5000     2.4916     0.0383    -0.0088    91.3124     9.8674
 1313.0000     2.4740     0.0486     0.0002    91.3566     9.8723
 1313.5000     2.4517     0.0633     0.0236    90.3146     9.8762
 1314.0000     2.4328     0.0737     0.0725    89.2913     9.9244
 1314.5000     2.4755     0.0227     0.1890    89.6270    10.1069
 1315.0000     2.5189     0.0383     0.2410    90.1931    10.2805
 1315.5000     2.4445     0.0850     0.1579    87.4046    10.3977
 1316.0000     2.3702     0.0915     0.1137    84.0676    10.2196
 1316.5000     2.3879     0.1004     0.1259    80.7023    10.0556
 1317.0000     2.3848     0.0732     0.1533    79.0639     9.9570
 1317.5000     2.5656     0.0259     0.3774    80.2915    10.1684
 1318.0000     2.5391    -0.0081     0.3523    81.6105    10.2911
 1318.5000     2.4643     0.0624     0.0757    83.0922    10.1130
 1319.0000     2.3891     0.0828     0.0442    84.7408     9.9587
 1319.5000     2.3946     0.0964     0.0888    87.2480     9.8548
