~VERSION INFORMATION
 VERS.                2.0:   CWLS LOG ASCII STANDARD - VERSION 2.0
 WRAP.                 NO:   ONE LINE PER DEPTH STEP
~WELL INFORMATION
#MNEM.UNIT      DATA TYPE    INFORMATION
#----------   ------------   ------------------------------
 STRT.F           36.0000:   START DEPTH
 STOP.F          503.0000:   STOP DEPTH
 STEP.F            0.5000:   STEP LENGTH
 NULL.          -999.2500:   NO VALUE
 COMP.    FENIX & SCISSON:   COMPANY
 WELL.     NPR ##3 77-S-3:   WELL
 FLD .             TEAPOT:   FIELD
 LOC .       S3 T38N R78W:   LOCATION
 CNTY.            NATRONA:   COUNTY
 STAT.            WYOMING:   STATE
 CTRY. UNITED STATES OF AMERICA:   COUNTRY
 SRVC.       Schlumberger:   SERVICE COMPANY
 DATE.        04-MAR-1977:   LOGDATE
 API .       490251029500:   API NUMBER
~CURVE INFORMATION
#MNEM.UNIT       API CODE    CURVE DESCRIPTION
#----------   ------------   ------------------------------
 DEPT.F                  :   
 SPR .MV     07 010 01 00:   SPONTANEOUS POTENTIAL
 ILD .OHMM   07 120 46 00:   INDUCTION LOG DEEP
 ILM .OHMM   07 120 44 00:   INDUCTION LOG MEDIUM
 LL8 .OHMM   07 220 08 00:   LATEROLOG-8 RES.
 GRD .GAPI   45 310 01 00:   GAMMA RAY FROM DENSITY LOG
 CALD.IN     45 280 60 00:   CALIPER FROM DENSITY LOG
 CORR.G/C3   45 356 01 00:   DENSITY CORRECTION
 RHOB.G/C3   45 350 01 00:   BULK DENSITY
 DPHI.DEC    45 890 12 00:   DENSITY POROSITY SANDSTONE
~PARAMETER INFORMATION
#MNEM.UNIT          VALUE    DESCRIPTION
#----------   ------------   ------------------------------
 PD  .                 GL:   PERMANENT DATUM
 EPD .F              5165:   ELEVATION PERMANENT DATUM
 LMF .                 KB:   LOG MEASURED FROM
 DAPD.F                 4:   FEET ABOVE PERMANENT DATUM
 DMF .                 GL:   DRILLING MEASURED FROM
 EKB .F              5169:   KELLING BUSHING
 EGL .F              5165:   GROUND LEVEL
 DATE.        04-MAR-1977:   RUN DATE
 RUN .                  1:   RUN NUMBER
 DD  .F               500:   DEPTH DRILLER
 DL  .F               504:   DEPTH LOGGER
 BLI .F               503:   BOTTOM LOG INTERVAL
 TLI .F                46:   TOP LOG INTERVAL
 CS  .IN            8.625:   CASING SIZE
 CBD .F                42:   CASING BOTTOM DRILLER
 CBL .F                46:   CASING BOTTOM LOGGER
 BS  .IN            7.875:   BIT SIZE
 BSD .F               500:   BIT SIZE AT DEPTH
 DFT .                KCL:   DRILLING FLUID TYPE
 DFD .                8.6:   DRILLING FLUID DENSITY
 DFV .                 32:   DRILLING FLUID VISCOSITY
 DFPH.                8.0:   DRILLING FLUID PH
 DFL .                7.6:   DRILLING FLUID LOSS
 MSS .            MUD PIT:   MUD SAMPLE SOURCE
 RMS .OHMM            .66:   RESISTIVITY MUD SAMPLE
 MST .F                56:   MUD SAMPLE TEMPERATURE
 RMF .OHMM            .49:   RESISTIVITY MUD FILTRATE SAMPLE
 MFST.F                56:   MUD FILTRATE SAMPLE TEMPERATURE
 RMC .OHMM             .4:   RESISTIVITY MUD CAKE
 MCST.F                56:   MUD CAKE SAMPLE TEMPERATURE
 MFSS.               MEAS:   MUD FILTRATE SAMPLE SOURCE
 MCSS.               CALC:   MUD CAKE SAMPLE SOURCE
 TCS .HRS            0100:   TIME CURCULATED STOPPED
 LUN .               7680:   LOGGING UNIT NUMBER
 LUL .               CSPR:   LOGGING UNIT LOCATION
 ENGI.    LOHBECK/ TAYLOR:   RECORDING ENGINEER
 WITN.              BURKE:   WITNESSED BY
 CLNT.            A2DTECH:   CLIENT CODE
 ORIG.           5" PRINT:   ORIGIN OF DATA
 UWI .       490251029500:   UNIQUE WELL ID
 DICO. A2D Technologies, Inc.:   DIGITIZING COMPANY
~OTHER INFORMATION
~A   DEPT      SPR        ILD        ILM        LL8         GRD      CALD       CORR       RHOB       DPHI   
# ...
  437.5000   -49.4364    12.9778    12.9584    15.1118    53.3308     8.0345     0.0167     2.4768     0.1038
  438.0000   -49.4200    12.8065    12.7000    14.4039    52.6138     8.0342     0.0107     2.4807     0.1050
  438.5000   -49.4035    12.7229    12.5302    13.9180    51.5255     8.0490     0.0121     2.4883     0.1028
  439.0000   -49.3901    12.6444    12.4498    13.5467    51.0721     8.0486     0.0196     2.5006     0.0909
  439.5000   -49.3707    12.6514    12.4573    13.5580    52.7693     8.0484     0.0233     2.5096     0.0822
  440.0000   -49.2048    12.5711    12.4634    13.6660    54.8793     8.0480     0.0256     2.4766     0.1086
  440.5000   -49.1883    12.5781    12.4694    13.6672    55.9987     8.0477     0.0323     2.4705     0.1113
  441.0000   -49.1719    12.5852    12.4754    13.3852    55.3195     8.0625     0.0225     2.4698     0.1074
  441.5000   -49.1555    12.5921    12.4814    13.3087    54.8670     8.0621     0.0165     2.4690     0.1111
  442.0000   -49.1390    12.5991    12.4875    13.3162    56.6578     8.0618     0.0141     2.4697     0.1066
  442.5000   -49.1226    12.6060    12.4072    13.4161    56.8790     8.0465     0.0247     2.4757     0.1072
  443.0000   -49.1062    12.6130    12.4134    13.5167    55.7506     8.0312     0.0322     2.4824     0.1048
  443.5000   -49.0927    12.6200    12.3338    13.5242    54.8480     8.0309     0.0239     2.4839     0.1003
  444.0000   -49.0733    12.6270    12.3398    13.4381    55.0691     8.0306     0.0186     2.4853     0.1012
  444.5000   -49.0569    12.5466    12.2604    13.3528    55.2881     8.0303     0.0066     2.4545     0.1211
  445.0000   -49.0405    12.4669    12.2666    13.3620    56.4064     8.0300     0.0148     2.4432     0.1277
  445.5000   -49.0240    12.3878    12.1879    13.1856    56.8518     8.0297     0.0223     2.4605     0.1184
  446.0000   -48.8581    12.3091    12.1938    13.1001    58.8678     8.0294     0.0185     2.4710     0.1115
  446.5000   -48.6922    12.2327    12.0320    13.0187    59.7616     8.0441     0.0125     2.4762     0.1091
  447.0000   -48.6758    12.1534    11.9549    13.0259    59.5325     8.0438     0.0095     2.4807     0.1064
  447.5000   -48.5099    11.9929    11.8784    12.9432    59.0789     8.0435     0.0072     2.4604     0.1151
  448.0000   -48.4935    11.8363    11.8021    12.8593    58.1762     8.0432     0.0035     2.4491     0.1202
  448.5000   -48.4770    11.6784    11.6457    12.6896    56.8245     8.0429    -0.0003     2.4453     0.1251
  449.0000   -48.4606    11.4464    11.5711    12.6090    55.6972     8.0426     0.0019     2.4422     0.1278
  449.5000   -48.2947    11.3721    11.3390    12.4426    55.6927     8.0423    -0.0026     2.4430     0.1269
  450.0000   -48.2805    11.3586    11.2663    12.3439    56.5138     8.0571     0.0011     2.4523     0.1188
  450.5000   -48.2584    11.1196    11.1236    12.1065    58.4102     8.0508     0.0041     2.4602     0.1152
  451.0000   -48.2362    10.8807    10.9715    11.8673    59.9600     8.0455     0.0026     2.4557     0.1164
  451.5000   -48.2138    10.7008    10.7507    11.4667    60.4107     8.0401     0.0033     2.4564     0.1167
  452.0000   -48.1913    10.4115    10.4646    11.0664    57.4943     8.0347     0.0137     2.4647     0.1092
  452.5000   -48.3190    10.0058    10.1145    10.5753    55.4755     8.0293     0.0138     2.4652     0.1149
  453.0000   -48.2960     9.6708     9.6419    10.4357    55.0281     8.0243     0.0099     2.4714     0.1113
  453.5000   -48.2735     9.3471     9.1913    10.2964    55.7045     8.0238     0.0092     2.4769     0.1082
  454.0000   -48.2522     8.7875     8.8226    10.1605    57.9522     8.0234     0.0189     2.4811     0.1030
  454.5000   -48.5233     8.3188     8.4104     9.9572    60.6490     8.0229     0.0121     2.4713     0.1057
  455.0000   -48.6560     7.8751     8.0174     9.6920    62.2230     8.0225     0.0136     2.4758     0.1117
  455.5000   -48.7832     7.5069     7.5866     9.3029    62.2257     8.0221     0.0128     2.4600     0.1165
  456.0000   -48.9104     7.1065     7.1329     8.6857    62.0028     8.0216     0.0210     2.4593     0.1144
  456.5000   -49.0376     6.6350     6.6955     7.7796    62.6792     8.0212     0.0172     2.4608     0.1156
  457.0000   -49.3087     6.2378     6.0296     6.8249    64.0287     8.0206     0.0224     2.4795     0.1012
  457.5000   -49.2864     5.6649     5.5217     5.5870    66.2764     8.0202     0.0179     2.4740     0.1105
  458.0000   -49.2641     5.5126     5.4236     4.4182    68.5241     8.0198     0.0217     2.4575     0.1173
  458.5000   -49.2418     5.8708     5.9378     6.4234    67.4035     8.0193     0.0193     2.4412     0.1238
  459.0000   -49.2227     6.2949     6.4999     8.2450    62.6901     8.0189     0.0231     2.4442     0.1229
  459.5000   -49.0477     6.8437     7.1151     9.8075    58.1608     8.0335     0.0253     2.4607     0.1156
  460.0000   -49.0254     7.3890     7.7886     9.0310    56.8567     8.0330     0.0193     2.4719     0.0866
  460.5000   -48.8537     7.9778     8.3508     8.5231    56.8589     8.0326     0.0260     2.5237     0.0803
  461.0000   -48.6819     8.3205     8.9536     9.6886    57.5347     8.0321     0.0200     2.5184     0.0710
  461.5000   -48.5101     8.7383     9.7335    10.3885    58.2106     8.0316     0.0215     2.5177     0.0764
  462.0000   -48.3365     9.2407    10.2219    10.8379    58.6619     8.0312     0.0130     2.5047     0.0881
  462.5000   -48.1666     9.6377    10.3699    11.2225    58.2150     8.0307     0.0180     2.5019     0.0905
  463.0000   -48.1443     9.9853    10.4476    11.2287    56.8698     8.0303     0.0228     2.5049     0.0881
  463.5000   -47.9725    10.2741    10.5258    11.2350    57.5457     8.0299     0.0250     2.5048     0.0882
  464.0000   -47.8008    10.4260    10.6047    11.2424    59.1556     8.0294     0.0265     2.4913     0.0907
  464.5000   -47.7785    10.5801    10.6841    11.4053    60.6943     8.0140     0.0167     2.4951     0.0918
  465.0000   -47.6067    10.7971    10.9141    11.5706    61.3701     8.0135     0.0227     2.5041     0.0873
  465.5000   -47.5844    10.9536    11.0721    11.8198    61.3723     8.0130     0.0144     2.5018     0.0966
  466.0000   -47.5635    11.2672    11.3104    12.1582    61.3745     8.0125     0.0099     2.4808     0.1071
  466.5000   -47.5398    11.5898    11.5538    12.4200    60.7030     8.0121     0.0115     2.4897     0.1005
  467.0000   -47.5175    11.9216    11.8025    12.6000    60.4801     8.0267     0.0218     2.4965     0.0967
  467.5000   -47.6457    12.1784    11.8909    12.8713    60.0337     8.0262     0.0256     2.5032     0.0898
  468.0000   -47.9214    12.3548    12.1468    13.0579    60.2605     8.0409     0.0315     2.5137     0.0862
  468.5000   -48.1988    12.6209    12.3227    13.3391    60.7276     8.0404     0.0330     2.5182     0.0787
  469.0000   -48.4747    12.8927    12.5011    13.6263    61.3882     8.0399     0.0337     2.5077     0.0841
  469.5000   -48.7519    13.0796    12.6822    13.7285    60.4922     8.0395     0.0367     2.5107     0.0961
  470.0000   -48.7291    13.2691    12.8658    13.9274    60.0447     8.0239     0.0352     2.5112     0.0853
  470.5000   -48.5573    13.3686    12.9653    14.0318    60.4965     8.0235     0.0254     2.4964     0.0949
  471.0000   -48.5350    13.4688    13.1561    14.1370    59.8251     8.0231     0.0155     2.4865     0.0995
  471.5000   -48.2138    13.4762    13.3406    14.0472    58.7045     8.0226     0.0208     2.4963     0.1001
  472.0000   -48.0419    13.4836    13.4530    13.8617    56.9103     8.0222     0.0328     2.5093     0.0875
  472.5000   -47.8700    13.3961    13.6353    13.7736    56.2388     8.0217     0.0440     2.5309     0.0715
  473.0000   -47.6981    13.3125    13.7390    13.7812    56.9146     8.0213     0.0342     2.5353     0.0785
  473.5000   -47.5262    13.4126    13.7465    13.8881    57.8533     8.0209     0.0207     2.5098     0.0839
