~VERSION INFORMATION
 VERS.                2.0:   CWLS LOG ASCII STANDARD - VERSION 2.0
 WRAP.                 NO:   ONE LINE PER DEPTH STEP
~WELL INFORMATION
#MNEM.UNIT      DATA TYPE    INFORMATION
#----------   ------------   ------------------------------
 STRT.F           30.0000:   START DEPTH
 STOP.F          715.0000:   STOP DEPTH
 STEP.F            0.5000:   STEP LENGTH
 NULL.          -999.2500:   NO VALUE
 COMP. FENIX & SCISSON INC:   COMPANY
 WELL.   NPR-3 #84SX15-15:   WELL
 FLD .             TEAPOT:   FIELD
 LOC .      S15 T38N R78W:   LOCATION
 CNTY.            NATRONA:   COUNTY
 STAT.            WYOMING:   STATE
 CTRY. UNITED STATES OF AMERICA:   COUNTRY
 SRVC.            Unknown:   SERVICE COMPANY
 DATE.        15-MAY-1978:   LOGDATE
 API .       490251064000:   API NUMBER
~CURVE INFORMATION
#MNEM.UNIT       API CODE    CURVE DESCRIPTION
#----------   ------------   ------------------------------
 DEPT.F                  :   
 SPR .MV     05 010 01 00:   SPONTANEOUS POTENTIAL FROM RES.
 SN  .OHMM   05 040 16 00:   SHORT NORMAL 16"
 ILD .OHMM   05 120 46 00:   INDUCTION LOG DEEP
 CALD.IN     45 280 60 00:   CALIPER FROM DENSITY LOG
 GRD .GAPI   45 310 01 00:   GAMMA RAY FROM DENSITY LOG
 CORR.G/C3   45 356 01 00:   DENSITY CORRECTION
 DPHI.DEC    45 890 12 00:   DENSITY POROSITY SANDSTONE
 DEN .G/C3   45 350 01 00:   COMPENSATED BULK DENSITY
~PARAMETER INFORMATION
#MNEM.UNIT          VALUE    DESCRIPTION
#----------   ------------   ------------------------------
 PD  .                 GL:   PERMANENT DATUM
 EPD .F              5247:   ELEVATION PERMANENT DATUM
 LMF .                 KB:   LOG MEASURED FROM
 DMF .                 KB:   DRILLING MEASURED FROM
 EKB .F              5251:   KELLING BUSHING
 EGL .F              5247:   GROUND LEVEL
 DATE.        15-MAY-1978:   RUN DATE
 RUN .                  1:   RUN NUMBER
 DD  .F               725:   DEPTH DRILLER
 DL  .F               720:   DEPTH LOGGER
 BLI .F               713:   BOTTOM LOG INTERVAL
 TLI .F                40:   TOP LOG INTERVAL
 CS  .IN            8.625:   CASING SIZE
 CBD .F                40:   CASING BOTTOM DRILLER
 CBL .F                40:   CASING BOTTOM LOGGER
 BS  .IN            7.875:   BIT SIZE
 BSD .F               725:   BIT SIZE AT DEPTH
 DFT .                KCL:   DRILLING FLUID TYPE
 DFD .                8.6:   DRILLING FLUID DENSITY
 DFV .                 33:   DRILLING FLUID VISCOSITY
 DFPH.                9.5:   DRILLING FLUID PH
 DFL .                 12:   DRILLING FLUID LOSS
 MSS .           FLOWLINE:   MUD SAMPLE SOURCE
 RMS .OHMM             .2:   RESISTIVITY MUD SAMPLE
 MST .F                80:   MUD SAMPLE TEMPERATURE
 RMF .OHMM            .18:   RESISTIVITY MUD FILTRATE SAMPLE
 MFST.F                83:   MUD FILTRATE SAMPLE TEMPERATURE
 RMC .OHMM            .26:   RESISTIVITY MUD CAKE
 MCST.F                83:   MUD CAKE SAMPLE TEMPERATURE
 MFSS.               MEAS:   MUD FILTRATE SAMPLE SOURCE
 RMB .OHMM             .2:   RESISTIVITY MUD AT BHT
 BHT .F                80:   BOTTOM HOLE TEMPERATURE
 TCS .HRS            0200:   TIME CURCULATED STOPPED
 MRT .F                80:   MAXIMUM RECORDED TEMPERATURE
 LUN .               3006:   LOGGING UNIT NUMBER
 LUL .               CASP:   LOGGING UNIT LOCATION
 ENGI.             MILLER:   RECORDING ENGINEER
 WITN.           MCGINLEY:   WITNESSED BY
 CLNT.            A2DTECH:   CLIENT CODE
 ORIG.           5" PRINT:   ORIGIN OF DATA
 UWI .       490251064000:   UNIQUE WELL ID
 DICO. A2D Technologies, Inc.:   DIGITIZING COMPANY
~OTHER INFORMATION
~A   DEPT      SPR         SN        ILD       CALD         GRD      CORR       DPHI        DEN   
# ...
  232.5000   -40.8881     6.8480     6.8315     7.5438    82.6345     0.0234     0.1184     2.4826
  233.0000   -40.8841     6.8480     6.8320     7.5281    82.7784     0.0263     0.1196     2.4871
  233.5000   -40.8801     6.8480     6.8325     7.6181    83.0705     0.0263     0.1247     2.4751
  234.0000   -40.8762     6.8008     6.8329     7.7232    82.7580     0.0262     0.1274     2.4691
  234.5000   -40.8722     6.7540     6.8334     7.8586    82.8996     0.0262     0.1265     2.4698
  235.0000   -40.8682     6.7074     6.8339     7.9034    83.6436     0.0262     0.1298     2.4630
  235.5000   -40.8642     6.6612     6.7871     7.9179    83.1828     0.0261     0.1317     2.4600
  236.0000   -40.8603     6.6612     6.7877     7.9021    81.3665     0.0276     0.1314     2.4623
  236.5000   -40.8563     6.6612     6.7882     7.8411    85.5743     0.0323     0.1281     2.4630
  237.0000   -40.8523     6.6612     6.7886     7.7800    84.9629     0.0415     0.1245     2.4653
  237.5000   -40.8483     6.6612     6.7422     7.7190    82.5442     0.0407     0.1248     2.4675
  238.0000   -40.8444     6.6612     6.7428     7.6278    81.3304     0.0392     0.1317     2.4683
  238.5000   -40.8404     6.6612     6.7901     7.5063    80.1165     0.0312     0.1362     2.4540
  239.0000   -40.8364     6.7074     6.7905     7.4302    80.1075     0.0191     0.1341     2.4479
  239.5000   -40.8324     6.7074     6.7910     7.3843    81.3033     0.0073     0.1399     2.4419
  240.0000   -40.8285     6.7074     6.7915     7.3081    83.2521     0.0047     0.1435     2.4442
  240.5000   -40.8245     6.7074     6.8391     7.0658    83.0925     0.0151     0.1390     2.4449
  241.0000   -40.8205     6.7074     6.8395     7.0048    80.5232     0.0170     0.1411     2.4449
  241.5000   -40.8165     6.7074     6.8400     6.9891    78.2551     0.0216     0.1417     2.4449
  242.0000   -40.8125     6.7074     6.8405     6.9432    75.6859     0.0427     0.1195     2.4502
  242.5000   -40.8086     6.7074     6.8409     6.8821    75.8297     0.0572     0.1171     2.4667
  243.0000   -40.8046     6.7540     6.8414     6.8060    77.6256     0.0570     0.1207     2.4779
  243.5000   -40.8006     6.7540     6.8894     6.6997    81.3817     0.0510     0.1198     2.4847
  244.0000   -40.7966     6.7540     6.8898     6.6235    80.7702     0.0494     0.1108     2.4869
  244.5000   -40.7927     6.8008     6.9863     6.5625    78.8034     0.0478     0.1135     2.4869
  245.0000   -40.7887     6.8480     6.9867     6.5619    78.3425     0.0448     0.1199     2.4854
  245.5000   -40.7847     6.9434     7.0357     6.5765    78.7853     0.0448     0.1229     2.4779
  246.0000   -40.7807     7.0889     7.1837     6.6211    79.2281     0.0431     0.1124     2.4839
  246.5000   -40.7768     7.1381     7.3347     6.7413    79.3697     0.0401     0.1139     2.4892
  247.0000   -40.7728     7.1876     7.4374     6.8013    79.9631     0.0386     0.1139     2.4922
  247.5000   -40.7688     7.1876     7.5415     6.8158    79.9540     0.0447     0.1031     2.4981
  248.0000   -40.7648     7.2375     7.5420     6.8755    78.5896     0.0507     0.1016     2.5079
  248.5000   -40.7609     7.2877     7.5425     7.1619    79.4842     0.0625     0.0950     2.5169
  249.0000   -40.7569     7.3383     7.5430     7.2217    81.1340     0.0730     0.0911     2.5252
  249.5000   -40.7529     7.4405     7.5959     7.3419    81.1227     0.0760     0.0878     2.5319
  250.0000   -40.7519     7.5441     7.5964     7.5134    81.8071     0.0744     0.0860     2.5295
  250.5000   -40.7561     7.5980     7.5959     7.7289    83.2432     0.0612     0.0985     2.5149
  251.0000   -40.7602     7.6519     7.5954     7.8852    84.7257     0.0488     0.1086     2.5018
  251.5000   -40.7644     7.7007     7.6475     7.8852    85.4772     0.0323     0.1098     2.4987
  252.0000   -40.7686     7.7000     7.7000     7.8399    85.9279     0.0263     0.1095     2.4981
  252.5000   -40.7728     7.7530     7.7530     7.7795    85.1730     0.0247     0.1065     2.4988
  253.0000   -40.7769     7.8063     7.8605     7.7190    83.5149     0.0262     0.0990     2.5019
  253.5000   -40.7811     7.8599     7.9694     7.6586    78.5435     0.0262     0.0978     2.5078
  254.0000   -40.7853     7.9688     8.0241     7.6435    76.4336     0.0292     0.1002     2.5108
  254.5000   -40.7894     8.0791     8.0792     7.5982    79.2935     0.0277     0.1054     2.5108
  255.0000   -40.7936     8.1347     8.1346     7.5831    84.7137     0.0247     0.1024     2.5092
  255.5000   -40.7978     8.2474     8.2473     7.5831    86.6701     0.0156     0.1027     2.5047
  256.0000   -40.8019     8.2467     8.3041     7.5378    87.7228     0.0126     0.1042     2.4987
  256.5000   -40.8061     8.2462     8.4190     7.5378    86.9683     0.0126     0.1108     2.4919
  257.0000   -40.8103     8.3606     8.4770     7.5378    86.8975     0.0081     0.1174     2.4866
  257.5000   -40.8145     8.4763     8.5944     7.5227    88.3207     0.0050     0.1148     2.4836
  258.0000   -40.8186     8.4757     8.6535     7.5227    87.5662     0.0080     0.1112     2.4859
  258.5000   -40.8228     8.5340     8.7734     7.4924    83.1973     0.0125     0.1112     2.4896
  259.0000   -40.8270     8.5333     8.9565     7.4622    84.7018     0.0140     0.1124     2.4896
  259.5000   -40.8311     8.5921     9.0806     7.4169    86.9594     0.0171     0.1121     2.4896
  260.0000   -40.8353     8.5321     9.2703     7.4169    84.6181     0.0200     0.1112     2.4926
  260.5000   -40.8395     8.4728     9.3341     7.4169    80.3717     0.0216     0.1088     2.4925
  261.0000   -40.8437     8.4722     9.3982     7.4169    78.5211     0.0247     0.1127     2.4925
  261.5000   -40.8478     8.4716     9.4628     7.4169    78.6968     0.0260     0.1150     2.4925
  262.0000   -40.8520     8.4126     9.5278     7.4018    79.8732     0.0260     0.1185     2.4917
  262.5000   -40.8562     8.3541     9.5270     7.3565    80.6247     0.0259     0.1152     2.4865
  263.0000   -40.8603     8.2959     9.5442     7.3565    81.3762     0.0259     0.1107     2.4865
  263.5000   -40.8617     8.2954     9.5860     7.3565    81.6763     0.0259     0.1113     2.4895
  264.0000   -41.1790     8.3525     9.6278     7.3565    81.6745     0.0259     0.1092     2.4924
  264.5000   -41.9113     8.4097     9.6695     7.3565    81.0706     0.0259     0.1068     2.4977
  265.0000   -41.9098     8.4675     9.7113     7.3565    78.9606     0.0274     0.1020     2.5014
  265.5000   -41.9083     8.5257     9.7531     7.3565    76.8507     0.0319     0.0981     2.5044
  266.0000   -41.9068     8.5251     9.7949     7.3414    77.4516     0.0439     0.0981     2.5097
  266.5000   -41.9053     8.5245     9.8367     7.3414    80.7634     0.0499     0.0957     2.5164
  267.0000   -41.9038     8.4652     9.8561     7.3112    81.5153     0.0484     0.0924     2.5217
  267.5000   -41.9023     8.4646     9.8554     7.2810    81.0616     0.0438     0.0910     2.5224
  268.0000   -41.9008     8.5227     9.7194     7.0544    81.5119     0.0438     0.0907     2.5232
  268.5000   -41.8993     8.4634     9.6517     6.8167    82.8658     0.0438     0.0910     2.5231
  269.0000   -41.8978     8.4045     9.6511     6.6314    86.1776     0.0498     0.0919     2.5223
  269.5000   -41.8963     8.3460     9.6379     6.5559    87.0801     0.0543     0.0994     2.5216
  270.0000   -41.8947     8.2308     9.5170     6.5106    83.3132     0.0558     0.0985     2.5103
  270.5000   -41.8932     8.1163     9.3210     6.5710    82.1347     0.0558     0.0988     2.5088
  271.0000   -41.8917     7.9481     9.0036     6.6163    89.9367     0.0558     0.1043     2.5043
  271.5000   -41.8902     7.8376     8.6971     6.6767    92.0436     0.0557     0.1052     2.5042
  272.0000   -41.8887     7.7858     8.4009     6.6918    91.4397     0.0557     0.1019     2.5065
  272.5000   -41.8872     7.8981     8.3425     6.6918    91.2774     0.0617     0.1031     2.5080
