~VERSION INFORMATION
 VERS.                2.0:   CWLS LOG ASCII STANDARD - VERSION 2.0
 WRAP.                 NO:   ONE LINE PER DEPTH STEP
~WELL INFORMATION
#MNEM.UNIT      DATA TYPE    INFORMATION
#----------   ------------   ------------------------------
 STRT.F           34.0000:   START DEPTH
 STOP.F          614.0000:   STOP DEPTH
 STEP.F            0.5000:   STEP LENGTH
 NULL.          -999.2500:   NO VALUE
 COMP. FENIX & SCISSON INC:   COMPANY
 WELL.      71-SX-3 #71-3:   WELL
 FLD .             TEAPOT:   FIELD
 LOC .       S3 T38N R78W:   LOCATION
 CNTY.            NATRONA:   COUNTY
 STAT.            WYOMING:   STATE
 CTRY. UNITED STATES OF AMERICA:   COUNTRY
 SRVC.              Welex:   SERVICE COMPANY
 DATE.        10-MAR-1977:   LOGDATE
 API .       490251028900:   API NUMBER
~CURVE INFORMATION
#MNEM.UNIT       API CODE    CURVE DESCRIPTION
#----------   ------------   ------------------------------
 DEPT.F                  :   
 CALD.IN     45 280 60 00:   CALIPER
 GRD .GAPI   45 310 01 00:   GAMMA RAY FROM DENSITY LOG
 RHOB.G/C3   45 350 01 00:   BULK DENSITY
 DPHI.DEC    45 890 12 00:   DENSITY POROSITY SANDSTONE
 CORR.G/C3   45 356 01 00:   DENSITY CORRECTION
 SGRD.OHMM   07 220 05 00:   SHALLOW RESISTIVITY
 ILD .OHMM   07 120 46 00:   INDUCTION LOG DEEP
 ILM .OHMM   07 120 44 00:   INDUCTION LOG MEDIUM
 SPR .MV     07 010 01 00:   SPONTANEOUS POTENTIAL
~PARAMETER INFORMATION
#MNEM.UNIT          VALUE    DESCRIPTION
#----------   ------------   ------------------------------
 PD  .                 GL:   PERMANENT DATUM
 EPD .F              5117:   ELEVATION PERMANENT DATUM
 LMF .                 GL:   LOG MEASURED FROM
 DMF .                 GL:   DRILLING MEASURED FROM
 EGL .F              5117:   GROUND LEVEL
 DATE.          3-10-1977:   RUN DATE
 RUN .                  1:   RUN NUMBER
 DD  .F               630:   DEPTH DRILLER
 DL  .F               619:   DEPTH LOGGER
 BLI .F               617:   BOTTOM LOG INTERVAL
 TLI .F                34:   TOP LOG INTERVAL
 CS  .IN            8.625:   CASING SIZE
 CBD .F                40:   CASING BOTTOM DRILLER
 CBL .F                41:   CASING BOTTOM LOGGER
 BS  .IN            7.875:   BIT SIZE
 BSD .F               630:   BIT SIZE AT DEPTH
 DFT .            KCL MUD:   DRILLING FLUID TYPE
 DFD .                  9:   DRILLING FLUID DENSITY
 DFV .                 33:   DRILLING FLUID VISCOSITY
 MSS .            MUD PIT:   MUD SAMPLE SOURCE
 RMS .OHMM           2.33:   RESISTIVITY MUD SAMPLE
 MST .F                57:   MUD SAMPLE TEMPERATURE
 RMF .OHMM           1.83:   RESISTIVITY MUD FILTRATE SAMPLE
 MFST.F                57:   MUD FILTRATE SAMPLE TEMPERATURE
 RMC .OHMM           2.53:   RESISTIVITY MUD CAKE
 MCST.F                57:   MUD CAKE SAMPLE TEMPERATURE
 MFSS.           FANN KIT:   MUD FILTRATE SAMPLE SOURCE
 MCSS.           FANN KIT:   MUD CAKE SAMPLE SOURCE
 RMB .OHMM            2.1:   RESISTIVITY MUD AT BHT
 BHT .F                63:   BOTTOM HOLE TEMPERATURE
 TCS .HRS             1.5:   TIME CURCULATED STOPPED
 MRT .F                63:   MAXIMUM RECORDED TEMPERATURE
 LUN .               8611:   LOGGING UNIT NUMBER
 LUL .           GILLETTE:   LOGGING UNIT LOCATION
 ENGI.               DOAK:   RECORDING ENGINEER
 WITN.              BURKE:   WITNESSED BY
 CLNT.            A2DTECH:   CLIENT CODE
 ORIG.       2", 5" PRINT:   ORIGIN OF DATA
 UWI .       490251028900:   UNIQUE WELL ID
 DICO. A2D Technologies, Inc.:   DIGITIZING COMPANY
~OTHER INFORMATION
~A   DEPT     CALD        GRD       RHOB       DPHI       CORR       SGRD        ILD        ILM        SPR   
# ...
  362.5000     7.8650   112.8704     2.4461     0.1234     0.0403     7.7922     4.8429     5.7886   -42.9802
  363.0000     7.8566   113.4722     2.4447     0.1210     0.0400     7.9959     5.0921     6.0767   -43.0617
  363.5000     7.8483   113.3889     2.4522     0.1168     0.0428     8.2371     5.3540     6.3795   -43.1834
  364.0000     7.8400   112.9416     2.4627     0.1125     0.0457     8.1072     5.6295     6.5473   -43.3073
  364.5000     7.8362   112.5206     2.4723     0.1082     0.0485     7.7974     6.1384     6.6807   -43.4323
  365.0000     7.8497   112.4928     2.4725     0.1050     0.0513     7.9441     6.0823     6.8107   -43.5482
  365.5000     7.8626   113.5963     2.4749     0.1044     0.0541     8.2867     6.1736     6.9428   -43.3823
  366.0000     7.8755   115.5393     2.4776     0.1030     0.0569     8.6446     6.2482     7.0459   -43.2033
  366.5000     7.8884   118.8823     2.4803     0.1016     0.0598     8.7641     6.3237     7.0717   -43.0088
  367.0000     7.9014   119.5126     2.4831     0.1002     0.0626     8.8353     6.4001     7.0967   -42.8119
  367.5000     7.9139   115.9161     2.4811     0.1002     0.0654     8.9069     6.4775     7.1110   -42.6078
  368.0000     7.9021   113.0096     2.4773     0.1027     0.0672     8.9792     6.5557     7.1299   -42.6838
  368.5000     7.8878   111.0989     2.4735     0.1050     0.0694     9.0521     6.6350     7.1527   -42.8331
  369.0000     7.8735   113.7515     2.4711     0.1074     0.0716     9.1253     6.7294     7.1756   -42.9852
  369.5000     7.8583   117.0279     2.4742     0.1054     0.0737     9.1982     6.6887     7.1986   -43.1366
  370.0000     7.8083   120.2805     2.4772     0.1033     0.0758     9.0911     6.6240     7.2217   -43.2881
  370.5000     7.6979   122.1229     2.4789     0.1018     0.0746     8.9874     6.5598     7.2449   -43.3574
  371.0000     7.5881   121.5185     2.4750     0.1044     0.0733     8.9214     6.4963     7.2681   -43.3579
  371.5000     7.4791   122.7791     2.4706     0.1073     0.0722     8.8785     6.4334     7.2913   -43.3583
  372.0000     7.4096   124.5794     2.4657     0.1112     0.0675     8.8357     6.3711     7.3097   -43.3582
  372.5000     7.5135   122.7011     2.4609     0.1159     0.0621     8.7931     6.3100     7.2320   -43.3509
  373.0000     7.6144   120.7964     2.4561     0.1192     0.0568     8.7576     6.2265     7.1562   -43.2934
  373.5000     7.6783   118.8975     2.4512     0.1216     0.0514     8.6910     6.1852     7.1110   -43.2354
  374.0000     7.7203   116.9899     2.4464     0.1239     0.0460     8.6248     6.1426     7.1504   -43.1775
  374.5000     7.7620   115.3891     2.4415     0.1259     0.0433     8.5591     6.1009     7.1766   -43.1196
  375.0000     7.8037   117.4576     2.4385     0.1275     0.0421     8.4939     6.0595     7.0486   -43.0617
  375.5000     7.8461   119.6640     2.4365     0.1289     0.0410     8.4292     6.0019     6.9735   -43.0039
  376.0000     7.8571   121.4787     2.4347     0.1304     0.0399     8.3904     5.8788     6.8975   -42.9460
  376.5000     7.8627   118.6001     2.4337     0.1313     0.0388     8.4324     5.7583     6.7280   -42.8881
  377.0000     7.8682   114.8495     2.4327     0.1313     0.0377     8.4679     5.6403     6.3211   -42.8303
  377.5000     7.8737   111.1568     2.4353     0.1313     0.0366     8.0301     5.5246     5.8627   -42.7723
  378.0000     7.8793   110.0082     2.4385     0.1296     0.0362     5.8627     5.4114     5.8090   -42.7143
  378.5000     7.8848   111.7935     2.4398     0.1277     0.0375     6.3882     5.2989     5.9548   -42.6569
  379.0000     7.8903   113.8537     2.4345     0.1303     0.0389     7.9402     5.2442     6.1384   -42.5997
  379.5000     7.8930   115.9249     2.4293     0.1336     0.0403     7.6933     5.1741     6.1298   -42.6280
  380.0000     7.8906   118.0017     2.4241     0.1369     0.0417     7.4454     5.1051     6.1150   -42.7563
  380.5000     7.8884   119.9895     2.4188     0.1402     0.0396     7.6069     5.0372     6.1002   -42.8841
  381.0000     7.8861   118.1346     2.4148     0.1418     0.0366     7.8191     4.9703     6.0855   -43.0130
  381.5000     7.8838   112.7161     2.4146     0.1410     0.0336     8.0875     4.9042     5.9594   -43.1429
  382.0000     7.8815   107.3900     2.4238     0.1345     0.0305     7.8261     4.8390     5.6434   -43.1208
  382.5000     7.8793   103.0187     2.4332     0.1280     0.0315     6.6850     4.7747     5.3443   -43.0745
  383.0000     7.8770   105.4180     2.4426     0.1215     0.0341     5.5432     4.7109     5.0146   -43.0272
  383.5000     7.8747   107.8465     2.4512     0.1167     0.0368     4.8781     4.6587     5.1340   -42.9802
  384.0000     7.8725   106.8053     2.4558     0.1150     0.0395     6.0283     4.7659     5.3515   -42.9396
  384.5000     7.8702   105.5379     2.4594     0.1133     0.0422     7.7497     4.8794     5.5783   -42.9024
  385.0000     7.8679   104.2693     2.4620     0.1117     0.0449     7.8676     4.9957     5.8147   -42.8653
  385.5000     7.8656   102.9568     2.4643     0.1087     0.0476     7.8833     5.1146     6.0351   -42.8282
  386.0000     7.8634   102.6529     2.4745     0.1063     0.0502     7.8998     5.2363     6.2155   -42.7911
  386.5000     7.8611   104.5667     2.4877     0.1071     0.0529     7.9163     5.3609     6.4013   -42.7539
  387.0000     7.8589   107.4758     2.4896     0.1080     0.0556     7.9331     5.4885     6.5392   -42.7168
  387.5000     7.8568   110.2981     2.4768     0.1126     0.0574     7.9740     5.5993     6.6908   -42.6797
  388.0000     7.8557   108.3748     2.4590     0.1185     0.0532     8.0350     5.4880     6.7915   -42.6424
  388.5000     7.7940   109.8725     2.4412     0.1243     0.0491     8.0966     5.3876     6.6068   -42.6044
  389.0000     7.6381   112.2719     2.4235     0.1302     0.0450     8.1622     5.2199     6.5107   -42.5714
  389.5000     7.4739   111.8095     2.4231     0.1313     0.0408     8.1332     5.0573     6.3599   -42.6747
  390.0000     7.3269   106.7248     2.4484     0.1251     0.0404     8.1622     4.8998     5.9068   -42.7849
  390.5000     7.3777   101.6705     2.4675     0.1116     0.0437     6.8256     4.7473     5.4861   -42.8949
  391.0000     7.5677    98.0314     2.4787     0.1014     0.0470     5.3593     4.5995     5.0953   -43.0483
  391.5000     7.7826    98.3659     2.4923     0.0940     0.0503     4.7893     4.5323     4.9232   -43.2811
  392.0000     7.8712    99.4588     2.5034     0.0867     0.0537     6.0638     4.7308     5.2132   -43.5137
  392.5000     7.8661   100.5787     2.5141     0.0802     0.0570     6.0266     4.8519     5.4886   -43.7472
  393.0000     7.8590   101.7012     2.5231     0.0775     0.0603     7.3195     4.9753     5.8186   -43.8489
  393.5000     7.8519   102.9424     2.5273     0.0745     0.0637     8.3904     5.1642     6.1683   -43.9461
  394.0000     7.8449   101.3889     2.5274     0.0738     0.0621     8.4184     5.3603     6.5392   -44.0442
  394.5000     7.8379    99.2157     2.5229     0.0768     0.0600     8.4565     5.5220     6.9323   -44.1427
  395.0000     7.8310    97.0395     2.5179     0.0799     0.0580     8.4953     5.7284     7.0861   -44.2416
  395.5000     7.8240    95.0755     2.5129     0.0829     0.0560     8.5338     5.9425     7.1639   -44.3429
  396.0000     7.8170    95.5087     2.5079     0.0859     0.0540     8.8075     6.1646     7.2426   -44.4076
  396.5000     7.8103    98.7330     2.5029     0.0889     0.0576     9.1861     6.3951     7.3221   -44.4727
  397.0000     7.8036   101.9747     2.4996     0.0910     0.0616     9.4554     6.6678     7.4025   -44.5382
  397.5000     7.7968   105.2116     2.4976     0.0907     0.0579     9.3048     6.7337     7.4838   -44.6039
  398.0000     7.7843   108.4712     2.4956     0.0902     0.0540     9.1917     6.7723     7.5659   -44.6706
  398.5000     7.7522   111.6709     2.4897     0.0933     0.0565     9.1146     6.8112     7.6491   -44.7370
