~VERSION INFORMATION
 VERS.                2.0:   CWLS LOG ASCII STANDARD - VERSION 2.0
 WRAP.                 NO:   ONE LINE PER DEPTH STEP
~WELL INFORMATION
#MNEM.UNIT      DATA TYPE    INFORMATION
#----------   ------------   ------------------------------
 STRT.F           16.0000:   START DEPTH
 STOP.F          430.0000:   STOP DEPTH
 STEP.F            0.5000:   STEP LENGTH
 NULL.          -999.2500:   NO VALUE
 COMP. LAWRENCE/ALLISON INC:   COMPANY
 WELL.  NPR 3 #52-66-1-10:   WELL
 FLD .             TEAPOT:   FIELD
 LOC .      S10 T38N R78W:   LOCATION
 CNTY.            NATRONA:   COUNTY
 STAT.            WYOMING:   STATE
 CTRY. UNITED STATES OF AMERICA:   COUNTRY
 SRVC.           Gearhart:   SERVICE COMPANY
 DATE.        25-MAY-1988:   LOGDATE
 API .       490251121100:   API NUMBER
~CURVE INFORMATION
#MNEM.UNIT       API CODE    CURVE DESCRIPTION
#----------   ------------   ------------------------------
 DEPT.F                  :   
 RILD.OHMM   07 120 46 00:   INDUCTION LOG DEEP RESISTIVITY
 GRR .GAPI   07 310 01 00:   GAMMA RAY FROM RES. LOG.
 RILM.OHMM   07 120 44 00:   INDUCTION LOG MEDIUM RESISTIVITY
~PARAMETER INFORMATION
#MNEM.UNIT          VALUE    DESCRIPTION
#----------   ------------   ------------------------------
 PD  .                 GL:   PERMANENT DATUM
 EPD .F              5169:   ELEVATION PERMANENT DATUM
 LMF .                 KB:   LOG MEASURED FROM
 DAPD.F                 5:   FEET ABOVE PERMANENT DATUM
 DMF .                 KB:   DRILLING MEASURED FROM
 EKB .F              5174:   KELLING BUSHING
 EGL .F              5169:   GROUND LEVEL
 DATE.            5-25-88:   RUN DATE
 RUN .                  1:   RUN NUMBER
 DD  .F               440:   DEPTH DRILLER
 DL  .F               437:   DEPTH LOGGER
 BLI .F               429:   BOTTOM LOG INTERVAL
 TLI .F                44:   TOP LOG INTERVAL
 CS  .IN            8.625:   CASING SIZE
 CBD .F                45:   CASING BOTTOM DRILLER
 CBL .F                44:   CASING BOTTOM LOGGER
 BS  .IN            7.875:   BIT SIZE
 BSD .F               440:   BIT SIZE AT DEPTH
 DFT .                AIR:   DRILLING FLUID TYPE
 TCS .HRS            0900:   TIME CURCULATED STOPPED
 TLAB.HRS            1048:   TIME LOGGER AT BOTTOM
 LUN .               7597:   LOGGING UNIT NUMBER
 LUL .           GILLETTE:   LOGGING UNIT LOCATION
 ENGI.             SLATKY:   RECORDING ENGINEER
 WITN.             STRONG:   WITNESSED BY
 CLNT.            A2DTECH:   CLIENT CODE
 ORIG.       2", 5" PRINT:   ORIGIN OF DATA
 UWI .       490251121100:   UNIQUE WELL ID
 DICO. A2D Technologies, Inc.:   DIGITIZING COMPANY
~OTHER INFORMATION
~A   DEPT     RILD         GRR      RILM   
# ...
  107.0000     8.7021   113.9653     8.4815
  107.5000     8.5712   113.0274     8.3325
  108.0000     8.6519   111.7471     8.3571
  108.5000     8.6919   110.5528     8.4086
  109.0000     8.7271   110.9861     8.4611
  109.5000     8.6466   111.4847     8.4869
  110.0000     8.4878   110.3841     8.1812
  110.5000     8.3720   107.8330     7.9752
  111.0000     8.0984   105.2458     7.7663
  111.5000     7.8337   104.6302     7.5256
  112.0000     7.5777   108.6739     7.2920
  112.5000     7.3300   112.4970     7.0655
  113.0000     7.0904   114.0442     6.8467
  113.5000     6.9870   113.5807     6.6707
  114.0000     7.0520   112.8829     6.7256
  114.5000     7.1379   112.1743     6.8189
  115.0000     7.2433   111.4737     6.9225
  115.5000     7.3442   110.8919     7.0316
  116.0000     7.4471   111.1340     7.1543
  116.5000     7.5514   112.5757     7.2791
  117.0000     7.6573   114.2062     7.4061
  117.5000     7.7646   114.4028     7.5353
  118.0000     7.8734   114.6048     7.6668
  118.5000     7.9838   114.8036     7.8005
  119.0000     8.0408   115.1333     7.8814
  119.5000     8.0707   116.2541     7.8612
  120.0000     8.1036   118.3085     7.8368
  120.5000     8.0288   120.6797     7.8124
  121.0000     7.9814   119.7569     7.7882
  121.5000     7.9314   118.1890     7.7640
  122.0000     7.8817   116.8962     7.7399
  122.5000     7.8323   115.9408     7.6653
  123.0000     7.6894   114.9962     7.3429
  123.5000     7.4648   114.1977     7.0054
  124.0000     7.2508   115.2571     6.6833
  124.5000     6.8879   116.3552     6.3761
  125.0000     6.5496   116.6088     6.0830
  125.5000     6.2281   114.8764     5.8033
  126.0000     5.9194   112.2660     5.5365
  126.5000     5.8179   109.4160     5.2820
  127.0000     5.7468   108.9138     5.0988
  127.5000     5.6977   108.5235     5.0052
  128.0000     5.7308   109.2739     5.0052
  128.5000     5.8468   110.2430     5.4450
  129.0000     6.1153   111.5737     5.8186
  129.5000     6.3969   113.6963     6.1956
  130.0000     6.6914   115.8037     6.4830
  130.5000     6.9995   117.4685     6.7686
  131.0000     7.3206   115.3930     7.0668
  131.5000     7.5521   113.0186     7.3023
  132.0000     7.7145   112.7885     7.4314
  132.5000     7.8815   113.2516     7.5627
  133.0000     8.0520   113.7276     7.6964
  133.5000     8.2263   114.1759     7.8324
  134.0000     8.4044   113.1227     7.9709
  134.5000     8.5861   111.7180     8.1118
  135.0000     8.6684   110.2875     8.2551
  135.5000     8.7113   110.3833     8.4095
  136.0000     8.7552   112.7371     8.5191
  136.5000     8.7994   114.2607     8.5609
  137.0000     8.8438   115.5633     8.6030
  137.5000     8.8885   115.3344     8.6452
  138.0000     8.9333   114.8079     8.6877
  138.5000     8.9784   113.9671     8.7304
  139.0000     9.0237   112.8195     8.7732
  139.5000     9.0693   111.7650     8.8163
  140.0000     9.1150   112.3636     8.8597
  140.5000     9.1610   113.0232     8.9032
  141.0000     9.2073   113.0125     8.9469
  141.5000     9.2260   112.4138     8.9731
  142.0000     9.1329   111.7677     8.8653
  142.5000     9.0672   113.2218     8.7895
  143.0000     9.0018   115.0347     8.7141
  143.5000     8.9370   116.5915     8.6394
  144.0000     8.8726   115.5571     8.5668
  144.5000     8.8087   114.5792     8.5157
  145.0000     8.7453   114.1834     8.4658
  145.5000     8.5886   115.6381     8.4162
  146.0000     8.3976   116.3336     8.3669
  146.5000     8.2109   114.6499     8.3179
  147.0000     7.9224   112.9972     8.2691
  147.5000     7.6228   112.1442     8.2207
  148.0000     7.3346   114.8951     8.1790
  148.5000     7.0520   116.9273     7.7038
  149.0000     6.5272   118.9058     7.2013
  149.5000     6.0324   118.7261     6.7315
  150.0000     5.4983   118.7575     6.2924
  150.5000     5.0007   117.8957     5.8591
  151.0000     4.5481   116.9564     5.1900
  151.5000     4.1365   115.1888     4.5820
  152.0000     3.7622   114.0078     4.0451
  152.5000     3.4217   113.1635     3.5712
  153.0000     3.2366   112.3244     3.1528
  153.5000     3.1107   110.8823     2.8104
  154.0000     2.9897   109.2653     2.6235
  154.5000     2.9243   108.0599     2.5685
  155.0000     2.9409   108.7548     2.6045
  155.5000     2.9790   111.0808     2.7154
  156.0000     3.1647   113.3793     2.8597
  156.5000     3.4692   115.6720     3.0539
  157.0000     3.8029   117.8392     3.2960
  157.5000     4.1687   119.5384     3.6719
  158.0000     4.5698   121.1714     4.0906
  158.5000     5.0094   122.7958     4.5571
  159.0000     5.4658   124.4003     5.0769
  159.5000     5.9228   125.1089     5.6574
  160.0000     6.2357   125.2196     5.9726
  160.5000     6.4878   125.3196     6.1443
  161.0000     6.5438   125.4231     6.3203
  161.5000     6.6193   125.4922     6.4530
  162.0000     6.6957   124.2001     6.5155
  162.5000     6.7954   122.7472     6.5482
  163.0000     6.6077   121.2621     6.2512
  163.5000     6.3524   120.9354     5.9920
  164.0000     6.1065   123.5109     5.7436
  164.5000     5.8705   126.5162     5.5055
  165.0000     5.6435   129.5166     5.2772
  165.5000     5.4254   132.0254     5.0564
  166.0000     5.2425   131.0533     4.9915
  166.5000     5.2913   127.2924     4.9732
  167.0000     5.4400   123.5553     4.9592
  167.5000     5.6850   119.9457     5.2757
  168.0000     5.9401   120.8352     5.5435
  168.5000     6.2067   121.9655     5.8250
  169.0000     6.4852   123.0737     6.1207
  169.5000     6.7763   124.2209     6.4314
  170.0000     7.0805   125.9198     6.7579
  170.5000     7.3990   127.6982     7.0745
  171.0000     7.7359   128.7503     7.3590
  171.5000     7.9228   126.7202     7.6513
  172.0000     8.1148   124.4645     7.9551
  172.5000     8.2551   123.0455     8.1790
  173.0000     7.8814   124.2998     8.1359
  173.5000     7.8274   125.5859     8.0968
  174.0000     7.7726   126.8810     8.0579
  174.5000     7.7178   127.3043     8.0191
  175.0000     7.6627   126.8997     7.9806
  175.5000     7.6082   125.9234     7.8789
  176.0000     7.3960   124.9540     7.6511
  176.5000     7.1392   123.9884     7.4300
  177.0000     6.8914   123.0323     7.2153
  177.5000     6.5786   123.3573     6.9870
  178.0000     6.2693   125.2484     6.7424
  178.5000     5.9741   126.1750     6.4818
  179.0000     5.6930   126.6661     6.0374
  179.5000     5.4405   127.4134     5.5759
  180.0000     5.3903   129.5493     5.1467
  180.5000     5.3903   131.6446     4.7378
  181.0000     5.4376   132.2606     4.6862
  181.5000     5.5388   130.5688     4.6908
  182.0000     5.6654   127.9560     5.1679
  182.5000     5.9751   125.5021     5.4911
  183.0000     6.2979   125.6913     5.8346
  183.5000     6.6389   126.9980     6.1996
  184.0000     6.9985   129.3297     6.5908
  184.5000     7.3768   130.2862     7.0120
  185.0000     7.7367   130.3091     7.4601
  185.5000     7.8189   130.3023     7.6482
  186.0000     7.8946   130.0277     7.7242
  186.5000     7.9710   129.1247     7.8009
  187.0000     8.0482   129.0790     7.8784
  187.5000     8.1261   128.8728     7.9567
  188.0000     8.2048   127.7012     8.0357
  188.5000     8.2843   126.2567     8.1156
  189.0000     8.3316   125.0286     8.1957
  189.5000     8.2204   125.7910     8.2751
  190.0000     8.1412   127.6936     8.3320
  190.5000     8.0631   128.6126     8.2786
  191.0000     7.9858   127.9211     8.2375
  191.5000     7.9548   127.1734     8.1965
  192.0000     7.8814   128.1235     8.1558
  192.5000     7.8960   129.4573     8.1036
  193.0000     7.9130   130.7956     8.1159
  193.5000     7.9298   131.8720     8.1395
  194.0000     7.9469   130.7282     8.1634
  194.5000     7.9640   128.7331     8.1873
  195.0000     7.9811   127.0240     8.2112
  195.5000     7.9984   125.9145     8.2352
  196.0000     8.0152   126.9716     8.2551
  196.5000     8.0307   129.1048     8.1393
  197.0000     7.9597   130.9580     8.0223
  197.5000     7.7125   131.9811     7.9075
