~VERSION INFORMATION
 VERS.                2.0:   CWLS LOG ASCII STANDARD - VERSION 2.0
 WRAP.                 NO:   ONE LINE PER DEPTH STEP
~WELL INFORMATION
#MNEM.UNIT      DATA TYPE    INFORMATION
#----------   ------------   ------------------------------
 STRT.F            0.0000:   START DEPTH
 STOP.F         3315.0000:   STOP DEPTH
 STEP.F            0.5000:   STEP LENGTH
 NULL.          -999.2500:   NO VALUE
 COMP. LAWRENCE/ALLISON INC     84-AX-:   COMPANY
 WELL.          SHX3 #1-3:   WELL
 FLD .            WILDCAT:   FIELD
 LOC .       S3 T38N R78W:   LOCATION
 CNTY.            NATRONA:   COUNTY
 STAT.            WYOMING:   STATE
 CTRY. UNITED STATES OF AMERICA:   COUNTRY
 SRVC.      Dresser Atlas:   SERVICE COMPANY
 DATE.        20-JAN-1986:   LOGDATE
 API .       490251104200:   API NUMBER
~CURVE INFORMATION
#MNEM.UNIT       API CODE    CURVE DESCRIPTION
#----------   ------------   ------------------------------
 DEPT.F                  :   
 SPR .MV     07 010 01 00:   SPONTANEOUS POTENTIAL
 RILD.OHMM   07 120 46 00:   INDUCTION LOG DEEP RESISTIVITY
 RILM.OHMM   07 120 44 00:   INDUCTION LOG MEDIUM RESISTIVITY
 RFOC.OHMM   07 220 04 00:   RESISTIVITY FOCUSED LOG
 AC  .US/F   60 520 00 00:   ACCOUSTIC
 CALD.IN     45 280 60 00:   CALIPER FROM DENSITY
 CORR.G/C3   45 356 01 00:   DENSITY CORRECTION
 DEN .G/C3   45 350 01 00:   COMPENSATED BULK DENSTIY
 PORD.DEC    45 890 12 00:   POROSITY DENSITY SANDSTONE
 CNC .DEC    42 890 03 00:   NEUTRON POROSITY SANDSTONE
 GRR .GAPI   07 310 01 00:   GAMMA RAY
~PARAMETER INFORMATION
#MNEM.UNIT          VALUE    DESCRIPTION
#----------   ------------   ------------------------------
 PD  .                 GL:   PERMANENT DATUM
 EPD .F              5136:   ELEVATION PERMANENT DATUM
 LMF .                 KB:   LOG MEASURED FROM
 DAPD.F                11:   FEET ABOVE PERMANENT DATUM
 DMF .                 KB:   DRILLING MEASURED FROM
 EKB .F              5147:   KELLING BUSHING
 EGL .F              5136:   GROUND LEVEL
 DATE.        26-JAN-1986:   RUN DATE
 RUN .                  1:   RUN NUMBER
 DD  .F              3320:   DEPTH DRILLER
 DL  .F              3317:   DEPTH LOGGER
 BLI .F              3315:   BOTTOM LOG INTERVAL
 CS  .IN            8.625:   CASING SIZE
 CBD .F               550:   CASING BOTTOM DRILLER
 CBL .F               592:   CASING BOTTOM LOGGER
 BS  .IN            7.875:   BIT SIZE
 BSD .F              3320:   BIT SIZE AT DEPTH
 DFT .        POLYMER KCL:   DRILLING FLUID TYPE
 DFD .                9.1:   DRILLING FLUID DENSITY
 DFV .                 38:   DRILLING FLUID VISCOSITY
 DFPH.                 10:   DRILLING FLUID PH
 DFL .                8.5:   DRILLING FLUID LOSS
 MSS .           FLOWLINE:   MUD SAMPLE SOURCE
 RMS .OHMM           .435:   RESISTIVITY MUD SAMPLE
 MST .F                72:   MUD SAMPLE TEMPERATURE
 RMF .OHMM           .352:   RESISTIVITY MUD FILTRATE SAMPLE
 MFST.F                72:   MUD FILTRATE SAMPLE TEMPERATURE
 RMC .OHMM            .54:   RESISTIVITY MUD CAKE
 MCST.F                72:   MUD CAKE SAMPLE TEMPERATURE
 MFSS.               MEAS:   MUD FILTRATE SAMPLE SOURCE
 MCSS.               MEAS:   MUD CAKE SAMPLE SOURCE
 RMB .OHMM            .29:   RESISTIVITY MUD AT BHT
 BHT .F               108:   BOTTOM HOLE TEMPERATURE
 TCS .HRS               3:   TIME CURCULATED STOPPED
 MRT .F               108:   MAXIMUM RECORDED TEMPERATURE
 LUN .               6274:   LOGGING UNIT NUMBER
 LUL .               GLTE:   LOGGING UNIT LOCATION
 ENGI.             RAUTIO:   RECORDING ENGINEER
 WITN.             STRONG:   WITNESSED BY
 CLNT.            A2DTECH:   CLIENT CODE
 ORIG.       2", 5" PRINT:   ORIGIN OF DATA
 UWI .       490251104200:   UNIQUE WELL ID
 DICO. A2D Technologies, Inc.:   DIGITIZING COMPANY
~OTHER INFORMATION
~A    DEPT     SPR       RILD       RILM       RFOC         AC       CALD       CORR        DEN       PORD        CNC        GRR   
# ...
 3233.0000   -42.4629     3.2174     3.3797     4.9960    86.2123     8.2047    -0.0143     2.4486     0.1154     0.2722    59.5012
 3233.5000   -42.6112     3.1285     3.2642     4.9960    87.7965     8.2184    -0.0008     2.4410     0.1256     0.2864    59.8113
 3234.0000   -42.7595     3.0633     3.1526     4.6937    90.3581     8.2323     0.0143     2.4387     0.1287     0.2982    59.9701
 3234.5000   -42.7564     2.9786     3.0661     4.1142    92.3934     8.2160     0.0233     2.4402     0.1290     0.2986    59.9777
 3235.0000   -42.9047     2.9003     3.0236     3.6566    92.9250     8.2148     0.0128     2.4470     0.1275     0.2906    59.9852
 3235.5000   -42.9017     2.9203     3.0445     3.4116    92.3287     8.1833     0.0023     2.4537     0.1241     0.2834    59.0850
 3236.0000   -42.8986     3.0443     3.1518     3.2499    90.2287     8.1670    -0.0008     2.4658     0.1190     0.2761    57.8822
 3236.5000   -42.7443     3.2628     3.3084     3.6566    87.7527     8.1658     0.0053     2.4778     0.1103     0.2529    57.5870
 3237.0000   -42.7413     3.5460     3.6206     4.2593    84.3582     8.1495     0.0128     2.4929     0.0985     0.2435    57.7460
 3237.5000   -42.5743     3.9898     4.0456     4.9272    81.5792     8.1483     0.0218     2.5087     0.0852     0.2405    57.7536
 3238.0000   -42.4185     4.3662     4.5836     5.4713    78.8754     8.1319     0.0294     2.5260     0.0725     0.2357    57.1559
 3238.5000   -42.2627     4.6797     5.0510     6.0758    77.4498     8.1307     0.0167     2.5299     0.0729     0.2284    56.4071
 3239.0000   -41.9556     4.9466     5.3762     6.6465    77.1513     8.1141     0.0005     2.5169     0.0804     0.2242    55.6582
 3239.5000   -41.5159     5.1925     5.6435     6.8259    76.8543     8.1129    -0.0023     2.5026     0.0885     0.2212    54.3041
 3240.0000   -41.0388     5.3755     5.7618     6.7788    77.3084     8.1272    -0.0023     2.4958     0.0940     0.2221    53.5552
 3240.5000   -40.4290     5.5264     5.8016     6.5788    78.6648     8.1257    -0.0008     2.4928     0.0949     0.2232    51.4329
 3241.0000   -39.8427     5.5646     5.6423     6.1705    78.8933     8.1245     0.0053     2.4984     0.0919     0.2232    47.0448
 3241.5000   -39.3858     5.3743     5.4118     5.7793    78.8211     8.1233     0.0203     2.5138     0.0849     0.2244    45.7109
 3242.0000   -39.2315     5.1907     5.2632     6.3246    77.3204     8.1375     0.0353     2.5311     0.0732     0.2293    46.9894
 3242.5000   -39.3799     5.0834     5.1903     7.3671    76.5715     8.1360     0.0278     2.5251     0.0718     0.2377    50.0131
 3243.0000   -39.4060     5.1184     5.1900     7.9511    76.4992     8.1348    -0.0128     2.5010     0.0891     0.2395    52.5870
 3243.5000   -39.6764     5.1538     5.2258     8.0064    77.0286     8.1336    -0.0218     2.4814     0.0991     0.2431    54.2311
 3244.0000   -39.9752     5.2254     5.2619     6.3246    79.8980     8.1324    -0.0143     2.4776     0.1051     0.2470    53.8578
 3244.5000   -40.2748     5.2615     5.3351     5.2083    81.5459     8.1313    -0.0008     2.4828     0.1024     0.2422    52.3904
 3245.0000   -40.4238     5.2978     5.3346     5.0307    81.3082     8.1301     0.0038     2.4896     0.0976     0.2407    52.2690
 3245.5000   -40.7226     5.0813     5.2243     5.4296    79.7729     8.1289    -0.0038     2.4956     0.0925     0.2404    53.1438
 3246.0000   -41.0229     4.8400     5.0109     6.7319    78.4452     8.1277    -0.0038     2.5001     0.0919     0.2409    56.8245
 3246.5000   -41.3224     4.6422     4.8062     7.1655    77.8626     8.1265     0.0008     2.4903     0.0952     0.2421    59.1013
 3247.0000   -41.6220     4.3608     4.5779     7.2154    77.9779     8.1253     0.0008     2.4813     0.0994     0.2458    60.6217
 3247.5000   -41.7703     4.1537     4.3605     6.3246    80.2863     8.1241     0.0008     2.4707     0.1042     0.2557    61.3857
 3248.0000   -41.6152     3.9565     4.1247     5.3548    82.0938     8.1228     0.0039     2.4632     0.1084     0.2626    62.6035
 3248.5000   -41.6122     3.7425     3.9016     4.7592    83.6006     8.1216     0.0115     2.4564     0.1151     0.2584    63.6700
 3249.0000   -41.3066     3.5648     3.6907     4.5652    83.8291     8.1202     0.0203     2.4541     0.1187     0.2551    63.8288
 3249.5000   -40.8497     3.3720     3.5154     4.4712    83.9825     8.1190     0.0263     2.4548     0.1187     0.2557    63.5338
 3250.0000   -40.2416     3.2119     3.4427     4.4096    84.0606     8.1174     0.0278     2.4556     0.1178     0.2626    64.2978
 3250.5000   -40.0395     3.1208     3.3811     4.3487    84.3644     8.1090     0.0171     2.4465     0.1182     0.2715    65.3643
 3251.0000   -39.7820     3.0388     3.3262     4.3188    84.5177     8.1012     0.0066     2.4352     0.1270     0.2764    66.3044
 3251.5000   -39.9303     2.9972     3.2713     4.2890    84.8967     8.1005     0.0006     2.4262     0.1334     0.2764    67.4258
 3252.0000   -40.2298     2.9766     3.1879     4.2890    85.2756     8.0997    -0.0008     2.4224     0.1383     0.2740    67.6724
 3252.5000   -40.6807     2.9562     3.0574     4.1428    86.3312     8.0990     0.0024     2.4246     0.1371     0.2704    67.5324
 3253.0000   -41.1315     2.9359     3.0149     3.9192    87.2365     8.0982     0.0097     2.4276     0.1356     0.2670    67.8461
 3253.5000   -41.4312     2.8957     2.9936     3.7856    87.4643     8.0975     0.0142     2.4261     0.1353     0.2649    69.2189
 3254.0000   -41.7307     2.8560     2.9932     3.8385    87.3176     8.0967     0.0202     2.4306     0.1346     0.2669    71.3481
 3254.5000   -41.7277     2.8168     2.9721     3.9192    87.3206     8.0809     0.0277     2.4381     0.1328     0.2800    72.4183
 3255.0000   -41.8760     2.7399     2.9477     3.9465    87.3236     8.0801     0.0352     2.4449     0.1295     0.2790    72.7321
 3255.5000   -41.8729     2.6283     2.8698     3.9740    87.4770     8.0491     0.0412     2.4471     0.1244     0.2791    72.5920
 3256.0000   -41.8478     2.5038     2.7715     4.0016    88.0815     8.0484     0.0457     2.4464     0.1222     0.2835    72.3007
 3256.5000   -41.7156     2.3688     2.6397     3.7856    89.1371     8.0325     0.0261     2.4418     0.1247     0.2977    72.7657
 3257.0000   -41.7120     2.2566     2.4796     3.7077    89.9671     8.0317     0.0081     2.4328     0.1283     0.3000    74.5924
 3257.5000   -41.5577     2.1348     2.2811     3.7595    90.5716     8.0310     0.0050     2.4168     0.1340     0.3023    77.3267
 3258.0000   -41.4034     2.0479     2.1576     3.7856    92.4543     8.0151     0.0426     2.3913     0.1436     0.3094    78.2456
 3258.5000   -40.9466     1.9645     2.0693     3.5813    94.8633     8.0144     0.0637     2.3853     0.1596     0.3190    78.1056
 3259.0000   -40.4897     1.9109     2.0405     2.9697    95.4678     8.0136     0.0531     2.3913     0.1614     0.3184    78.2681
 3259.5000   -40.7893     1.8716     2.0545     2.5851    95.1701     8.0129     0.0170     2.4018     0.1578     0.3166    79.9434
 3260.0000   -41.3914     1.8717     2.0829     2.6763    94.9474     8.0121    -0.0071     2.4063     0.1503     0.3096    84.1906
 3260.5000   -41.9936     1.9246     2.1264     2.9492    94.9423     8.0113    -0.0131     2.4025     0.1493     0.2994    89.3831
 3261.0000   -42.1426     2.0488     2.2012     2.9921    95.7805     8.0106    -0.0056     2.4048     0.1511     0.2960    89.8106
 3261.5000   -42.1389     2.2115     2.3427     2.7137    95.4827     8.0250     0.0109     2.4281     0.1505     0.2707    82.3698
 3262.0000   -41.9846     2.4886     2.5459     2.6939    92.7038     8.0091     0.0245     2.4567     0.1420     0.2466    53.2246
 3262.5000   -41.6790     3.0017     2.9449     3.2499    86.6917     8.0083     0.0169     2.5004     0.1179     0.1968    36.2918
 3263.0000   -41.3735     3.8274     3.9139     4.1202    78.0637     8.0074     0.0184     2.5312     0.0902     0.1630    33.5771
