~VERSION INFORMATION
 VERS.                2.0:   CWLS LOG ASCII STANDARD - VERSION 2.0
 WRAP.                 NO:   ONE LINE PER DEPTH STEP
~WELL INFORMATION
#MNEM.UNIT      DATA TYPE    INFORMATION
#----------   ------------   ------------------------------
 STRT.F           30.0000:   START DEPTH
 STOP.F         2432.5000:   STOP DEPTH
 STEP.F            0.5000:   STEP LENGTH
 NULL.          -999.2500:   NO VALUE
 COMP. FENIX & SCISSON INC:   COMPANY
 WELL.     72 SHX 4 #72-4:   WELL
 FLD .             TEAPOT:   FIELD
 LOC .       S4 T38N R78W:   LOCATION
 CNTY.            NATRONA:   COUNTY
 STAT.            WYOMING:   STATE
 CTRY. UNITED STATES OF AMERICA:   COUNTRY
 SRVC.           BIRDWELL:   SERVICE COMPANY
 DATE.        05-MAR-1979:   LOGDATE
 API .       490251074300:   API NUMBER
~CURVE INFORMATION
#MNEM.UNIT       API CODE    CURVE DESCRIPTION
#----------   ------------   ------------------------------
 DEPT.F                  :   
 SPR .MV     05 010 01 00:   SPONTANEOUS POTENTIAL FROM RES.
 SN  .OHMM   05 040 16 00:   SHORT NORMAL 16"
 ILD .OHMM   05 120 46 00:   INDUCTION LOG DEEP
 CALD.IN     45 280 60 00:   CALIPER
 GRD .GAPI   45 310 01 00:   GAMMA RAY FROM DENSITY LOG
 RHOB.G/C3   45 350 01 00:   BULK DENSITY
 CORR.G/C3   45 356 01 00:   DENSITY CORRECTION
 DPHI.DEC    45 890 12 00:   DENSITY POROSITY SANDSTONE
~PARAMETER INFORMATION
#MNEM.UNIT          VALUE    DESCRIPTION
#----------   ------------   ------------------------------
 PD  .                 GL:   PERMANENT DATUM
 EPD .F              5194:   ELEVATION PERMANENT DATUM
 LMF .                 KB:   LOG MEASURED FROM
 DAPD.F                10:   FEET ABOVE PERMANENT DATUM
 DMF .                 KB:   DRILLING MEASURED FROM
 EKB .F              5204:   KELLING BUSHING
 EGL .F              5194:   GROUND LEVEL
 DATE.             3-5-79:   RUN DATE
 RUN .                  1:   RUN NUMBER
 DD  .F              2560:   DEPTH DRILLER
 DL  .F              2432:   DEPTH LOGGER
 BLI .F              2432:   BOTTOM LOG INTERVAL
 TLI .F               400:   TOP LOG INTERVAL
 CS  .IN            9.625:   CASING SIZE
 CBD .F               685:   CASING BOTTOM DRILLER
 CBL .F               685:   CASING BOTTOM LOGGER
 BS  .IN             8.75:   BIT SIZE
 BSD .F              2560:   BIT SIZE AT DEPTH
 DFT .                AIR:   DRILLING FLUID TYPE
 TCS .HRS               5:   TIME CURCULATED STOPPED
 LUN .               3006:   LOGGING UNIT NUMBER
 LUL .             CASPER:   LOGGING UNIT LOCATION
 ENGI.         B. ROLLINS:   RECORDING ENGINEER
 WITN.           DINSMORE:   WITNESSED BY
 CLNT.            A2DTECH:   CLIENT CODE
 ORIG.           5" PRINT:   ORIGIN OF DATA
 UWI .       490251074300:   UNIQUE WELL ID
 DICO. A2D Technologies, Inc.:   DIGITIZING COMPANY
~OTHER INFORMATION
~A   DEPT      SPR         SN        ILD        CALD       GRD       RHOB         CORR      DPHI  
# ...
  961.5000  -999.2500  -999.2500  -999.2500     9.6584    71.3963     2.5117     0.0468     0.0218
  962.0000  -999.2500  -999.2500  -999.2500     9.6381    71.2216     2.5108     0.0464     0.0172
  962.5000  -999.2500  -999.2500  -999.2500     9.6177    71.5970     2.5119     0.0380     0.0148
  963.0000  -999.2500  -999.2500  -999.2500     9.5974    72.4368     2.5113     0.0262     0.0273
  963.5000  -999.2500  -999.2500  -999.2500     9.5770    73.0652     2.4931     0.0146     0.0382
  964.0000  -999.2500  -999.2500  -999.2500     9.5567    73.3637     2.4855     0.0203     0.0352
  964.5000  -999.2500  -999.2500  -999.2500     9.5363    73.9264     2.4895     0.0372     0.0321
  965.0000  -999.2500  -999.2500  -999.2500     9.5159    74.4818     2.4952     0.0562     0.0210
  965.5000  -999.2500  -999.2500  -999.2500     9.4955    74.9636     2.5131     0.0666     0.0088
  966.0000  -999.2500  -999.2500  -999.2500     9.4800    74.9501     2.5298     0.0516     0.0167
  966.5000  -999.2500  -999.2500  -999.2500     9.4898    74.9482     2.5277     0.0354     0.0269
  967.0000  -999.2500  -999.2500  -999.2500     9.4991    74.9598     2.5080     0.0216     0.0258
  967.5000  -999.2500  -999.2500  -999.2500     9.5084    75.5123     2.5059     0.0257     0.0238
  968.0000  -999.2500  -999.2500  -999.2500     9.5176    76.6985     2.5063     0.0318     0.0218
  968.5000  -999.2500  -999.2500  -999.2500     9.5269    77.8904     2.5110     0.0379     0.0198
  969.0000  -999.2500  -999.2500  -999.2500     9.5361    77.7966     2.5175     0.0439     0.0128
  969.5000  -999.2500  -999.2500  -999.2500     9.5454    76.3018     2.5241     0.0500     0.0104
  970.0000  -999.2500  -999.2500  -999.2500     9.5547    74.8171     2.5302     0.0562     0.0077
  970.5000  -999.2500  -999.2500  -999.2500     9.5639    73.6977     2.5335     0.0620     0.0049
  971.0000  -999.2500  -999.2500  -999.2500     9.5731    73.5982     2.5368     0.0622     0.0022
  971.5000  -999.2500  -999.2500  -999.2500     9.5806    73.4822     2.5379     0.0608     0.0004
  972.0000  -999.2500  -999.2500  -999.2500     9.5843    73.3517     2.5359     0.0543     0.0076
  972.5000  -999.2500  -999.2500  -999.2500     9.5882    73.9270     2.5296     0.0414     0.0180
  973.0000  -999.2500  -999.2500  -999.2500     9.5920    74.6524     2.5149     0.0274     0.0285
  973.5000  -999.2500  -999.2500  -999.2500     9.5958    75.3884     2.4998     0.0133     0.0389
  974.0000  -999.2500  -999.2500  -999.2500     9.6021    76.1254     2.4846     0.0079     0.0429
  974.5000  -999.2500  -999.2500  -999.2500     9.6245    75.9435     2.4794     0.0156     0.0329
  975.0000  -999.2500  -999.2500  -999.2500     9.6471    74.4895     2.4901     0.0246     0.0230
  975.5000  -999.2500  -999.2500  -999.2500     9.6696    73.0494     2.5055     0.0337     0.0165
  976.0000  -999.2500  -999.2500  -999.2500     9.6925    72.3448     2.5210     0.0428     0.0164
  976.5000  -999.2500  -999.2500  -999.2500     9.6964    72.6102     2.5220     0.0503     0.0164
  977.0000  -999.2500  -999.2500  -999.2500     9.6922    73.0220     2.5224     0.0505     0.0122
  977.5000  -999.2500  -999.2500  -999.2500     9.6878    75.2325     2.5239     0.0508     0.0079
  978.0000  -999.2500  -999.2500  -999.2500     9.6835    77.4519     2.5270     0.0511     0.0048
  978.5000  -999.2500  -999.2500  -999.2500     9.6792    79.5191     2.5291     0.0514     0.0082
  979.0000  -999.2500  -999.2500  -999.2500     9.6749    79.4456     2.5271     0.0517     0.0147
  979.5000  -999.2500  -999.2500  -999.2500     9.6706    78.8609     2.5226     0.0520     0.0188
  980.0000  -999.2500  -999.2500  -999.2500     9.6663    78.3155     2.5186     0.0514     0.0122
  980.5000  -999.2500  -999.2500  -999.2500     9.6617    78.1382     2.5233     0.0507     0.0076
  981.0000  -999.2500  -999.2500  -999.2500     9.6424    78.6549     2.5278     0.0340     0.0161
  981.5000  -999.2500  -999.2500  -999.2500     9.5985    78.9937     2.5163     0.0149     0.0289
  982.0000  -999.2500  -999.2500  -999.2500     9.5549    76.4188     2.5005     0.0033     0.0352
  982.5000  -999.2500  -999.2500  -999.2500     9.5095    72.4733     2.4933     0.0019     0.0344
  983.0000  -999.2500  -999.2500  -999.2500     9.4979    71.5357     2.4927     0.0021     0.0337
  983.5000  -999.2500  -999.2500  -999.2500     9.4956    71.9345     2.4926     0.0063     0.0289
  984.0000  -999.2500  -999.2500  -999.2500     9.4936    72.4820     2.4958     0.0107     0.0242
  984.5000  -999.2500  -999.2500  -999.2500     9.4915    73.0225     2.4989     0.0114     0.0200
  985.0000  -999.2500  -999.2500  -999.2500     9.4894    73.5583     2.5021     0.0105     0.0200
  985.5000  -999.2500  -999.2500  -999.2500     9.4873    74.0964     2.5034     0.0060     0.0269
  986.0000  -999.2500  -999.2500  -999.2500     9.4852    74.0699     2.4987    -0.0013     0.0341
  986.5000  -999.2500  -999.2500  -999.2500     9.4831    73.5498     2.4862    -0.0030     0.0368
  987.0000  -999.2500  -999.2500  -999.2500     9.4808    73.9068     2.4850     0.0000     0.0280
  987.5000  -999.2500  -999.2500  -999.2500     9.4799    74.8216     2.4981     0.0093     0.0175
  988.0000  -999.2500  -999.2500  -999.2500     9.5029    74.8447     2.5113     0.0182     0.0112
  988.5000  -999.2500  -999.2500  -999.2500     9.5261    75.0045     2.5241     0.0244     0.0137
  989.0000  -999.2500  -999.2500  -999.2500     9.5491    75.9364     2.5241     0.0252     0.0150
  989.5000  -999.2500  -999.2500  -999.2500     9.5722    77.0998     2.5235     0.0260     0.0136
  990.0000  -999.2500  -999.2500  -999.2500     9.5952    78.2713     2.5229     0.0268     0.0156
  990.5000  -999.2500  -999.2500  -999.2500     9.6182    79.1869     2.5224     0.0276     0.0174
  991.0000  -999.2500  -999.2500  -999.2500     9.6413    78.6003     2.5218     0.0313     0.0134
  991.5000  -999.2500  -999.2500  -999.2500     9.6641    77.7791     2.5245     0.0378     0.0086
  992.0000  -999.2500  -999.2500  -999.2500     9.6790    76.9232     2.5301     0.0442     0.0052
  992.5000  -999.2500  -999.2500  -999.2500     9.6772    76.7590     2.5357     0.0491     0.0041
  993.0000  -999.2500  -999.2500  -999.2500     9.6756    77.1996     2.5366     0.0515     0.0025
  993.5000  -999.2500  -999.2500  -999.2500     9.6740    78.3113     2.5366     0.0539     0.0010
  994.0000  -999.2500  -999.2500  -999.2500     9.6724    79.4176     2.5366     0.0518     0.0022
  994.5000  -999.2500  -999.2500  -999.2500     9.6708    79.9456     2.5347     0.0457     0.0104
  995.0000  -999.2500  -999.2500  -999.2500     9.6692    79.5450     2.5261     0.0321     0.0218
  995.5000  -999.2500  -999.2500  -999.2500     9.6677    78.3008     2.5052     0.0187     0.0332
  996.0000  -999.2500  -999.2500  -999.2500     9.6661    77.0710     2.4858     0.0053     0.0397
  996.5000  -999.2500  -999.2500  -999.2500     9.6645    76.0139     2.4845    -0.0022     0.0329
  997.0000  -999.2500  -999.2500  -999.2500     9.6629    75.5657     2.4875    -0.0027     0.0282
  997.5000  -999.2500  -999.2500  -999.2500     9.6613    75.7934     2.4903    -0.0032     0.0323
  998.0000  -999.2500  -999.2500  -999.2500     9.6601    75.7303     2.4873    -0.0036     0.0374
  998.5000  -999.2500  -999.2500  -999.2500     9.6388    75.0609     2.4838    -0.0033     0.0405
  999.0000  -999.2500  -999.2500  -999.2500     9.6123    75.0255     2.4836     0.0009     0.0376
  999.5000  -999.2500  -999.2500  -999.2500     9.5856    75.1144     2.4853     0.0051     0.0333
 1000.0000  -999.2500  -999.2500  -999.2500     9.5590    75.4583     2.4871     0.0084     0.0344
 1000.5000  -999.2500  -999.2500  -999.2500     9.5324    75.9023     2.4889     0.0098     0.0357
 1001.0000  -999.2500  -999.2500  -999.2500     9.5058    76.3536     2.4907     0.0111     0.0270
 1001.5000  -999.2500  -999.2500  -999.2500     9.4791    76.8075     2.5004     0.0110     0.0149
