~VERSION INFORMATION
 VERS.                2.0:   CWLS LOG ASCII STANDARD - VERSION 2.0
 WRAP.                 NO:   ONE LINE PER DEPTH STEP
~WELL INFORMATION
#MNEM.UNIT      DATA TYPE    INFORMATION
#----------   ------------   ------------------------------
 STRT.F           15.0000:   START DEPTH
 STOP.F         5640.0000:   STOP DEPTH
 STEP.F            0.5000:   STEP LENGTH
 NULL.          -999.2500:   NO VALUE
 COMP.       F D SERV INC:   COMPANY
 WELL. NAVAL PETROLEUM RESERVE 3 SX-1 #43-10:   WELL
 FLD .         N.P.R. #.3:   FIELD
 LOC .      S10 T38N R78W:   LOCATION
 CNTY.            NATRONA:   COUNTY
 STAT.            WYOMING:   STATE
 CTRY. UNITED STATES OF AMERICA:   COUNTRY
 SRVC.      Dresser Atlas:   SERVICE COMPANY
 DATE.        05-JUL-1986:   LOGDATE
 API .       490251101800:   API NUMBER
~CURVE INFORMATION
#MNEM.UNIT       API CODE    CURVE DESCRIPTION
#----------   ------------   ------------------------------
 DEPT.F                  :   
 GRR .GAPI   07 310 01 00:   GAMMA RAY
 ILD .OHMM   07 120 46 00:   INDUCTION LOG DEEP
 ILM .OHMM   07 120 44 00:   INDUCTION LOG MEDIUM
 CALS.IN     60 280 50 00:   CALIPER FROM SONIC LOG
 GRS .GAPI   60 310 01 00:   GAMMA RAY FROM SONIC LOG
 AC  .US/F   60 520 00 00:   ACCOUSTIC
~PARAMETER INFORMATION
#MNEM.UNIT          VALUE    DESCRIPTION
#----------   ------------   ------------------------------
 PD  .                 GL:   PERMANENT DATUM
 EPD .F              5205:   ELEVATION PERMANENT DATUM
 LMF .                 KB:   LOG MEASURED FROM
 DAPD.F                 5:   FEET ABOVE PERMANENT DATUM
 DMF .                 KB:   DRILLING MEASURED FROM
 EKB .F              5210:   KELLING BUSHING
 EGL .F              5205:   GROUND LEVEL
 DATE.        05-JUL-1986:   RUN DATE
 RUN .                  1:   RUN NUMBER
 DD  .F               560:   DEPTH DRILLER
 DL  .F               560:   DEPTH LOGGER
 BLI .F               550:   BOTTOM LOG INTERVAL
 TLI .F                15:   TOP LOG INTERVAL
 CS  .IN            8.625:   CASING SIZE
 CBD .F                47:   CASING BOTTOM DRILLER
 CBL .F                47:   CASING BOTTOM LOGGER
 BS  .IN            7.875:   BIT SIZE
 BSD .F               560:   BIT SIZE AT DEPTH
 DFT .                AIR:   DRILLING FLUID TYPE
 BHT .F                83:   BOTTOM HOLE TEMPERATURE
 TCS .HRS            2100:   TIME CURCULATED STOPPED
 TLAB.HRS            2230:   TIME LOGGER AT BOTTOM
 MRT .F                83:   MAXIMUM RECORDED TEMPERATURE
 LUN .               7609:   LOGGING UNIT NUMBER
 LUL .           GILLETTE:   LOGGING UNIT LOCATION
 ENGI.              BAURT:   RECORDING ENGINEER
 CLNT.            A2DTECH:   CLIENT CODE
 ORIG. 1" 2" 2.5", 5" PRINT:   ORIGIN OF DATA
 UWI .       490251101800:   UNIQUE WELL ID
 DICO. A2D Technologies, Inc.:   DIGITIZING COMPANY
 R2  . HEADER NOT CLEARLY VISIBLE:   REMARKS 2
~OTHER INFORMATION
~A   DEPT       GRR       ILD        ILM       CALS        GRS         AC   
# ...
 3863.0000  -999.2500  -999.2500  -999.2500    12.2187    95.2305   101.9910
 3863.5000  -999.2500  -999.2500  -999.2500    11.8457    92.2031   101.3876
 3864.0000  -999.2500  -999.2500  -999.2500    11.9219    91.2969   101.8401
 3864.5000  -999.2500  -999.2500  -999.2500    12.3769    94.9369   101.0106
 3865.0000  -999.2500  -999.2500  -999.2500    12.6046   100.6973    97.9940
 3865.5000  -999.2500  -999.2500  -999.2500    12.5141   102.5184    89.7738
 3866.0000  -999.2500  -999.2500  -999.2500    11.5298    99.7940    80.5732
 3866.5000  -999.2500  -999.2500  -999.2500    10.1211    95.5099    78.0090
 3867.0000  -999.2500  -999.2500  -999.2500     9.8791    91.6187    78.4615
 3867.5000  -999.2500  -999.2500  -999.2500     9.8037    90.7118    82.3831
 3868.0000  -999.2500  -999.2500  -999.2500     9.8042    96.4730    85.4773
 3868.5000  -999.2500  -999.2500  -999.2500     9.8047    99.8092    83.8914
 3869.0000  -999.2500  -999.2500  -999.2500     9.8052   100.1152    82.8356
 3869.5000  -999.2500  -999.2500  -999.2500     9.8057    96.4682    82.5339
 3870.0000  -999.2500  -999.2500  -999.2500     9.8364    88.0005    83.8160
 3870.5000  -999.2500  -999.2500  -999.2500     9.8974    87.3966    86.0806
 3871.0000  -999.2500  -999.2500  -999.2500    10.0057    90.4305    88.4163
 3871.5000  -999.2500  -999.2500  -999.2500    10.1711    94.9789    89.6229
 3872.0000  -999.2500  -999.2500  -999.2500    10.3231    98.3746    89.1704
 3872.5000  -999.2500  -999.2500  -999.2500    10.3690   103.4702    88.4163
 3873.0000  -999.2500  -999.2500  -999.2500    10.4149   108.6246    87.9638
 3873.5000  -999.2500  -999.2500  -999.2500    10.4786   109.5366    88.7934
 3874.0000  -999.2500  -999.2500  -999.2500    10.6734   105.9032    89.3967
 3874.5000  -999.2500  -999.2500  -999.2500    10.7345   104.6940    88.5671
 3875.0000  -999.2500  -999.2500  -999.2500    10.5682   105.9097    84.7964
 3875.5000  -999.2500  -999.2500  -999.2500    10.2050   106.8217    77.0595
 3876.0000  -999.2500  -999.2500  -999.2500     9.9463   103.1882    75.2941
 3876.5000  -999.2500  -999.2500  -999.2500     9.8878    97.4335    78.6878
 3877.0000  -999.2500  -999.2500  -999.2500     9.8275    94.6788    82.6848
 3877.5000  -999.2500  -999.2500  -999.2500     9.8281    99.9904    85.7768
 3878.0000  -999.2500  -999.2500  -999.2500     9.8285   114.4127    87.9126
 3878.5000  -999.2500  -999.2500  -999.2500     9.8441   124.1125    88.8688
 3879.0000  -999.2500  -999.2500  -999.2500     9.8446   129.5700    87.2097
 3879.5000  -999.2500  -999.2500  -999.2500     9.8602   132.6032    84.8718
 3880.0000  -999.2500  -999.2500  -999.2500     9.8606   131.3940    84.5701
 3880.5000  -999.2500  -999.2500  -999.2500     9.9065   121.0945    86.6695
 3881.0000  -999.2500  -999.2500  -999.2500     9.9827   112.3096    89.6983
 3881.5000  -999.2500  -999.2500  -999.2500    10.0439   109.5852    89.5475
 3882.0000  -999.2500  -999.2500  -999.2500    10.0292   111.1032    88.1146
 3882.5000  -999.2500  -999.2500  -999.2500     9.9841   117.1667    85.5505
 3883.0000  -999.2500  -999.2500  -999.2500     9.9542   118.0788    82.7559
 3883.5000  -999.2500  -999.2500  -999.2500     9.9244   116.5672    79.7436
 3884.0000  -999.2500  -999.2500  -999.2500     9.8945   113.5398    78.7632
 3884.5000  -999.2500  -999.2500  -999.2500     9.8951   107.4821    79.0649
 3885.0000  -999.2500  -999.2500  -999.2500     9.9107   104.1516    80.9502
 3885.5000  -999.2500  -999.2500  -999.2500     9.9565   103.8515    83.6091
 3886.0000  -999.2500  -999.2500  -999.2500     9.9721   105.6733    87.5113
 3886.5000  -999.2500  -999.2500  -999.2500    10.0046   109.6156    89.1704
 3887.0000  -999.2500  -999.2500  -999.2500    10.0640   119.0124    93.5445
 3887.5000  -999.2500  -999.2500  -999.2500    10.1099   122.3487    97.6169
 3888.0000  -999.2500  -999.2500  -999.2500    10.1861   122.6750   101.6285
 3888.5000  -999.2500  -999.2500  -999.2500    10.2623   118.0061   103.8009
 3889.0000  -999.2500  -999.2500  -999.2500    10.3385   112.3581   100.3318
 3889.5000  -999.2500  -999.2500  -999.2500    10.2936   110.5428    95.1282
 3890.0000  -999.2500  -999.2500  -999.2500    10.1425   109.0305    91.8100
 3890.5000  -999.2500  -999.2500  -999.2500    10.1429   106.3062    92.9373
 3891.0000  -999.2500  -999.2500  -999.2500    10.1888    99.5433    96.2594
 3891.5000  -999.2500  -999.2500  -999.2500    10.2202    94.4938    98.3710
 3892.0000  -999.2500  -999.2500  -999.2500    10.2504    97.8307    99.0498
 3892.5000  -999.2500  -999.2500  -999.2500    10.2660    99.3481    99.0498
 3893.0000  -999.2500  -999.2500  -999.2500    10.2664    99.0479    99.0498
 3893.5000  -999.2500  -999.2500  -999.2500    10.2668    99.6576    99.2760
 3894.0000  -999.2500  -999.2500  -999.2500    10.2673   101.8624    99.6531
 3894.5000  -999.2500  -999.2500  -999.2500    10.2678   103.9066    99.8793
 3895.0000  -999.2500  -999.2500  -999.2500    10.2682   102.3943    99.7285
 3895.5000  -999.2500  -999.2500  -999.2500    10.2838   101.1851    99.2760
 3896.0000  -999.2500  -999.2500  -999.2500    10.2843   100.8848    99.0498
 3896.5000  -999.2500  -999.2500  -999.2500    10.2847   101.4939    99.4268
 3897.0000  -999.2500  -999.2500  -999.2500    10.2852   102.4066    99.8039
 3897.5000  -999.2500  -999.2500  -999.2500    10.2857   103.0156    99.3514
 3898.0000  -999.2500  -999.2500  -999.2500    10.2861   103.3215    98.3710
 3898.5000  -999.2500  -999.2500  -999.2500    10.2865   103.9305    97.7677
 3899.0000  -999.2500  -999.2500  -999.2500    10.2870   104.8425    97.2398
 3899.5000  -999.2500  -999.2500  -999.2500    10.2874   105.7545    96.8627
 3900.0000  -999.2500  -999.2500  -999.2500    10.2878   106.6667    96.8627
 3900.5000  -999.2500  -999.2500  -999.2500    10.2882   108.6128    97.0970
 3901.0000  -999.2500  -999.2500  -999.2500    10.2885   113.3202    97.3313
 3901.5000  -999.2500  -999.2500  -999.2500    10.2888   114.8309    97.6241
 3902.0000  -999.2500  -999.2500  -999.2500    10.2891   111.7933    97.9185
 3902.5000  -999.2500  -999.2500  -999.2500    10.2894   111.4845    97.6923
 3903.0000  -999.2500  -999.2500  -999.2500    10.2897   112.6907    97.3906
 3903.5000  -999.2500  -999.2500  -999.2500    10.2900   121.5156    96.6365
 3904.0000  -999.2500  -999.2500  -999.2500    10.2903   125.7079    96.4857
 3904.5000  -999.2500  -999.2500  -999.2500    10.2755   118.7323    96.7873
 3905.0000  -999.2500  -999.2500  -999.2500    10.2758   107.5144    97.4056
 3905.5000  -999.2500  -999.2500  -999.2500    10.2761    99.3267    97.9185
 3906.0000  -999.2500  -999.2500  -999.2500    10.2916    98.4118    97.6169
 3906.5000  -999.2500  -999.2500  -999.2500    10.2767   101.1332    96.3348
 3907.0000  -999.2500  -999.2500  -999.2500    10.2770   106.6617    94.9020
 3907.5000  -999.2500  -999.2500  -999.2500    10.2924   110.8185    93.6199
 3908.0000  -999.2500  -999.2500  -999.2500    10.2927   107.7809    93.0166
 3908.5000  -999.2500  -999.2500  -999.2500    10.2931   104.7447    93.0920
 3909.0000  -999.2500  -999.2500  -999.2500    10.2934   104.1328    93.3937
 3909.5000  -999.2500  -999.2500  -999.2500    10.3088   104.7330    93.7707
 3910.0000  -999.2500  -999.2500  -999.2500    10.3091   105.9393    94.3741
 3910.5000  -999.2500  -999.2500  -999.2500    10.3094   108.9882    95.5053
 3911.0000  -999.2500  -999.2500  -999.2500    10.3248   110.4716    96.7873
 3911.5000  -999.2500  -999.2500  -999.2500    10.3404   112.8900    97.6923
 3912.0000  -999.2500  -999.2500  -999.2500    10.3407   116.8235    97.9185
 3912.5000  -999.2500  -999.2500  -999.2500    10.3409   129.8480    97.6169
 3913.0000  -999.2500  -999.2500  -999.2500    10.3412   141.9634    96.9382
 3913.5000  -999.2500  -999.2500  -999.2500    10.3415   161.0484    96.0332
 3914.0000  -999.2500  -999.2500  -999.2500    10.3267   196.1312    94.8265
 3914.5000  -999.2500  -999.2500  -999.2500    10.3270   222.2484    93.7707
