~VERSION INFORMATION
 VERS.                2.0:   CWLS LOG ASCII STANDARD - VERSION 2.0
 WRAP.                 NO:   ONE LINE PER DEPTH STEP
~WELL INFORMATION
#MNEM.UNIT      DATA TYPE    INFORMATION
#----------   ------------   ------------------------------
 STRT.F            6.0000:   START DEPTH
 STOP.F          458.0000:   STOP DEPTH
 STEP.F            0.5000:   STEP LENGTH
 NULL.          -999.2500:   NO VALUE
 COMP. BROWN JOHN E&C INC:   COMPANY
 WELL.   73-61 X10 #61-10:   WELL
 FLD .             TEAPOT:   FIELD
 LOC .      S10 T38N R78W:   LOCATION
 CNTY.            NATRONA:   COUNTY
 STAT.            WYOMING:   STATE
 CTRY. UNITED STATES OF AMERICA:   COUNTRY
 SRVC.           Gearhart:   SERVICE COMPANY
 DATE.        12-JUN-1987:   LOGDATE
 API .       490251113200:   API NUMBER
~CURVE INFORMATION
#MNEM.UNIT       API CODE    CURVE DESCRIPTION
#----------   ------------   ------------------------------
 DEPT.F                  :   
 GRR .GAPI   07 310 01 00:   GAMMA RAY FROM RES. LOG.
 RILD.OHMM   07 120 46 00:   INDUCTION LOG DEEP RESISTIVITY
 RILM.OHMM   07 120 44 00:   INDUCTION LOG MEDIUM RESISTIVITY
~PARAMETER INFORMATION
#MNEM.UNIT          VALUE    DESCRIPTION
#----------   ------------   ------------------------------
 PD  .                 GL:   PERMANENT DATUM
 EPD .F              5170:   ELEVATION PERMANENT DATUM
 LMF .                 KB:   LOG MEASURED FROM
 DAPD.F                 8:   FEET ABOVE PERMANENT DATUM
 DMF .                 KB:   DRILLING MEASURED FROM
 EKB .F              5178:   KELLING BUSHING
 EDF .F              5176:   DRILLING FLOOR
 EGL .F              5170:   GROUND LEVEL
 DATE.            6-12-87:   RUN DATE
 RUN .                  1:   RUN NUMBER
 DD  .F               560:   DEPTH DRILLER
 DL  .F               466:   DEPTH LOGGER
 BLI .F               463:   BOTTOM LOG INTERVAL
 TLI .F                46:   TOP LOG INTERVAL
 CS  .IN            8.625:   CASING SIZE
 CBD .F                50:   CASING BOTTOM DRILLER
 CBL .F                46:   CASING BOTTOM LOGGER
 BS  .IN             7.87:   BIT SIZE
 BSD .F               560:   BIT SIZE AT DEPTH
 DFT .               FOAM:   DRILLING FLUID TYPE
 TCS .HRS            0645:   TIME CURCULATED STOPPED
 TLAB.HRS            0845:   TIME LOGGER AT BOTTOM
 LUN .               7597:   LOGGING UNIT NUMBER
 LUL .           GILLETTE:   LOGGING UNIT LOCATION
 ENGI.           JOHNSTON:   RECORDING ENGINEER
 WITN.             STRONG:   WITNESSED BY
 CLNT.            A2DTECH:   CLIENT CODE
 ORIG.       2", 5" PRINT:   ORIGIN OF DATA
 UWI .       490251113200:   UNIQUE WELL ID
 DICO. A2D Technologies, Inc.:   DIGITIZING COMPANY
~OTHER INFORMATION
~A    DEPT      GRR      RILD       RILM   
# ...
  188.0000   105.4842     8.9726     8.6602
  188.5000   107.9519     9.0576     8.7924
  189.0000   109.5540     9.1434     8.7924
  189.5000   109.5778     9.2300     8.8449
  190.0000   108.6222     9.3150     8.9998
  190.5000   107.3222     9.3855     9.1579
  191.0000   105.9715     9.4565     9.3170
  191.5000   105.7195     9.5281     9.4087
  192.0000   105.5220     9.6003     9.4336
  192.5000   106.0681     9.6635     9.4597
  193.0000   106.8663     9.6635     9.4860
  193.5000   107.7367     9.6635     9.5122
  194.0000   107.2281     9.6636     9.5387
  194.5000   104.2567     9.6635     9.5657
  195.0000   101.3260     9.6543     9.5726
  195.5000   102.2990     9.5760     9.4270
  196.0000   104.2597     9.4984     9.2988
  196.5000   106.1758     9.4215     9.1724
  197.0000   107.1179     9.3454     9.0478
  197.5000   108.0004     9.2694     8.9248
  198.0000   108.8948     9.1517     8.7924
  198.5000   109.8018     8.9375     8.7347
  199.0000   110.7443     8.7293     8.6716
  199.5000   110.6257     8.5256     8.5927
  200.0000   107.8766     8.3268     8.4664
  200.5000   105.4294     7.9400     8.1922
  201.0000   106.4991     7.3938     7.8982
  201.5000   107.5844     6.8851     7.5884
  202.0000   105.5791     6.2540     7.1975
  202.5000   102.7649     5.6259     6.5710
  203.0000   102.2557     5.0610     5.9990
  203.5000   105.0267     4.5527     5.3258
  204.0000   108.1442     4.0559     4.6814
  204.5000   108.2961     3.6335     4.1149
  205.0000   106.2163     3.2332     3.6170
  205.5000   103.8984     3.0900     3.1793
  206.0000   101.5198     3.0032     2.8201
  206.5000   100.0815     2.9670     2.6241
  207.0000    98.6543     3.0236     2.6241
  207.5000    97.1963     3.1682     2.6545
  208.0000    96.5882     3.3634     2.8218
  208.5000   100.8361     3.7670     3.2269
  209.0000   106.6851     4.2171     3.7594
  209.5000   112.6950     4.7208     4.3704
  210.0000   115.1713     5.2848     4.8269
  210.5000   115.4922     5.7976     5.3221
  211.0000   115.7122     6.1859     5.8690
  211.5000   115.9476     6.5425     6.2689
  212.0000   116.2764     6.7260     6.5740
  212.5000   117.0596     6.9435     6.8776
  213.0000   118.1432     6.8908     6.9640
  213.5000   119.2172     6.8122     7.0472
  214.0000   120.1343     6.6354     7.0753
  214.5000   123.0227     6.4709     6.9002
  215.0000   123.1716     6.3096     6.7649
  215.5000   123.3588     6.1353     6.3118
  216.0000   124.6358     5.9066     5.8498
  216.5000   126.8463     5.6898     5.4215
  217.0000   128.5679     5.4803     5.3147
  217.5000   127.5552     5.3670     5.1804
  218.0000   123.1007     5.3415     5.1804
  218.5000   118.8088     5.3293     5.1804
  219.0000   116.3851     5.5645     5.1804
  219.5000   114.4391     5.8238     5.2792
  220.0000   114.4834     6.0951     5.5514
  220.5000   116.4772     6.3790     5.8858
  221.0000   120.1727     6.6762     6.2577
  221.5000   122.6074     7.0213     6.5931
  222.0000   120.6866     7.4131     6.9647
  222.5000   117.5782     7.8268     7.3725
  223.0000   115.1212     8.1001     7.8314
  223.5000   115.4505     8.3353     8.2526
  224.0000   116.4965     8.5779     8.3569
  224.5000   115.4823     8.6548     8.4664
  225.0000   116.0710     8.6892     8.5145
  225.5000   117.5677     8.7097     8.5467
  226.0000   119.2598     8.6254     8.3432
  226.5000   120.8881     8.4229     8.1779
  227.0000   120.9927     8.2251     8.0159
  227.5000   121.0320     8.0320     7.8572
  228.0000   121.0773     7.8435     7.7016
  228.5000   121.1247     7.5649     7.5493
  229.0000   121.1721     7.2450     7.3994
  229.5000   121.2200     6.9388     7.2228
  230.0000   121.2672     6.6444     7.0346
  230.5000   121.3082     6.3822     6.6368
  231.0000   120.9915     6.1711     6.2294
  231.5000   120.1436     5.9909     5.8470
  232.0000   119.2965     5.8654     5.5052
  232.5000   118.5642     5.8022     5.2249
  233.0000   119.8363     5.9263     5.0356
  233.5000   121.1483     6.0682     5.2246
  234.0000   121.9085     6.2153     5.5346
  234.5000   120.5511     6.4099     6.1944
  235.0000   119.3305     6.7235     6.4776
  235.5000   119.3046     7.0682     6.7892
  236.0000   119.6570     7.5603     7.1196
  236.5000   121.3346     8.0868     7.4062
  237.0000   122.6204     8.2695     7.6812
  237.5000   121.3431     8.3435     7.9447
  238.0000   119.9255     8.4182     8.0621
  238.5000   120.4108     8.4935     8.1845
  239.0000   123.6728     8.5695     8.3088
  239.5000   126.6268     8.6462     8.3975
  240.0000   124.9023     8.7097     8.4279
  240.5000   123.7855     8.8758     8.4579
  241.0000   123.8789     8.8628     8.4881
  241.5000   124.0745     8.8406     8.5184
  242.0000   123.9266     8.8186     8.5489
  242.5000   122.7568     8.7965     8.5794
  243.0000   122.1480     8.7746     8.6101
  243.5000   122.4428     8.7527     8.6283
  244.0000   122.5292     8.7308     8.6107
  244.5000   121.9214     8.7090     8.5941
  245.0000   121.3195     8.6872     8.5774
  245.5000   120.6984     8.6655     8.5608
  246.0000   121.0443     8.6439     8.5442
  246.5000   121.8674     8.6223     8.5277
  247.0000   124.4180     8.6008     8.5111
  247.5000   126.9032     8.5794     8.4946
  248.0000   128.7269     8.5581     8.4782
  248.5000   127.5533     8.5238     8.3950
  249.0000   126.3026     8.4802     8.1453
  249.5000   125.0523     8.2181     7.9031
  250.0000   124.2658     7.8712     7.6680
  250.5000   126.1620     7.6514     7.4176
  251.0000   128.5445     7.5488     7.3003
  251.5000   130.9116     7.4476     7.2103
  252.0000   133.2822     7.2271     7.1868
  252.5000   133.5317     6.9566     7.1607
  253.0000   129.9347     6.6220     7.1425
  253.5000   126.2839     6.6238     6.8452
  254.0000   126.0195     6.0828     6.5604
  254.5000   126.9815     5.9129     5.9902
  255.0000   127.8551     5.9529     5.5150
  255.5000   127.7060     6.0338     5.3293
  256.0000   124.4129     6.1158     5.3293
  256.5000   121.1218     6.1989     5.6423
  257.0000   118.8729     6.3271     5.8920
  257.5000   119.5298     6.5638     6.2794
  258.0000   121.0052     6.7827     6.7511
  258.5000   121.2485     6.9813     7.2581
  259.0000   121.0690     7.1857     7.5339
  259.5000   121.7143     7.4176     7.7032
  260.0000   123.5624     7.4176     7.8789
  260.5000   125.0159     7.4176     8.0167
  261.0000   123.8583     7.2744     8.0817
  261.5000   121.0318     7.0856     7.8640
  262.0000   118.2315     6.6855     7.4088
  262.5000   118.7826     6.3079     6.5064
  263.0000   122.5772     6.1343     5.6401
  263.5000   126.3283     6.1060     5.4631
  264.0000   128.7347     6.0799     5.3293
  264.5000   126.7346     6.0542     5.4875
  265.0000   124.2526     6.0257     5.7216
  265.5000   124.0878     6.0257     5.9658
  266.0000   125.2475     6.5118     6.2203
  266.5000   126.5300     7.0256     6.4857
  267.0000   124.7557     7.6069     6.9157
  267.5000   122.7894     8.0619     7.5412
  268.0000   120.8311     8.4882     8.1524
  268.5000   118.8768     8.8363     8.4014
  269.0000   116.9454     9.0951     8.6343
  269.5000   115.6489     9.3615     8.8736
  270.0000   116.4396     9.6635     9.0919
  270.5000   118.4115     9.7056     9.2494
  271.0000   117.3398     9.7664     9.3962
  271.5000   117.2686     9.8270     9.4846
  272.0000   116.9349     9.8882     9.5704
  272.5000   114.5779     9.9499     9.6635
  273.0000   112.3439    10.0119     9.6635
  273.5000   112.8787    10.0743     9.6578
  274.0000   114.5007    10.1308     9.6387
  274.5000   115.4450    10.0593     9.6199
  275.0000   114.6509     9.9947     9.6009
  275.5000   114.8013     9.9306     9.5824
  276.0000   116.0633     9.8668     9.5728
  276.5000   116.8845     9.8478     9.6010
  277.0000   116.8601     9.9211     9.6199
  277.5000   116.9384     9.9883     9.6391
  278.0000   118.5987    10.0559     9.6667
  278.5000   118.8108    10.1308     9.5985
