~VERSION INFORMATION
 VERS.                2.0:   CWLS LOG ASCII STANDARD - VERSION 2.0
 WRAP.                 NO:   ONE LINE PER DEPTH STEP
~WELL INFORMATION
#MNEM.UNIT      DATA TYPE    INFORMATION
#----------   ------------   ------------------------------
 STRT.F           44.0000:   START DEPTH
 STOP.F          485.0000:   STOP DEPTH
 STEP.F            0.5000:   STEP LENGTH
 NULL.          -999.2500:   NO VALUE
 COMP. LAWRENCE/ALLISON INC:   COMPANY
 WELL.      NPR 3 #55-51S:   WELL
 FLD .             TEAPOT:   FIELD
 LOC .       S3 T38N R78W:   LOCATION
 CNTY.            NATRONA:   COUNTY
 STAT.            WYOMING:   STATE
 CTRY. UNITED STATES OF AMERICA:   COUNTRY
 SRVC.      Dresser Atlas:   SERVICE COMPANY
 DATE.        12-DEC-1983:   LOGDATE
 API .       490251095400:   API NUMBER
~CURVE INFORMATION
#MNEM.UNIT       API CODE    CURVE DESCRIPTION
#----------   ------------   ------------------------------
 DEPT.F                  :   
 CALR.IN     10 280 01 00:   CALIPER FROM RESISTIVITY
 RATI.CMP    99 420 01 00:   RATIO
 RES .OHMM   10 220 00 00:   RESISTIVITY
 DEC .       99 000 00 00:   DEC
 P6  .G/C3   99 000 00 00:   P6
 PHAS.       99 000 00 00:   PHASE
 PORE.DEC    99 890 00 00:   PORE
~PARAMETER INFORMATION
#MNEM.UNIT          VALUE    DESCRIPTION
#----------   ------------   ------------------------------
 PD  .                 GL:   PERMANENT DATUM
 EPD .F              5161:   ELEVATION PERMANENT DATUM
 LMF .                 KB:   LOG MEASURED FROM
 DAPD.F                10:   FEET ABOVE PERMANENT DATUM
 DMF .                 KB:   DRILLING MEASURED FROM
 EKB .F              5171:   KELLING BUSHING
 EGL .F              5161:   GROUND LEVEL
 DATE.        12-DEC-1983:   RUN DATE
 RUN .                  1:   RUN NUMBER
 DD  .F               490:   DEPTH DRILLER
 DL  .F               489:   DEPTH LOGGER
 BLI .F               487:   BOTTOM LOG INTERVAL
 TLI .F                 0:   TOP LOG INTERVAL
 CS  .IN            10.75:   CASING SIZE
 CBD .F                52:   CASING BOTTOM DRILLER
 CBL .F                46:   CASING BOTTOM LOGGER
 BS  .IN             8.75:   BIT SIZE
 BSD .F               490:   BIT SIZE AT DEPTH
 DFT .           AIR FOAM:   DRILLING FLUID TYPE
 TCS .HRS               3:   TIME CURCULATED STOPPED
 MRT .F                72:   MAXIMUM RECORDED TEMPERATURE
 LUN .               6274:   LOGGING UNIT NUMBER
 LUL .               GLTE:   LOGGING UNIT LOCATION
 ENGI.             RAUTIO:   RECORDING ENGINEER
 WITN.             GROOMS:   WITNESSED BY
 CLNT.            A2DTECH:   CLIENT CODE
 ORIG.           5" PRINT:   ORIGIN OF DATA
 UWI .       490251095400:   UNIQUE WELL ID
 DICO. A2D Technologies, Inc.:   DIGITIZING COMPANY
~OTHER INFORMATION
~A   DEPT      CALR        RATI        RES       DEC          P6      PHAS        PORE 
# ...
  271.5000     9.2146     0.3052     6.3775    43.6908     2.4903    84.5815  -999.2500
  272.0000     9.1987     0.3053     6.7388    43.6913     2.4949    83.6863  -999.2500
  272.5000     9.1980     0.3068     6.8317    43.6163     2.4934    83.6934  -999.2500
  273.0000     9.1972     0.3084     6.7829    43.6167     2.4904    83.5200  -999.2500
  273.5000     9.1965     0.3099     6.9236    43.6171     2.4858    83.3465  -999.2500
  274.0000     9.1806     0.3115     6.9703    43.5422     2.4813    83.1731  -999.2500
  274.5000     9.1646     0.3130     6.8258    42.7027     2.4737    83.1820  -999.2500
  275.0000     9.1487     0.3146     6.7735    42.6393     2.4637    83.1890  -999.2500
  275.5000     9.0852     0.3146     6.7290    43.1669     2.4561    83.3765  -999.2500
  276.0000     9.0106     0.3131     6.8216    43.3931     2.4523    83.9249  -999.2500
  276.5000     8.9945     0.3117     6.9149    43.8452     2.4475    84.1124  -999.2500
  277.0000     9.0092     0.3102     6.8659    43.3185     2.4455    83.7568  -999.2500
  277.5000     9.0236     0.3103     6.9124    43.1683     2.4532    83.4045  -999.2500
  278.0000     9.0258     0.3118     7.0556    43.0933     2.4609    82.8704  -999.2500
  278.5000     9.0373     0.3149     7.1527    42.8679     2.4725    82.4978  -999.2500
  279.0000     9.0363     0.3134     7.1016    42.4917     2.4756    82.1627  -999.2500
  279.5000     9.0438     0.3120     7.0013    42.1909     2.4741    81.8088  -999.2500
  280.0000     9.0502     0.3120     6.8449    41.8148     2.4711    81.9980  -999.2500
  280.5000     9.0493     0.3121     6.7151    42.3024     2.4688    82.9073  -999.2500
  281.0000     9.0485     0.3136     6.7603    43.8487     2.4697    85.0798  -999.2500
  281.5000     9.0326     0.3152     6.9485    47.4635     2.4743    86.8914  -999.2500
  282.0000     9.0470     0.3199     7.1419    49.3464     2.4797    88.7029  -999.2500
  282.5000     9.0463     0.3258     7.7582    49.9491     2.4815    86.0032  -999.2500
  283.0000     9.0455     0.3303     8.3120    47.6905     2.4890    83.1230  -999.2500
  283.5000     9.0448     0.3349     9.0293    43.6246     2.4960    76.5065     0.5431
  284.0000     9.0289     0.3169     9.3467    32.4051     2.5006    67.9810     0.4132
  284.5000     9.0433     0.2869     8.6267    24.4989     2.4968    66.1835     0.3147
  285.0000     9.0575     0.2614     6.9383    19.9059     2.4800    66.3710     0.2407
  285.5000     9.0722     0.2209     5.4836    15.7888     2.4616    66.7390     0.1639
  286.0000     9.0864     0.2135     4.5488    11.5845     2.4318    70.5355     0.1332
  286.5000     9.1010     0.2322     4.6114    18.3257     2.3382    86.9636     0.5436
  287.0000     9.1306     0.2616     4.7724    29.6966     2.3199   105.3766  -999.2500
  287.5000     9.1752     0.2887     5.1485    49.8777     2.3245   109.3536  -999.2500
  288.0000     9.1745     0.3037     6.1613    49.9534     2.3379    91.6764  -999.2500
  288.5000     9.1891     0.3098     6.7395    49.6525     2.4675    87.3269  -999.2500
  289.0000     9.1730     0.3158     6.9763    49.2011     2.4995    86.2770  -999.2500
  289.5000     9.1722     0.3219     7.1262    48.6743     2.4996    85.7444  -999.2500
  290.0000     9.1715     0.3249     7.2673    47.8464     2.4973    85.3888  -999.2500
  290.5000     9.1707     0.3280     7.2658    47.0938     2.4905    84.8563  -999.2500
  291.0000     9.1700     0.3280     7.2644    46.9435     2.4828    84.5024  -999.2500
  291.5000     9.1690     0.3251     7.2129    47.0295     2.4791    84.3273  -999.2500
  292.0000     9.1683     0.3206     6.9183    48.0739     2.4776    89.2082  -999.2500
  292.5000     9.1676     0.3146     6.6358    49.6556     2.4822    90.6589  -999.2500
  293.0000     9.1669     0.3027     6.2775    49.8818     2.4876    91.5682  -999.2500
  293.5000     9.1661     0.2922     5.9796    49.9575     2.4907    92.4776  -999.2500
  294.0000     9.1501     0.2742     5.4133    49.9579     2.4892    91.0556  -999.2500
  294.5000     9.1342     0.2503     5.0632    45.0637     2.4651    83.4708     0.5669
  295.0000     9.1031     0.2439     5.3870    32.7899     2.4430    77.3425     0.4153
  295.5000     9.0720     0.2595     5.9745    22.0222     2.4066    71.7556     0.3421
  296.0000     9.0561     0.2811     7.1498    22.3238     2.3782    68.5145     0.3447
  296.5000     9.0705     0.2970     7.6601    24.2067     2.3660    65.8148     0.3690
  297.0000     9.0698     0.3015     7.9280    22.4274     2.3753    64.0173     0.3329
  297.5000     9.0690     0.3046     8.2621    19.1968     2.3860    62.9416     0.2967
  298.0000     9.0531     0.3061     8.5510    19.6898     2.3546    62.7681     0.2996
  298.5000     9.0524     0.3107     8.9149    20.6691     2.3094    62.9558     0.3328
  299.0000     9.0668     0.3242     9.5639    21.0460     2.2412    62.3970     0.3353
  299.5000     9.0812     0.3348    10.0880    21.2723     2.2029    61.3475     0.3398
  300.0000     9.0651     0.3423    11.1112    21.7244     2.2421    60.4523     0.3469
  300.5000     9.0340     0.3421    11.1866    22.0260     2.2621    59.3766     0.3541
  301.0000     9.0181     0.3334    11.1067    20.3697     2.2560    58.1205     0.2863
  301.5000     9.0022     0.3320    11.6551    17.0569     2.2338    53.9772     0.2258
  302.0000     9.0014     0.3365    13.0160    14.7128     2.2085    49.6534     0.1978
  302.5000     9.0007     0.3771    15.7577    13.4168     2.1948    46.7732     0.1806
  303.0000     9.0000     0.3877    17.7896    12.8412     2.1841    46.4193     0.1715
  303.5000     8.9992     0.3922    19.5991    12.9169     2.1734    46.2460     0.1732
  304.0000     8.9833     0.3906    20.7152    14.1220     2.1700    52.5183     0.1975
  304.5000     8.9825     0.3876    19.3325    17.9628     2.2057    54.3821     0.3111
  305.0000     8.9666     0.3818    15.8209    19.2433     2.2326    53.4869     0.3201
  305.5000     8.9659     0.3879    14.7647    19.7707     2.2273    50.9676     0.3025
  306.0000     8.9651     0.3924    15.7140    16.1566     2.1767    49.5311     0.2487
  306.5000     8.9642     0.3955    16.9570    14.2376     2.1706    49.3559     0.2179
  307.0000     8.9550     0.3985    17.5547    17.6634     2.1708    53.8760     0.2810
  307.5000     8.9627     0.3911    17.5459    20.9884     2.2444    59.1161     0.3639
  308.0000     8.9620     0.3656    11.5151    21.8810     2.2690    58.0405     0.3314
  308.5000     8.9766     0.3536    12.1711    17.8905     2.2691    55.8827     0.2754
  309.0000     8.9605     0.3567    13.1339    17.1378     2.2530    56.6115     0.2807
  309.5000     8.9597     0.3687    12.9544    18.9455     2.2492    58.6035     0.3330
  310.0000     8.9590     0.3703    12.5150    21.7320     2.2527    60.4151     0.3681
  310.5000     8.9583     0.3671    11.8423    23.3890     2.2839    61.9011     0.3762
  311.0000     8.9575     0.3569    11.2835    23.8411     2.3069    63.7365     0.3788
  311.5000     8.9567     0.3404    10.6034    24.7451     2.3285    65.1297     0.3860
  312.0000     8.9560     0.3329    10.1732    25.7997     2.3868    65.6781     0.4013
  312.5000     8.9552     0.3284    10.2445    23.8422     2.3761    63.6777     0.3851
  313.0000     8.9545     0.3360    10.3172    21.5831     2.3570    61.5185     0.3552
  313.5000     8.9537     0.3541    10.9333    21.4406     2.3371    59.7201     0.3379
  314.0000     8.9682     0.3496    11.6852    23.7681     2.3295    62.0722     0.3441
  314.5000     8.9521     0.3421    11.0573    24.4461     2.3418    60.8152     0.3792
  315.0000     8.9513     0.3392    10.9816    22.8653     2.3396    58.8364     0.3620
  315.5000     8.9659     0.3408    11.5272    18.8747     2.3296    57.2183     0.2997
  316.0000     8.9941     0.3566    13.2377    18.1219     2.3020    57.0442     0.2843
  316.5000     9.0198     0.3829    13.9916    20.0802     2.2715    58.1477     0.3185
