~VERSION INFORMATION
 VERS.                2.0:   CWLS LOG ASCII STANDARD - VERSION 2.0
 WRAP.                 NO:   ONE LINE PER DEPTH STEP
~WELL INFORMATION
#MNEM.UNIT      DATA TYPE    INFORMATION
#----------   ------------   ------------------------------
 STRT.F           36.0000:   START DEPTH
 STOP.F          442.0000:   STOP DEPTH
 STEP.F            0.5000:   STEP LENGTH
 NULL.          -999.2500:   NO VALUE
 COMP.    FENIX & SCISSON:   COMPANY
 WELL.      NPR #66-SX-10:   WELL
 FLD .             TEAPOT:   FIELD
 LOC .      S10 T38N R78W:   LOCATION
 CNTY.            NATRONA:   COUNTY
 STAT.            WYOMING:   STATE
 CTRY. UNITED STATES OF AMERICA:   COUNTRY
 SRVC.              Welex:   SERVICE COMPANY
 DATE.        19-APR-1977:   LOGDATE
 API .       490251036100:   API NUMBER
~CURVE INFORMATION
#MNEM.UNIT       API CODE    CURVE DESCRIPTION
#----------   ------------   ------------------------------
 DEPT.F                  :   
 CALD.IN     45 280 60 00:   CALIPER FROM DENSITY LOG
 DPHI.DEC    45 890 12 00:   DENSITY POROSITY SANDSTONE
 DRHO.G/C3   45 356 01 00:   DENSITY CORRECTION
 GRD .GAPI   45 310 01 00:   GAMMA RAY FROM DENSITY LOG
 RHOB.G/C3   45 350 01 00:   BULK DENSITY
 ILD .OHMM   07 120 46 00:   INDUCTION LOG DEEP
 ILM .OHMM   07 120 44 00:   INDUCTION LOG MEDIUM
 SGRD.OHMM   07 221 05 00:   SHALLOW SHORT GUARD RESISTIVITY
 SPR .MV     07 010 01 00:   SPONTANEOUS POTENTIAL
~PARAMETER INFORMATION
#MNEM.UNIT          VALUE    DESCRIPTION
#----------   ------------   ------------------------------
 PD  .                 GL:   PERMANENT DATUM
 EPD .F              5200:   ELEVATION PERMANENT DATUM
 LMF .                 GL:   LOG MEASURED FROM
 DMF .                 GL:   DRILLING MEASURED FROM
 EGL .F              5200:   GROUND LEVEL
 DATE.        19-APR-1977:   RUN DATE
 RUN .                  1:   RUN NUMBER
 DD  .F               476:   DEPTH DRILLER
 DL  .F               447:   DEPTH LOGGER
 BLI .F               445:   BOTTOM LOG INTERVAL
 TLI .F                35:   TOP LOG INTERVAL
 CS  .IN            8.625:   CASING SIZE
 CBD .F                42:   CASING BOTTOM DRILLER
 CBL .F                42:   CASING BOTTOM LOGGER
 BS  .IN            7.875:   BIT SIZE
 BSD .F               476:   BIT SIZE AT DEPTH
 DFT .            KCL MUD:   DRILLING FLUID TYPE
 DFD .                8.8:   DRILLING FLUID DENSITY
 DFV .                 37:   DRILLING FLUID VISCOSITY
 MSS .           FLOWLINE:   MUD SAMPLE SOURCE
 RMS .OHMM           1.06:   RESISTIVITY MUD SAMPLE
 MST .F                48:   MUD SAMPLE TEMPERATURE
 RMF .OHMM           1.03:   RESISTIVITY MUD FILTRATE SAMPLE
 MFST.F                48:   MUD FILTRATE SAMPLE TEMPERATURE
 RMC .OHMM           1.18:   RESISTIVITY MUD CAKE
 MCST.F                48:   MUD CAKE SAMPLE TEMPERATURE
 MFSS.               MEAS:   MUD FILTRATE SAMPLE SOURCE
 MCSS.               MEAS:   MUD CAKE SAMPLE SOURCE
 RMB .OHMM           0.86:   RESISTIVITY MUD AT BHT
 BHT .F                59:   BOTTOM HOLE TEMPERATURE
 TCS .HRS               5:   TIME CURCULATED STOPPED
 MRT .F                59:   MAXIMUM RECORDED TEMPERATURE
 LUN .               8611:   LOGGING UNIT NUMBER
 LUL .             CASPER:   LOGGING UNIT LOCATION
 ENGI.               DOAK:   RECORDING ENGINEER
 WITN.        MR. R. LYON:   WITNESSED BY
 CLNT.            A2DTECH:   CLIENT CODE
 ORIG.      2.5" 5" PRINT:   ORIGIN OF DATA
 UWI .       490251036100:   UNIQUE WELL ID
 DICO. A2D Technologies, Inc.:   DIGITIZING COMPANY
~OTHER INFORMATION
~A   DEPT     CALD       DPHI       DRHO         GRD      RHOB        ILD        ILM       SGRD        SPR   
# ...
  182.0000     7.9002     0.1023     0.0046   111.9656     2.4759     8.3807     9.9248    12.7211   -43.9587
  182.5000     7.9001     0.0998     0.0047   106.3566     2.4776     8.3738    10.0546    12.5360   -44.2699
  183.0000     7.8999     0.0978     0.0047   105.4845     2.4800     8.3670    10.0451    12.3554   -44.5811
  183.5000     7.8997     0.1002     0.0018   105.0525     2.4791     8.3601    10.0371    12.1774   -44.5973
  184.0000     7.8996     0.1017    -0.0012   105.9606     2.4754     8.3533     9.8931    12.1668   -44.9086
  184.5000     7.8994     0.1026    -0.0041   108.3451     2.4718     8.3465     9.8852    11.9916   -44.7768
  185.0000     7.8993     0.1022    -0.0041   108.6532     2.4703     8.2832     9.8773    11.9812   -44.6460
  185.5000     7.8991     0.1007    -0.0010   108.0804     2.4808     8.2821     9.8694    11.9708   -44.6654
  186.0000     7.8989     0.0941    -0.0009   110.6136     2.4853     8.3260     9.7279    11.9603   -44.6813
  186.5000     7.8988     0.0879     0.0006   112.2579     2.4951     8.3181     9.7200    11.9497   -44.4021
  187.0000     7.8986     0.0890    -0.0008   111.3770     2.4929     8.3114     9.5804    11.9397   -44.1230
  187.5000     7.8984     0.0944    -0.0053   109.3421     2.4847     8.3048     9.5564    12.0932   -43.8438
  188.0000     7.8983     0.1013    -0.0067   107.5691     2.4773     8.2982     9.4351    11.5910   -43.8597
  188.5000     7.8981     0.1078    -0.0067   109.0694     2.4706     8.1794     9.2717    10.9726   -43.5796
  189.0000     7.8980     0.1093    -0.0036   109.9736     2.4632     8.0623     9.0088    11.6747   -43.5964
  189.5000     7.8978     0.1096     0.0010   110.7298     2.4707     7.9468     8.7534    11.8881   -43.9072
  190.0000     7.8976     0.1009    -0.0005   108.3774     2.4775     7.7270     8.5051    11.1573   -44.2183
  190.5000     7.8975     0.1030    -0.0035   103.0645     2.4727     7.3014     8.1520     9.9693   -44.5295
  191.0000     7.9124     0.1156    -0.0064    99.8239     2.4567     6.8992     7.8714     9.0259   -44.8407
  191.5000     7.9137     0.1264    -0.0063    97.1035     2.4381     6.5191     7.5413     8.5280   -45.1519
  192.0000     7.9145     0.1349    -0.0062   103.8527     2.4209     6.1599     7.3766     8.2334   -45.2350
  192.5000     7.9305     0.1444    -0.0047   106.5332     2.4068     5.8013     7.2258     7.8503   -45.4794
  193.0000     7.9132     0.1548    -0.0001   107.8815     2.3927     5.2379     7.0257     7.6324   -45.8859
  193.5000     7.9028     0.1697    -0.0061   109.8676     2.3584     4.7016     6.7385     7.3199   -46.2114
  194.0000     7.9040     0.1933    -0.0075   105.1010     2.3248     3.8663     6.4631     6.8312   -46.7080
  194.5000     7.9049     0.1996    -0.0044   102.7486     2.3129     3.3772     5.9503     6.1195   -47.1573
  195.0000     7.9126     0.2028     0.0002   100.6776     2.3070     2.9946     4.9116     5.4076   -47.7778
  195.5000     7.9218     0.2064     0.0032    98.9181     2.3026     2.7905     4.0543     4.6499   -48.1032
  196.0000     7.9228     0.2046    -0.0058    98.4809     2.3041     2.7536     3.5344     4.2227   -48.2509
  196.5000     7.9238     0.2013    -0.0102    97.6358     2.3131     2.7514     3.4837     4.1618   -48.2667
  197.0000     7.9248     0.1968    -0.0056    97.2038     2.3273     2.7872     3.4808     4.2153   -47.9875
  197.5000     7.9259     0.1813    -0.0011   100.3324     2.3567     2.8616     3.4780     4.2812   -48.0034
  198.0000     7.9271     0.1320    -0.0026   104.7892     2.4144     2.9383     3.6289     4.4618   -47.7242
  198.5000     7.9281     0.1239    -0.0070   106.1375     2.4413     3.1004     4.5849     4.7917   -47.4440
  199.0000     7.9141     0.1215    -0.0084   108.9660     2.4507     3.4079     5.3847     5.2237   -46.8710
  199.5000     7.9152     0.1179    -0.0038   112.3866     2.4559     4.0101     6.2471     6.2868   -46.5918
  200.0000     7.9163     0.1087     0.0023   113.1428     2.4642     4.5917     6.9478     9.5092   -45.7227
  200.5000     7.9321     0.1024    -0.0022   114.4911     2.4762     5.1307     7.4076     9.8976   -45.4297
  201.0000     7.9240     0.1047    -0.0052   119.5400     2.4725     5.7246     7.6754     9.6969   -45.1367
  201.5000     7.9194     0.1115    -0.0066   122.3685     2.4598     6.2070     7.8350     9.4214   -44.8853
  202.0000     7.9352     0.1155    -0.0065   121.0523     2.4502     6.5229     7.9361     9.0898   -45.1976
  202.5000     7.9214     0.1151    -0.0050   120.1776     2.4547     6.5170     7.8678     8.9627   -45.2139
  203.0000     7.9225     0.1151    -0.0034   124.3249     2.4577     6.3975     7.8146     9.2009   -45.3156
  203.5000     7.9237     0.1169    -0.0030   127.2985     2.4563     6.0864     7.5981     9.5771   -45.6411
  204.0000     7.9247     0.1187    -0.0018   129.6799     2.4504     5.7601     7.3877     9.8723   -45.8525
  204.5000     7.9256     0.1208     0.0003   127.6206     2.4444     5.5261     7.1830    10.1413   -46.2920
  205.0000     7.9266     0.1219     0.0035   125.6891     2.4407     5.3004     6.9841    10.2765   -46.6175
  205.5000     7.9277     0.1213     0.0037   129.2750     2.4408     5.1559     6.7906     9.7818   -46.9430
  206.0000     7.9287     0.1162    -0.0009   128.4947     2.4476     5.1527     6.6933     6.7204   -47.0973
  206.5000     7.9147     0.1126    -0.0067   125.5259     2.4574     5.1581     6.6879     6.6326   -47.1165
  207.0000     7.9308     0.1090    -0.0051   122.2121     2.4634     5.2172     6.6825     6.7974   -46.8348
  207.5000     7.9318     0.1066     0.0011   117.9324     2.4687     5.2992     6.6772     8.0065   -46.8532
  208.0000     7.9328     0.1041     0.0042   115.7218     2.4732     5.3712     6.7732     8.8468   -46.5741
  208.5000     7.9338     0.1014     0.0058   117.5144     2.4755     5.5188     6.9451     8.9405   -46.2949
  209.0000     7.9349     0.0986     0.0090   119.7478     2.4808     5.5938     7.1711     8.9364   -46.0147
  209.5000     7.9361     0.0930    -0.0030   124.6457     2.4901     5.8006     7.3507     8.9328   -45.7366
  210.0000     7.9222     0.0981    -0.0089   123.1785     2.4802     5.9354     7.6710     9.1352   -45.8014
  210.5000     7.9232     0.0999    -0.0042   120.0830     2.4817     6.2354     7.9949     9.5217   -45.2104
  211.0000     7.9243     0.0963     0.0049   116.9875     2.4877     6.5339     8.4469    10.2561   -44.6195
  211.5000     7.9254     0.0924     0.0141   113.1518     2.4945     6.9934     8.7727    10.9248   -44.3235
  212.0000     7.9263     0.0893     0.0217   110.5004     2.4998     7.5955     9.1380    11.1606   -44.0275
  212.5000     7.9274     0.0869     0.0249   112.3890     2.5028     8.0237     9.3895    11.2372   -43.6228
  213.0000     7.9136     0.0860     0.0296   114.8225     2.5036     8.2953     9.6480    11.2326   -43.3363
  213.5000     7.8998     0.0881     0.0297   113.6513     2.4984     8.4523     9.7792    11.2280   -43.3481
  214.0000     7.8699     0.1018     0.0313   112.4769     2.4821     8.2192     9.9122    11.3767   -43.3582
  214.5000     7.8401     0.1036     0.0329   113.2333     2.4754     7.7786     9.9794    11.3721   -43.3684
  215.0000     7.7997     0.1042     0.0346   114.8747     2.4740     7.2619     9.9726    11.2135   -43.3785
  215.5000     7.7711     0.1060     0.0317   116.2199     2.4695     6.9669     9.9658    10.9072   -43.9786
  216.0000     7.7278     0.1062     0.0242   115.7889     2.4696     6.7755     9.8228    10.4656   -44.5787
  216.5000     7.6845     0.1032     0.0198   114.7657     2.4749     6.4123     9.5519    10.0418   -45.1788
  217.0000     7.7003     0.1020     0.0169   113.4465     2.4772     6.3217     8.6760     9.5045   -45.4839
  217.5000     7.7456     0.1034     0.0125   113.0155     2.4697     6.1481     7.3607     8.7539   -45.4941
  218.0000     7.8058     0.1163     0.0064   114.6750     2.4534     6.1444     7.2561     7.8455   -45.2092
