~VERSION INFORMATION
 VERS.                2.0:   CWLS LOG ASCII STANDARD - VERSION 2.0
 WRAP.                 NO:   ONE LINE PER DEPTH STEP
~WELL INFORMATION
#MNEM.UNIT      DATA TYPE    INFORMATION
#----------   ------------   ------------------------------
 STRT.F           16.0000:   START DEPTH
 STOP.F          430.0000:   STOP DEPTH
 STEP.F            0.5000:   STEP LENGTH
 NULL.          -999.2500:   NO VALUE
 COMP. LAWRENCE/ALLISON INC:   COMPANY
 WELL.  NPR 3 #52-66-1-10:   WELL
 FLD .             TEAPOT:   FIELD
 LOC .      S10 T38N R78W:   LOCATION
 CNTY.            NATRONA:   COUNTY
 STAT.            WYOMING:   STATE
 CTRY. UNITED STATES OF AMERICA:   COUNTRY
 SRVC.           Gearhart:   SERVICE COMPANY
 DATE.        25-MAY-1988:   LOGDATE
 API .       490251121100:   API NUMBER
~CURVE INFORMATION
#MNEM.UNIT       API CODE    CURVE DESCRIPTION
#----------   ------------   ------------------------------
 DEPT.F                  :   
 RILD.OHMM   07 120 46 00:   INDUCTION LOG DEEP RESISTIVITY
 GRR .GAPI   07 310 01 00:   GAMMA RAY FROM RES. LOG.
 RILM.OHMM   07 120 44 00:   INDUCTION LOG MEDIUM RESISTIVITY
~PARAMETER INFORMATION
#MNEM.UNIT          VALUE    DESCRIPTION
#----------   ------------   ------------------------------
 PD  .                 GL:   PERMANENT DATUM
 EPD .F              5169:   ELEVATION PERMANENT DATUM
 LMF .                 KB:   LOG MEASURED FROM
 DAPD.F                 5:   FEET ABOVE PERMANENT DATUM
 DMF .                 KB:   DRILLING MEASURED FROM
 EKB .F              5174:   KELLING BUSHING
 EGL .F              5169:   GROUND LEVEL
 DATE.            5-25-88:   RUN DATE
 RUN .                  1:   RUN NUMBER
 DD  .F               440:   DEPTH DRILLER
 DL  .F               437:   DEPTH LOGGER
 BLI .F               429:   BOTTOM LOG INTERVAL
 TLI .F                44:   TOP LOG INTERVAL
 CS  .IN            8.625:   CASING SIZE
 CBD .F                45:   CASING BOTTOM DRILLER
 CBL .F                44:   CASING BOTTOM LOGGER
 BS  .IN            7.875:   BIT SIZE
 BSD .F               440:   BIT SIZE AT DEPTH
 DFT .                AIR:   DRILLING FLUID TYPE
 TCS .HRS            0900:   TIME CURCULATED STOPPED
 TLAB.HRS            1048:   TIME LOGGER AT BOTTOM
 LUN .               7597:   LOGGING UNIT NUMBER
 LUL .           GILLETTE:   LOGGING UNIT LOCATION
 ENGI.             SLATKY:   RECORDING ENGINEER
 WITN.             STRONG:   WITNESSED BY
 CLNT.            A2DTECH:   CLIENT CODE
 ORIG.       2", 5" PRINT:   ORIGIN OF DATA
 UWI .       490251121100:   UNIQUE WELL ID
 DICO. A2D Technologies, Inc.:   DIGITIZING COMPANY
~OTHER INFORMATION
~A   DEPT     RILD         GRR      RILM   
# ...
  289.0000    20.1178    87.6885    19.0331
  289.5000    19.8611    86.8378    18.8066
  290.0000    19.6077    87.7158    18.5840
  290.5000    19.3574    89.1939    18.3640
  291.0000    19.1104    89.8353    18.1467
  291.5000    18.8665    89.5462    17.8126
  292.0000    18.6258    89.0958    17.4856
  292.5000    18.3881    88.7003    17.2879
  293.0000    18.3071    88.9071    17.1017
  293.5000    18.2814    89.1209    16.9176
  294.0000    18.2558    89.3313    16.6922
  294.5000    18.2303    89.3601    16.7052
  295.0000    18.2047    88.3296    16.7329
  295.5000    18.1787    86.5217    16.7616
  296.0000    18.1538    85.9547    16.7900
  296.5000    17.9902    86.1446    16.8185
  297.0000    17.7653    86.5543    16.8498
  297.5000    17.5433    86.9552    16.6388
  298.0000    17.3240    88.3462    16.3582
  298.5000    17.1075    89.9843    16.0823
  299.0000    16.8936    91.7007    15.8110
  299.5000    16.6825    92.3019    15.5444
  300.0000    16.4739    91.9588    15.2996
  300.5000    16.2679    91.6126    15.0998
  301.0000    16.0643    90.5865    14.9148
  301.5000    15.8645    89.3523    14.7925
  302.0000    15.7653    88.1232    14.6700
  302.5000    15.7070    87.7700    14.5486
  303.0000    15.6489    88.3872    14.4283
  303.5000    15.5907    89.0038    14.3090
  304.0000    15.5334    89.8365    14.2606
  304.5000    15.4999    91.6300    14.2598
  305.0000    15.6759    93.4470    14.4218
  305.5000    15.8170    93.5513    14.5514
  306.0000    15.9595    93.5379    14.6826
  306.5000    16.1032    93.5337    14.8148
  307.0000    16.2482    93.4328    14.9482
  307.5000    16.3947    93.1988    15.0828
  308.0000    16.5431    92.9682    15.2186
  308.5000    16.6966    92.7203    15.3582
  309.0000    16.6929    92.0653    15.3582
  309.5000    16.4205    90.7146    15.2158
  310.0000    16.1982    89.2722    15.2189
  310.5000    15.9786    88.2838    14.8733
  311.0000    15.7622    89.3875    14.5989
  311.5000    15.5487    90.5651    14.3269
  312.0000    15.3381    91.7478    14.0600
  312.5000    15.1304    92.9277    13.7981
  313.0000    14.9255    94.0300    13.5411
  313.5000    14.7233    94.0264    13.2888
  314.0000    14.5277    93.1140    13.0413
  314.5000    14.5277    92.1977    12.8723
  315.0000    14.6969    92.3710    12.8820
  315.5000    14.9372    93.0182    12.8749
  316.0000    15.2166    93.6801    12.8646
  316.5000    15.6455    93.6128    13.1374
  317.0000    16.6182    91.8606    13.6068
  317.5000    17.5174    90.1403    14.3034
  318.0000    18.6242    88.4266    15.5761
  318.5000    20.1978    86.6394    17.1600
  319.0000    21.8943    83.5002    18.9307
  319.5000    23.7348    81.3982    20.8793
  320.0000    25.7298    80.6356    23.0284
  320.5000    27.8938    80.7551    25.4105
  321.0000    30.2415    80.9450    27.5517
  321.5000    32.7702    80.3781    29.0885
  322.0000    34.1730    79.3370    30.7433
  322.5000    35.1270    78.3366    32.5447
  323.0000    36.1076    77.3542    33.9220
  323.5000    37.1155    76.3990    34.8540
  324.0000    38.1516    75.4424    35.8134
  324.5000    39.1544    74.4609    36.5035
  325.0000    39.3031    74.7092    36.8359
  325.5000    39.5189    77.0952    37.1749
  326.0000    38.9063    79.2898    37.3914
  326.5000    38.2352    78.0994    36.3651
  327.0000    37.5757    76.7428    35.3478
  327.5000    36.9275    76.8012    34.3634
  328.0000    36.2906    77.7984    33.4063
  328.5000    35.6651    78.4406    32.4760
  329.0000    35.0448    77.3511    31.9337
  329.5000    34.5289    77.0993    31.9337
  330.0000    33.7736    77.3715    31.9337
  330.5000    33.0419    77.6569    31.3910
  331.0000    32.3261    77.0688    30.6437
  331.5000    31.6259    75.7997    29.9149
  332.0000    30.9407    75.6226    29.2022
  332.5000    30.2702    76.6664    28.5071
  333.0000    29.6147    78.6896    27.8286
  333.5000    28.9732    80.6426    27.1661
  334.0000    28.7290    81.9693    26.5195
  334.5000    28.5443    82.1513    25.8866
  335.0000    28.3621    81.7864    25.5656
  335.5000    28.1803    81.4346    25.5647
  336.0000    27.9993    81.0842    25.5664
  336.5000    27.7877    80.7338    25.7137
  337.0000    27.9585    80.3812    25.9627
  337.5000    28.2311    80.0374    26.2141
  338.0000    28.5045    79.7871    26.4679
  338.5000    28.7805    80.9805    26.7242
  339.0000    29.1162    83.0861    26.9830
  339.5000    29.1021    85.0204    27.2471
  340.0000    28.8948    84.5284    27.5387
  340.5000    28.4410    82.3013    27.2389
  341.0000    28.0009    81.8115    26.6711
  341.5000    27.5667    82.4242    26.1182
  342.0000    27.1393    84.1088    25.5767
  342.5000    26.7185    84.7899    25.0979
  343.0000    26.3042    83.6887    24.5665
  343.5000    25.8407    82.6477    24.3533
  344.0000    25.2908    83.2408    24.2010
  344.5000    24.7526    83.8290    23.7566
  345.0000    24.2259    83.4343    23.2080
  345.5000    23.7103    83.8962    22.7238
  346.0000    23.2058    85.1368    22.2458
  346.5000    22.7119    88.1323    21.7779
  347.0000    22.2286    89.9905    21.3195
  347.5000    21.7556    91.1726    20.8749
  348.0000    21.2926    91.2965    20.2873
  348.5000    20.8395    91.4265    19.5954
  349.0000    20.5219    91.0030    18.9233
  349.5000    20.2937    89.3762    18.3100
  350.0000    20.0680    87.2787    18.3166
  350.5000    19.8448    85.1115    18.6259
  351.0000    19.6240    84.7877    18.8310
  351.5000    19.4058    84.9651    18.0105
  352.0000    19.1899    84.6131    17.4856
  352.5000    18.9765    83.5642    17.4104
  353.0000    18.7654    82.5139    17.3380
  353.5000    18.5567    81.4559    17.2659
  354.0000    18.3503    81.6961    17.1941
  354.5000    18.1462    82.2245    16.9762
  355.0000    17.9443    82.7457    16.6597
  355.5000    17.7447    83.2852    16.3491
  356.0000    17.5474    82.7700    16.0443
  356.5000    17.3522    81.8311    15.7452
  357.0000    17.1592    81.7044    15.5012
  357.5000    16.9683    83.5071    15.5012
  358.0000    16.7796    85.2856    15.4356
  358.5000    16.5930    85.7319    15.1608
  359.0000    16.4083    84.5629    14.8909
  359.5000    16.2259    83.3979    14.6629
  360.0000    16.0454    82.2395    14.8140
  360.5000    15.9382    82.9866    14.9477
  361.0000    15.9029    83.9758    15.0826
  361.5000    15.8611    84.9652    15.2186
  362.0000    15.8190    85.7575    15.3559
  362.5000    15.7769    86.1720    15.5025
  363.0000    15.7350    85.4044    15.4473
  363.5000    15.6932    84.5498    15.3750
  364.0000    15.6521    85.6763    15.3034
  364.5000    15.5729    87.8996    15.2323
  365.0000    15.4893    90.2168    15.1615
  365.5000    15.4057    89.3982    15.0910
  366.0000    15.3225    87.9040    15.0209
  366.5000    15.2399    86.3888    14.9511
  367.0000    15.1577    85.8307    14.8816
  367.5000    15.0759    87.0070    14.8125
  368.0000    14.9946    88.3549    14.7437
  368.5000    14.9137    89.6825    14.6752
  369.0000    14.8332    90.7020    14.6067
  369.5000    14.7530    91.3615    14.5398
  370.0000    14.6629    90.4281    14.3942
  370.5000    14.6987    89.5293    14.4198
  371.0000    14.7534    89.0813    14.4496
  371.5000    14.8080    89.8666    14.4799
  372.0000    14.8629    90.9521    14.5105
  372.5000    14.9181    90.8154    14.5267
  373.0000    14.9383    90.9472    14.4383
  373.5000    14.8237    91.1040    14.3757
  374.0000    14.7175    92.1590    14.3132
  374.5000    14.6122    93.0398    14.2435
  375.0000    14.5075    92.2229    14.1355
  375.5000    14.4037    91.5981    14.0281
  376.0000    14.3005    91.6890    13.9216
  376.5000    14.1981    92.0637    13.8159
  377.0000    14.0928    91.9471    13.7110
  377.5000    13.9808    89.6111    13.6069
  378.0000    13.8696    87.4613    13.5036
  378.5000    13.7593    86.6729    13.4010
  379.0000    13.6498    88.2963    13.2993
  379.5000    13.5413    90.9182    13.1983
