~VERSION INFORMATION
 VERS.                2.0:   CWLS LOG ASCII STANDARD - VERSION 2.0
 WRAP.                 NO:   ONE LINE PER DEPTH STEP
~WELL INFORMATION
#MNEM.UNIT      DATA TYPE    INFORMATION
#----------   ------------   ------------------------------
 STRT.F           37.5000:   START DEPTH
 STOP.F          525.5000:   STOP DEPTH
 STEP.F            0.5000:   STEP LENGTH
 NULL.          -999.2500:   NO VALUE
 COMP. LAWRENCE/ALLISON INC:   COMPANY
 WELL.    74-11 SX #10-10:   WELL
 FLD .             TEAPOT:   FIELD
 LOC .      S10 T38N R78W:   LOCATION
 CNTY.            NATRONA:   COUNTY
 STAT.            WYOMING:   STATE
 CTRY. UNITED STATES OF AMERICA:   COUNTRY
 SRVC.            Unknown:   SERVICE COMPANY
 DATE.        08-AUG-1984:   LOGDATE
 API .       490251097800:   API NUMBER
~CURVE INFORMATION
#MNEM.UNIT       API CODE    CURVE DESCRIPTION
#----------   ------------   ------------------------------
 DEPT.F                  :   
 CNC .DEC    42 890 03 00:   NEUTRON POROSITY SANDSTONE
 AC  .US/F   60 520 00 00:   ACCOUSTIC
 GRD .GAPI   45 310 01 00:   GAMMA RAY FROM DENSITY LOG
 CALD.IN     45 280 60 00:   CALIPER FROM DENSITY LOG
 CORR.G/C3   45 356 01 00:   DENSITY CORRECTION
 DPHI.DEC    45 890 12 00:   DENSITY POROSITY SANDSTONE
 DEN .G/C3   45 350 01 00:   COMPENSATED BULK DENSTIY
 RILD.OHMM   07 120 46 00:   RESISTIVITY INDUCTION LOG DEEP
 RILM.OHMM   07 120 44 00:   RESISTIVITY INDUCTION LOG MEDIUM
 RFOC.OHMM   07 220 04 00:   RESISTIVITY FOCUSED LOG
 SPR .MV     07 010 01 00:   SPONTANEOUS POTENTIAL FROM RES.
~PARAMETER INFORMATION
#MNEM.UNIT          VALUE    DESCRIPTION
#----------   ------------   ------------------------------
 PD  .                 GL:   PERMANENT DATUM
 EPD .F              5180:   ELEVATION PERMANENT DATUM
 LMF .                 GL:   LOG MEASURED FROM
 DMF .                 GL:   DRILLING MEASURED FROM
 EGL .F              5180:   GROUND LEVEL
 DATE.             8-8-84:   RUN DATE
 RUN .                  1:   RUN NUMBER
 DD  .F               525:   DEPTH DRILLER
 DL  .F               526:   DEPTH LOGGER
 BLI .F               525:   BOTTOM LOG INTERVAL
 TLI .F                42:   TOP LOG INTERVAL
 CS  .IN            9.625:   CASING SIZE
 CBD .F                42:   CASING BOTTOM DRILLER
 CBL .F                42:   CASING BOTTOM LOGGER
 BS  .IN            7.875:   BIT SIZE
 BSD .F               525:   BIT SIZE AT DEPTH
 DFT .          KCL WATER:   DRILLING FLUID TYPE
 MSS .           FLOWLINE:   MUD SAMPLE SOURCE
 RMS .OHMM           .141:   RESISTIVITY MUD SAMPLE
 MST .F                78:   MUD SAMPLE TEMPERATURE
 RMF .OHMM            .12:   RESISTIVITY MUD FILTRATE SAMPLE
 MFST.F                78:   MUD FILTRATE SAMPLE TEMPERATURE
 RMC .OHMM             .2:   RESISTIVITY MUD CAKE
 MCST.F                78:   MUD CAKE SAMPLE TEMPERATURE
 MFSS.               MEAS:   MUD FILTRATE SAMPLE SOURCE
 MCSS.               MEAS:   MUD CAKE SAMPLE SOURCE
 RMB .OHMM            .13:   RESISTIVITY MUD AT BHT
 BHT .F                89:   BOTTOM HOLE TEMPERATURE
 MRT .F                89:   MAXIMUM RECORDED TEMPERATURE
 LUN .               6307:   LOGGING UNIT NUMBER
 LUL .               GLTE:   LOGGING UNIT LOCATION
 ENGI.            JOHNSON:   RECORDING ENGINEER
 WITN.              FIVAS:   WITNESSED BY
 CLNT.            A2DTECH:   CLIENT CODE
 ORIG.           5" PRINT:   ORIGIN OF DATA
 UWI .       490251097800:   UNIQUE WELL ID
 DICO. A2D Technologies, Inc.:   DIGITIZING COMPANY
~OTHER INFORMATION
~A   DEPT      CNC         AC        GRD       CALD       CORR       DPHI        DEN       RILD       RILM       RFOC        SPR   
# ...
  312.0000     0.2819    93.1350    73.2560     7.8780     0.0800     0.1660     2.3990    21.0970    11.7110    19.7470   -54.1810
  312.5000     0.2800    93.4410    71.1290     7.8760     0.0810     0.1650     2.4010    21.4910    11.5760    19.8710   -54.2140
  313.0000     0.2753    93.7450    73.2600     7.8740     0.0830     0.1630     2.4040    21.8860    11.4560    19.9080   -54.2470
  313.5000     0.2716    93.6420    75.5650     7.8720     0.0740     0.1640     2.4060    22.1810    11.4340    19.9080   -54.3330
  314.0000     0.2839    93.5430    77.3670     7.8700     0.0600     0.1670     2.4050    21.4280    11.4150    19.4680   -54.5230
  314.5000     0.2913    93.2230    78.9900     7.8680     0.0450     0.1680     2.4000    20.6550    11.3950    18.8550   -54.7110
  315.0000     0.2826    92.7130    83.1730     7.8650     0.0310     0.1680     2.3980    20.4290    11.3750    18.2410   -54.8980
  315.5000     0.2711    92.2970    86.4250     7.8630     0.0170     0.1690     2.3960    20.3210    11.3510    17.6280   -55.0880
  316.0000     0.2652    92.1690    82.5960     7.8610     0.0070     0.1720     2.3940    20.2130    11.4310    16.8670   -55.2840
  316.5000     0.2636    92.2380    78.7470     7.8590     0.0200     0.1720     2.3920    20.1050    11.5620    17.0090   -55.4860
  317.0000     0.2664    92.4080    76.3750     7.8570     0.0360     0.1690     2.3910    19.9970    11.4340    17.2630   -55.0470
  317.5000     0.2775    92.5780    75.9930     7.8550     0.0450     0.1660     2.4000    19.8460    11.3060    17.5170   -55.0620
  318.0000     0.2846    92.7330    76.0920     7.8530     0.0430     0.1590     2.4090    19.4980    11.1780    17.8250   -55.0610
  318.5000     0.2796    92.3630    76.8610     7.8500     0.0490     0.1530     2.4190    19.1500    11.0500    17.4230   -54.9730
  319.0000     0.2761    92.0230    77.6230     7.8480     0.0590     0.1480     2.4280    18.8020    10.9210    16.9140   -54.7860
  319.5000     0.2783    91.6830    77.7420     7.8460     0.0650     0.1440     2.4360    18.6650    10.7930    16.4050   -54.6000
  320.0000     0.2711    91.5180    77.9850     7.8440     0.0720     0.1410     2.4420    18.7840    10.6420    16.1080   -54.4130
  320.5000     0.2692    91.5180    79.0690     7.8410     0.0790     0.1420     2.4430    18.8820    10.7820    16.3380   -54.2270
  321.0000     0.2744    91.7890    80.1320     7.8380     0.0860     0.1440     2.4400    18.9800    10.9520    16.6190   -54.0410
  321.5000     0.2787    92.3280    80.9890     7.8590     0.0940     0.1450     2.4370    19.0780    11.1220    16.8990   -53.8540
  322.0000     0.2709    92.6890    81.1960     7.8590     0.1000     0.1460     2.4340    19.1760    11.2920    17.1800   -53.6670
  322.5000     0.2619    92.9350    81.6350     7.8590     0.0810     0.1510     2.4270    19.2740    11.3750    17.5000   -53.4750
  323.0000     0.2644    93.0010    82.3560     7.8590     0.0620     0.1560     2.4210    19.3660    11.4560    17.4230   -53.6940
  323.5000     0.2640    93.0690    81.2090     7.8590     0.0430     0.1580     2.4150    19.2980    11.3730    17.3330   -53.9830
  324.0000     0.2788    93.1370    78.9960     7.8590     0.0320     0.1590     2.4150    19.2210    11.1990    17.2440   -54.2730
  324.5000     0.2878    93.2050    76.8540     7.8590     0.0290     0.1610     2.4140    19.1430    11.1440    17.1800   -54.5640
  325.0000     0.2918    93.2730    76.8570     7.8590     0.0340     0.1630     2.4090    19.0660    11.2760    17.2530   -54.8550
  325.5000     0.2945    93.3400    79.4150     7.8590     0.0500     0.1620     2.4080    18.8970    11.3970    17.3390   -55.1440
  326.0000     0.2787    93.1690    82.3910     7.8590     0.0760     0.1540     2.4190    18.5220    11.4560    17.2680   -55.5220
  326.5000     0.2765    92.9990    85.2520     7.8590     0.0940     0.1470     2.4310    18.1470    11.1380    17.1380   -55.9510
  327.0000     0.2761    92.8290    84.2580     7.8590     0.0960     0.1400     2.4420    17.7710    10.8970    16.7970   -56.3790
  327.5000     0.2746    92.6590    82.2420     7.8590     0.1010     0.1330     2.4540    17.3960    10.6550    16.4550   -56.3510
  328.0000     0.2609    92.4890    80.1870     7.8590     0.1130     0.1270     2.4650    17.0210    10.4750    16.1130   -56.1360
  328.5000     0.2633    92.3180    81.1430     7.8590     0.0990     0.1250     2.4700    16.6450    10.2740    15.8460   -55.9130
  329.0000     0.2636    92.1260    81.9120     7.8590     0.0860     0.1240     2.4710    16.2700    10.0720    15.6400   -55.9470
  329.5000     0.2698    91.8930    81.1260     7.8590     0.0780     0.1230     2.4730    16.0700     9.8710    15.4340   -56.0770
  330.0000     0.2753    91.8290    81.5130     7.8590     0.0720     0.1220     2.4760    15.8490     9.7060    15.2290   -56.2140
  330.5000     0.2796    91.7660    83.5780     7.8590     0.0640     0.1240     2.4760    15.6690    10.1630    15.1020   -56.1150
  331.0000     0.2768    91.7020    85.2250     7.8590     0.0570     0.1320     2.4640    16.1580     9.8780    15.3930   -55.8550
  331.5000     0.2758    91.6380    85.7110     7.8590     0.0440     0.1400     2.4510    16.6530     9.7060    15.5470   -55.5940
  332.0000     0.2844    91.5740    84.3880     7.8590     0.0350     0.1480     2.4340    17.1490    10.4450    15.7690   -55.3340
  332.5000     0.2984    91.5180    82.7180     7.8590     0.0480     0.1580     2.4140    18.1030    11.0590    16.2450   -55.0860
  333.0000     0.2996    92.9350    80.7290     7.8590     0.0610     0.1720     2.3970    20.3970    11.6730    16.7210   -54.4910
  333.5000     0.3029    94.2640    77.5270     7.8590     0.0830     0.1860     2.3760    22.9210    12.2880    17.1800   -53.7530
  334.0000     0.3078    96.7640    74.2420     7.8590     0.0930     0.2010     2.3340    26.0750    12.9020    19.6630   -53.0100
  334.5000     0.3109    99.2640    71.1880     7.8590     0.0740     0.2170     2.2980    31.2040    13.5170    22.6270   -52.2670
  335.0000     0.3118   101.7630    68.6010     7.8590     0.0550     0.2270     2.2970    36.3340    14.1310    25.5920   -51.5220
  335.5000     0.3074   104.0040    66.4350     7.8590     0.0550     0.2220     2.3070    41.4640    14.7460    27.6270   -50.7780
  336.0000     0.3066   103.9940    67.0740     7.8590     0.0740     0.2160     2.3190    46.5190    15.2870    29.5120   -50.0400
  336.5000     0.3129   103.3700    68.1630     7.8590     0.0880     0.2090     2.3280    51.3790    15.5630    31.3970   -49.6020
  337.0000     0.3135   102.7470    67.5030     7.8590     0.0940     0.2100     2.3260    54.8310    15.8140    32.7360   -49.2380
  337.5000     0.3074   102.2470    65.6980     7.8590     0.0770     0.2120     2.3240    55.3390    15.8310    32.7360   -48.8730
  338.0000     0.3040   102.1250    65.3220     7.8590     0.0600     0.2130     2.3230    52.3640    15.8570    31.8140   -48.5080
  338.5000     0.3006   102.0450    65.8190     7.8590     0.0420     0.2130     2.3220    54.1180    15.8820    30.1320   -48.1440
  339.0000     0.2926   102.3540    66.3120     7.8590     0.0520     0.2170     2.3170    58.4830    15.9080    30.7740   -47.7800
  339.5000     0.2873   102.6090    66.9680     7.8590     0.0560     0.2240     2.3080    56.8730    15.9330    31.6670   -47.4420
  340.0000     0.2913   102.8540    67.8670     7.8600     0.0580     0.2220     2.3020    54.6550    15.9590    32.4360   -47.1610
  340.5000     0.3071   103.0540    68.7600     7.8600     0.0600     0.2170     2.3150    52.4380    15.9600    31.7120   -46.8810
  341.0000     0.3210   102.2190    69.6540     7.8610     0.0640     0.2110     2.3250    51.1740    15.9600    30.6920   -46.5970
  341.5000     0.3184   101.3840    69.7820     7.8610     0.0680     0.2090     2.3290    50.2280    15.9600    31.4670   -46.3480
  342.0000     0.3085   100.5500    68.8450     7.8620     0.0730     0.2110     2.3250    48.4500    15.9590    32.1390   -45.9990
