~VERSION INFORMATION
 VERS.                2.0:   CWLS LOG ASCII STANDARD - VERSION 2.0
 WRAP.                 NO:   ONE LINE PER DEPTH STEP
~WELL INFORMATION
#MNEM.UNIT      DATA TYPE    INFORMATION
#----------   ------------   ------------------------------
 STRT.F           80.0000:   START DEPTH
 STOP.F          744.0000:   STOP DEPTH
 STEP.F            0.5000:   STEP LENGTH
 NULL.          -999.2500:   NO VALUE
 COMP.               NAVY:   COMPANY
 WELL. RES 3 TEAPOT DOM #44-S-11:   WELL
 FLD .             TEAPOT:   FIELD
 LOC .      S11 T38N R78W:   LOCATION
 CNTY.            NATRONA:   COUNTY
 STAT.            WYOMING:   STATE
 CTRY. UNITED STATES OF AMERICA:   COUNTRY
 SRVC.       Schlumberger:   SERVICE COMPANY
 DATE.        09-JUL-1962:   LOGDATE
 API .       490250634600:   API NUMBER
~CURVE INFORMATION
#MNEM.UNIT       API CODE    CURVE DESCRIPTION
#----------   ------------   ------------------------------
 DEPT.F                  :   
 SPR .MV     05 010 01 00:   SPONTANEOUS POTENTIAL FROM RES.
 ASN .OHMM   05 041 16 00:   AMPLIFIED SHORT NORMAL 16"
 ILD .OHMM   05 120 46 00:   INDUCTION LOG DEEP
 CILD.MMHO   05 110 46 00:   CONDUCTIVITY INDUCTION LOG DEEP
 GR  .GAPI   30 310 01 00:   GAMMA RAY
~PARAMETER INFORMATION
#MNEM.UNIT          VALUE    DESCRIPTION
#----------   ------------   ------------------------------
 PD  .                 KB:   PERMANENT DATUM
 EPD .F              5182:   ELEVATION PERMANENT DATUM
 EKB .F              5182:   KELLING BUSHING
 EGL .F              5177:   GROUND LEVEL
 DATE.        09-JUL-1962:   RUN DATE
 RUN .                  1:   RUN NUMBER
 DD  .F               745:   DEPTH DRILLER
 DL  .F               745:   DEPTH LOGGER
 BLI .F               744:   BOTTOM LOG INTERVAL
 TLI .F                90:   TOP LOG INTERVAL
 BS  .IN             6.75:   BIT SIZE
 BSD .F               745:   BIT SIZE AT DEPTH
 DFT .           OIL EMUL:   DRILLING FLUID TYPE
 DFD .               10.3:   DRILLING FLUID DENSITY
 DFV .                 50:   DRILLING FLUID VISCOSITY
 DFL .                3.4:   DRILLING FLUID LOSS
 RMS .OHMM            7.0:   RESISTIVITY MUD SAMPLE
 MST .F                73:   MUD SAMPLE TEMPERATURE
 RMF .OHMM            4.5:   RESISTIVITY MUD FILTRATE SAMPLE
 MFST.F                73:   MUD FILTRATE SAMPLE TEMPERATURE
 RMC .OHMM           13.5:   RESISTIVITY MUD CAKE
 MCST.F                73:   MUD CAKE SAMPLE TEMPERATURE
 MFSS.               MEAS:   MUD FILTRATE SAMPLE SOURCE
 MCSS.               MEAS:   MUD CAKE SAMPLE SOURCE
 TCS .HRS            0030:   TIME CURCULATED STOPPED
 LUN .               2503:   LOGGING UNIT NUMBER
 LUL .               CSPR:   LOGGING UNIT LOCATION
 ENGI.           ELLERMAN:   RECORDING ENGINEER
 WITN.          JORGENSON:   WITNESSED BY
 CLNT.            A2DTECH:   CLIENT CODE
 ORIG.           5" PRINT:   ORIGIN OF DATA
 UWI .       490250634600:   UNIQUE WELL ID
 DICO. A2D Technologies, Inc.:   DIGITIZING COMPANY
~OTHER INFORMATION
~A   DEPT      SPR        ASN        ILD       CILD         GR   
# ...
  446.0000   -56.9277    10.4575     9.3806   102.5181  -999.2500
  446.5000   -56.9382     9.9992     9.2228   104.0760  -999.2500
  447.0000   -56.6413     9.9690     9.1409   104.8774  -999.2500
  447.5000   -56.6545     9.9527     9.0590   104.9224  -999.2500
  448.0000   -56.8175     9.9184     8.9771   104.9674  -999.2500
  448.5000   -56.9805     9.8441     8.8952   105.7689  -999.2500
  449.0000   -56.8384     9.7824     8.8891   106.5703  -999.2500
  449.5000   -56.8492     9.7055     8.8072   108.8846  -999.2500
  450.0000   -56.2500     9.4771     8.7253   110.7236  -999.2500
  450.5000   -56.8766     9.4608     8.6413   112.4932  -999.2500
  451.0000   -57.0335     9.5203     8.5574   114.2628  -999.2500
  451.5000   -57.1783     9.5497     8.4882   116.0324  -999.2500
  452.0000   -57.0223     9.3968     8.5618   116.5511  -999.2500
  452.5000   -56.7200     9.2745     8.7105   115.0531  -999.2500
  453.0000   -56.4298     9.3037     8.7834   112.7940  -999.2500
  453.5000   -56.2819     9.4086     8.8563   110.4487  -999.2500
  454.0000   -55.7967     9.6347     8.9291   106.6868  -999.2500
  454.5000   -54.9191     9.9518     9.0020   103.7664  -999.2500
  455.0000   -54.9441     9.9964     8.9982   105.2979  -999.2500
  455.5000   -55.5826     9.5253     8.9952   109.8514  -999.2500
  456.0000   -56.0000     9.2060     8.9163   109.1099  -999.2500
  456.5000   -56.0046     9.6746     8.6857   105.3426  -999.2500
  457.0000   -55.9806    10.7932     8.5310   103.8409  -999.2500
  457.5000   -55.8611    10.7024     8.3003   104.6160  -999.2500
  458.0000   -56.1716     9.2620     8.0697   109.1695  -999.2500
  458.5000   -57.3957     9.0639     7.9149   116.7487  -999.2500
  459.0000   -57.8576     8.8810     7.7602   122.8151  -999.2500
  459.5000   -58.0146     8.7283     7.5296   129.6379  -999.2500
  460.0000   -58.0191     8.5151     7.3748   134.9478  -999.2500
  460.5000   -58.0237     8.2261     7.1442   136.4756  -999.2500
  461.0000   -57.8747     7.8916     7.0652   136.4905  -999.2500
  461.5000   -57.7268     7.7087     7.1387   137.2618  -999.2500
  462.0000   -57.5800     7.7530     7.1351   139.5664  -999.2500
  462.5000   -57.4310     7.6761     7.1320   142.5870  -999.2500
  463.0000   -57.1307     7.6295     7.2050   144.8714  -999.2500
  463.5000   -56.9840     7.6890     7.3530   143.3767  -999.2500
  464.0000   -56.8349     7.7489     7.4259   139.6095  -999.2500
  464.5000   -56.5346     7.7928     7.4233   136.5986  -999.2500
  465.0000   -55.4732     7.8068     7.4965   135.0970  -999.2500
  465.5000   -55.6302     7.8380     7.5686   134.3555  -999.2500
  466.0000   -56.5494     7.8652     7.5656   135.1305  -999.2500
  466.5000   -56.2491     7.9095     7.6392   135.1455  -999.2500
  467.0000   -55.3390     7.9236     7.7120   133.6475  -999.2500
  467.5000   -54.2765     7.9221     7.7083   132.9060  -999.2500
  468.0000   -54.1275     7.9516     7.7816   129.8952  -999.2500
  468.5000   -54.1332     7.9957     7.9299   126.8844  -999.2500
  469.0000   -54.1378     8.1460     8.0035   124.6300  -999.2500
  469.5000   -54.1423     8.2813     8.0763   123.1316  -999.2500
  470.0000   -54.1469     8.4468     8.1492   120.8777  -999.2500
  470.5000   -54.6087     8.5518     8.1454   120.1362  -999.2500
  471.0000   -55.0706     8.6264     8.1424   118.6383  -999.2500
  471.5000   -55.5325     8.6707     8.1394   118.6536  -999.2500
  472.0000   -55.9944     8.6850     8.1364   118.6687  -999.2500
  472.5000   -54.7794     8.6836     8.0575   119.4432  -999.2500
  473.0000   -54.6304     8.6219     7.9787   121.7274  -999.2500
  473.5000   -54.9410     8.5147     7.8239   123.2551  -999.2500
  474.0000   -55.4028     8.4530     7.8209   124.7829  -999.2500
  474.5000   -55.5598     8.3912     7.8179   126.3107  -999.2500
  475.0000   -55.1071     8.2992     7.8149   126.3256  -999.2500
  475.5000   -53.8921     8.1920     7.8119   126.3405  -999.2500
  476.0000   -53.1334     8.1895     7.8088   126.3555  -999.2500
  476.5000   -53.5964     8.2504     7.8817   126.3704  -999.2500
  477.0000   -53.9058     8.3250     7.8786   127.1417  -999.2500
  477.5000   -54.3677     8.4759     7.8756   127.1566  -999.2500
  478.0000   -54.6771     8.4719     7.9486   127.0499  -999.2500
  478.5000   -55.5963     8.3341     7.9448   127.1865  -999.2500
  479.0000   -55.7533     8.2579     7.9418   126.4448  -999.2500
  479.5000   -55.7579     8.2108     7.9388   126.4599  -999.2500
  480.0000   -56.3722     8.1970     7.9358   126.4750  -999.2500
  480.5000   -56.6816     8.3017     7.9328   126.4902  -999.2500
  481.0000   -56.8386     8.3311     7.9297   127.2618  -999.2500
  481.5000   -57.6054     8.1782     7.9267   127.2797  -999.2500
  482.0000   -57.6321     8.1013     7.9237   127.2946  -999.2500
  482.5000   -57.6143     8.1156     7.9207   128.0660  -999.2500
  483.0000   -57.4665     8.1600     7.9177   129.5938  -999.2500
  483.5000   -56.8614     8.1283     7.9147   131.1215  -999.2500
  484.0000   -56.5468     8.0665     7.7599   133.4057  -999.2500
  484.5000   -56.5778     7.9442     7.6052   134.9335  -999.2500
  485.0000   -56.2653     7.8522     7.4504   135.7048  -999.2500
  485.5000   -55.8126     7.6995     7.2957   135.7198  -999.2500
  486.0000   -55.8171     7.5166     7.0651   137.2475  -999.2500
  486.5000   -55.8217     7.4548     6.8344   140.2882  -999.2500
  487.0000   -55.9787     7.4386     6.6038   144.8417  -999.2500
  487.5000   -56.2881     7.3920     6.4490   150.1516  -999.2500
  488.0000   -56.4451     7.3151     6.2943   155.4615  -999.2500
  488.5000   -56.4497     7.0109     6.2154   161.5733  -999.2500
  489.0000   -56.4543     6.8431     6.2124   165.3910  -999.2500
  489.5000   -56.3063     6.7360     6.0576   166.8532  -999.2500
  490.0000   -56.1585     6.6591     5.9788   167.6278  -999.2500
  490.5000   -55.8337     6.4155     5.9731   168.3992  -999.2500
  491.0000   -54.6432     6.1565     5.8968   166.9012  -999.2500
  491.5000   -55.4263     6.2993     6.1366   160.8647  -999.2500
  492.0000   -56.0428     6.9096     6.8973   155.5846  -999.2500
  492.5000   -56.4863     7.2444     7.2535   150.3045  -999.2500
  493.0000   -55.8363     7.1978     7.2498   145.7808  -999.2500
  493.5000   -54.6173     7.2297     7.2606   142.7700  -999.2500
  494.0000   -53.4248     7.3164     7.3204   140.5119  -999.2500
  494.5000   -52.8458     7.4214     7.3166   139.0177  -999.2500
  495.0000   -53.0040     7.4960     7.3136   139.0326  -999.2500
  495.5000   -53.1610     7.5406     7.3106   139.0476  -999.2500
  496.0000   -53.1655     7.5392     7.3076   139.0625  -999.2500
  496.5000   -53.3214     7.5381     7.3046   138.3208  -999.2500
  497.0000   -52.8698     7.5370     7.2257   138.3359  -999.2500
  497.5000   -52.8743     7.4904     7.2227   138.3510  -999.2500
  498.0000   -53.6411     7.4741     7.2197   138.4472  -999.2500
  498.5000   -54.5603     7.4124     7.1448   140.0176  -999.2500
  499.0000   -55.6319     7.3506     6.9886   142.9379  -999.2500
  499.5000   -56.3975     7.2435     6.8323   146.7349  -999.2500
  500.0000   -55.9447     7.1414     6.6760   149.3000    97.8733
  500.5000   -55.6456     6.9081     6.4439   152.7617    98.4702
  501.0000   -55.3441     6.8466     6.2876   159.4470    92.6871
  501.5000   -54.8925     6.7851     6.1313   167.1659    78.4130
  502.0000   -53.9824     6.6781     5.9751   174.8848    93.5707
  502.5000   -53.9870     6.4954     5.6671   182.6037    90.2189
  503.0000   -53.7130     6.2521     5.3590   190.3226    83.2251
  503.5000   -53.5696     6.0239     4.9752   198.6963    85.0326
  504.0000   -53.4262     5.9018     4.8948   201.5128    83.8052
  504.5000   -52.9802     5.7342     4.8902   201.5581    67.0998
  505.0000   -52.9893     5.5960     4.8857   200.8299    69.8178
  505.5000   -52.9984     5.3991     5.1847   197.8512    66.8938
  506.0000   -53.9221     5.5323     5.6354   191.8373    64.6316
  506.5000   -54.9982     5.9731     6.0861   186.5388    69.0091
