~VERSION INFORMATION
 VERS.                2.0:   CWLS LOG ASCII STANDARD - VERSION 2.0
 WRAP.                 NO:   ONE LINE PER DEPTH STEP
~WELL INFORMATION
#MNEM.UNIT      DATA TYPE    INFORMATION
#----------   ------------   ------------------------------
 STRT.F            2.0000:   START DEPTH
 STOP.F          510.5000:   STOP DEPTH
 STEP.F            0.5000:   STEP LENGTH
 NULL.          -999.2500:   NO VALUE
 COMP. LAWRENCE/ALLISON INC:   COMPANY
 WELL.   NPR #3 #58-12 SX:   WELL
 FLD .             TEAPOT:   FIELD
 LOC .       S3 T38N R78W:   LOCATION
 CNTY.            NATRONA:   COUNTY
 STAT.            WYOMING:   STATE
 CTRY. UNITED STATES OF AMERICA:   COUNTRY
 SRVC.           Gearhart:   SERVICE COMPANY
 DATE.        20-JUN-1988:   LOGDATE
 API .       490251123500:   API NUMBER
~CURVE INFORMATION
#MNEM.UNIT       API CODE    CURVE DESCRIPTION
#----------   ------------   ------------------------------
 DEPT.F                  :   
 GRR .GAPI   07 310 01 00:   GAMMA RAY FROM RES. LOG.
 RILD.OHMM   07 120 46 00:   INDUCTION LOG DEEP RESISTIVITY
 RILM.OHMM   07 120 44 00:   INDUCTION LOG MEDIUM RESISTIVITY
~PARAMETER INFORMATION
#MNEM.UNIT          VALUE    DESCRIPTION
#----------   ------------   ------------------------------
 PD  .                 GL:   PERMANENT DATUM
 EPD .F              5195:   ELEVATION PERMANENT DATUM
 LMF .                 KB:   LOG MEASURED FROM
 DAPD.F                10:   FEET ABOVE PERMANENT DATUM
 DMF .                 KB:   DRILLING MEASURED FROM
 EKB .F              5205:   KELLING BUSHING
 EGL .F              5195:   GROUND LEVEL
 DATE.            6-20-88:   RUN DATE
 RUN .                  1:   RUN NUMBER
 DD  .F               515:   DEPTH DRILLER
 DL  .F               519:   DEPTH LOGGER
 BLI .F             510.5:   BOTTOM LOG INTERVAL
 TLI .F                50:   TOP LOG INTERVAL
 CS  .IN            9.625:   CASING SIZE
 CBD .F                50:   CASING BOTTOM DRILLER
 CBL .F                50:   CASING BOTTOM LOGGER
 BS  .IN             8.75:   BIT SIZE
 BSD .F               515:   BIT SIZE AT DEPTH
 DFT .                AIR:   DRILLING FLUID TYPE
 TLAB.HRS            0414:   TIME LOGGER AT BOTTOM
 MRT .F                70:   MAXIMUM RECORDED TEMPERATURE
 LUN .               7597:   LOGGING UNIT NUMBER
 LUL .           GILLETTE:   LOGGING UNIT LOCATION
 ENGI.          HUCKFELDT:   RECORDING ENGINEER
 WITN.             STRONG:   WITNESSED BY
 CLNT.            A2DTECH:   CLIENT CODE
 ORIG.       2", 5" PRINT:   ORIGIN OF DATA
 UWI .       490251123500:   UNIQUE WELL ID
 DICO. A2D Technologies, Inc.:   DIGITIZING COMPANY
~OTHER INFORMATION
~A    DEPT      GRR      RILD       RILM   
# ...
  366.0000    72.9346    26.8035    24.8573
  366.5000    69.0335    29.0858    27.1716
  367.0000    66.5527    30.0796    28.7967
  367.5000    65.4852    31.0308    29.9132
  368.0000    67.1326    30.8012    29.3560
  368.5000    70.2427    29.7497    28.4191
  369.0000    73.3543    28.8244    27.6340
  369.5000    76.4481    27.9062    26.8705
  370.0000    78.1424    27.0192    26.1282
  370.5000    77.8899    26.5167    25.4063
  371.0000    78.7914    26.7659    24.6259
  371.5000    79.7392    26.9429    24.3992
  372.0000    78.6324    27.1211    24.5088
  372.5000    76.6404    27.2627    24.7764
  373.0000    74.6888    27.0517    25.0468
  373.5000    74.1843    26.8445    25.3186
  374.0000    73.8504    26.6388    25.3186
  374.5000    74.5095    26.4347    25.1034
  375.0000    75.3440    26.2322    24.8910
  375.5000    76.9242    26.0312    24.6803
  376.0000    78.4837    25.8318    24.4714
  376.5000    80.0679    25.4640    24.2642
  377.0000    79.8727    25.0585    24.0589
  377.5000    78.5517    24.6595    23.8552
  378.0000    77.2050    24.2669    23.5431
  378.5000    75.8942    23.7316    23.0655
  379.0000    75.8048    23.9860    22.5971
  379.5000    77.7045    24.3137    22.1336
  380.0000    80.2078    24.6460    22.0341
  380.5000    82.5064    24.9019    22.5065
  381.0000    78.5421    25.1685    23.7879
  381.5000    74.2068    25.4379    24.6259
  382.0000    69.9898    25.5569    24.3992
  382.5000    69.4419    24.9096    23.8186
  383.0000    71.3517    24.2598    23.3651
  383.5000    74.1911    23.6278    22.8191
  384.0000    77.2744    23.0129    22.1136
  384.5000    80.4164    22.4140    21.4302
  385.0000    82.3132    21.8307    20.7682
  385.5000    83.9630    21.2626    20.1267
  386.0000    83.7214    20.7093    19.5429
  386.5000    82.0198    20.4678    19.1848
  387.0000    80.3759    20.8498    19.3702
  387.5000    81.4434    20.7229    19.5082
  388.0000    82.6684    20.4947    19.6472
  388.5000    82.9864    20.2690    19.7872
  389.0000    81.4227    20.0458    19.9077
  389.5000    80.7365    19.7245    19.6866
  390.0000    82.1347    20.0927    19.4225
  390.5000    83.5922    19.8040    19.1620
  391.0000    83.5511    19.5543    18.9049
  391.5000    83.0849    19.3078    18.6513
  392.0000    82.6131    19.0643    18.4011
  392.5000    82.3963    18.8239    18.1543
  393.0000    83.2658    18.5864    17.9107
  393.5000    84.9635    18.3533    17.6528
  394.0000    86.9686    18.1286    17.3961
  394.5000    88.9799    17.9620    17.1230
  395.0000    90.9916    17.7970    16.8543
  395.5000    92.9644    17.6335    16.5897
  396.0000    93.8282    17.4809    16.3293
  396.5000    91.9211    17.4004    16.0730
  397.0000    89.9922    17.3203    15.7958
  397.5000    89.7055    17.2406    15.8002
  398.0000    89.9198    17.1614    15.7984
  398.5000    89.4914    17.0861    15.7987
  399.0000    88.9272    17.0117    15.7987
  399.5000    87.5979    16.7718    15.7987
  400.0000    85.9863    16.6540    15.8002
  400.5000    84.3128    16.5369    15.7207
  401.0000    83.5237    16.4210    15.6103
  401.5000    82.9746    16.3057    15.5006
  402.0000    82.3892    16.1912    15.3917
  402.5000    83.7700    16.0775    15.2835
  403.0000    85.7850    15.9646    15.1761
  403.5000    87.7867    15.8525    15.0695
  404.0000    88.8923    15.7411    14.9636
  404.5000    88.0721    15.6306    14.8585
  405.0000    87.2861    15.5209    14.7541
  405.5000    86.4639    15.4119    14.6504
  406.0000    86.9405    15.3036    14.5475
  406.5000    87.7453    15.1956    14.4452
  407.0000    88.5605    15.0855    14.3437
  407.5000    89.3918    15.0602    14.2429
  408.0000    89.3228    15.0290    14.1393
  408.5000    89.0506    14.9973    14.1559
  409.0000    88.7798    14.9657    14.1733
  409.5000    89.1159    14.9342    14.1906
  410.0000    91.1870    14.9027    14.2079
  410.5000    93.2325    14.8713    14.2253
  411.0000    93.9148    14.8399    14.2426
  411.5000    93.5092    14.8081    14.2596
  412.0000    92.9461    14.7395    14.2719
  412.5000    93.0230    14.6704    14.1724
  413.0000    93.6089    14.6016    14.0754
  413.5000    94.2680    14.5331    13.9786
  414.0000    94.3521    14.4649    13.8825
  414.5000    92.4138    14.3971    13.7871
  415.0000    90.5551    14.3296    13.6922
  415.5000    90.5250    14.2624    13.5981
  416.0000    90.8077    14.1955    13.5046
  416.5000    92.1558    14.1289    13.4117
  417.0000    93.4489    14.0626    13.3195
  417.5000    94.3372    13.9967    13.2279
  418.0000    94.1589    13.9310    13.1369
  418.5000    93.9883    13.8657    13.0466
  419.0000    94.6249    13.8007    12.9569
  419.5000    95.5330    13.7524    12.8904
  420.0000    95.4110    13.7524    12.8904
  420.5000    95.1867    13.7525    12.8904
  421.0000    95.4819    13.7524    12.8904
  421.5000    96.4127    13.7550    12.8904
  422.0000    97.3302    13.7034    12.8903
  422.5000    98.2605    13.6007    12.8918
  423.0000    99.2961    13.4987    12.8361
  423.5000   100.4161    13.3974    12.7547
  424.0000    99.1027    13.2970    12.6747
  424.5000    97.7242    13.1972    12.5952
  425.0000    96.4948    13.0983    12.5161
  425.5000    95.6187    13.0000    12.4376
  426.0000    96.0179    12.9025    12.3596
  426.5000    96.3529    12.8058    12.2820
  427.0000    95.9347    12.7097    12.2049
  427.5000    95.5066    12.6144    12.1284
  428.0000    95.6595    12.5198    12.0522
  428.5000    98.1339    12.4259    11.9670
  429.0000   100.3407    12.3327    11.7206
  429.5000    99.9242    12.1272    11.5241
  430.0000    99.4382    11.8849    11.3337
  430.5000    98.9629    11.6474    11.1464
  431.0000    98.4865    11.4147    10.9622
  431.5000    98.0017    11.1866    10.7810
  432.0000    97.6853    10.9631    10.6029
  432.5000    99.6300    10.7441    10.4207
  433.0000   101.5543    10.5294    10.3305
  433.5000   103.5445    10.3190    10.1719
  434.0000   104.0189     9.7942    10.0157
  434.5000   104.0288     9.0741     9.8583
  435.0000   104.0186     8.4069     9.3348
  435.5000   103.9841     7.7887     8.8029
  436.0000   105.9101     7.2160     7.8602
  436.5000   109.1600     6.6855     7.0184
  437.0000   114.7952     6.3246     6.2668
  437.5000   122.0846     6.3833     5.5957
  438.0000   129.4180     6.4829     5.0191
  438.5000   132.9399     6.5840     5.3226
  439.0000   126.8286     6.6854     5.7231
  439.5000   118.7357     6.8102     6.1526
  440.0000   110.6004     7.0668     6.8534
  440.5000   102.5439     8.4732     7.6247
  441.0000   100.8008     9.0135     8.4815
  441.5000   101.2753     9.7131     9.0563
  442.0000   104.0292    10.5175     9.6231
  442.5000   106.7490    10.6671    10.3274
  443.0000   109.2395    10.8487    10.3247
  443.5000   108.0569    11.0334    10.4025
  444.0000   106.5615    11.2212    10.4557
  444.5000   105.0645    11.4123    10.5098
  445.0000   104.4402    11.6066    10.5736
  445.5000   104.0864    11.8041    10.8733
  446.0000   105.4256    12.0051    11.1040
  446.5000   106.7957    12.1947    11.3397
  447.0000   106.9696    12.3818    11.5803
  447.5000   105.7478    12.5590    11.8261
  448.0000   104.5472    12.7388    12.0771
  448.5000   105.2506    12.9211    12.3334
  449.0000   106.1946    13.1060    12.5951
  449.5000   107.1660    13.2936    12.8624
  450.0000   105.8886    13.4839    13.0059
  450.5000   103.9943    13.6769    13.1359
  451.0000   102.0569    13.8726    13.2672
  451.5000   100.0707    14.1393    13.3998
  452.0000   101.1746    14.1531    13.5351
  452.5000   102.8211    14.1724    13.6274
  453.0000   104.4684    14.1918    13.6254
  453.5000   104.5525    14.2112    13.6258
  454.0000   102.5192    14.2306    13.6258
  454.5000   100.4887    14.2500    13.6255
  455.0000    98.4349    14.2695    13.5939
  455.5000    97.5695    14.2890    13.5357
  456.0000    98.1775    14.3085    13.4773
  456.5000    99.8444    14.3280    13.4193
