~VERSION INFORMATION
 VERS.                2.0:   CWLS LOG ASCII STANDARD - VERSION 2.0
 WRAP.                 NO:   ONE LINE PER DEPTH STEP
~WELL INFORMATION
#MNEM.UNIT      DATA TYPE    INFORMATION
#----------   ------------   ------------------------------
 STRT.F            1.0000:   START DEPTH
 STOP.F          483.0000:   STOP DEPTH
 STEP.F            0.5000:   STEP LENGTH
 NULL.          -999.2500:   NO VALUE
 COMP. LAWRENCE/ALLISON INC:   COMPANY
 WELL.   47-66-1 SX #47-3:   WELL
 FLD .             TEAPOT:   FIELD
 LOC .       S3 T38N R78W:   LOCATION
 CNTY.            NATRONA:   COUNTY
 STAT.            WYOMING:   STATE
 CTRY. UNITED STATES OF AMERICA:   COUNTRY
 SRVC.           Gearhart:   SERVICE COMPANY
 DATE.        07-JUN-1988:   LOGDATE
 API .       490251121500:   API NUMBER
~CURVE INFORMATION
#MNEM.UNIT       API CODE    CURVE DESCRIPTION
#----------   ------------   ------------------------------
 DEPT.F                  :   
 GRR .GAPI   07 310 01 00:   GAMMA RAY
 RILD.OHMM   07 120 46 00:   INDUCTION LOG DEEP RESISTIVITY
 RILM.OHMM   07 120 44 00:   INDUCTION LOG MEDIUM RESISTIVITY
~PARAMETER INFORMATION
#MNEM.UNIT          VALUE    DESCRIPTION
#----------   ------------   ------------------------------
 PD  .                 GL:   PERMANENT DATUM
 EPD .F              5183:   ELEVATION PERMANENT DATUM
 LMF .                 KB:   LOG MEASURED FROM
 DAPD.F                 5:   FEET ABOVE PERMANENT DATUM
 DMF .                 KB:   DRILLING MEASURED FROM
 EKB .F              5188:   KELLING BUSHING
 EGL .F              5183:   GROUND LEVEL
 DATE.        07-JUN-1988:   RUN DATE
 RUN .                  1:   RUN NUMBER
 DD  .F               490:   DEPTH DRILLER
 DL  .F               483:   DEPTH LOGGER
 BLI .F               483:   BOTTOM LOG INTERVAL
 CS  .IN            8.625:   CASING SIZE
 CBD .F                40:   CASING BOTTOM DRILLER
 CBL .F                40:   CASING BOTTOM LOGGER
 BS  .IN            7.875:   BIT SIZE
 BSD .F               490:   BIT SIZE AT DEPTH
 DFT .                AIR:   DRILLING FLUID TYPE
 TLAB.HRS            0400:   TIME LOGGER AT BOTTOM
 MRT .F                70:   MAXIMUM RECORDED TEMPERATURE
 LUN .               7597:   LOGGING UNIT NUMBER
 LUL .           GILLETTE:   LOGGING UNIT LOCATION
 ENGI.          HUCKFELDT:   RECORDING ENGINEER
 WITN.             STRONG:   WITNESSED BY
 CLNT.            A2DTECH:   CLIENT CODE
 ORIG.           5" PRINT:   ORIGIN OF DATA
 UWI .       490251121500:   UNIQUE WELL ID
 DICO. A2D Technologies, Inc.:   DIGITIZING COMPANY
~OTHER INFORMATION
~A    DEPT      GRR      RILD       RILM   
# ...
   92.0000    92.6423    12.5083    12.4192
   92.5000    94.1526    12.4182    12.2464
   93.0000    96.2795    12.1581    12.1605
   93.5000    98.7095    11.9858    11.9078
   94.0000    99.9273    11.7349    11.7421
   94.5000   101.1466    11.4892    11.5788
   95.0000   102.6675    11.3272    11.4177
   95.5000   104.1884    11.2456    11.2586
   96.0000   104.2383    11.0863    11.1797
   96.5000   102.6605    11.0834    11.0241
   97.0000   100.8737    11.0036    10.9468
   97.5000    99.6673    10.9243    10.8600
   98.0000    99.9761    10.8395    10.7186
   98.5000   100.5879    10.6920    10.5695
   99.0000   101.8072    10.6150    10.4954
   99.5000   102.7220    10.3927    10.4218
  100.0000   103.6363    10.2462    10.3487
  100.5000   103.9454    10.3166    10.3486
  101.0000   103.9051    10.1721    10.2767
  101.5000   102.1405    10.0300    10.2053
  102.0000    98.8132     9.9590    10.1344
  102.5000    96.0918     9.9576    10.0640
  103.0000    97.3099     9.8871    10.0640
  103.5000   100.0431     9.8855    10.1344
  104.0000   100.3506     9.8841    10.0640
  104.5000    98.5399     9.9522    10.0640
  105.0000    97.6352     9.9505    10.0640
  105.5000    97.6427     9.9491    10.0640
  106.0000    98.5577     9.9478    10.0640
  106.5000    99.7758    10.0160    10.0640
  107.0000   100.6909    10.0146    10.0640
  107.5000   100.6515    10.0132     9.9941
  108.0000    99.7951     9.9424     9.9246
  108.5000    99.8010     9.7336     9.6517
  109.0000   100.4130     9.3217     9.2562
  109.5000   101.6311     8.7058     8.9391
  110.0000   103.1522     8.4654     8.6329
  110.5000   105.5824     8.4054     8.5133
  111.0000   107.4065     8.3459     8.5133
  111.5000   108.0185     8.4034     8.5133
  112.0000   106.8124     8.4020     8.5133
  112.5000   104.6971     8.4008     8.5133
  113.0000   101.3697     8.4584     8.6329
  113.5000   100.7696     8.4573     8.6329
  114.0000   102.3354     8.4561     8.6933
  114.5000   104.4193     8.5141     8.7541
  115.0000   105.9404     8.6324     8.8153
  115.5000   105.9464     8.6312     8.8770
  116.0000   104.4372     8.6900     8.8770
  116.5000   104.7462     8.6888     8.8770
  117.0000   105.9642     8.8099     9.0017
  117.5000   106.8793     8.8702     9.1281
  118.0000   107.4913     9.0560     9.2562
  118.5000   107.8002     9.0548     9.3862
  119.0000   107.5031     9.1172     9.4519
  119.5000   106.6000     9.1156     9.5180
  120.0000   105.9999     9.1781     9.5846
  120.5000   106.6556     9.1131     9.6517
  121.0000   109.0436     9.1119     9.5846
  121.5000   112.0798     9.1106     9.5180
  122.0000   113.9040     9.0458     9.3862
  122.5000   113.3038     8.9818     9.2562
  123.0000   112.4007     8.9182     9.1919
  123.5000   111.4961     8.8551     9.1281
  124.0000   111.1990     8.8539     9.0017
  124.5000   111.8125     8.8527     8.9391
  125.0000   112.4245     8.8515     9.0752
  125.5000   113.9456     8.9745     9.1281
  126.0000   113.9515     9.0991     9.1281
  126.5000   113.0292     9.1615     9.1919
  127.0000   111.4969     9.2243     9.2562
  127.5000   109.4239     9.2230     9.3210
  128.0000   109.7344     9.2218     9.3210
  128.5000   111.5585     9.2202     9.2562
  129.0000   110.9584     9.2189     9.2562
  129.5000   109.4492     9.1537     9.1919
  130.0000   107.0309     9.0889     9.1281
  130.5000   106.4293     9.0246     9.0017
  131.0000   106.4367     8.8985     8.8770
  131.5000   106.4427     8.8355     8.7541
  132.0000   106.7517     8.7729     8.7541
  132.5000   107.0606     8.7717     8.7541
  133.0000   107.6910     8.7096     8.7541
  133.5000   108.8909     8.6480     8.6933
  134.0000   108.5951     8.5868     8.6933
  134.5000   107.6920     8.4665     8.6329
  135.0000   107.0919     8.4066     8.5133
  135.5000   107.0978     8.2891     8.4542
  136.0000   107.7098     8.1166     8.3371
  136.5000   108.3218     8.0032     8.1645
  137.0000   108.3278     7.8366     7.9400
  137.5000   108.3337     7.4625     7.6147
  138.0000   108.6427     7.2061     7.3027
  138.5000   109.2547     7.0560     7.0990
  139.0000   110.4728     7.0061     7.0035
  139.5000   111.6909     7.0051     6.9548
  140.0000   111.2724     7.0532     6.9548
  140.5000   108.3709     7.1015     7.0525
  141.0000   107.7693     7.2505     7.2016
  141.5000   108.3828     7.5062     7.4052
  142.0000   109.6008     7.7713     7.7216
  142.5000   109.3037     7.9343     7.9955
  143.0000   107.7945     8.0448     8.1645
  143.5000   106.8899     8.1566     8.2792
  144.0000   108.7155     8.2122     8.2792
  144.5000   110.8427     8.2111     8.2792
  145.0000   112.3638     8.2100     8.2792
  145.5000   112.6728     8.1518     8.2771
  146.0000   112.9818     8.1492     8.2216
  146.5000   112.6847     8.0870     8.1545
  147.0000   112.3876     7.9243     7.9955
  147.5000   111.7875     7.7593     7.8848
  148.0000   111.1888     7.5978     7.6679
  148.5000   110.5872     7.3367     7.4570
  149.0000   110.8977     7.0354     7.2519
  149.5000   110.9036     6.6996     7.0035
  150.0000   111.2803     6.4541     6.6602
  150.5000   111.8213     6.2466     6.3512
  151.0000   111.5212     6.0315     5.9227
  151.5000   110.3127     6.0364     5.5617
  152.0000   108.1944     6.1137     5.3704
  152.5000   106.9845     6.1979     5.5989
  153.0000   108.2002     6.3718     5.9193
  153.5000   110.3243     6.5963     6.2580
  154.0000   113.0788     6.8765     6.6624
  154.5000   114.2702     7.2800     6.9461
  155.0000   113.6671     7.6310     7.2416
  155.5000   112.4571     7.8446     7.4975
  156.0000   111.8547     8.0091     7.4965
  156.5000   111.8576     8.1762     7.6011
  157.0000   111.8606     8.2893     7.8694
  157.5000   111.8641     8.4078     8.2141
  158.0000   111.8670     8.5201     8.6134
  158.5000   111.8699     8.5779     8.6728
  159.0000   110.9637     8.6362     8.6714
  159.5000   110.0505     8.6340     8.6702
  160.0000   108.5453     8.6323     8.7297
  160.5000   109.4580     8.6909     8.7896
  161.0000   110.6731     8.7494     8.8499
  161.5000   111.5850     8.7477     8.9107
  162.0000   111.6162     8.8075     8.9718
  162.5000   110.6818     8.8053     8.9703
  163.0000   110.9884     8.9271     9.0319
  163.5000   112.2034     8.9253     9.0939
  164.0000   113.4185     8.9950     9.0923
  164.5000   113.4214     9.0469     9.0911
  165.0000   111.9091     9.0446     9.0899
  165.5000   111.3060     9.0428     9.0887
  166.0000   111.6126     9.0410     9.0872
  166.5000   110.7064     9.1023     9.0860
  167.0000   109.1942     9.1004     9.0848
  167.5000   107.9849     9.0351     9.0836
  168.0000   107.3818     9.0332     9.0823
  168.5000   108.9006     8.9687     9.0180
  169.0000   108.5997     8.7814     8.8917
  169.5000   108.3003     8.6582     8.8287
  170.0000   108.6063     8.4774     8.6448
  170.5000   109.8213     8.3000     8.5240
  171.0000   110.7597     8.1835     8.4028
  171.5000   112.2521     8.0126     8.1723
  172.0000   113.1640     7.8453     7.8912
  172.5000   113.4700     7.5752     7.6199
  173.0000   113.7759     7.2622     7.3067
  173.5000   114.0818     6.8681     6.9094
  174.0000   114.0848     6.4945     6.3365
  174.5000   113.7846     6.0985     5.7621
  175.0000   112.8792     5.6475     5.2621
  175.5000   112.2753     5.1574     4.7721
  176.0000   113.4910     4.5805     4.3277
  176.5000   114.7060     4.1044     3.8102
  177.0000   115.0127     3.6380     3.3896
  177.5000   114.7126     3.3456     3.1609
  178.0000   114.1094     3.0552     2.9682
  178.5000   111.3850     2.9501     2.8068
  179.0000   106.8425     2.9290     2.7103
  179.5000   101.6393     2.9489     2.6724
  180.0000   100.7877     3.0104     2.7095
  180.5000   102.9125     3.0948     2.7858
  181.0000   106.8548     3.2263     2.9247
  181.5000   111.4032     3.5561     3.0070
  182.0000   114.7394     4.2615     3.1177
  182.5000   115.6515     4.8030     3.8370
