~VERSION INFORMATION
 VERS.                2.0:   CWLS LOG ASCII STANDARD - VERSION 2.0
 WRAP.                 NO:   ONE LINE PER DEPTH STEP
~WELL INFORMATION
#MNEM.UNIT      DATA TYPE    INFORMATION
#----------   ------------   ------------------------------
 STRT.F          100.0000:   START DEPTH
 STOP.F          874.0000:   STOP DEPTH
 STEP.F            0.5000:   STEP LENGTH
 NULL.          -999.2500:   NO VALUE
 COMP. U S NAVY-INTEX OIL:   COMPANY
 WELL.     NPR #3 #45-S-2:   WELL
 FLD .             TEAPOT:   FIELD
 LOC .       S2 T38N R78W:   LOCATION
 CNTY.            NATRONA:   COUNTY
 STAT.            WYOMING:   STATE
 CTRY. UNITED STATES OF AMERICA:   COUNTRY
 SRVC.       Schlumberger:   SERVICE COMPANY
 DATE.        15-JUL-1962:   LOGDATE
 API .       490250642400:   API NUMBER
~CURVE INFORMATION
#MNEM.UNIT       API CODE    CURVE DESCRIPTION
#----------   ------------   ------------------------------
 DEPT.F                  :   
 ASN .OHMM   05 041 16 00:   AMPLIFIED SHORT NORMAL 16"
 CILD.MMHO   05 110 46 00:   CONDUCTIVITY INDUCTION LOG DEEP
 ILD .OHMM   05 120 46 00:   INDUCTION LOG DEEP
 SPR .MV     05 010 01 00:   SPONTANEOUS POTENTIAL FROM RES.
 GR  .GAPI   30 310 01 00:   GAMMA RAY
~PARAMETER INFORMATION
#MNEM.UNIT          VALUE    DESCRIPTION
#----------   ------------   ------------------------------
 LMF .                 KB:   LOG MEASURED FROM
 DMF .                 KB:   DRILLING MEASURED FROM
 EKB .F              5149:   KELLING BUSHING
 EGL .F              5144:   GROUND LEVEL
 DATE.        15-JUL-1962:   RUN DATE
 RUN .                  1:   RUN NUMBER
 DD  .F               875:   DEPTH DRILLER
 DL  .F               875:   DEPTH LOGGER
 BLI .F               874:   BOTTOM LOG INTERVAL
 TLI .F               100:   TOP LOG INTERVAL
 BS  .IN             6.75:   BIT SIZE
 BSD .F               875:   BIT SIZE AT DEPTH
 DFT .           OIL EMUL:   DRILLING FLUID TYPE
 DFD .               10.2:   DRILLING FLUID DENSITY
 DFV .                 42:   DRILLING FLUID VISCOSITY
 DFL .                4.6:   DRILLING FLUID LOSS
 RMS .OHMM            6.0:   RESISTIVITY MUD SAMPLE
 MST .F                64:   MUD SAMPLE TEMPERATURE
 RMF .OHMM            5.8:   RESISTIVITY MUD FILTRATE SAMPLE
 MFST.F                64:   MUD FILTRATE SAMPLE TEMPERATURE
 RMC .OHMM            5.2:   RESISTIVITY MUD CAKE
 MCST.F                66:   MUD CAKE SAMPLE TEMPERATURE
 TCS .HRS             0.5:   TIME CURCULATED STOPPED
 LUN .               2503:   LOGGING UNIT NUMBER
 LUL .               CSPR:   LOGGING UNIT LOCATION
 ENGI.           ELLERMAN:   RECORDING ENGINEER
 WITN.          JORGENSON:   WITNESSED BY
 CLNT.            A2DTECH:   CLIENT CODE
 ORIG.           5" PRINT:   ORIGIN OF DATA
 UWI .       490250642400:   UNIQUE WELL ID
 DICO. A2D Technologies, Inc.:   DIGITIZING COMPANY
~OTHER INFORMATION
~A   DEPT        ASN      CILD       ILD        SPR         GR   
# ...
  588.0000     8.6199   120.7879     8.3293   -36.2094  -999.2500
  588.5000     8.5757   120.7357     8.3316   -36.5069  -999.2500
  589.0000     8.5315   120.6915     8.3339   -36.8041  -999.2500
  589.5000     8.4871   120.6473     8.3361   -37.1016  -999.2500
  590.0000     8.4581   120.6061     8.2639   -37.2496  -999.2500
  590.5000     8.4589   120.5589     8.2657   -37.4200  -999.2500
  591.0000     8.4917   120.5152     8.2488   -37.6952  -999.2500
  591.5000     8.5503   120.4697     8.1950   -37.9923  -999.2500
  592.0000     8.6109   120.4242     8.1977   -38.2902  -999.2500
  592.5000     8.6415   120.3788     8.1999   -38.4382  -999.2500
  593.0000     8.6572   120.3269     8.2021   -38.4364  -999.2500
  593.5000     8.6580   120.2879     8.2792   -38.2855  -999.2500
  594.0000     8.6287   120.2424     8.3563   -38.4336  -999.2500
  594.5000     8.5977   120.1942     8.3587   -38.5816  -999.2500
  595.0000     8.5553   120.9091     8.4358   -38.8787  -999.2500
  595.5000     8.4964   121.6212     8.4379   -38.8773  -999.2500
  596.0000     8.4372   122.4041     8.4401   -39.1748  -999.2500
  596.5000     8.3781   123.7943     8.4428   -39.3229  -999.2500
  597.0000     8.3339   124.5076     8.4449   -39.3289  -999.2500
  597.5000     8.2897   125.2210     8.3717   -39.4694  -999.2500
  598.0000     8.2439   125.9454     8.2990   -39.3182  -999.2500
  598.5000     8.1715   127.4164     8.2268   -39.3167  -999.2500
  599.0000     8.1124   128.8873     8.0793   -39.1658  -999.2500
  599.5000     8.0233   130.3485     7.9318   -39.1644  -999.2500
  600.0000     7.8744   133.3333     7.7844   -38.8141   115.0602
  600.5000     7.7855   134.8864     7.6347   -38.5687   100.1523
  601.0000     7.6815   140.0684     7.3353   -38.7236   110.8466
  601.5000     7.5177   144.5769     7.1856   -39.0269   114.9143
  602.0000     7.3839   149.8429     6.9611   -39.4798   111.0001
  602.5000     7.2351   153.5939     6.7365   -39.6346   112.5076
  603.0000     7.0563   158.8599     6.5858   -37.6958   104.8284
  603.5000     6.8326   163.3684     6.4276   -36.3549   100.5577
  604.0000     6.5916   168.6345     6.2874   -35.9097   108.7470
  604.5000     6.4700   172.3855     6.2874   -35.6162   110.5557
  605.0000     6.3415   173.8636     6.2874   -35.6206   114.9748
  605.5000     6.2823   173.8258     6.4371   -35.6249   117.4864
  606.0000     6.3881   172.2653     6.4371   -35.9283   105.1064
  606.5000     6.6435   167.6829     6.5868   -36.0967   101.6765
  607.0000     6.8540   161.5854     6.6617   -36.6855    98.2137
  607.5000     7.0045   155.4878     6.7124   -37.2877   115.3843
  608.0000     7.0952   150.1478     6.8224   -37.7405   117.0424
  608.5000     7.1560   145.5654     6.9611   -37.7449   123.5198
  609.0000     7.2170   141.7406     7.0359   -37.7493   118.7020
  609.5000     7.2492   140.1885     7.1856   -37.9031   110.7215
  610.0000     7.2786   138.6364     7.1856   -38.0569    92.8013
  610.5000     7.2795   137.8409     7.1856   -38.2108   105.6040
  611.0000     7.2652   138.5625     7.1856   -38.5142   117.3735
  611.5000     7.2511   139.2738     7.1856   -38.6679   109.9744
  612.0000     7.2073   140.0037     7.1856   -38.3734   103.6385
  612.5000     7.1630   141.4727     7.1856   -37.9304   101.0794
  613.0000     7.0743   142.9601     7.1108   -37.6358   102.0663
  613.5000     6.9554   145.9442     7.0359   -37.2932   109.8301
  614.0000     6.8066   149.6951     6.8862   -37.0455   111.6388
  614.5000     6.6722   153.4460     6.6617   -37.0510   118.8688
  615.0000     6.5629   157.9545     6.4371   -37.2048   101.4004
  615.5000     6.3753   165.6441     6.2874   -37.5082   117.2155
  616.0000     6.1666   179.8411     6.0629   -37.6631   120.9821
  616.5000     5.8531   203.2890     5.7580   -37.8169   114.8089
  617.0000     5.5845   213.8581     5.5389   -38.4192   117.8220
  617.5000     5.3758   228.9726     5.3892   -39.0215   111.1974
  618.0000     5.1522   232.7236     5.2395   -39.3248   114.8133
  618.5000     5.0333   231.9290     5.2395   -39.3291    93.7304
  619.0000     5.0192   228.8618     5.2395   -39.0344    99.0030
  619.5000     4.9752   225.0370     5.2395   -38.4410   101.2635
  620.0000     5.0379   221.2121     5.3892   -38.1464    99.0060
  620.5000     5.3877   214.1286     5.6138   -38.7489   110.3030
  621.0000     6.0259   196.8866     5.9202   -38.6036   104.2804
  621.5000     6.4010   177.1526     6.1377   -38.3101    96.9024
  622.0000     6.6564   164.2369     6.4371   -37.8660   105.1866
  622.5000     6.8220   156.6242     6.6617   -37.7198   103.6824
  623.0000     6.9426   151.2842     6.8114   -37.4252   106.2441
  623.5000     7.0782   148.2169     6.9691   -37.5802   110.9143
  624.0000     7.1839   145.1497     7.1108   -38.0329   106.3977
  624.5000     7.2895   142.0824     7.2605   -38.4858   118.1462
  625.0000     7.3653   139.7727     7.3353   -38.9636   111.6214
  625.5000     7.4588   137.4621     7.5267   -39.8408   109.4142
  626.0000     7.5918   135.9017     7.6347   -39.6946   105.0482
  626.5000     7.6825   134.3496     7.7223   -39.4001   102.0776
  627.0000     7.7732   133.5551     7.8593   -39.4055    91.1417
  627.5000     7.8639   132.0030     7.9341   -39.7088    94.4452
  628.0000     7.9396   131.2084     7.9341   -40.0121   102.4939
  628.5000     8.0153   129.6563     8.0090   -40.0165    99.0315
  629.0000     8.0761   128.8618     8.0838   -40.0209    93.4611
  629.5000     8.1369   128.0682     8.0838   -39.7030    92.5586
  630.0000     8.1826   127.2727     8.0838   -38.8349    98.7351
  630.5000     8.2438   126.4773     8.0838   -38.2413   103.5559
  631.0000     8.3060   125.6744     8.0838   -38.0951   110.0332
  631.5000     8.3651   124.8864     8.1587   -38.2501   110.7874
  632.0000     8.4109   124.8429     8.0838   -38.2544   103.1085
  632.5000     8.3818   124.8060     8.0838   -37.9588   105.5196
  633.0000     8.3078   124.7690     8.0838   -37.3663   107.3283
  633.5000     8.1889   124.7321     8.0838   -37.3707   110.0547
  634.0000     8.0697   124.6951     8.0090   -37.5466   114.2210
  634.5000     7.9614   124.6582     7.9341   -37.8289   113.8117
  635.0000     7.8325   125.3788     7.9341   -37.9828   109.8949
  635.5000     7.6987   126.0994     7.8593   -38.5850   118.7815
  636.0000     7.6097   126.8200     7.8593   -39.0378   115.3191
  636.5000     7.5058   127.5406     7.7096   -39.3411   123.3029
  637.0000     7.3570   130.5247     7.5599   -39.4950   126.0149
  637.5000     7.1483   135.0333     7.3353   -39.0509   113.3661
  638.0000     6.9096   144.0841     7.1856   -38.5988   109.7531
  638.5000     6.6560   153.1381     6.8862   -38.0780   114.5739
  639.0000     6.4174   162.9496     6.7105   -37.5703   110.2079
  639.5000     6.0692   181.0945     6.1377   -37.2484   105.5407
  640.0000     5.6377   201.5121     5.6138   -36.8317   103.2731
  640.5000     4.9981   237.8387     5.0898   -36.5371   109.1613
  641.0000     4.5798   262.8018     4.7904   -36.3909   107.4100
  641.5000     4.1016   298.3709     4.4910   -36.0974   104.7936
  642.0000     3.7881   344.4942     4.1916   -35.9522   106.1509
  642.5000     3.4746   383.2702     3.8922   -35.9567   112.9295
  643.0000     3.3558   420.9781     3.5808   -35.9611   106.6057
  643.5000     3.2518   448.9714     3.1437   -35.9665    94.8602
  644.0000     3.1928   467.1163     2.9940   -36.1203    76.0363
  644.5000     3.1488   472.3916     2.9192   -36.2741    73.3266
  645.0000     3.0898   464.7697     2.9940   -36.4280    84.4730
  645.5000     3.0308   446.5509     3.1437   -36.8808   102.3962
  646.0000     3.1816   391.9685     3.2934   -37.3336   122.2772
  646.5000     3.7513   341.9315     3.5928   -37.9358   119.5678
  647.0000     4.0217   310.9857     4.0419   -38.3906   120.6235
  647.5000     4.2172   271.5278     4.4311   -39.0260   108.2756
  648.0000     4.8168   229.6902     5.0898   -39.8932   110.2990
  648.5000     5.4016   197.8351     5.5389   -40.4955   122.9340
