~VERSION INFORMATION
 VERS.                2.0:   CWLS LOG ASCII STANDARD - VERSION 2.0
 WRAP.                 NO:   ONE LINE PER DEPTH STEP
~WELL INFORMATION
#MNEM.UNIT      DATA TYPE    INFORMATION
#----------   ------------   ------------------------------
 STRT.F            0.5000:   START DEPTH
 STOP.F          696.0000:   STOP DEPTH
 STEP.F            0.5000:   STEP LENGTH
 NULL.          -999.2500:   NO VALUE
 COMP. LAWRENCE/ALLISON INC:   COMPANY
 WELL. SX 11 WP #26-44-11:   WELL
 FLD .             TEAPOT:   FIELD
 LOC .      S11 T38N R78W:   LOCATION
 CNTY.            NATRONA:   COUNTY
 STAT.            WYOMING:   STATE
 CTRY. UNITED STATES OF AMERICA:   COUNTRY
 SRVC.      Dresser Atlas:   SERVICE COMPANY
 DATE.        08-SEP-1984:   LOGDATE
 API .       490251097600:   API NUMBER
~CURVE INFORMATION
#MNEM.UNIT       API CODE    CURVE DESCRIPTION
#----------   ------------   ------------------------------
 DEPT.F                  :   
 AC  .US/F   60 520 00 00:   ACCOUSTIC
 SPR .MV     07 010 01 00:   SPONTANEOUS POTENTIAL FROM RES.
 RILD.OHMM   07 120 46 00:   RESISTIVITY INDUCTION LOG DEEP
 RILM.OHMM   07 120 44 00:   RESISTIVITY INDUCTION LOG MEDIUM
 RFOC.OHMM   07 220 04 00:   RESISTIVITY FOCUSED LOG
 GRR .GAPI   07 310 01 00:   GAMMA RAY FROM RESISTIVITY
 CALD.IN     45 280 60 00:   CALIPER FROM DENSITY LOG
 DEN .G/C3   45 350 01 00:   COMPENSATED BULK DENSTIY
 CORR.G/C3   45 356 01 00:   DENSITY CORRECTION
 PORD.DEC    45 890 12 00:   POROSITY DENSITY SANDSTONE
 CNC .DEC    42 890 03 00:   NEUTRON POROSITY SANDSTONE
~PARAMETER INFORMATION
#MNEM.UNIT          VALUE    DESCRIPTION
#----------   ------------   ------------------------------
 PD  .                 GL:   PERMANENT DATUM
 EPD .F              5186:   ELEVATION PERMANENT DATUM
 LMF .                 GL:   LOG MEASURED FROM
 DMF .                 GL:   DRILLING MEASURED FROM
 EGL .F              5186:   GROUND LEVEL
 DATE.         8-SEP-1984:   RUN DATE
 RUN .                  1:   RUN NUMBER
 DD  .F               712:   DEPTH DRILLER
 DL  .F               695:   DEPTH LOGGER
 BLI .F               693:   BOTTOM LOG INTERVAL
 CS  .IN            8.625:   CASING SIZE
 CBD .F                40:   CASING BOTTOM DRILLER
 CBL .F                45:   CASING BOTTOM LOGGER
 BS  .IN            7.875:   BIT SIZE
 BSD .F               712:   BIT SIZE AT DEPTH
 DFT .          KCL WATER:   DRILLING FLUID TYPE
 MSS .           FLOWLINE:   MUD SAMPLE SOURCE
 RMS .OHMM            .22:   RESISTIVITY MUD SAMPLE
 MST .F                72:   MUD SAMPLE TEMPERATURE
 RMF .OHMM            .17:   RESISTIVITY MUD FILTRATE SAMPLE
 MFST.F                72:   MUD FILTRATE SAMPLE TEMPERATURE
 RMC .OHMM            .28:   RESISTIVITY MUD CAKE
 MCST.F                72:   MUD CAKE SAMPLE TEMPERATURE
 MFSS.               CALC:   MUD FILTRATE SAMPLE SOURCE
 MCSS.               CALC:   MUD CAKE SAMPLE SOURCE
 RMB .OHMM            .18:   RESISTIVITY MUD AT BHT
 BHT .F                90:   BOTTOM HOLE TEMPERATURE
 TCS .HRS               3:   TIME CURCULATED STOPPED
 MRT .F                90:   MAXIMUM RECORDED TEMPERATURE
 LUN .               6274:   LOGGING UNIT NUMBER
 LUL .               GLTE:   LOGGING UNIT LOCATION
 ENGI.             RAUTIO:   RECORDING ENGINEER
 WITN.           JENNINGS:   WITNESSED BY
 CLNT.            A2DTECH:   CLIENT CODE
 ORIG. 1", 2', 2.5", 5" PRNT:   ORIGIN OF DATA
 UWI .       490251097600:   UNIQUE WELL ID
 DICO. A2D Technologies, Inc.:   DIGITIZING COMPANY
~OTHER INFORMATION
~A    DEPT      AC        SPR       RILD       RILM       RFOC         GRR      CALD        DEN       CORR       PORD        CNC   
# ...
  427.5000   101.4840   -13.4550     7.7910     7.6640     8.0880   103.3192     7.8710     2.5170     0.0140     0.0970     0.2868
  428.0000   101.8780   -13.7700     7.5650     7.2850     8.2210   104.2213     7.8710     2.5210     0.0170     0.0940     0.2997
  428.5000   102.2510   -14.0760     7.2600     6.9050     8.3230   104.5290     7.8710     2.5130     0.0110     0.1010     0.3092
  429.0000   102.5160   -14.3810     6.9540     6.5260     8.3900   105.4292     7.8710     2.4870     0.0160     0.1200     0.3072
  429.5000   102.7670   -14.6850     6.6490     5.9710     8.0880   107.5146     7.8710     2.4490     0.0680     0.1380     0.3001
  430.0000   103.9490   -14.9280     6.3440     6.0140     6.9260   107.8241     7.8710     2.4250     0.0980     0.1570     0.3129
  430.5000   105.5810   -14.7890     6.0820     6.0940     5.8630   106.9447     7.8710     2.4330     0.0680     0.1400     0.3215
  431.0000   107.2120   -14.6460     6.0870     6.1730     6.4790   105.7727     7.8710     2.4660     0.0380     0.1240     0.3184
  431.5000   108.0280   -14.5040     6.1010     6.2530     7.0180   105.4858     7.8710     2.4970     0.0340     0.1090     0.3146
  432.0000   107.2740   -14.3620     6.1150     6.3320     7.5570   107.8713     7.8710     2.4900     0.0270     0.1130     0.3084
  432.5000   106.2080   -14.2200     6.1290     6.4110     7.8410   106.9919     7.8710     2.4740     0.0140     0.1230     0.3008
  433.0000   105.1410   -14.0790     6.2020     6.4910     7.9400   106.4125     7.8710     2.4570     0.0260     0.1330     0.2919
  433.5000   104.9530   -13.9090     6.3760     6.5700     7.3120   104.6480     7.8740     2.4460     0.0510     0.1400     0.2932
  434.0000   105.5390   -13.6290     6.5500     6.6500     6.4910   103.1778     7.8790     2.4500     0.0680     0.1360     0.2965
  434.5000   106.0360   -13.3450     6.7250     6.8730     5.6510   100.8188     7.8840     2.4670     0.0530     0.1270     0.3005
  435.0000   105.6370   -13.0600     6.8990     7.1390     6.4350    98.1653     7.8890     2.4850     0.0320     0.1170     0.3255
  435.5000   103.4340   -12.7880     7.0730     7.4050     7.4430    98.4730     7.8880     2.5020     0.0220     0.1050     0.3227
  436.0000   101.1390   -12.9180     7.3550     7.6710     8.8660   100.8547     7.8840     2.5100     0.0080     0.1010     0.3038
  436.5000    99.2630   -13.0680     7.6660     7.9360     8.7660    99.9752     7.8790     2.5150     0.0130     0.0980     0.2709
  437.0000    98.6650   -13.2180     7.9770     8.2020     8.5950    99.3977     7.8740     2.5180     0.0240     0.0970     0.2677
  437.5000    98.9140   -13.3550     8.2880     8.4680     8.3900    97.6313     7.8720     2.5190     0.0110     0.0960     0.2621
  438.0000    99.0640   -13.1610     8.5980     8.6170     8.7500    97.0481     7.8740     2.5160    -0.0050     0.0970     0.2525
  438.5000    98.0680   -12.7490     8.9090     8.7650     9.2000    96.7632     7.8750     2.5120    -0.0020     0.0990     0.2506
  439.0000    96.3910   -12.3310     9.1140     8.9140     9.6490    95.0005     7.8770     2.5100     0.0080     0.1010     0.2530
  439.5000    95.3370   -11.9180     8.8530     9.0310    10.0990    91.7526     7.8790     2.5110     0.0190     0.1000     0.2637
  440.0000    94.4760   -11.6190     8.2220     8.3910    10.3150    89.6879     7.8800     2.5130     0.0310     0.0980     0.2892
  440.5000    93.4860   -11.8360     7.5910     7.6070    10.4220    91.4808     7.8820     2.5140     0.0390     0.0980     0.3041
  441.0000    93.2870   -12.0440     6.9590     6.8230    10.4610    92.6774     7.8840     2.5000     0.0290     0.1040     0.3173
  441.5000    93.4860   -12.2490     6.3280     6.0390    10.1630    94.1702     7.8860     2.4550     0.0200     0.1300     0.3396
  442.0000    97.2010   -12.4530     5.9710     5.2550     8.1650   103.3667     7.8870     2.4080     0.0180     0.1590     0.3452
  442.5000   101.4960   -12.5700     5.9710     4.6590     5.8600   109.3058     7.8890     2.3820     0.0450     0.1800     0.3113
  443.0000   105.7910   -12.3340     6.0740     4.6590     4.3690   107.2431     7.8910     2.4070     0.0510     0.1590     0.2797
  443.5000   108.9230   -11.7950     6.1950     5.6100     5.9860   102.2174     7.8910     2.4560     0.0310     0.1320     0.2730
  444.0000   109.2230   -11.3740     6.3100     6.5220     8.3040    95.4139     7.8910     2.4950     0.0100     0.1120     0.2646
  444.5000   102.5780   -11.3850     7.0300     7.4330    10.9540    90.6864     7.8910     2.5010    -0.0020     0.1060     0.2572
  445.0000    96.5540   -11.3930     7.8740     8.3450    10.8400    88.9199     7.8910     2.5010     0.0020     0.1050     0.2584
  445.5000    93.3090   -10.9990     8.7180     9.1980    10.4610    88.3368     7.8910     2.5070     0.0070     0.1050     0.2586
  446.0000    92.2910   -10.4260     9.5620     9.7390    10.4990    89.2408     7.8910     2.5130     0.0110     0.1000     0.2573
  446.5000    92.3530    -9.9890    10.1770    10.3600    10.5810    90.7336     7.8910     2.5210     0.0120     0.0950     0.2452
  447.0000    92.4360   -10.0010    10.1770    10.3260    10.6560    91.6338     7.8910     2.5300     0.0030     0.0900     0.2449
  447.5000    92.6170    -9.9940    10.1770    10.2810    10.5880    90.7563     7.8910     2.5340    -0.0060     0.0860     0.2592
  448.0000    92.9710    -9.3670    10.1770    10.2360    10.5110    90.4694     7.8910     2.5350     0.0020     0.0870     0.2764
  448.5000    93.3250    -8.6530    10.1770    10.1770    10.4330    93.1512     7.8910     2.5300     0.0240     0.0890     0.2714
  449.0000    93.6800    -7.9370    10.3380    10.3330    10.3560    95.2366     7.8910     2.5260     0.0200     0.0910     0.2689
  449.5000    94.0340    -7.2180    10.5190    10.5590    10.2710    93.1739     7.8910     2.5250     0.0110     0.0920     0.2685
  450.0000    94.3880    -6.4640    10.7000    10.7860    10.3830    88.1505     7.8910     2.5290     0.0180     0.0900     0.2663
  450.5000    94.7430    -5.8050    11.3100    11.1180    10.5440    86.1050     7.8910     2.5260     0.0320     0.0940     0.2542
  451.0000    94.8800    -5.0670    12.1020    11.4960    11.0200    82.5827     7.8910     2.5100     0.0250     0.1020     0.2336
  451.5000    93.3570    -3.6830    12.9670    12.4400    12.2060    77.8705     7.8910     2.4960     0.0150     0.1090     0.2246
  452.0000    92.1020    -2.1780    14.4070    13.9280    13.3930    74.3435     7.8860     2.4890     0.0170     0.1120     0.2285
  452.5000    90.8470    -0.6600    15.8470    15.4160    14.5790    67.5572     7.8780     2.4870     0.0310     0.1140     0.2441
  453.0000    89.9000     0.1580    17.2870    16.9040    15.7660    65.2201     7.8710     2.4830     0.0460     0.1170     0.2508
  453.5000    89.9000     0.3830    18.7270    18.3920    17.1410    63.4709     7.8640     2.4650     0.0600     0.1350     0.2502
  454.0000    92.2850     1.3060    20.1670    19.8800    18.9040    57.5735     7.8560     2.4200     0.0650     0.1550     0.2615
  454.5000    95.3370     2.9210    21.6070    21.1730    19.7260    53.1576     7.8520     2.3730     0.0590     0.1760     0.2669
  455.0000    99.2900     4.1690    23.0480    22.3940    19.4240    49.6306     7.8530     2.3680     0.0350     0.1860     0.2606
  455.5000   103.2440     4.4650    23.8860    23.9260    18.8630    48.7655     7.8550     2.3720     0.0100     0.1830     0.2522
  456.0000   106.0360     4.7770    24.2150    23.2420    18.4970    52.0628     7.8560     2.3790     0.0260     0.1810     0.2630
  456.5000   104.6870     5.0910    24.5440    21.9870    19.3540    56.5358     7.8570     2.3950     0.0480     0.1730     0.2713
  457.0000   101.9890     5.4720    24.8220    21.3410    20.4980    58.3421     7.8590     2.4140     0.0350     0.1600     0.2669
  457.5000    99.2900     5.9190    24.6920    21.1850    21.2050    60.7457     7.8600     2.4310     0.0200     0.1480     0.2628
