~VERSION INFORMATION
 VERS.                2.0:   CWLS LOG ASCII STANDARD - VERSION 2.0
 WRAP.                 NO:   ONE LINE PER DEPTH STEP
~WELL INFORMATION
#MNEM.UNIT      DATA TYPE    INFORMATION
#----------   ------------   ------------------------------
 STRT.F           12.0000:   START DEPTH
 STOP.F          510.0000:   STOP DEPTH
 STEP.F            0.5000:   STEP LENGTH
 NULL.          -999.2500:   NO VALUE
 COMP. LAWRENCE-ALLISON &AS:   COMPANY
 WELL. NPR 3 #51-41SX10UP4:   WELL
 FLD .            NATRONA:   FIELD
 LOC .      S10 T38N R78W:   LOCATION
 CNTY.            NATRONA:   COUNTY
 STAT.            WYOMING:   STATE
 CTRY. UNITED STATES OF AMERICA:   COUNTRY
 SRVC.      Dresser Atlas:   SERVICE COMPANY
 DATE.        15-DEC-1984:   LOGDATE
 API .       490251100000:   API NUMBER
~CURVE INFORMATION
#MNEM.UNIT       API CODE    CURVE DESCRIPTION
#----------   ------------   ------------------------------
 DEPT.F                  :   
 RD  .OHMM   11 220 10 00:   RESISTIVITY DEEP
 RS  .OHMM   11 220 09 00:   RESISTIVITY SHALLOW
 SPR .MV     11 010 01 00:   SPONTANEOUS POTENTIAL FROM RES.
 DT  .US/F   60 520 00 00:   INTERVAL TRANSIT TIME
 CALD.IN     45 280 60 00:   CALIPER FROM DENSITY LOG
 CNC .DEC    42 890 00 00:   NEUTRON POROSITY
 CORR.G/C3   45 356 01 00:   DENSITY CORRECTION
 GRD .GAPI   45 310 01 00:   GAMMA RAY FROM DENSITY LOG
 PORD.DEC    45 890 00 00:   POROSITY DENSITY
 RHOB.G/C3   45 350 01 00:   BULK DENSITY
~PARAMETER INFORMATION
#MNEM.UNIT          VALUE    DESCRIPTION
#----------   ------------   ------------------------------
 PD  .                 GL:   PERMANENT DATUM
 EPD .F              5207:   ELEVATION PERMANENT DATUM
 LMF .                 GL:   LOG MEASURED FROM
 DMF .                 GL:   DRILLING MEASURED FROM
 EGL .F              5207:   GROUND LEVEL
 DATE.        15-DEC-1984:   RUN DATE
 RUN .                  1:   RUN NUMBER
 DD  .F               515:   DEPTH DRILLER
 DL  .F               511:   DEPTH LOGGER
 BLI .F               510:   BOTTOM LOG INTERVAL
 TLI .F                20:   TOP LOG INTERVAL
 CS  .IN            8.625:   CASING SIZE
 CBD .F                20:   CASING BOTTOM DRILLER
 CBL .F                20:   CASING BOTTOM LOGGER
 BS  .IN            7.875:   BIT SIZE
 BSD .F               515:   BIT SIZE AT DEPTH
 DFT .          KCL/WATER:   DRILLING FLUID TYPE
 MSS .           FLOWLINE:   MUD SAMPLE SOURCE
 RMS .OHMM           .129:   RESISTIVITY MUD SAMPLE
 MST .F                94:   MUD SAMPLE TEMPERATURE
 RMF .OHMM            .10:   RESISTIVITY MUD FILTRATE SAMPLE
 MFST.F                94:   MUD FILTRATE SAMPLE TEMPERATURE
 RMC .OHMM            .16:   RESISTIVITY MUD CAKE
 MCST.F                94:   MUD CAKE SAMPLE TEMPERATURE
 MFSS.               CALC:   MUD FILTRATE SAMPLE SOURCE
 MCSS.               CALC:   MUD CAKE SAMPLE SOURCE
 TCS .HRS               2:   TIME CURCULATED STOPPED
 MRT .F               100:   MAXIMUM RECORDED TEMPERATURE
 LUN .               6270:   LOGGING UNIT NUMBER
 LUL .                 FM:   LOGGING UNIT LOCATION
 ENGI.            LEBSOCK:   RECORDING ENGINEER
 WITN.          DAN LUERS:   WITNESSED BY
 CLNT.            A2DTECH:   CLIENT CODE
 ORIG.           5" PRINT:   ORIGIN OF DATA
 UWI .       490251100000:   UNIQUE WELL ID
 DICO. A2D Technologies, Inc.:   DIGITIZING COMPANY
~OTHER INFORMATION
~A   DEPT       RD         RS        SPR         DT       CALD          CNC     CORR         GRD      PORD       RHOB   
# ...
  380.5000    25.1337    25.4852   -51.6465    97.9411     7.8139     0.2661     0.0320    77.4650     0.1932     2.3518
  381.0000    24.4655    25.3268   -51.9280    98.7802     7.8145     0.2621     0.0231    77.7728     0.1965     2.3474
  381.5000    24.3135    24.8242   -52.2152    98.8605     7.8152     0.2582     0.0172    78.0805     0.2004     2.3460
  382.0000    23.8310    24.6741   -52.2009    99.0167     7.8158     0.2588     0.0203    76.3142     0.1992     2.3491
  382.5000    23.6869    24.6906   -52.6332    99.2552     7.8164     0.2588     0.0298    74.9778     0.1955     2.3537
  383.0000    23.7028    24.8783   -52.6213    99.4937     7.8169     0.2593     0.0386    75.8955     0.1910     2.3553
  383.5000    23.7188    24.5536   -52.6074    99.7140     7.8175     0.2587     0.0206    79.9070     0.1907     2.3546
  384.0000    23.7352    24.2290   -52.4479    99.8702     7.8181     0.2605     0.0087    81.6962     0.1997     2.3315
  384.5000    23.7545    24.2493   -52.4365    99.9495     7.8187     0.2707     0.0073    78.5965     0.2119     2.3181
  385.0000    23.6029    24.0985   -52.4250    99.4239     7.8194     0.2719     0.0149    77.1265     0.2170     2.3181
  385.5000    23.6227    23.9344   -52.7122    98.8214     7.8199     0.2657     0.0271    78.1750     0.2158     2.3252
  386.0000    23.4759    23.6362   -52.6979    98.2189     7.8205     0.2454     0.0287    79.9644     0.2096     2.3404
  386.5000    23.3261    23.6560   -52.8348    97.7681     7.8211     0.2369     0.0255    79.9785     0.1989     2.3469
  387.0000    23.3456    23.6719   -53.2666    97.4689     7.8217     0.2357     0.0183    79.3945     0.1956     2.3485
  387.5000    23.3613    23.6877   -53.2523    97.3218     7.8222     0.2381     0.0200    78.8162     0.1965     2.3486
  388.0000    23.3774    23.3746   -53.5395    97.2504     7.8228     0.2477     0.0155    75.8647     0.1973     2.3479
  388.5000    23.2316    23.0288   -53.8239    97.2549     7.8235     0.2526     0.0096    74.5429     0.1976     2.3503
  389.0000    22.7707    22.4599   -53.9604    97.2595     7.8241     0.2555     0.0037    75.1469     0.1963     2.3534
  389.5000    22.1690    21.8628   -54.3927    97.4166     7.8247     0.2512    -0.0007    76.9718     0.1907     2.3617
  390.0000    21.5759    21.2815   -54.5262    97.4969     7.8252     0.2509     0.0175    83.0245     0.1819     2.3760
  390.5000    20.5752    20.7157   -54.9585    97.5773     7.8258     0.2608     0.0129    84.8137     0.1783     2.3754
  391.0000    20.0282    20.1649   -54.9471    97.4300     7.8264     0.2659     0.0033    84.2326     0.1798     2.3732
  391.5000    19.7668    19.6287   -55.5273    97.4345     7.8271     0.2654    -0.0078    83.3552     0.1821     2.3688
  392.0000    19.3745    19.1069   -55.5130    97.4389     7.8277     0.2583     0.0134    83.0675     0.1843     2.3614
  392.5000    19.2541    18.6020   -55.5015    97.3675     7.8282     0.2496     0.0301    83.5262     0.1890     2.3585
  393.0000    19.4038    18.6144   -55.4900    97.1443     7.8288     0.2450     0.0407    83.0932     0.1908     2.3578
  393.5000    19.4168    18.6353   -55.4785    96.6936     7.8294     0.2414     0.0242    81.7742     0.1892     2.3635
  394.0000    19.4298    19.1645   -56.0588    95.9393     7.8299     0.2333     0.0038    81.1931     0.1829     2.3797
  394.5000    19.8497    19.7144   -56.3431    95.0903     7.8305     0.2305     0.0411    81.3527     0.1757     2.3858
  395.0000    19.9973    19.8643   -56.6568    94.7218     7.8312     0.2305     0.0471    82.2530     0.1732     2.3874
  395.5000    19.7393    19.7375   -57.2077    94.4363     7.8318     0.2317     0.0458    83.4496     0.1744     2.3860
  396.0000    19.2044    19.4831   -57.1934    94.3638     7.8286     0.2389     0.0112    84.2018     0.1756     2.3853
  396.5000    18.6634    18.8346   -57.1819    94.2924     7.8180     0.2485    -0.0008    80.1956     0.1744     2.3869
  397.0000    18.0844    18.4609   -57.3212    94.2980     7.8187     0.2509    -0.0067    76.4504     0.1740     2.3878
  397.5000    17.8484    18.2138   -57.6027    94.2266     7.8193     0.2400    -0.0065    76.0880     0.1743     2.3879
  398.0000    17.4913    17.7355   -57.7396    94.0034     7.8199     0.2316     0.0026    77.2875     0.1743     2.3880
  398.5000    17.3855    17.3865   -58.1715    93.8550     7.8206     0.2376     0.0117    77.2990     0.1727     2.3910
  399.0000    17.0405    17.2755   -58.3079    93.4812     7.8211     0.2478     0.0305    77.3104     0.1694     2.3971
  399.5000    17.0519    17.1710   -58.5894    93.1822     7.8217     0.2489     0.0390    77.4700     0.1616     2.4077
  400.0000    16.8294    16.8303   -58.8767    93.0349     7.8073     0.2426     0.0301    79.1111     0.1529     2.4175
  400.5000    16.6097    16.8416   -58.8623    92.6600     7.8080     0.2278     0.0287    79.7156     0.1537     2.4184
  401.0000    16.5092    16.5074   -58.8509    92.3485     7.8086     0.2242     0.0364    79.7295     0.1552     2.4185
  401.5000    16.2910    16.4007   -59.1381    91.3032     7.8108     0.2224     0.0485    79.2965     0.1548     2.4223
  402.0000    16.1898    15.9686   -59.4201    90.8710     7.8247     0.2233     0.0561    79.1569     0.1476     2.4352
  402.5000    16.0919    15.7628   -59.5561    90.3831     7.8253     0.2320     0.0427    79.1712     0.1428     2.4367
  403.0000    15.7726    15.5545   -59.9884    89.8670     7.8407     0.2494     0.0276    79.1827     0.1428     2.4360
  403.5000    15.7831    15.5675   -59.9740    89.7182     7.8443     0.2590     0.0188    80.9724     0.1464     2.4299
  404.0000    15.7937    15.5779   -60.2584    89.4936     7.8453     0.2614     0.0204    83.7987     0.1511     2.4218
  404.5000    15.8045    15.5884   -60.5457    89.4966     7.8464     0.2508     0.0192    83.8104     0.1521     2.4160
  405.0000    15.8175    15.5988   -60.2093    89.4229     7.8476     0.2347     0.0223    83.9704     0.1554     2.4131
  405.5000    15.8282    15.6100   -60.4908    89.4266     7.8486     0.2193     0.0224    85.7621     0.1579     2.4110
  406.0000    15.8388    15.6205   -60.4728    89.4296     7.8496     0.2114     0.0069    83.9958     0.1599     2.4080
  406.5000    15.8185    15.6309   -60.6065    89.5084     7.8358     0.2120    -0.0075    82.5230     0.1629     2.4074
  407.0000    15.8291    15.6417   -60.9034    89.5114     7.8368     0.2186     0.0017    83.4262     0.1607     2.4067
  407.5000    15.8376    15.6545   -61.3138    89.5144     7.8378     0.2348     0.0078    83.4378     0.1601     2.4045
  408.0000    15.8461    15.6650   -61.7433    89.3655     7.8536     0.2435    -0.0056    83.4493     0.1640     2.4016
  408.5000    15.8548    15.6755   -62.1763    89.3692     7.8547     0.2516    -0.0100    83.4608     0.1667     2.4002
  409.0000    15.8652    15.6860   -61.8625    89.3722     7.8557     0.2442    -0.0128    85.4578     0.1661     2.4010
  409.5000    15.8737    15.5858   -61.8482    89.3752     7.8418     0.2237    -0.0149    87.9311     0.1649     2.4019
  410.0000    15.7729    15.3850   -62.1302    89.3781     7.8280     0.2191    -0.0072    87.0538     0.1636     2.4071
  410.5000    15.5650    15.2893   -62.1154    89.3052     7.8142     0.2185     0.0089    85.8772     0.1570     2.4181
  411.0000    15.4641    15.2999   -62.2490    89.2316     7.8004     0.2179     0.0328    86.1879     0.1495     2.4323
  411.5000    15.4744    15.2045   -62.3825    89.0077     7.8017     0.2205     0.0449    87.6809     0.1414     2.4414
  412.0000    15.4827    15.0060   -62.3646    88.8589     7.8027     0.2271     0.0496    89.3221     0.1366     2.4473
  412.5000    15.4912    14.9127   -62.3503    88.7038     7.8037     0.2276     0.0392    88.2965     0.1378     2.4474
  413.0000    15.5014    14.9252   -62.1880    88.6372     7.8049     0.2181     0.0311    83.5476     0.1390     2.4474
  413.5000    15.5097    15.1429   -62.0266    88.3374     7.8059     0.2184     0.0198    81.2085     0.1377     2.4483
