~VERSION INFORMATION
 VERS.                2.0:   CWLS LOG ASCII STANDARD - VERSION 2.0
 WRAP.                 NO:   ONE LINE PER DEPTH STEP
~WELL INFORMATION
#MNEM.UNIT      DATA TYPE    INFORMATION
#----------   ------------   ------------------------------
 STRT.F           30.0000:   START DEPTH
 STOP.F          482.0000:   STOP DEPTH
 STEP.F            0.5000:   STEP LENGTH
 NULL.          -999.2500:   NO VALUE
 COMP. FENIX & SCISSON INC:   COMPANY
 WELL.        S 10 #72-10:   WELL
 FLD .             TEAPOT:   FIELD
 LOC .      S10 T38N R78W:   LOCATION
 CNTY.            NATRONA:   COUNTY
 STAT.            WYOMING:   STATE
 CTRY. UNITED STATES OF AMERICA:   COUNTRY
 SRVC.            Unknown:   SERVICE COMPANY
 DATE.        07-FEB-1978:   LOGDATE
 API .       490251056900:   API NUMBER
~CURVE INFORMATION
#MNEM.UNIT       API CODE    CURVE DESCRIPTION
#----------   ------------   ------------------------------
 DEPT.F                  :   
 CALD.IN     45 280 60 00:   CALIPER FROM DENSITY LOG
 CORR.G/C3   45 356 01 00:   DENSITY CORRECTION
 DPHI.DEC    45 890 12 00:   DENSITY POROSITY SANDSTONE
 GRD .GAPI   45 310 01 00:   GAMMA RAY FROM DENSITY LOG
 RHOB.G/C3   45 350 01 00:   BULK DENSITY
 SN  .OHMM   05 040 16 00:   SHORT NORMAL 16"
 SPR .MV     05 010 01 00:   SPONTANEOUS POTENTIAL FROM RES.
 ILD .OHMM   05 120 46 00:   INDUCTION LOG DEEP
~PARAMETER INFORMATION
#MNEM.UNIT          VALUE    DESCRIPTION
#----------   ------------   ------------------------------
 PD  .                 GL:   PERMANENT DATUM
 EPD .F              5174:   ELEVATION PERMANENT DATUM
 LMF .                 KB:   LOG MEASURED FROM
 DMF .                 KB:   DRILLING MEASURED FROM
 EKB .F              5177:   KELLING BUSHING
 EGL .F              5174:   GROUND LEVEL
 DATE.        07-FEB-1978:   RUN DATE
 RUN .                  1:   RUN NUMBER
 DD  .F               469:   DEPTH DRILLER
 DL  .F               482:   DEPTH LOGGER
 BLI .F               474:   BOTTOM LOG INTERVAL
 TLI .F                44:   TOP LOG INTERVAL
 CS  .IN            8.625:   CASING SIZE
 CBD .F                39:   CASING BOTTOM DRILLER
 CBL .F                42:   CASING BOTTOM LOGGER
 BS  .IN            7.875:   BIT SIZE
 BSD .F               469:   BIT SIZE AT DEPTH
 DFT .    LIGNO/SULF FULL:   DRILLING FLUID TYPE
 DFD .                8.7:   DRILLING FLUID DENSITY
 DFV .                 31:   DRILLING FLUID VISCOSITY
 DFPH.                  9:   DRILLING FLUID PH
 DFL .                4.8:   DRILLING FLUID LOSS
 MSS .           FLOWLINE:   MUD SAMPLE SOURCE
 RMS .OHMM             .9:   RESISTIVITY MUD SAMPLE
 MST .F                50:   MUD SAMPLE TEMPERATURE
 RMF .OHMM            .65:   RESISTIVITY MUD FILTRATE SAMPLE
 MFST.F                58:   MUD FILTRATE SAMPLE TEMPERATURE
 RMC .OHMM            1.2:   RESISTIVITY MUD CAKE
 MCST.F                58:   MUD CAKE SAMPLE TEMPERATURE
 MFSS.               MEAS:   MUD FILTRATE SAMPLE SOURCE
 RMB .OHMM            .55:   RESISTIVITY MUD AT BHT
 BHT .F                82:   BOTTOM HOLE TEMPERATURE
 TCS .HRS               3:   TIME CURCULATED STOPPED
 MRT .F                82:   MAXIMUM RECORDED TEMPERATURE
 LUN .               2958:   LOGGING UNIT NUMBER
 LUL .               CASP:   LOGGING UNIT LOCATION
 ENGI.            POINTER:   RECORDING ENGINEER
 WITN.         HARRINGTON:   WITNESSED BY
 CLNT.            A2DTECH:   CLIENT CODE
 ORIG.           5" PRINT:   ORIGIN OF DATA
 UWI .       490251056900:   UNIQUE WELL ID
 DICO. A2D Technologies, Inc.:   DIGITIZING COMPANY
~OTHER INFORMATION
~A   DEPT     CALD       CORR       DPHI         GRD      RHOB         SN        SPR        ILD   
   30.0000  -999.2500  -999.2500  -999.2500    75.7108  -999.2500  -999.2500  -999.2500  -999.2500
   30.5000  -999.2500  -999.2500  -999.2500    71.9834  -999.2500  -999.2500  -999.2500  -999.2500
   31.0000  -999.2500  -999.2500  -999.2500    69.9002  -999.2500  -999.2500  -999.2500  -999.2500
   31.5000  -999.2500  -999.2500  -999.2500    68.4149  -999.2500  -999.2500  -999.2500  -999.2500
   32.0000  -999.2500  -999.2500  -999.2500    69.3213  -999.2500  -999.2500  -999.2500  -999.2500
   32.5000  -999.2500  -999.2500  -999.2500    69.6297  -999.2500  -999.2500  -999.2500  -999.2500
   33.0000  -999.2500  -999.2500  -999.2500    71.2834  -999.2500  -999.2500  -999.2500  -999.2500
   33.5000  -999.2500  -999.2500  -999.2500    71.5944  -999.2500  -999.2500  -999.2500  -999.2500
   34.0000  -999.2500  -999.2500  -999.2500    70.0370  -999.2500  -999.2500  -999.2500  -999.2500
   34.5000  -999.2500  -999.2500  -999.2500    68.1729  -999.2500  -999.2500  -999.2500  -999.2500
   35.0000  -999.2500  -999.2500  -999.2500    68.8056  -999.2500  -999.2500  -999.2500  -999.2500
   35.5000  -999.2500  -999.2500  -999.2500    69.3877  -999.2500  -999.2500  -999.2500  -999.2500
   36.0000  -999.2500  -999.2500  -999.2500    69.0982  -999.2500  -999.2500  -999.2500  -999.2500
   36.5000  -999.2500  -999.2500  -999.2500    70.1541  -999.2500  -999.2500  -999.2500  -999.2500
   37.0000  -999.2500  -999.2500  -999.2500    67.7743  -999.2500  -999.2500  -999.2500  -999.2500
   37.5000  -999.2500  -999.2500  -999.2500    66.8869  -999.2500  -999.2500  -999.2500  -999.2500
   38.0000  -999.2500  -999.2500  -999.2500    68.3912  -999.2500  -999.2500  -999.2500  -999.2500
   38.5000  -999.2500  -999.2500  -999.2500    70.3439  -999.2500  -999.2500  -999.2500  -999.2500
   39.0000  -999.2500  -999.2500  -999.2500    70.5005  -999.2500  -999.2500  -999.2500  -999.2500
   39.5000  -999.2500  -999.2500  -999.2500    69.6155  -999.2500  -999.2500  -999.2500  -999.2500
   40.0000  -999.2500  -999.2500  -999.2500    68.1302  -999.2500  -999.2500  -999.2500  -999.2500
   40.5000  -999.2500  -999.2500  -999.2500    66.4954  -999.2500  -999.2500  -999.2500  -999.2500
   41.0000  -999.2500  -999.2500  -999.2500    65.3091  -999.2500  -999.2500  -999.2500  -999.2500
   41.5000  -999.2500  -999.2500  -999.2500    64.5712  -999.2500  -999.2500  -999.2500  -999.2500
   42.0000     8.1538  -999.2500     0.2935    62.6375     2.0164  -999.2500  -999.2500  -999.2500
   42.5000     8.1847  -999.2500     0.2970    62.7965     2.0037  -999.2500  -999.2500  -999.2500
   43.0000     8.2306  -999.2500     0.2957    63.1049     2.0068  -999.2500  -999.2500  -999.2500
   43.5000     8.2472  -999.2500     0.1557    62.8155     2.1156  -999.2500  -999.2500  -999.2500
   44.0000     8.2925     0.3595     0.1692    64.6786     2.3289  -999.2500  -999.2500  -999.2500
   44.5000     8.2937     0.3677     0.1821    68.6544     2.2989  -999.2500  -999.2500  -999.2500
   45.0000     8.2502     0.4898     0.1423    90.7953     2.3704     3.1089   -48.2822  1983.4387
   45.5000     8.0722     0.4959     0.0869    80.9393     2.4698     4.7805   -40.2151  1059.9397
   46.0000     7.8196     0.4960     0.0074    85.2860     2.6474     5.4176   -36.0286     0.8894
   46.5000     7.7013     0.4961     0.0165    84.3987     2.5790     6.8602   -33.3347     1.9896
   47.0000     7.6872     0.2776     0.0959    85.9029     2.4933     7.4577   -31.2377     2.5041
   47.5000     7.7035     0.2065     0.1003    86.8093     2.4459     7.9954   -30.0363     2.5544
   48.0000     7.7195     0.2164     0.1181    87.4167     2.4317     8.3375   -28.9842   137.9589
   48.5000     7.7504     0.2271     0.1145    87.7251     2.4679     8.5744   -28.2305    84.6721
   49.0000     7.7665     0.2016     0.1073    88.6315     2.4830     8.8180   -27.7754     6.7031
   49.5000     7.8024     0.1716     0.1085    89.5378     2.4710     9.0059   -27.7680     6.7498
   50.0000     7.8434     0.1777     0.1114    88.9494     2.4650     9.0083   -29.2531     6.8918
   50.5000     7.8800     0.1809     0.1030    87.8977     2.4810     9.0735   -31.3353     6.9398
   51.0000     7.9202     0.1795     0.1026    87.4439     2.4901     9.0133   -32.8204     7.0858
   51.5000     7.9661     0.1721     0.0881    86.7136     2.4953     9.0158   -35.2011     7.1352
   52.0000     8.0120     0.1647     0.0846    86.8970     2.5016     9.0100   -35.3950     7.1352
   52.5000     8.0429     0.1542     0.0867    87.0560     2.5084     8.9584   -32.0520     7.1352
   53.0000     8.0739     0.1318     0.0873    90.2045     2.5097     8.9615   -28.9103     7.1352
   53.5000     8.0438     0.0897     0.1044    92.6056     2.4857     8.9639   -32.3357     7.1352
   54.0000     7.9924     0.0793     0.1119    94.2570     2.4685     8.9664   -38.7462     7.1352
   54.5000     7.9431     0.0960     0.1158    89.9340     2.4595     8.9689   -43.6801     7.1352
   55.0000     7.8995     0.1277     0.1158    88.8948     2.4603     9.7499   -42.2438     7.1352
   55.5000     7.8558     0.1580     0.1155    88.4583     2.4686    10.3808   -29.1776     7.1352
   56.0000     7.8121     0.2138     0.1115    89.9625     2.5018    10.6019   -25.7095     7.1352
   56.5000     7.7684     0.2591     0.0657    91.7634     2.5349    10.6049   -25.0990     7.1352
   57.0000     7.7248     0.2682     0.0708    89.5331     2.5470    10.6816   -24.8213     7.1849
   57.5000     7.6958     0.1886     0.0829    90.2899     2.5260    10.6845   -25.1124     7.1849
   58.0000     7.6670     0.1149     0.1030    91.4952     2.4945    10.7619   -24.9539     7.1849
   58.5000     7.6535     0.1045     0.1175    90.6079     2.4591    10.7648   -24.7973     7.2349
   59.0000     7.6396     0.1618     0.1084    89.6904     2.4855    10.9182   -24.3421     7.3360
   59.5000     7.6255     0.1800     0.0867    91.6732     2.5097    10.9212   -23.5885     7.3360
   60.0000     7.6269     0.1108     0.0972    91.3837     2.5067    10.9242   -23.8796     7.3871
   60.5000     7.6728     0.0415     0.1153    90.1974     2.4729    10.9272   -24.1707     7.3871
   61.0000     7.7318     0.0373     0.1198    90.8050     2.4504    10.9302   -24.6111     7.3871
   61.5000     7.7934     0.0496     0.1128    91.6517     2.4557    10.8569   -25.0533     7.3871
   62.0000     7.8552     0.0541     0.1080    93.6662     2.4663    10.5635   -25.3444     7.3871
   62.5000     7.9316     0.0507     0.1038    96.6652     2.4731     9.6554   -25.6356     7.4904
   63.0000     7.9946     0.0363     0.1053    99.5148     2.4784     9.2643   -25.7774     7.5426
   63.5000     8.0570     0.0244     0.1070    99.2253     2.4822     9.0761   -25.7682     7.6480
   64.0000     8.1286     0.0214     0.1080    96.9927     2.4733     9.0158   -25.7608     7.8569
   64.5000     8.1595     0.0457     0.1055    95.2084     2.4741     8.9560   -25.7534     7.9672
   65.0000     8.1905     0.0699     0.1043    95.5169     2.4786     8.8966   -25.7460     8.0790
   65.5000     8.1916     0.0911     0.0943    95.2274     2.4892     8.8355   -25.8879     8.1358
   66.0000     8.1927     0.1033     0.0838    92.5463     2.5006     8.7788   -26.1790     8.1930
   66.5000     8.1786     0.1094     0.0846    90.3137     2.5111     8.7813   -26.4701     8.1935
   67.0000     8.1648     0.1095     0.0873    88.6789     2.5119     8.8449   -26.6120     8.3086
   67.5000     8.1512     0.1036     0.0901    89.2863     2.5112     8.9089   -25.8383     8.3091
   68.0000     8.1374     0.0977     0.0952    90.7906     2.5028     8.9119   -24.9234     8.3097
   68.5000     8.1233     0.1039     0.0938    93.4906     2.4977     8.9143   -24.3507     8.3103
   69.0000     8.1247     0.1281     0.0927    92.3043     2.4970     8.9788   -25.1632     8.3108
   69.5000     8.1106     0.1372     0.0936    89.6232     2.4964     8.9813   -27.6198     8.3114
   70.0000     8.0971     0.1449     0.0929    89.1843     2.4995     8.9211   -27.1628     8.3120
