~VERSION INFORMATION
 VERS.                2.0:   CWLS LOG ASCII STANDARD - VERSION 2.0
 WRAP.                 NO:   ONE LINE PER DEPTH STEP
~WELL INFORMATION
#MNEM.UNIT      DATA TYPE    INFORMATION
#----------   ------------   ------------------------------
 STRT.F           89.0000:   START DEPTH
 STOP.F         1360.0000:   STOP DEPTH
 STEP.F            0.5000:   STEP LENGTH
 NULL.          -999.2500:   NO VALUE
 COMP.           U S NAVY:   COMPANY
 WELL.     NPR 3 #85 S-11:   WELL
 FLD .             TEAPOT:   FIELD
 LOC .      S11 T38N R78W:   LOCATION
 CNTY.            NATRONA:   COUNTY
 STAT.            WYOMING:   STATE
 CTRY. UNITED STATES OF AMERICA:   COUNTRY
 SRVC.       Schlumberger:   SERVICE COMPANY
 DATE.        15-AUG-1966:   LOGDATE
 API .       490250959000:   API NUMBER
~CURVE INFORMATION
#MNEM.UNIT       API CODE    CURVE DESCRIPTION
#----------   ------------   ------------------------------
 DEPT.F                  :   
 SPR .MV     05 010 01 00:   SPONTANEOUS POTENTIAL FROM RES.
 CILD.MMHO   05 110 46 00:   CONDUCTIVITY INDUCTION LOG DEEP
 ASN .OHMM   05 041 16 00:   AMPLIFIED SHORT NORMAL 16"
 ILD .OHMM   05 120 46 00:   INDUCTION LOG DEEP
 GR  .GAPI   30 310 01 00:   GAMMA RAY
~PARAMETER INFORMATION
#MNEM.UNIT          VALUE    DESCRIPTION
#----------   ------------   ------------------------------
 PD  .                 GL:   PERMANENT DATUM
 EPD .F              5288:   ELEVATION PERMANENT DATUM
 LMF .                 KB:   LOG MEASURED FROM
 DAPD.F                 5:   FEET ABOVE PERMANENT DATUM
 DMF .                 KB:   DRILLING MEASURED FROM
 EKB .F            5286.9:   KELLING BUSHING
 EGL .F            5281.9:   GROUND LEVEL
 DATE.        15-AUG-1966:   RUN DATE
 RUN .                  1:   RUN NUMBER
 DD  .F              1360:   DEPTH DRILLER
 DL  .F              1361:   DEPTH LOGGER
 BLI .F              1360:   BOTTOM LOG INTERVAL
 TLI .F                88:   TOP LOG INTERVAL
 CS  .IN            8.625:   CASING SIZE
 CBD .F                12:   CASING BOTTOM DRILLER
 BS  .IN            7.875:   BIT SIZE
 BSD .F              1360:   BIT SIZE AT DEPTH
 DFT .          CHEM- GEL:   DRILLING FLUID TYPE
 DFD .                9.6:   DRILLING FLUID DENSITY
 DFV .                 60:   DRILLING FLUID VISCOSITY
 DFPH.                7.2:   DRILLING FLUID PH
 DFL .                6.4:   DRILLING FLUID LOSS
 MSS .         CIRCULATED:   MUD SAMPLE SOURCE
 RMS .OHMM           1.41:   RESISTIVITY MUD SAMPLE
 MST .F                72:   MUD SAMPLE TEMPERATURE
 RMF .OHMM           0.75:   RESISTIVITY MUD FILTRATE SAMPLE
 MFST.F                73:   MUD FILTRATE SAMPLE TEMPERATURE
 MFSS.               MEAS:   MUD FILTRATE SAMPLE SOURCE
 TCS .HRS             2.5:   TIME CURCULATED STOPPED
 LUN .               3527:   LOGGING UNIT NUMBER
 LUL .              CSPR.:   LOGGING UNIT LOCATION
 ENGI.               HAUG:   RECORDING ENGINEER
 WITN.             TUTTLE:   WITNESSED BY
 CLNT.            A2DTECH:   CLIENT CODE
 ORIG.       2", 5" PRINT:   ORIGIN OF DATA
 UWI .       490250959000:   UNIQUE WELL ID
 DICO. A2D Technologies, Inc.:   DIGITIZING COMPANY
~OTHER INFORMATION
~A   DEPT      SPR       CILD          ASN        ILD       GR   
# ...
  760.0000   -41.3927   245.2268     5.7444     4.0807    60.5423
  760.5000   -42.0023   198.2340     6.9474     4.8308    62.2621
  761.0000   -42.0067   152.7337     7.9549     6.4091    64.7686
  761.5000   -42.0112   129.6214     8.8421     7.7616    71.5231
  762.0000   -42.0157   114.7181     9.3835     8.3610    75.4484
  762.5000   -42.6253   111.7496     9.7444     8.2828    74.9654
  763.0000   -42.6297   112.5235     9.9248     7.9786    78.4132
  763.5000   -42.4829   122.2470     9.8647     7.4485    76.8289
  764.0000   -42.3361   137.9407     9.5639     6.7678    65.6470
  764.5000   -42.1893   153.6345     9.1579     6.0872    62.8040
  765.0000   -42.0425   173.3612     8.6767     5.0300    61.0624
  765.5000   -42.0469   201.7026     8.0602     4.4246    59.7927
  766.0000   -41.7448   223.3232     7.0977     4.1957    61.5125
  766.5000   -41.4507   227.6089     6.3841     4.1175    64.4910
  767.0000   -41.4322   228.3772     5.8647     4.1145    69.2002
  767.5000   -41.1582   228.3993     5.9436     4.1114    67.4585
  768.0000   -41.3140   228.4214     6.1453     4.2592    72.1677
  768.5000   -41.6210   225.4584     6.9774     4.6320    69.0804
  769.0000   -42.0793   210.5551     8.1504     5.5326    63.9449
  769.5000   -42.6889   174.7563     8.6917     6.1320    64.2708
  770.0000   -42.9960   153.8828     9.1128     6.8821    69.2892
  770.5000   -43.0005   135.9944     9.3985     7.4815    66.6063
  771.0000   -43.0049   124.0762     9.6692     7.7052    66.4353
  771.5000   -43.1607   121.1077     9.8496     7.7775    67.9977
  772.0000   -43.3164   123.3741    10.0747     7.8499    72.5495
  772.5000   -43.6235   123.3962    10.2135     7.9222    73.6427
  773.0000   -43.9305   121.1794    10.5111     7.9945    67.1782
  773.5000   -44.2375   118.9627    10.8094     8.1414    63.5485
  774.0000   -44.5446   116.7067    10.9573     8.2139    70.7751
  774.5000   -44.5492   114.4478    11.0301     8.2861    74.5403
  775.0000   -44.5537   112.3125    11.0276     8.2831    72.1693
  775.5000   -44.8617   115.3252    10.9499     8.2802    68.5396
  776.0000   -45.1687   116.0935    10.8717     8.2771    69.4754
  776.5000   -45.1732   116.8619    10.8692     8.2741    70.7205
  777.0000   -45.3289   117.6302    10.9426     8.2705    64.4160
  777.5000   -45.4847   116.1598    11.0153     8.3429    63.3037
  778.0000   -45.7917   114.6893    11.0880     8.4159    69.7436
  778.5000   -45.7962   112.4726    11.2359     8.4883    74.6129
  779.0000   -45.6483   111.0039    11.3838     8.5606    70.8231
  779.5000   -45.3502   109.5316    11.4566     8.6322    69.7108
  780.0000   -45.2033   108.0612    11.6045     8.7053    72.2173
  780.5000   -45.2089   106.5907    11.6767     8.7016    67.6427
  781.0000   -45.2134   106.6128    11.8245     8.8492    70.3065
  781.5000   -45.3691   105.8881    11.9724     8.9215    68.5648
  782.0000   -45.5331   105.9107    12.0452     9.0692    63.9911
  782.5000   -45.8321   105.9328    12.1179     9.1416    64.4549
  783.0000   -45.9879   105.9552    12.1906     9.2138    62.2413
  783.5000   -46.4471   105.2306    12.3379     9.3615    62.7024
  784.0000   -46.4516   105.1144    12.4858     9.4338    64.2621
  784.5000   -46.4561   103.7822    12.5592     9.5061    67.7126
  785.0000   -46.4605   102.7453    12.7065     9.7291    67.0723
  785.5000   -46.7676   101.4639    12.8544     9.8007    69.5787
  786.0000   -46.9233   100.2080    12.9277     9.9490    66.2637
  786.5000   -47.3817    98.7081    13.1502    10.0959    65.9381
  787.0000   -47.6887    96.4620    13.3733    10.3189    57.9030
  787.5000   -47.9957    94.2158    13.5964    10.6171    54.9948
  788.0000   -48.0002    91.9697    13.8947    10.9153    61.1852
  788.5000   -48.0047    88.9772    14.2686    11.1383    66.2091
  789.0000   -47.8579    86.7311    14.6534    11.5118    71.3996
  789.5000   -47.7110    83.7387    15.1879    12.2619    74.0541
  790.0000   -47.7055    80.0000    16.1399    12.7860    68.7262
  790.5000   -47.2661    76.9578    17.0397    12.9337    67.1094
  791.0000   -47.1193    73.9156    17.6387    12.8554    68.3571
  791.5000   -46.6710    72.5135    18.3129    12.8524    62.8394
  792.0000   -46.3729    72.5061    18.6870    12.6235    66.2899
  792.5000   -46.3774    73.2450    17.6313    12.3118    61.8735
  793.0000   -46.5331    74.7302    16.7266    11.9157    63.7479
  793.5000   -47.1428    76.2154    15.8971    11.3338    64.6810
  794.0000   -48.9627    84.1195    15.2931    10.8037    69.0755
  794.5000   -49.7236    91.1261    14.7643    10.4242    70.4806
  795.0000   -49.8793    94.1039    14.2356    10.1953    69.5257
  795.5000   -49.7325    95.5909    14.0075    10.1171    66.2106
  796.0000   -49.7370    97.8205    13.9298    10.1141    64.6263
  796.5000   -49.5900    98.5597    13.9273    10.1103    66.0314
  797.0000   -49.7459    97.8058    13.8492    10.1059    64.6045
  797.5000   -49.7504    97.4787    13.6963    10.1016    68.5270
  798.0000   -49.7154    97.1461    13.6939    10.0973    72.1348
  798.5000   -49.6678    96.8134    13.5410    10.0948    83.2939
  799.0000   -49.6109    96.4808    13.3882    10.0933    82.1816
  799.5000   -49.6168    97.0217    13.3105    10.0918    75.8772
  800.0000   -49.6228    97.7624    13.0825     9.9398    79.9568
  800.5000   -49.6287    99.2458    12.7793     9.3962    79.0003
  801.0000   -49.4834   102.2235    12.4761     8.8524    81.6626
  801.5000   -49.0355   109.6789    12.1729     7.9771    82.4399
  802.0000   -48.5876   122.3575    11.4937     7.4485    77.0749
  802.5000   -47.9884   133.5442    10.3592     6.7693    75.9641
  803.0000   -46.3302   146.2234     9.8114     6.4666    77.5219
  803.5000   -44.5207   158.1563     9.2320     5.8628    80.1842
  804.0000   -43.0138   167.8505     8.5853     5.4095    83.9478
  804.5000   -41.5069   178.2909     8.2092     4.9562    92.2743
  805.0000   -40.9077   185.7463     7.7880     4.8041    94.1530
  805.5000   -40.6111   192.6042     7.4871     4.8026    90.8333
  806.0000   -40.6172   200.0101     7.2439     4.8011    93.9676
  806.5000   -40.6245   202.8884     7.1259     4.8750    88.1336
  807.0000   -40.6304   202.1330     7.1460     4.8735    82.1424
  807.5000   -40.6364   200.6331     7.2609     4.9473    83.0739
  808.0000   -40.6423   199.1332     7.3510     4.9458    86.6802
  808.5000   -40.6483   196.8871     7.4110     4.9543    88.7474
  809.0000   -40.6542   195.3872     7.4259     4.9425    92.7915
  809.5000   -40.6602   195.3799     7.4257     4.9410    90.3018
  810.0000   -40.5134   196.8651     7.3654     4.9395    86.6825
  810.5000   -40.3695   196.8577     7.3051     4.9380    81.8853
  811.0000   -40.2242   197.5985     7.1997     4.9365    83.9276
  811.5000   -40.0787   196.8430     7.0492     4.9351    88.4810
  812.0000   -40.0848   194.5969     7.0039     4.9336    83.1191
  812.5000   -40.0908   193.8433     7.0188     4.9321    82.0022
  813.0000   -40.0968   191.5474     7.0938     4.9306    85.7658
  813.5000   -40.1029   189.9977     7.2140     5.0047    91.4175
  814.0000   -40.1101   187.8493     7.3947     5.0030    95.8105
  814.5000   -39.9633   186.3494     7.4393     4.9262    92.0219
  815.0000   -39.9707   184.8495     7.4391     4.9247    86.0306
  815.5000   -39.9767   184.8422     7.4088     4.9232    83.5008
  816.0000   -39.9826   184.8348     7.3636     4.9116    86.6350
  816.5000   -39.9886   188.5588     7.3183     4.7693    88.1991
  817.0000   -39.9945   192.2828     7.2731     4.6925    93.0609
  817.5000   -40.0005   196.7531     7.1827     4.6910    94.9397
  818.0000   -39.8537   201.9697     7.1224     4.6142    93.1934
  818.5000   -39.8611   204.2030     7.0320     4.6128    88.4608
  819.0000   -39.7156   204.1938     6.9416     4.6869    87.3470
  819.5000   -39.5704   204.1864     6.8964     4.8357    86.4307
  820.0000   -39.5764   202.6866     6.8962     4.9099    85.1193
  820.5000   -39.5825   200.4403     6.8961     4.9080    86.9949
