~VERSION INFORMATION
 VERS.                2.0:   CWLS LOG ASCII STANDARD - VERSION 2.0
 WRAP.                 NO:   ONE LINE PER DEPTH STEP
~WELL INFORMATION
#MNEM.UNIT      DATA TYPE    INFORMATION
#----------   ------------   ------------------------------
 STRT.F            6.0000:   START DEPTH
 STOP.F         4020.0000:   STOP DEPTH
 STEP.F            0.5000:   STEP LENGTH
 NULL.          -999.2500:   NO VALUE
 COMP. LAWRENCE/ALLISON INC:   COMPANY
 WELL.       66 JX #33-33:   WELL
 FLD .              NPR-3:   FIELD
 LOC .      S33 T39N R78W:   LOCATION
 CNTY.            NATRONA:   COUNTY
 STAT.            WYOMING:   STATE
 CTRY. UNITED STATES OF AMERICA:   COUNTRY
 SRVC.      Dresser Atlas:   SERVICE COMPANY
 DATE.        02-DEC-1983:   LOGDATE
 API .       490251095100:   API NUMBER
~CURVE INFORMATION
#MNEM.UNIT       API CODE    CURVE DESCRIPTION
#----------   ------------   ------------------------------
 DEPT.F                  :   
 CALD.IN     45 280 60 00:   CALIPER
 CNC .DEC    42 890 03 00:   NEUTRON POROSITY SANDSTONE
 PORD.DEC    45 890 12 00:   POROSITY DENSITY SANDSTONE
 DEN .G/C3   45 350 01 00:   COMPENSATED BULK DENSTIY
 CORR.G/C3   45 356 01 00:   DENSITY CORRECTION
 RFOC.OHMM   07 220 04 00:   RESISTIVITY FOCUSED LOG
 RILD.OHMM   07 120 46 00:   INDUCTION LOG DEEP RESISTIVITY
 RILM.OHMM   07 120 44 00:   INDUCTION LOG MEDIUM RESISTIVITY
 GRR .GAPI   07 310 01 00:   GAMMA RAY FROM RES. LOG.
 DT  .US/F   60 520 00 00:   INTERVAL TRANSIT TIME
 SPR .MV     07 010 01 00:   SPONTANEOUS POTENTIAL
~PARAMETER INFORMATION
#MNEM.UNIT          VALUE    DESCRIPTION
#----------   ------------   ------------------------------
 PD  .                 GL:   PERMANENT DATUM
 EPD .F              5141:   ELEVATION PERMANENT DATUM
 LMF .                 KB:   LOG MEASURED FROM
 DAPD.F                10:   FEET ABOVE PERMANENT DATUM
 DMF .                 KB:   DRILLING MEASURED FROM
 EKB .F              5151:   KELLING BUSHING
 EGL .F              5141:   GROUND LEVEL
 DATE.            12-2-83:   RUN DATE
 RUN .                  1:   RUN NUMBER
 DD  .F              4025:   DEPTH DRILLER
 DL  .F              4020:   DEPTH LOGGER
 BLI .F              4018:   BOTTOM LOG INTERVAL
 TLI .F                10:   TOP LOG INTERVAL
 CS  .IN            8.625:   CASING SIZE
 CBD .F               718:   CASING BOTTOM DRILLER
 CBL .F               722:   CASING BOTTOM LOGGER
 BS  .IN            7.875:   BIT SIZE
 BSD .F              4025:   BIT SIZE AT DEPTH
 DFT .            GEL/KCL:   DRILLING FLUID TYPE
 DFD .                  9:   DRILLING FLUID DENSITY
 DFV .                 45:   DRILLING FLUID VISCOSITY
 DFPH.                8.5:   DRILLING FLUID PH
 DFL .                 12:   DRILLING FLUID LOSS
 MSS .           FLOWLINE:   MUD SAMPLE SOURCE
 RMS .OHMM            .37:   RESISTIVITY MUD SAMPLE
 MST .F                88:   MUD SAMPLE TEMPERATURE
 RMF .OHMM            .29:   RESISTIVITY MUD FILTRATE SAMPLE
 MFST.F                88:   MUD FILTRATE SAMPLE TEMPERATURE
 RMC .OHMM            .46:   RESISTIVITY MUD CAKE
 MCST.F                88:   MUD CAKE SAMPLE TEMPERATURE
 MFSS.               MEAS:   MUD FILTRATE SAMPLE SOURCE
 MCSS.               CALC:   MUD CAKE SAMPLE SOURCE
 RMB .OHMM            .26:   RESISTIVITY MUD AT BHT
 BHT .F               127:   BOTTOM HOLE TEMPERATURE
 TCS .HRS               4:   TIME CURCULATED STOPPED
 MRT .F               127:   MAXIMUM RECORDED TEMPERATURE
 LUN .               6264:   LOGGING UNIT NUMBER
 LUL .              WLSTN:   LOGGING UNIT LOCATION
 ENGI.            PANASUK:   RECORDING ENGINEER
 WITN.              SCOTT:   WITNESSED BY
 CLNT.            A2DTECH:   CLIENT CODE
 ORIG.       2", 5" PRINT:   ORIGIN OF DATA
 UWI .       490251095100:   UNIQUE WELL ID
 DICO. A2D Technologies, Inc.:   DIGITIZING COMPANY
~OTHER INFORMATION
~A    DEPT    CALD        CNC       PORD        DEN       CORR       RFOC       RILD       RILM          GRR       DT        SPR   
# ...
 2019.0000     9.0838     0.3003     0.0606     2.5489     0.1049    10.2287     8.7729     8.5623   136.4015    89.4302   -38.5583
 2019.5000     9.0838     0.3004     0.0565     2.5547     0.1123    10.2358     8.8172     8.5921   131.3011    89.2422   -38.5591
 2020.0000     9.0838     0.3006     0.0559     2.5557     0.1028    10.2423     8.8616     8.6220   127.5685    89.0544   -38.4109
 2020.5000     9.0838     0.3085     0.0562     2.5568     0.1065    10.2500     8.8998     8.6519   128.8659    88.8665   -38.3002
 2021.0000     9.0838     0.3181     0.0549     2.5577     0.1137    10.2576     8.9276     8.6820   133.6175    88.8475   -38.1709
 2021.5000     9.0838     0.3278     0.0540     2.5568     0.1107    10.2653     8.9520     8.7122   135.8503    88.8476   -38.0532
 2022.0000     9.0838     0.3350     0.0574     2.5512     0.0924    10.2729     8.9764     8.7425   134.4154    88.8478   -37.9256
 2022.5000     9.0838     0.3147     0.0610     2.5474     0.0745    10.2806     9.0008     8.7729   132.9562    88.8182   -37.8274
 2023.0000     9.0838     0.2906     0.0618     2.5475     0.0636    10.2883     9.0254     8.8034   133.4941    88.7593   -37.7936
 2023.5000     9.0838     0.2791     0.0610     2.5467     0.0700    10.2960     9.0500     8.8340   135.0550    88.7003   -37.7613
 2024.0000     9.0838     0.2686     0.0610     2.5445     0.1009    10.3037     9.0746     8.8650   136.9690    88.6523   -37.7297
 2024.5000     9.0838     0.2686     0.0647     2.5393     0.0742    10.3114     9.0994     8.8952   139.2285    88.7024   -37.6976
 2025.0000     9.0838     0.2798     0.0682     2.5323     0.0476    10.4584     9.1242     8.9253   137.9176    88.7260   -37.6658
 2025.5000     9.0838     0.2910     0.0717     2.5252     0.0563    10.6462     9.1489     8.9554   135.0778    88.5113   -37.6334
 2026.0000     9.0838     0.2902     0.0754     2.5224     0.0683    10.7969     8.9821     8.9795   133.2965    88.2962   -37.6018
 2026.5000     9.0838     0.2961     0.0754     2.5249     0.0801    10.7464     8.8860     8.7982   132.3461    88.1550   -37.5685
 2027.0000     9.0838     0.2982     0.0720     2.5378     0.0871    10.6980     8.7693     8.6518   132.6165    88.1865   -37.5385
 2027.5000     9.0838     0.2982     0.0632     2.5500     0.0901    10.3981     8.6541     8.5078   134.0209    88.2178   -37.5023
 2028.0000     9.0838     0.2855     0.0586     2.5464     0.0830    10.1234     8.5402     8.3658   138.9469    88.2659   -37.4779
 2028.5000     9.0838     0.2798     0.0645     2.5428     0.0846    10.5029     8.4275     8.2257   142.3725    88.4797   -37.4304
 2029.0000     9.0838     0.2923     0.0636     2.5477     0.0940     9.9059     8.3165     8.0435   143.9702    88.8143   -37.5120
 2029.5000     9.0838     0.3145     0.0598     2.5528     0.1219     9.2416     8.2072     8.0871   145.1994    89.2685   -37.7251
 2030.0000     9.0838     0.3411     0.0594     2.5511     0.1297     8.8183     8.0408     8.1927   144.0608    89.5491   -37.9251
 2030.5000     9.0838     0.3518     0.0615     2.5463     0.1030     9.2615     8.0428     8.3001   141.8424    89.6815   -38.1221
 2031.0000     9.0838     0.3275     0.0637     2.5411     0.0765     9.8044     8.2234     8.4089   141.1466    89.7173   -38.3396
 2031.5000     9.0838     0.2993     0.0658     2.5344     0.0726    10.2220     8.3953     8.5188   141.8497    89.7194   -38.3913
 2032.0000     9.0838     0.2922     0.0704     2.5274     0.0804    10.2402     8.5713     8.6300   139.5414    89.4655   -38.2827
 2032.5000     9.0838     0.3007     0.0756     2.5204     0.0874    10.2584     8.7510     8.7424   135.3990    89.6329   -38.2034
 2033.0000     9.0838     0.3068     0.0806     2.5147     0.0726    10.2767     8.9345     8.8564   131.4479    89.6860   -38.1085
 2033.5000     9.0838     0.3088     0.0798     2.5180     0.0561    10.2950     9.0651     8.9833   129.3586    89.4713   -38.0231
 2034.0000     9.0838     0.2963     0.0749     2.5305     0.0708    10.3114     9.0258     8.9109   129.7405    89.1491   -37.9297
 2034.5000     9.0838     0.2981     0.0694     2.5398     0.0663    10.5404     8.9484     8.8090   129.5114    88.6977   -37.8377
 2035.0000     9.0838     0.2994     0.0645     2.5457     0.1023    10.8967     8.8717     8.7085   127.6251    88.1964   -37.7634
 2035.5000     9.0838     0.2948     0.0610     2.5445     0.1048    10.8708     8.7965     8.6091   127.7639    87.7598   -37.7170
 2036.0000     9.0838     0.2878     0.0627     2.5424     0.0936    10.6266     8.7206     8.5037   130.4781    87.4735   -37.5811
 2036.5000     9.0838     0.2850     0.0646     2.5422     0.0962    10.1119     8.6457     8.5960   132.5861    87.4437   -37.4180
 2037.0000     9.0838     0.2944     0.0643     2.5434     0.1035     9.6224     8.5717     8.6584   134.0952    87.5691   -37.5245
 2037.5000     9.0838     0.3037     0.0635     2.5441     0.1009     9.2301     8.4983     8.6480   136.5802    87.8765   -37.6082
 2038.0000     9.0838     0.3104     0.0631     2.5413     0.0954     9.8350     8.4223     8.6409   139.1849    88.3154   -37.7027
 2038.5000     9.0838     0.2871     0.0644     2.5402     0.0938    10.4016     8.4382     8.6326   139.4256    88.5872   -37.7955
 2039.0000     9.0838     0.2874     0.0643     2.5433     0.0951    10.2292     8.4592     8.6248   135.5243    88.6473   -37.8081
 2039.5000     9.0838     0.3003     0.0630     2.5470     0.0964    10.0376     8.4803     8.6172   131.5220    88.6473   -37.7578
 2040.0000     9.0838     0.3161     0.0605     2.5515     0.1076    10.0864     8.5020     8.6097   132.1797    88.6473   -37.7155
 2040.5000     9.0838     0.3332     0.0576     2.5560     0.1143    10.1982     8.5243     8.6022   135.3436    88.6473   -37.6740
 2041.0000     9.0838     0.3442     0.0547     2.5604     0.1201    10.3120     8.5469     8.5947   134.2698    88.6473   -37.6232
 2041.5000     9.0838     0.3211     0.0534     2.5593     0.1072    10.4050     8.5746     8.5872   130.4588    88.6696   -37.6827
 2042.0000     9.0838     0.3041     0.0566     2.5515     0.0844    10.0754     8.5037     8.5797   134.1034    88.8922   -37.8096
 2042.5000     9.0838     0.2933     0.0607     2.5445     0.0614     9.7586     8.4801     8.5722   141.3331    89.2360   -37.9343
 2043.0000     9.0838     0.2874     0.0649     2.5376     0.0400     9.8042     8.4600     8.5647   143.3806    89.6516   -38.0432
 2043.5000     9.0838     0.2846     0.0682     2.5366     0.0449     9.8590     8.4389     8.5572   136.3176    89.8565   -38.1915
 2044.0000     9.0838     0.2882     0.0659     2.5430     0.0696     9.9128     8.4200     8.5498   130.9661    90.0615   -38.0650
 2044.5000     9.0838     0.2927     0.0584     2.5545     0.0929     9.9658     8.4012     8.5424   130.6979    90.2669   -37.8721
 2045.0000     9.0838     0.3006     0.0515     2.5657     0.1048    10.0287     8.3824     8.5349   135.4782    90.4518   -37.7788
 2045.5000     9.0838     0.3070     0.0475     2.5723     0.1161    10.2038     8.3637     8.5274   142.1534    90.4523   -37.6498
 2046.0000     9.0838     0.3058     0.0447     2.5766     0.1273    10.4053     8.3449     8.5199   140.9224    90.3143   -37.5404
 2046.5000     9.0838     0.3180     0.0437     2.5760     0.1232    10.1902     8.3263     8.5123   136.8416    89.8588   -37.4280
 2047.0000     9.0838     0.3254     0.0476     2.5681     0.1101     9.8188     8.3077     8.4997   137.4599    89.4296   -37.4583
 2047.5000     9.0838     0.3176     0.0529     2.5596     0.0898     9.1489     8.2891     8.5078   140.3980    89.2369   -37.5203
 2048.0000     9.0838     0.3114     0.0582     2.5509     0.0773     9.3888     8.2683     8.5381   142.1691    89.0442   -37.5876
 2048.5000     9.0838     0.3051     0.0627     2.5441     0.0992     9.9166     8.3214     8.5782   141.1179    89.0230   -37.6117
 2049.0000     9.0838     0.2991     0.0646     2.5415     0.0961    10.3114     8.3824     8.5167   137.6157    89.1733   -37.5469
