~VERSION INFORMATION
 VERS.                2.0:   CWLS LOG ASCII STANDARD - VERSION 2.0
 WRAP.                 NO:   ONE LINE PER DEPTH STEP
~WELL INFORMATION
#MNEM.UNIT      DATA TYPE    INFORMATION
#----------   ------------   ------------------------------
 STRT.F            0.0000:   START DEPTH
 STOP.F          978.0000:   STOP DEPTH
 STEP.F            0.5000:   STEP LENGTH
 NULL.          -999.2500:   NO VALUE
 COMP. FENIX & SCISSON INC:   COMPANY
 WELL. N.P.R #3 SX-14 #53:   WELL
 FLD .             TEAPOT:   FIELD
 LOC .      S14 T38N R78W:   LOCATION
 CNTY.            NATRONA:   COUNTY
 STAT.            WYOMING:   STATE
 CTRY. UNITED STATES OF AMERICA:   COUNTRY
 SRVC.              Welex:   SERVICE COMPANY
 DATE.        06-MAR-1977:   LOGDATE
 API .       490251029800:   API NUMBER
~CURVE INFORMATION
#MNEM.UNIT       API CODE    CURVE DESCRIPTION
#----------   ------------   ------------------------------
 DEPT.F                  :   
 SPR .MV     07 010 01 00:   SPONTANEOUS POTENTIAL
 SGRD.OHMM   07 220 05 00:   SHALLOW RESISTIVITY
 ILD .OHMM   07 120 46 00:   INDUCTION LOG DEEP
 ILM .OHMM   07 120 44 00:   INDUCTION LOG MEDIUM
 GRD .GAPI   45 310 01 00:   GAMMA RAY FROM DENSITY LOG
 CALD.IN     45 280 60 00:   CALIPER
 RHOB.G/C3   45 350 01 00:   BULK DENSITY
 DPHI.DEC    45 890 12 00:   DENSITY POROSITY SANDSTONE
 CORR.G/C3   45 356 01 00:   DENSITY CORRECTION
~PARAMETER INFORMATION
#MNEM.UNIT          VALUE    DESCRIPTION
#----------   ------------   ------------------------------
 PD  .                 GL:   PERMANENT DATUM
 EPD .F              5230:   ELEVATION PERMANENT DATUM
 LMF .                 GL:   LOG MEASURED FROM
 DMF .                 GL:   DRILLING MEASURED FROM
 EGL .F              5230:   GROUND LEVEL
 DATE.             3-6-77:   RUN DATE
 RUN .                  1:   RUN NUMBER
 DD  .F               989:   DEPTH DRILLER
 DL  .F               980:   DEPTH LOGGER
 BLI .F               978:   BOTTOM LOG INTERVAL
 TLI .F                50:   TOP LOG INTERVAL
 CS  .IN            8.625:   CASING SIZE
 CBD .F                42:   CASING BOTTOM DRILLER
 CBL .F                42:   CASING BOTTOM LOGGER
 BS  .IN            7.875:   BIT SIZE
 BSD .F               989:   BIT SIZE AT DEPTH
 DFT .            KCL MUD:   DRILLING FLUID TYPE
 DFD .                8.4:   DRILLING FLUID DENSITY
 DFV .                 30:   DRILLING FLUID VISCOSITY
 DFPH.                7.2:   DRILLING FLUID PH
 DFL .               14.4:   DRILLING FLUID LOSS
 MSS .            MUD PIT:   MUD SAMPLE SOURCE
 RMS .OHMM            .41:   RESISTIVITY MUD SAMPLE
 MST .F                48:   MUD SAMPLE TEMPERATURE
 RMF .OHMM            .39:   RESISTIVITY MUD FILTRATE SAMPLE
 MFST.F                48:   MUD FILTRATE SAMPLE TEMPERATURE
 RMC .OHMM            .55:   RESISTIVITY MUD CAKE
 MCST.F                48:   MUD CAKE SAMPLE TEMPERATURE
 MFSS.           FANN KIT:   MUD FILTRATE SAMPLE SOURCE
 MCSS.           FANN KIT:   MUD CAKE SAMPLE SOURCE
 RMB .OHMM            .34:   RESISTIVITY MUD AT BHT
 BHT .F                58:   BOTTOM HOLE TEMPERATURE
 TCS .HRS               2:   TIME CURCULATED STOPPED
 MRT .F                58:   MAXIMUM RECORDED TEMPERATURE
 LUN .               8611:   LOGGING UNIT NUMBER
 LUL .           GILLETTE:   LOGGING UNIT LOCATION
 ENGI.            C. DOAK:   RECORDING ENGINEER
 WITN.           S. BURKE:   WITNESSED BY
 CLNT.            A2DTECH:   CLIENT CODE
 ORIG.        2" 5" PRINT:   ORIGIN OF DATA
 UWI .       490251029800:   UNIQUE WELL ID
 DICO. A2D Technologies, Inc.:   DIGITIZING COMPANY
~OTHER INFORMATION
~A    DEPT     SPR       SGRD        ILD        ILM        GRD       CALD       RHOB       DPHI       CORR   
# ...
  219.0000   -40.1429     6.1895     3.6460     4.8251   111.0799     7.8499     2.3561     0.1711     0.0443
  219.5000   -40.1902     6.0013     3.4302     4.6020   111.4861     7.8494     2.3730     0.1620     0.0463
  220.0000   -40.2375     5.6147     3.2272     3.9746   113.6804     7.8489     2.3889     0.1543     0.0458
  220.5000   -40.2848     4.1688     3.0362     3.4745   116.6171     7.8484     2.4009     0.1471     0.0453
  221.0000   -40.3321     3.2599     2.8565     3.1085   119.6397     7.8479     2.4129     0.1399     0.0447
  221.5000   -40.3793     3.0724     2.8091     2.9889   121.0007     7.8475     2.4237     0.1323     0.0435
  222.0000   -40.4266     3.2449     2.7772     3.3763   121.9902     7.8470     2.4241     0.1327     0.0407
  222.5000   -40.4739     3.4142     2.8635     4.0468   122.9743     7.8465     2.4179     0.1360     0.0380
  223.0000   -40.5212     3.5923     2.9596     3.8624   124.0279     7.8460     2.4142     0.1395     0.0352
  223.5000   -40.5685     4.3230     3.0590     3.7949   122.6785     7.8455     2.4178     0.1380     0.0363
  224.0000   -40.6158     5.3446     3.3026     4.3585   119.2001     7.8450     2.4231     0.1340     0.0390
  224.5000   -40.6631     6.9727     3.5893     4.7979   115.3580     7.8445     2.4314     0.1299     0.0418
  225.0000   -40.7104     6.7503     3.9009     4.9735   111.4801     7.8440     2.4400     0.1268     0.0446
  225.5000   -40.7577     6.2565     4.2395     5.0611   107.7313     7.8435     2.4487     0.1229     0.0473
  226.0000   -40.8050     6.0037     4.6075     5.3939   109.9079     7.8430     2.4537     0.1191     0.0502
  226.5000   -40.8523     6.4102     4.9767     5.8837   112.5617     7.8455     2.4548     0.1153     0.0508
  227.0000   -40.8996     7.0351     5.1619     6.1463   113.9625     7.8615     2.4559     0.1137     0.0513
  227.5000   -40.9468     7.6947     5.3540     6.2114   113.2442     7.8771     2.4586     0.1139     0.0518
  228.0000   -40.9941     7.8388     5.5533     6.2801   111.5669     7.8925     2.4616     0.1132     0.0523
  228.5000   -41.0414     7.3772     5.7600     6.5122   109.6817     7.8990     2.4657     0.1089     0.0542
  229.0000   -41.0887     7.2836     5.9744     6.7757   107.9478     7.8764     2.4708     0.1049     0.0569
  229.5000   -41.1360     7.8502     6.1967     7.0499   108.9035     7.8542     2.4760     0.1009     0.0597
  230.0000   -41.1833     8.2975     6.4273     7.3352   109.5417     7.8414     2.4813     0.0996     0.0622
  230.5000   -41.2306     8.3592     6.6665     7.5482   108.9952     7.8388     2.4816     0.1012     0.0610
  231.0000   -41.2779     8.3592     6.8383     7.6761   108.8766     7.8362     2.4690     0.1067     0.0591
  231.5000   -41.3252     8.5137     6.8675     7.8062   110.2418     7.8336     2.4564     0.1127     0.0565
  232.0000   -41.3725     8.7907     6.8950     7.9841   111.4276     7.8310     2.4455     0.1187     0.0539
  232.5000   -41.4198     9.1632     6.7456     7.8890   112.1265     7.8284     2.4433     0.1202     0.0526
  233.0000   -41.4671     8.7899     6.5772     7.7469   112.8167     7.8258     2.4409     0.1216     0.0532
  233.5000   -41.5144     8.2854     6.4126     7.6074   112.5679     7.8232     2.4383     0.1229     0.0538
  234.0000   -41.5617     7.9111     6.2521     7.4704   112.2571     7.8238     2.4321     0.1243     0.0536
  234.5000   -41.6090     7.9111     6.0957     7.3360   111.9538     7.8253     2.4169     0.1341     0.0481
  235.0000   -41.6563     7.9111     5.9432     7.2041   112.1340     7.8267     2.4016     0.1445     0.0425
  235.5000   -41.7035     7.7074     5.7899     7.0740   112.7163     7.8282     2.3861     0.1548     0.0369
  236.0000   -41.7520     7.4376     5.5455     6.8649   113.2939     7.8296     2.3786     0.1622     0.0314
  236.5000   -41.7259     7.1772     5.3041     6.6061   113.6771     7.8310     2.3888     0.1537     0.0256
  237.0000   -41.6694     6.9260     5.0732     6.3571   113.8315     7.8325     2.4006     0.1471     0.0251
  237.5000   -41.6116     6.6835     4.8523     6.1175   114.0132     7.8339     2.4097     0.1407     0.0260
  238.0000   -41.5540     6.4049     4.6411     5.8337   114.9800     7.8354     2.4171     0.1366     0.0282
  238.5000   -41.4964     6.4728     4.4390     5.4544   117.9753     7.8368     2.4245     0.1325     0.0309
  239.0000   -41.4385     6.5752     4.2457     5.0997   120.9504     7.8382     2.4319     0.1285     0.0337
  239.5000   -41.3765     5.0948     4.0468     4.6873   121.7121     7.8397     2.4393     0.1245     0.0381
  240.0000   -41.5066     3.4744     4.0098     4.8235   118.6972     7.8411     2.4468     0.1204     0.0430
  240.5000   -41.6819     4.9045     4.0098     5.0124   114.7201     7.8425     2.4541     0.1164     0.0479
  241.0000   -41.8579     6.3231     4.1432     5.2088   110.7599     7.8440     2.4562     0.1120     0.0525
  241.5000   -42.0336     6.6012     4.2979     5.4128   109.4826     7.8454     2.4561     0.1130     0.0551
  242.0000   -42.2091     6.6366     4.4583     5.6248   108.3212     7.8469     2.4550     0.1141     0.0575
  242.5000   -42.3847     6.6721     4.6248     5.8451   107.2698     7.8483     2.4529     0.1153     0.0600
  243.0000   -42.5602     6.7078     4.7974     6.0616   107.4422     7.8497     2.4510     0.1180     0.0622
  243.5000   -42.7357     6.7436     4.9765     6.0803   108.8405     7.8512     2.4393     0.1233     0.0616
  244.0000   -42.9114     6.7797     5.1623     6.0970   110.7270     7.8526     2.4236     0.1307     0.0609
  244.5000   -43.0870     6.8160     5.3303     6.1173   113.3957     7.8541     2.4078     0.1383     0.0596
  245.0000   -43.2620     6.8525     5.3303     6.0747   115.4329     7.8555     2.3860     0.1557     0.0555
  245.5000   -43.3391     6.8931     5.2333     6.0219   116.8344     7.8569     2.3603     0.1735     0.0513
  246.0000   -43.3093     6.5385     5.0665     5.9696   116.5735     7.8584     2.3347     0.1913     0.0472
  246.5000   -43.2799     6.2309     4.8765     5.9177   113.5169     7.8598     2.3081     0.2046     0.0430
  247.0000   -43.2501     6.4049     4.6813     5.7400   110.2824     7.8613     2.3045     0.2045     0.0388
  247.5000   -43.2205     6.1357     4.3504     5.4863   108.7231     7.8625     2.3154     0.1977     0.0347
  248.0000   -43.1909     6.0146     3.9804     5.2438   107.9193     7.8608     2.3500     0.1795     0.0344
  248.5000   -43.1606     6.1175     3.6435     4.9247   107.2864     7.8593     2.3843     0.1613     0.0389
  249.0000   -43.1548     5.8645     3.3351     4.4736   108.8145     7.8577     2.4106     0.1429     0.0434
  249.5000   -43.1550     5.2010     3.0528     3.8287   111.0582     7.8561     2.4157     0.1387     0.0444
  250.0000   -43.1452     4.1611     2.7944     2.8811   113.3133     7.8545     2.4167     0.1387     0.0444
  250.5000   -43.1341     3.1640     2.6770     2.9234   115.3895     7.8530     2.4176     0.1387     0.0444
  251.0000   -43.1229     2.5011     2.7017     3.0076   115.1488     7.8514     2.4176     0.1390     0.0444
  251.5000   -43.1118     2.4874     2.8188     3.2521   112.0247     7.8498     2.4155     0.1399     0.0444
  252.0000   -43.1006     3.6812     2.9457     3.6494   108.1269     7.8483     2.4135     0.1408     0.0444
  252.5000   -43.0895     6.6445     3.0734     4.0953   105.9199     7.8467     2.4141     0.1407     0.0444
  253.0000   -43.0784     6.5236     3.3205     4.4655   105.8716     7.8451     2.4184     0.1374     0.0450
  253.5000   -43.0672     6.8301     3.5759     4.7067   106.5195     7.8435     2.4227     0.1342     0.0465
  254.0000   -43.0561     6.6126     3.8509     4.9610   108.2840     7.8419     2.4262     0.1329     0.0479
  254.5000   -43.0449     6.3816     4.1471     5.1855   109.4632     7.8402     2.4252     0.1333     0.0494
  255.0000   -43.0338     5.9023     4.4660     5.1570   107.9785     7.8384     2.4243     0.1337     0.0508
