~VERSION INFORMATION
 VERS.                2.0:   CWLS LOG ASCII STANDARD - VERSION 2.0
 WRAP.                 NO:   ONE LINE PER DEPTH STEP
~WELL INFORMATION
#MNEM.UNIT      DATA TYPE    INFORMATION
#----------   ------------   ------------------------------
 STRT.F           80.5000:   START DEPTH
 STOP.F          768.0000:   STOP DEPTH
 STEP.F            0.5000:   STEP LENGTH
 NULL.          -999.2500:   NO VALUE
 COMP. U S NAVY/INTEX OIL CO:   COMPANY
 WELL. N.P.R. #3 #84-S-34:   WELL
 FLD .             TEAPOT:   FIELD
 LOC .      S34 T39N R78W:   LOCATION
 CNTY.            NATRONA:   COUNTY
 STAT.            WYOMING:   STATE
 CTRY. UNITED STATES OF AMERICA:   COUNTRY
 SRVC. Schlumberger Well Surveying Corp:   SERVICE COMPANY
 DATE.        17-FEB-1961:   LOGDATE
 API .       490250654000:   API NUMBER
~CURVE INFORMATION
#MNEM.UNIT       API CODE    CURVE DESCRIPTION
#----------   ------------   ------------------------------
 DEPT.F                  :   
 SPR .MV     05 010 01 00:   SPONTANEOUS POTENTIAL
 ASN .OHMM   05 041 16 00:   AMPLIFIED SHORT NORMAL 16"
 ILD .OHMM   05 120 46 00:   INDUCTION LOG DEEP
 CILD.MMHO   05 110 46 00:   CONDUCTIVITY INDUCTION LOG DEEP
 GR  .GAPI   30 310 01 00:   GAMMA RAY
~PARAMETER INFORMATION
#MNEM.UNIT          VALUE    DESCRIPTION
#----------   ------------   ------------------------------
 PD  .                 GL:   PERMANENT DATUM
 EPD .F              5083:   ELEVATION PERMANENT DATUM
 LMF .                 KB:   LOG MEASURED FROM
 DAPD.F                 4:   FEET ABOVE PERMANENT DATUM
 DMF .                 KB:   DRILLING MEASURED FROM
 EKB .F              5087:   KELLING BUSHING
 EGL .F              5083:   GROUND LEVEL
 DATE.            2-17-61:   RUN DATE
 RUN .                  1:   RUN NUMBER
 DD  .F               770:   DEPTH DRILLER
 DL  .F               769:   DEPTH LOGGER
 BLI .F               768:   BOTTOM LOG INTERVAL
 TLI .F                80:   TOP LOG INTERVAL
 CBD .F                12:   CASING BOTTOM DRILLER
 BS  .IN            7.875:   BIT SIZE
 BSD .F               770:   BIT SIZE AT DEPTH
 DFT .       GEL/OIL EMUL:   DRILLING FLUID TYPE
 DFD .                9.5:   DRILLING FLUID DENSITY
 DFV .                 50:   DRILLING FLUID VISCOSITY
 DFPH.                  8:   DRILLING FLUID PH
 DFL .                1.8:   DRILLING FLUID LOSS
 MSS .           FLOWLINE:   MUD SAMPLE SOURCE
 RMS .OHMM             .9:   RESISTIVITY MUD SAMPLE
 MST .F                69:   MUD SAMPLE TEMPERATURE
 RMF .OHMM            .54:   RESISTIVITY MUD FILTRATE SAMPLE
 MFST.F                69:   MUD FILTRATE SAMPLE TEMPERATURE
 RMC .OHMM           1.64:   RESISTIVITY MUD CAKE
 MCST.F                69:   MUD CAKE SAMPLE TEMPERATURE
 MFSS.                  M:   MUD FILTRATE SAMPLE SOURCE
 MCSS.                  M:   MUD CAKE SAMPLE SOURCE
 RMB .OHMM             .8:   RESISTIVITY MUD AT BHT
 BHT .F                78:   BOTTOM HOLE TEMPERATURE
 TCS .HRS               1:   TIME CURCULATED STOPPED
 MRT .F                78:   MAXIMUM RECORDED TEMPERATURE
 LUN .               2523:   LOGGING UNIT NUMBER
 LUL .               CSPR:   LOGGING UNIT LOCATION
 ENGI.             KNOBEL:   RECORDING ENGINEER
 WITN.          JORGENSEN:   WITNESSED BY
 CLNT.            A2DTECH:   CLIENT CODE
 ORIG.       2", 5" PRINT:   ORIGIN OF DATA
 UWI .       490250654000:   UNIQUE WELL ID
 DICO. A2D Technologies, Inc.:   DIGITIZING COMPANY
~OTHER INFORMATION
~A   DEPT      SPR        ASN        ILD       CILD         GR   
# ...
  141.5000   -23.5225     7.6701     5.7638   173.2152  -999.2500
  142.0000   -23.4443     7.9991     5.9422   166.2767  -999.2500
  142.5000   -23.3662     8.3259     6.1208   159.3467  -999.2500
  143.0000   -23.2882     8.5655     6.2962   157.1475  -999.2500
  143.5000   -23.2099     8.6043     6.3721   155.9516  -999.2500
  144.0000   -23.1294     8.6522     6.1850   154.7481  -999.2500
  144.5000   -23.1706     8.4725     6.0070   155.4948  -999.2500
  145.0000   -23.2356     8.2513     5.8292   160.4802  -999.2500
  145.5000   -23.3017     8.0276     5.6509   165.4655  -999.2500
  146.0000   -23.3675     7.8044     5.4728   170.4509  -999.2500
  146.5000   -23.4333     7.5821     5.2953   175.4363  -999.2500
  147.0000   -23.4990     7.3893     5.1486   180.4217  -999.2500
  147.5000   -23.5648     7.2774     5.0909   185.4071  -999.2500
  148.0000   -23.6307     7.2680     5.0315   190.3925  -999.2500
  148.5000   -23.6962     7.2835     4.9699   193.1722  -999.2500
  149.0000   -23.7459     7.2869     4.9897   193.6635  -999.2500
  149.5000   -23.7277     7.2439     5.0319   192.9496  -999.2500
  150.0000   -23.6525     7.1967     5.1163   190.1748  -999.2500
  150.5000   -23.5790     7.3595     5.3513   187.3834  -999.2500
  151.0000   -23.5056     7.5802     5.5823   183.6534  -999.2500
  151.5000   -23.4321     7.8031     5.8130   176.9024  -999.2500
  152.0000   -23.3586     8.0257     6.0438   170.1514  -999.2500
  152.5000   -23.2851     8.2481     6.2746   163.4003  -999.2500
  153.0000   -23.2117     8.4706     6.5058   156.6493  -999.2500
  153.5000   -23.1382     8.6936     6.7377   149.8982  -999.2500
  154.0000   -23.0647     8.9155     6.9660   143.8413  -999.2500
  154.5000   -22.9913     9.1218     7.1142   140.3793  -999.2500
  155.0000   -22.9178     9.2125     6.8865   140.8142  -999.2500
  155.5000   -22.8443     9.1243     6.6664   145.4824  -999.2500
  156.0000   -22.7709     8.8512     6.4475   151.2690  -999.2500
  156.5000   -22.6970     8.5794     6.2281   157.0556  -999.2500
  157.0000   -22.6225     8.3080     6.0088   162.8422  -999.2500
  157.5000   -22.5507     8.0363     5.7893   168.6288  -999.2500
  158.0000   -22.5640     7.7653     5.5691   174.4155  -999.2500
  158.5000   -23.0374     7.4941     5.3517   180.2021  -999.2500
  159.0000   -23.5099     7.2111     5.1694   184.4468  -999.2500
  159.5000   -23.9728     7.1474     5.2354   187.3695  -999.2500
  160.0000   -24.2928     7.1696     5.2955   187.3695  -999.2500
  160.5000   -23.6551     7.2251     5.3545   186.7641  -999.2500
  161.0000   -23.1841     7.4567     5.4140   182.6096  -999.2500
  161.5000   -23.6689     7.6885     5.4736   178.4551  -999.2500
  162.0000   -24.1572     7.9230     5.5329   174.3006  -999.2500
  162.5000   -24.5830     7.9529     5.5773   170.6681  -999.2500
  163.0000   -24.4095     7.8712     5.5212   171.0752  -999.2500
  163.5000   -24.1315     7.7881     5.4642   174.4507  -999.2500
  164.0000   -23.8538     7.7055     5.4075   177.8262  -999.2500
  164.5000   -23.5758     7.5652     5.3508   181.2017  -999.2500
  165.0000   -23.2990     7.3901     5.2942   184.5772  -999.2500
  165.5000   -23.0197     7.2145     5.2375   187.9528  -999.2500
  166.0000   -22.9595     7.0387     5.1809   191.3283  -999.2500
  166.5000   -23.0408     6.8807     5.1242   194.7038  -999.2500
  167.0000   -23.1234     6.8783     5.0675   197.8079  -999.2500
  167.5000   -23.2070     6.9134     5.0109   198.0324  -999.2500
  168.0000   -23.2904     6.9717     4.9579   198.2401  -999.2500
  168.5000   -23.3736     7.0212     4.9304   198.4478  -999.2500
  169.0000   -23.4570     6.9416     4.9045   198.6555  -999.2500
  169.5000   -23.5403     6.8613     4.8785   198.8518  -999.2500
  170.0000   -23.6232     6.7818     4.8526   200.7307  -999.2500
  170.5000   -23.7064     6.7029     4.8266   202.5112  -999.2500
  171.0000   -23.7062     6.6236     4.8006   204.2917  -999.2500
  171.5000   -23.6375     6.6199     4.7744   204.6681  -999.2500
  172.0000   -23.5685     6.6797     4.7505   203.8372  -999.2500
  172.5000   -23.4990     6.7398     4.7670   203.0063  -999.2500
  173.0000   -23.4296     6.8004     4.7846   202.1754  -999.2500
  173.5000   -23.3602     6.8613     4.8019   201.3532  -999.2500
  174.0000   -23.2908     6.9209     4.8193   201.9421  -999.2500
  174.5000   -23.2214     6.9377     4.8369   203.8758  -999.2500
  175.0000   -23.1520     6.8035     4.8526   205.8104  -999.2500
  175.5000   -23.0825     6.6639     4.8196   207.7495  -999.2500
  176.0000   -23.0135     6.5256     4.7847   209.6882  -999.2500
  176.5000   -22.9445     6.3873     4.7500   211.6270  -999.2500
  177.0000   -22.9401     6.3171     4.7152   213.5658  -999.2500
  177.5000   -23.0056     6.3762     4.6797   215.5532  -999.2500
  178.0000   -23.0710     6.4384     4.6486   215.1482  -999.2500
  178.5000   -23.1368     6.5014     4.7626   214.7328  -999.2500
  179.0000   -23.2026     6.5635     4.8855   211.7157  -999.2500
  179.5000   -23.2683     6.5651     5.0079   205.6707  -999.2500
  180.0000   -23.3341     6.5690     5.1302   199.6312  -999.2500
  180.5000   -23.4000     6.7556     5.2524   193.5949  -999.2500
  181.0000   -23.4667     6.9586     5.3749   187.5687  -999.2500
  181.5000   -23.5318     7.1645     5.4964   181.1065  -999.2500
  182.0000   -23.4393     7.2318     5.6170   179.7197  -999.2500
  182.5000   -23.3345     7.2936     5.6356   178.2359  -999.2500
  183.0000   -23.2302     7.2448     5.5106   176.7522  -999.2500
  183.5000   -23.1261     7.1877     5.3867   176.7536  -999.2500
  184.0000   -23.0219     7.1310     5.2622   178.8309  -999.2500
  184.5000   -22.9178     7.0742     5.1380   182.5992  -999.2500
  185.0000   -22.8130     7.0167     4.9683   188.8309  -999.2500
  185.5000   -22.7108     6.8869     4.7268   201.3382  -999.2500
  186.0000   -22.7829     6.6394     4.4869   214.5608  -999.2500
  186.5000   -22.8776     6.3935     4.2472   227.7861  -999.2500
  187.0000   -22.9725     6.1474     4.0074   241.0124  -999.2500
  187.5000   -23.0672     5.9013     3.7669   254.2228  -999.2500
  188.0000   -23.1618     5.6548     3.5283   263.8135  -999.2500
  188.5000   -23.2565     5.4088     3.5219   267.2756  -999.2500
  189.0000   -23.3511     5.2213     3.5514   265.2317  -999.2500
  189.5000   -23.4457     5.1162     3.5830   262.3236  -999.2500
  190.0000   -23.5403     5.1479     3.7147   255.1044  -999.2500
  190.5000   -23.6353     5.5105     4.0506   239.9405  -999.2500
  191.0000   -23.7321     5.9104     4.3828   224.7850  -999.2500
  191.5000   -23.6887     6.3150     4.7151   209.6174  -999.2500
  192.0000   -23.6228     6.7191     5.0477   194.4584  -999.2500
  192.5000   -23.5558     7.1205     5.3800   182.0474  -999.2500
  193.0000   -23.4890     7.3020     5.7130   175.2818  -999.2500
  193.5000   -23.4224     7.4348     6.0456   169.2432  -999.2500
  194.0000   -23.3558     7.5398     6.1741   164.7425  -999.2500
  194.5000   -23.2892     7.5807     6.2577   160.2418  -999.2500
  195.0000   -23.2226     7.6221     6.3405   156.4718  -999.2500
  195.5000   -23.1560     7.6602     6.4234   154.3946  -999.2500
  196.0000   -23.0893     7.7983     6.5068   152.3173  -999.2500
  196.5000   -23.0224     7.9547     6.5904   150.2401  -999.2500
  197.0000   -22.9566     8.0843     6.6714   148.1628  -999.2500
  197.5000   -22.9205     8.1331     6.6807   146.0856  -999.2500
  198.0000   -22.9787     8.1857     6.4582   147.4913  -999.2500
  198.5000   -23.0343     8.1399     6.2429   149.9147  -999.2500
  199.0000   -23.0896     8.0305     6.0280   152.3382  -999.2500
  199.5000   -23.1452     7.7808     5.8127   157.6514  -999.2500
  200.0000   -23.2004     7.5353     5.5976   163.8831  -999.2500
  200.5000   -23.2546     7.2903     5.3825   170.1148  -999.2500
  201.0000   -23.3140     7.0455     5.1673   176.3414  -999.2500
  201.5000   -23.4279     6.8055     4.9522   182.5615  -999.2500
  202.0000   -23.4199     6.5910     4.7370   188.7773  -999.2500
