~VERSION INFORMATION
 VERS.                2.0:   CWLS LOG ASCII STANDARD - VERSION 2.0
 WRAP.                 NO:   ONE LINE PER DEPTH STEP
~WELL INFORMATION
#MNEM.UNIT      DATA TYPE    INFORMATION
#----------   ------------   ------------------------------
 STRT.F            0.0000:   START DEPTH
 STOP.F         2230.0000:   STOP DEPTH
 STEP.F            0.5000:   STEP LENGTH
 NULL.          -999.2500:   NO VALUE
 COMP. LAWRENCE/ALLISON INC:   COMPANY
 WELL. NPR 3 SH X 34 #48-34:   WELL
 FLD .            WILDCAT:   FIELD
 LOC .      S34 T39N R78W:   LOCATION
 CNTY.            NATRONA:   COUNTY
 STAT.            WYOMING:   STATE
 CTRY. UNITED STATES OF AMERICA:   COUNTRY
 SRVC.            Unknown:   SERVICE COMPANY
 DATE.        02-SEP-1991:   LOGDATE
 API .       490251110600:   API NUMBER
~CURVE INFORMATION
#MNEM.UNIT       API CODE    CURVE DESCRIPTION
#----------   ------------   ------------------------------
 DEPT.F                  :   
 ROP .MIN/FT 91 810 01 00:   RAT OF DRILLING PENETRATION
 TGAS.UNITS  91 830 01 00:   TOTAL GAS FROM HOTWIRE
 C1  .VF     91 831 01 00:   METHANE
 C2  .VF     91 832 01 00:   ETHANE
 C3  .VF     91 833 01 00:   PROPANE
 C4  .VF     91 834 01 00:   BUTANE
 TT  .US/F   81 520 00 00:   TRANSIT TIME
 GR  .GAPI   81 310 01 00:   GAMMA RAY FROM CEMENT BOND LOG
~PARAMETER INFORMATION
#MNEM.UNIT          VALUE    DESCRIPTION
#----------   ------------   ------------------------------
 EKB .F              5145:   KELLING BUSHING
 EGL .F              5135:   GROUND LEVEL
 DATE.          09-2-1991:   RUN DATE
 RUN .                  1:   RUN NUMBER
 BLI .F              2400:   BOTTOM LOG INTERVAL
 TLI .F              2200:   TOP LOG INTERVAL
 ENGI.           C. TOWER:   RECORDING ENGINEER
 WITN.            R. HUSK:   WITNESSED BY
 CLNT.            A2DTECH:   CLIENT CODE
 ORIG.           5" PRINT:   ORIGIN OF DATA
 UWI .       490251110600:   UNIQUE WELL ID
 DICO. A2D Technologies, Inc.:   DIGITIZING COMPANY
~OTHER INFORMATION
~A    DEPT     ROP       TGAS         C1         C2         C3         C4          TT         GR  
# ...
 1053.0000     0.6192     4.5481     8.7627     1.8041  -999.2500  -999.2500  -999.2500  -999.2500
 1053.5000     0.6210     4.5554     8.7750     1.8007  -999.2500  -999.2500  -999.2500  -999.2500
 1054.0000     0.6227     4.5627     8.7876     1.7972  -999.2500  -999.2500  -999.2500  -999.2500
 1054.5000     0.6245     4.5700     8.8003     1.7938  -999.2500  -999.2500  -999.2500  -999.2500
 1055.0000     0.6262     4.5773     8.8129     1.7903  -999.2500  -999.2500  -999.2500  -999.2500
 1055.5000     0.6280     4.5846     8.8255     1.7868  -999.2500  -999.2500  -999.2500  -999.2500
 1056.0000     0.6297     4.5919     8.8382     1.7834  -999.2500  -999.2500  -999.2500  -999.2500
 1056.5000     0.6315     4.5992     8.8508     1.7799  -999.2500  -999.2500  -999.2500  -999.2500
 1057.0000     0.6332     4.6066     8.8635     1.7765  -999.2500  -999.2500  -999.2500  -999.2500
 1057.5000     0.6343     4.6135     8.8761     1.7730  -999.2500  -999.2500  -999.2500  -999.2500
 1058.0000     0.6335     4.6200     8.8887     1.7695  -999.2500  -999.2500  -999.2500  -999.2500
 1058.5000     0.6329     4.6295     8.9014     1.7661  -999.2500  -999.2500  -999.2500  -999.2500
 1059.0000     0.6322     4.7250     8.9140     1.7626  -999.2500  -999.2500  -999.2500  -999.2500
 1059.5000     0.6316     5.1680     8.9267     1.7592  -999.2500  -999.2500  -999.2500  -999.2500
 1060.0000     0.6309     5.5975     8.9393     1.7557  -999.2500  -999.2500  -999.2500  -999.2500
 1060.5000     0.6302     5.6448     8.9520     1.7522  -999.2500  -999.2500  -999.2500  -999.2500
 1061.0000     0.6295     5.6753     8.9646     1.7488  -999.2500  -999.2500  -999.2500  -999.2500
 1061.5000     0.6289     5.7075     8.9772     1.7453  -999.2500  -999.2500  -999.2500  -999.2500
 1062.0000     0.6282     5.7403     8.9899     1.7419  -999.2500  -999.2500  -999.2500  -999.2500
 1062.5000     0.6275     5.7732     9.0025     1.7384  -999.2500  -999.2500  -999.2500  -999.2500
 1063.0000     0.6269     5.8060     9.0152     1.7349  -999.2500  -999.2500  -999.2500  -999.2500
 1063.5000     0.6262     5.8389     9.0278     1.7315  -999.2500  -999.2500  -999.2500  -999.2500
 1064.0000     0.6255     5.8717     9.0404     1.7280  -999.2500  -999.2500  -999.2500  -999.2500
 1064.5000     0.6249     5.9046     9.0531     1.7246  -999.2500  -999.2500  -999.2500  -999.2500
 1065.0000     0.6242     5.9374     9.0657     1.7211  -999.2500  -999.2500  -999.2500  -999.2500
 1065.5000     0.6235     5.9703     9.0784     1.7177  -999.2500  -999.2500  -999.2500  -999.2500
 1066.0000     0.6229     6.0031     9.0910     1.7142  -999.2500  -999.2500  -999.2500  -999.2500
 1066.5000     0.6222     6.0360     9.1037     1.7107  -999.2500  -999.2500  -999.2500  -999.2500
 1067.0000     0.6219     6.0689     9.1163     1.7073  -999.2500  -999.2500  -999.2500  -999.2500
 1067.5000     0.6219     6.0993     9.1289     1.7038  -999.2500  -999.2500  -999.2500  -999.2500
 1068.0000     0.6219     6.1135     9.1416     1.7002  -999.2500  -999.2500  -999.2500  -999.2500
 1068.5000     0.6219     6.1274     9.1542     1.7030  -999.2500  -999.2500  -999.2500  -999.2500
 1069.0000     0.6219     6.1415     9.1669     1.7063  -999.2500  -999.2500  -999.2500  -999.2500
 1069.5000     0.6219     6.1556     9.1795     1.7097  -999.2500  -999.2500  -999.2500  -999.2500
 1070.0000     0.6219     6.1696     9.1921     1.7130  -999.2500  -999.2500  -999.2500  -999.2500
 1070.5000     0.6219     6.1837     9.2048     1.7163  -999.2500  -999.2500  -999.2500  -999.2500
 1071.0000     0.6219     6.1977     9.2174     1.7197  -999.2500  -999.2500  -999.2500  -999.2500
 1071.5000     0.6219     6.2118     9.2300     1.7230  -999.2500  -999.2500  -999.2500  -999.2500
 1072.0000     0.6219     6.2259     9.2426     1.7263  -999.2500  -999.2500  -999.2500  -999.2500
 1072.5000     0.6219     6.2399     9.2555     1.7297  -999.2500  -999.2500  -999.2500  -999.2500
 1073.0000     0.6219     6.2540     9.2689     1.7330  -999.2500  -999.2500  -999.2500  -999.2500
 1073.5000     0.6219     6.2680     9.2823     1.7364  -999.2500  -999.2500  -999.2500  -999.2500
 1074.0000     0.6219     6.2821     9.2956     1.7397  -999.2500  -999.2500  -999.2500  -999.2500
 1074.5000     0.6219     6.2961     9.3089     1.7430  -999.2500  -999.2500  -999.2500  -999.2500
 1075.0000     0.6219     6.3102     9.3222     1.7464  -999.2500  -999.2500  -999.2500  -999.2500
 1075.5000     0.6219     6.3243     9.3355     1.7497  -999.2500  -999.2500  -999.2500  -999.2500
 1076.0000     0.6219     6.3383     9.3489     1.7530  -999.2500  -999.2500  -999.2500  -999.2500
 1076.5000     0.6219     6.3524     9.3622     1.7564  -999.2500  -999.2500  -999.2500  -999.2500
 1077.0000     0.6219     6.3664     9.3755     1.7597  -999.2500  -999.2500  -999.2500  -999.2500
 1077.5000     0.6219     6.3805     9.3888     1.7630  -999.2500  -999.2500  -999.2500  -999.2500
 1078.0000     0.6219     6.3945     9.4021     1.7664  -999.2500  -999.2500  -999.2500  -999.2500
 1078.5000     0.6219     6.4086     9.4154     1.7697  -999.2500  -999.2500  -999.2500  -999.2500
 1079.0000     0.6219     6.4227     9.4288     1.7730  -999.2500  -999.2500  -999.2500  -999.2500
 1079.5000     0.6219     6.4367     9.4421     1.7764  -999.2500  -999.2500  -999.2500  -999.2500
 1080.0000     0.6219     6.4508     9.4554     1.7797  -999.2500  -999.2500  -999.2500  -999.2500
 1080.5000     0.6219     6.4648     9.4687     1.7830  -999.2500  -999.2500  -999.2500  -999.2500
 1081.0000     0.6219     6.4789     9.4820     1.7864  -999.2500  -999.2500  -999.2500  -999.2500
 1081.5000     0.6219     6.4930     9.4953     1.7897  -999.2500  -999.2500  -999.2500  -999.2500
 1082.0000     0.6219     6.5070     9.5087     1.7931  -999.2500  -999.2500  -999.2500  -999.2500
 1082.5000     0.6219     6.5211     9.5220     1.7964  -999.2500  -999.2500  -999.2500  -999.2500
 1083.0000     0.6219     6.5351     9.5353     1.7997  -999.2500  -999.2500  -999.2500  -999.2500
 1083.5000     0.6219     6.5492     9.5486     1.8031  -999.2500  -999.2500  -999.2500  -999.2500
 1084.0000     0.6218     6.5633     9.5619     1.8064  -999.2500  -999.2500  -999.2500  -999.2500
 1084.5000     0.6219     6.5773     9.5753     1.8097  -999.2500  -999.2500  -999.2500  -999.2500
 1085.0000     0.6220     6.5914     9.5886     1.8131  -999.2500  -999.2500  -999.2500  -999.2500
 1085.5000     0.6334     6.6054     9.6019     1.8164  -999.2500  -999.2500  -999.2500  -999.2500
 1086.0000     0.6635     6.6195     9.6152     1.8197  -999.2500  -999.2500  -999.2500  -999.2500
 1086.5000     0.6933     6.6336     9.6285     1.8231  -999.2500  -999.2500  -999.2500  -999.2500
 1087.0000     0.7232     6.6476     9.6418     1.8264  -999.2500  -999.2500  -999.2500  -999.2500
 1087.5000     0.7527     6.6617     9.6552     1.8297  -999.2500  -999.2500  -999.2500  -999.2500
 1088.0000     0.7734     6.6757     9.6685     1.8331  -999.2500  -999.2500  -999.2500  -999.2500
 1088.5000     0.7827     6.6898     9.6818     1.8364  -999.2500  -999.2500  -999.2500  -999.2500
 1089.0000     0.7789     6.7038     9.6951     1.8398  -999.2500  -999.2500  -999.2500  -999.2500
 1089.5000     0.7750     6.7179     9.7085     1.8431  -999.2500  -999.2500  -999.2500  -999.2500
 1090.0000     0.7710     6.7320     9.7218     1.8464  -999.2500  -999.2500  -999.2500  -999.2500
 1090.5000     0.7671     6.7460     9.7351     1.8498  -999.2500  -999.2500  -999.2500  -999.2500
 1091.0000     0.7633     6.7601     9.7489     1.8531  -999.2500  -999.2500  -999.2500  -999.2500
 1091.5000     0.7576     6.7741     9.7232     1.8564  -999.2500  -999.2500  -999.2500  -999.2500
 1092.0000     0.7493     6.7882     9.6840     1.8598  -999.2500  -999.2500  -999.2500  -999.2500
 1092.5000     0.7503     6.8023     9.6446     1.8631  -999.2500  -999.2500  -999.2500  -999.2500
 1093.0000     0.7519     6.8163     9.6051     1.8664  -999.2500  -999.2500  -999.2500  -999.2500
