~VERSION INFORMATION
 VERS.                2.0:   CWLS LOG ASCII STANDARD - VERSION 2.0
 WRAP.                 NO:   ONE LINE PER DEPTH STEP
~WELL INFORMATION
#MNEM.UNIT      DATA TYPE    INFORMATION
#----------   ------------   ------------------------------
 STRT.F            2.0000:   START DEPTH
 STOP.F          689.0000:   STOP DEPTH
 STEP.F            0.5000:   STEP LENGTH
 NULL.          -999.2500:   NO VALUE
 COMP. U S NAVY-INTEX OIL:   COMPANY
 WELL. RES 3 TEAPOT DOM #74S-34:   WELL
 FLD .             TEAPOT:   FIELD
 LOC .      S34 T39N R78W:   LOCATION
 CNTY.            NATRONA:   COUNTY
 STAT.            WYOMING:   STATE
 CTRY. UNITED STATES OF AMERICA:   COUNTRY
 SRVC.      NL McCullough:   SERVICE COMPANY
 DATE.        10-AUG-1961:   LOGDATE
 API .       490250653900:   API NUMBER
~CURVE INFORMATION
#MNEM.UNIT       API CODE    CURVE DESCRIPTION
#----------   ------------   ------------------------------
 DEPT.F                  :   
 GR  .GAPI   35 310 01 00:   GAMMA RAY
 NPHI.DEC    35 890 00 00:   NEUTRON POROSITY
~PARAMETER INFORMATION
#MNEM.UNIT          VALUE    DESCRIPTION
#----------   ------------   ------------------------------
 PD  .                 GL:   PERMANENT DATUM
 EPD .F              5044:   ELEVATION PERMANENT DATUM
 LMF .                 KB:   LOG MEASURED FROM
 DAPD.F                 5:   FEET ABOVE PERMANENT DATUM
 DMF .                 KB:   DRILLING MEASURED FROM
 EKB .F              5049:   KELLING BUSHING
 EGL .F              5044:   GROUND LEVEL
 DATE.        10-AUG-1961:   RUN DATE
 RUN .                  1:   RUN NUMBER
 DD  .F               690:   DEPTH DRILLER
 DL  .F             690.5:   DEPTH LOGGER
 BLI .F               689:   BOTTOM LOG INTERVAL
 BS  .IN            7.875:   BIT SIZE
 BSD .F               690:   BIT SIZE AT DEPTH
 DFT .       OIL EMULSION:   DRILLING FLUID TYPE
 DFD .                9.9:   DRILLING FLUID DENSITY
 TCS .HRS               1:   TIME CURCULATED STOPPED
 ENGI.            JACKSON:   RECORDING ENGINEER
 WITN.          JORGENSON:   WITNESSED BY
 CLNT.            A2DTECH:   CLIENT CODE
 ORIG.           2" PRINT:   ORIGIN OF DATA
 UWI .       490250653900:   UNIQUE WELL ID
 DICO. A2D Technologies, Inc.:   DIGITIZING COMPANY
~OTHER INFORMATION
~A    DEPT        GR     NPHI   
    2.0000     4.3051  -999.2500
    2.5000     4.3069  -999.2500
    3.0000     4.3069  -999.2500
    3.5000     4.3597  -999.2500
    4.0000     5.7697  -999.2500
    4.5000     6.7582  -999.2500
    5.0000     7.6263  -999.2500
    5.5000     8.7262  -999.2500
    6.0000     9.7409  -999.2500
    6.5000    10.0983  -999.2500
    7.0000     9.6538  -999.2500
    7.5000     9.6092  -999.2500
    8.0000     9.5987  -999.2500
    8.5000     9.6011  -999.2500
    9.0000     9.7965  -999.2500
    9.5000    10.0470  -999.2500
   10.0000    10.2722  -999.2500
   10.5000    10.3627  -999.2500
   11.0000    10.3035  -999.2500
   11.5000    10.0913  -999.2500
   12.0000    10.0356  -999.2500
   12.5000    10.1582  -999.2500
   13.0000    10.4532  -999.2500
   13.5000    10.5511  -999.2500
   14.0000    10.7896  -999.2500
   14.5000    10.9585  -999.2500
   15.0000    10.7959  -999.2500
   15.5000    10.3992  -999.2500
   16.0000    10.1893  -999.2500
   16.5000    10.3843  -999.2500
   17.0000    10.5575  -999.2500
   17.5000    10.5362  -999.2500
   18.0000    10.1452  -999.2500
   18.5000     9.6737  -999.2500
   19.0000     9.0656  -999.2500
   19.5000     9.0490  -999.2500
   20.0000     8.8303  -999.2500
   20.5000     8.4472  -999.2500
   21.0000     8.1064  -999.2500
   21.5000     7.2289  -999.2500
   22.0000     5.5588  -999.2500
   22.5000     5.3218  -999.2500
   23.0000     5.1411  -999.2500
   23.5000     4.8801  -999.2500
   24.0000     4.6975  -999.2500
   24.5000     4.1410  -999.2500
   25.0000     4.1109  -999.2500
   25.5000     4.0814  -999.2500
   26.0000     3.8417    -0.0869
   26.5000     3.5226    -0.0620
   27.0000     3.1212    -0.0244
   27.5000     2.9422     0.1910
   28.0000     2.8891     0.2335
   28.5000     2.9430     0.2551
   29.0000     3.1684     0.2797
   29.5000     3.4321     0.2862
   30.0000     3.7257     0.2856
   30.5000     3.9951     0.2853
   31.0000     4.5181     0.2869
   31.5000     4.8739     0.2944
   32.0000     4.9630     0.2939
   32.5000     4.8801     0.2922
   33.0000     4.8843     0.2895
   33.5000     5.0124     0.2856
   34.0000     5.2421     0.2808
   34.5000     5.2957     0.2771
   35.0000     5.3024     0.2764
   35.5000     5.2345     0.2752
   36.0000     5.2387     0.2720
   36.5000     5.2695     0.2722
   37.0000     5.3100     0.2737
   37.5000     5.3769     0.2741
   38.0000     5.4995     0.2734
   38.5000     5.7323     0.2729
   39.0000     5.8123     0.2766
   39.5000     5.7653     0.2823
   40.0000     5.4231     0.2826
   40.5000     5.3623     0.2820
   41.0000     5.3025     0.2800
   41.5000     5.2345     0.2681
   42.0000     5.2310     0.2551
   42.5000     5.2583     0.2525
   43.0000     5.3627     0.2523
   43.5000     5.4044     0.2518
   44.0000     5.4259     0.2518
   44.5000     5.4683     0.2531
   45.0000     5.5757     0.2536
   45.5000     5.6795     0.2519
   46.0000     5.6116     0.2474
   46.5000     5.5467     0.2409
   47.0000     5.4692     0.2416
   47.5000     5.4005     0.2474
   48.0000     5.3702     0.2500
   48.5000     5.3477     0.2498
   49.0000     5.3552     0.2493
   49.5000     5.4157     0.2476
   50.0000     5.7750     0.2474
   50.5000     6.0113     0.2491
   51.0000     5.9287     0.2527
   51.5000     5.8605     0.2574
   52.0000     6.0339     0.2688
   52.5000     5.9120     0.2805
   53.0000     5.7549     0.2813
   53.5000     5.9284     0.2798
   54.0000     6.0187     0.2754
   54.5000     6.0415     0.2724
   55.0000     6.0415     0.2668
   55.5000     6.0228     0.2549
   56.0000     6.0177     0.2459
   56.5000     6.0113     0.2455
   57.0000     6.0296     0.2494
   57.5000     6.0770     0.2499
   58.0000     6.1546     0.2504
   58.5000     6.2430     0.2509
   59.0000     6.3407     0.2512
   59.5000     6.3884     0.2515
   60.0000     6.4502     0.2503
   60.5000     6.4940     0.2469
   61.0000     6.4186     0.2582
   61.5000     6.3211     0.2634
   62.0000     6.1809     0.2656
   62.5000     6.0490     0.2658
   63.0000     6.1761     0.2664
   63.5000     6.5160     0.2668
   64.0000     6.6900     0.2661
   64.5000     6.6149     0.2609
   65.0000     6.5525     0.2581
   65.5000     6.5317     0.2535
   66.0000     6.3300     0.2362
   66.5000     6.0616     0.2364
   67.0000     6.0532     0.2400
   67.5000     6.0783     0.2501
   68.0000     6.1219     0.2502
   68.5000     6.3582     0.2483
   69.0000     6.4101     0.2401
   69.5000     6.4616     0.2372
   70.0000     6.6750     0.2379
   70.5000     6.5874     0.2431
   71.0000     6.5008     0.2532
   71.5000     6.4940     0.2571
   72.0000     6.5885     0.2612
   72.5000     6.6907     0.2611
   73.0000     6.6146     0.2608
   73.5000     6.5245     0.2558
   74.0000     6.4405     0.2509
   74.5000     6.4393     0.2485
   75.0000     6.5292     0.2477
   75.5000     6.5468     0.2507
   76.0000     6.4638     0.2620
   76.5000     6.4718     0.2637
   77.0000     6.5090     0.2636
   77.5000     6.2451     0.2624
   78.0000     5.6780     0.2588
   78.5000     5.3460     0.2580
   79.0000     5.3306     0.2576
   79.5000     5.4898     0.2619
   80.0000     5.9173     0.2723
   80.5000     6.3582     0.2780
   81.0000     6.4547     0.2803
   81.5000     6.4176     0.2801
   82.0000     6.3959     0.2775
   82.5000     6.3913     0.2758
   83.0000     6.4769     0.2752
   83.5000     6.5995     0.2749
   84.0000     6.5833     0.2761
   84.5000     6.5289     0.2761
   85.0000     6.4261     0.2757
   85.5000     6.3862     0.2649
   86.0000     6.3166     0.2502
   86.5000     6.1998     0.2444
   87.0000     6.1933     0.2453
   87.5000     6.3661     0.2480
   88.0000     6.6599     0.2498
   88.5000     6.7286     0.2501
   89.0000     6.7933     0.2504
   89.5000     6.9049     0.2504
   90.0000     6.6996     0.2513
   90.5000     6.6900     0.2560
   91.0000     6.7278     0.2604
   91.5000     6.7996     0.2610
   92.0000     6.9649     0.2617
   92.5000     7.4216     0.2672
   93.0000     7.3672     0.2828
   93.5000     7.1271     0.2858
   94.0000     7.0897     0.2858
   94.5000     6.8951     0.2831
   95.0000     6.8409     0.2777
   95.5000     6.8333     0.2737
   96.0000     6.7698     0.2701
   96.5000     6.6571     0.2607
   97.0000     6.3356     0.2372
   97.5000     6.2074     0.2381
   98.0000     6.1998     0.2395
   98.5000     6.2074     0.2405
   99.0000     6.2099     0.2411
   99.5000     6.2301     0.2411
  100.0000     6.2785     0.2401
  100.5000     6.3243     0.2384
  101.0000     6.1244     0.2368
  101.5000     6.1031     0.2351
  102.0000     6.0283     0.2351
  102.5000     5.9736     0.2350
  103.0000     5.9661     0.2338
  103.5000     6.1148     0.2303
  104.0000     6.4940     0.2239
  104.5000     6.5285     0.2251
  105.0000     6.5392     0.2257
  105.5000     6.5392     0.2258
  106.0000     6.5441     0.2294
  106.5000     6.5520     0.2330
  107.0000     6.5866     0.2356
  107.5000     6.7278     0.2360
  108.0000     6.6946     0.2351
  108.5000     6.5893     0.2325
  109.0000     6.5618     0.2321
  109.5000     6.5543     0.2351
  110.0000     6.6146     0.2346
  110.5000     6.7655     0.2325
  111.0000     6.7150     0.2245
  111.5000     6.5377     0.2251
  112.0000     6.7805     0.2269
  112.5000     6.8258     0.2278
  113.0000     6.7166     0.2278
  113.5000     6.4400     0.2239
  114.0000     6.4298     0.2093
  114.5000     6.5229     0.2037
  115.0000     6.6393     0.2022
  115.5000     6.6146     0.1947
  116.0000     6.4370     0.1801
  116.5000     6.4186     0.1792
  117.0000     6.4186     0.1770
  117.5000     6.4095     0.1795
  118.0000     6.3352     0.1910
  118.5000     6.2451     0.1995
  119.0000     6.0113     0.2007
  119.5000     6.0141     0.1998
  120.0000     6.0264     0.2015
  120.5000     5.9887     0.2054
  121.0000     5.9208     0.2094
  121.5000     5.9339     0.2210
  122.0000     6.1169     0.2370
  122.5000     6.3939     0.2507
  123.0000     6.6900     0.2632
