~VERSION INFORMATION
 VERS.                2.0:   CWLS LOG ASCII STANDARD - VERSION 2.0
 WRAP.                 NO:   ONE LINE PER DEPTH STEP
~WELL INFORMATION
#MNEM.UNIT      DATA TYPE    INFORMATION
#----------   ------------   ------------------------------
 STRT.F            4.0000:   START DEPTH
 STOP.F          510.0000:   STOP DEPTH
 STEP.F            0.5000:   STEP LENGTH
 NULL.          -999.2500:   NO VALUE
 COMP. LAWRENCE/ALLISON INC:   COMPANY
 WELL.     68-46 SX #68-3:   WELL
 FLD .             TEAPOT:   FIELD
 LOC .       S3 T38N R78W:   LOCATION
 CNTY.            NATRONA:   COUNTY
 STAT.            WYOMING:   STATE
 CTRY. UNITED STATES OF AMERICA:   COUNTRY
 SRVC.           Gearhart:   SERVICE COMPANY
 DATE.        15-SEP-1987:   LOGDATE
 API .       490251116400:   API NUMBER
~CURVE INFORMATION
#MNEM.UNIT       API CODE    CURVE DESCRIPTION
#----------   ------------   ------------------------------
 DEPT.F                  :   
 GRR .GAPI   07 310 01 00:   GAMMA RAY
 RILD.OHMM   07 120 46 00:   INDUCTION LOG DEEP RESISTIVITY
 RILM.OHMM   07 120 44 00:   INDUCTION LOG MEDIUM RESISTIVITY
 RLL .OHMM   07 220 00 00:   LATEROLOG RESISTIVITY
 SPR .MV     07 010 01 00:   SPONTANEOUS POTENTIAL
~PARAMETER INFORMATION
#MNEM.UNIT          VALUE    DESCRIPTION
#----------   ------------   ------------------------------
 ENGI.           JOHNSTON:   RECORDING ENGINEER
 WITN.         MR. STRONG:   WITNESSED BY
 PD  .                 GL:   PERMANENT DATUM
 EPD .F              5162:   ELEVATION PERMANENT DATUM
 LMF .                 KB:   LOG MEASURED FROM
 DAPD.F                 8:   FEET ABOVE PERMANENT DATUM
 DMF .                 KB:   DRILLING MEASURED FROM
 EKB .F              5170:   KELLING BUSHING
 EDF .F              5169:   DRILLING FLOOR
 EGL .F              5162:   GROUND LEVEL
 DATE.        15-SEP-1987:   RUN DATE
 RUN .                  1:   RUN NUMBER
 DD  .F               519:   DEPTH DRILLER
 DL  .F               512:   DEPTH LOGGER
 BLI .F               500:   BOTTOM LOG INTERVAL
 TLI .F                50:   TOP LOG INTERVAL
 CS  .IN            8.625:   CASING SIZE
 CBD .F                50:   CASING BOTTOM DRILLER
 CBL .F                50:   CASING BOTTOM LOGGER
 BS  .IN             7.87:   BIT SIZE
 BSD .F               519:   BIT SIZE AT DEPTH
 DFT .                MUD:   DRILLING FLUID TYPE
 RMS .OHMM           0.64:   RESISTIVITY MUD SAMPLE
 MST .F                71:   MUD SAMPLE TEMPERATURE
 RMF .OHMM           0.48:   RESISTIVITY MUD FILTRATE SAMPLE
 MFST.F                71:   MUD FILTRATE SAMPLE TEMPERATURE
 RMC .OHMM           0.76:   RESISTIVITY MUD CAKE
 MCST.F                71:   MUD CAKE SAMPLE TEMPERATURE
 MFSS.              CHART:   MUD FILTRATE SAMPLE SOURCE
 MCSS.              CHART:   MUD CAKE SAMPLE SOURCE
 TCS .HRS            1100:   TIME CURCULATED STOPPED
 TLAB.HRS            1638:   TIME LOGGER AT BOTTOM
 LUN .               7650:   LOGGING UNIT NUMBER
 LUL .           GILLETTE:   LOGGING UNIT LOCATION
 CLNT.            A2DTECH:   CLIENT CODE
 ORIG.           5" PRINT:   ORIGIN OF DATA
 UWI .       490251116400:   UNIQUE WELL ID
 DICO. A2D Technologies, Inc.:   DIGITIZING COMPANY
~OTHER INFORMATION
~A    DEPT       GRR     RILD       RILM        RLL        SPR   
# ...
  370.0000    87.8537    14.7956    11.9596    13.5829   -33.2317
  370.5000    85.4155    14.5881    11.7914    13.5801   -33.0793
  371.0000    84.8036    14.3836    11.4635    13.5772   -32.6220
  371.5000    84.4962    14.1820    11.2233    13.2914   -32.6220
  372.0000    84.4926    13.7880    11.1433    13.1037   -32.4695
  372.5000    84.7940    13.5947    10.9866    12.9186   -32.4695
  373.0000    85.7050    13.4041    10.9850    12.9160   -32.6220
  373.5000    87.2234    13.1224    10.9064    12.9133   -32.9268
  374.0000    90.5690    12.9288    10.7530    12.8205   -33.2317
  374.5000    89.6528    12.6687    10.7515    12.8179   -33.3841
  375.0000    87.8233    12.5792    10.6003    12.4609   -33.2317
  375.5000    85.3850    12.4903    10.5988    12.3713   -32.9268
  376.0000    82.3135    12.4894    10.5974    12.3682   -32.3171
  376.5000    81.1172    12.5768    10.6709    12.3657   -32.1646
  377.0000    81.1136    12.6646    10.8960    12.3631   -32.1646
  377.5000    82.9371    12.7528    11.1275    12.3606   -32.0122
  378.0000    88.4136    12.8418    11.3613    12.2717   -32.0122
  378.5000    93.5857    13.0227    11.1228    12.1835   -32.6220
  379.0000    95.7136    13.2989    10.6629    12.1810   -32.6291
  379.5000    96.3202    13.3920    10.1506    12.0935   -33.2317
  380.0000    94.4900    13.3908     9.6629    11.8338   -33.0793
  380.5000    90.2252    13.3899     9.3285    11.7543   -33.6890
  381.0000    89.2866    13.2022     9.1973    11.9178   -33.6890
  381.5000    89.0015    13.0171     9.1961    11.7489   -33.3841
  382.0000    88.9979    12.8346     9.1948    11.7465   -33.5366
  382.5000    89.6038    12.5661     9.1935    11.8273   -33.8415
  383.0000    91.4273    12.3864     9.2670    11.8243   -33.3841
  383.5000    92.0339    12.1306     9.4526    11.9887   -32.7688
  384.0000    90.5081    11.9604     9.5848    12.1555   -32.6220
  384.5000    89.2875    11.8758     9.7870    12.0659   -32.1646
  385.0000    90.8066    11.7919     9.9242    11.8035   -31.7073
  385.5000    91.1081    11.7911    10.1336    11.7290   -32.3171
  386.0000    91.1375    11.7903    10.2039    11.6447   -32.6220
  386.5000    94.1455    11.7895    10.2740    11.6424   -32.4695
  387.0000    98.0999    11.7061    10.1294    11.5587   -32.4695
  387.5000    96.2705    11.7053     9.9811    11.5563   -32.6220
  388.0000    93.8322    11.7045     9.7089    11.5539   -32.3171
  388.5000    93.2212    11.7860     9.3730    10.9985   -32.3171
  389.0000    95.6528    11.7852     9.0487    10.6922   -32.0122
  389.5000    96.8675    11.7019     8.7972    10.5343   -31.8598
  390.0000    96.8645    11.6192     9.1100    10.5390   -31.7073
  390.5000    96.2415    11.4563     9.7023    10.8359   -32.0122
  391.0000    95.0320    11.4555     9.8384    11.0639   -32.3171
  391.5000    94.4195    11.4547     9.9060    11.2178   -32.3171
  392.0000    94.4166    11.3738     9.8353    11.1372   -32.3171
  392.5000    94.4136    11.3783     9.7573    10.8270   -32.0122
  393.0000    93.8018    11.3722     9.6276    10.6741   -32.0122
  393.5000    94.7121    11.2916     9.6262    10.5974   -32.0122
  394.0000    98.0577    11.1333     9.6249    10.5212   -31.4024
  394.5000    98.7885    11.0546     9.5563    10.5308   -31.2500
  395.0000    96.5297    11.0539     9.4882    10.5909   -31.0976
  395.5000    94.3957    11.1312     9.4206    10.5142   -30.6402
  396.0000    94.3927    11.2089     9.4193    10.5121   -30.0305
  396.5000    94.3891    11.2870     9.6861    10.5099   -29.8780
  397.0000    93.4729    11.2883     9.9603    10.4344   -29.2683
  397.5000    92.8611    11.2854    10.0997    10.3594   -28.6585
  398.0000    92.2493    11.1270    10.0274    10.2131   -27.8963
  398.5000    95.5949    11.1263     9.8172    10.0679   -27.2866
  399.0000    99.5493    10.9703     9.0234     9.9266   -27.2866
  399.5000    99.2419    10.8165     8.1783     9.9241   -27.2866
  400.0000    97.1081    10.5902     7.6232     9.7843   -28.0488
  400.5000    98.3856    10.3688     7.6222     9.7153   -28.2012
  401.0000   102.2764    10.2937     7.7288     9.7829   -28.9634
  401.5000    99.5434    10.0776     7.8369     9.6459   -29.5732
  402.0000    96.4992     9.8661     8.0070     9.5110   -29.8780
  402.5000    94.6728     9.6590     8.1713     9.3779   -29.8780
  403.0000    94.9772     9.4563     8.1702     9.3118   -29.2683
  403.5000    96.1948     9.1863     7.9989     9.3112   -29.1159
  404.0000    96.8036     8.6283     7.7222     9.1168   -29.4207
  404.5000    99.8478     7.9296     7.4029     8.9215   -29.7256
  405.0000   102.6281     6.8892     6.8043     8.6789   -30.1829
  405.5000   104.4140     6.1993     5.9545     8.3795   -30.7927
  406.0000   105.9361     5.9845     5.4347     8.0338   -31.4024
  406.5000   108.9802     5.9002     4.8215     7.1810   -31.4024
  407.0000   114.7641     5.8171     4.3952     5.8188   -30.6402
  407.5000   121.7656     5.8986     4.2798     5.7778   -30.4878
  408.0000   124.8097     6.0698     4.4630     6.0255   -30.6402
  408.5000   122.3744     6.2377     5.0629     6.7973   -30.6402
  409.0000   115.9817     6.4598     5.7034     8.0386   -30.6402
  409.5000   110.4780     7.0766     6.1170     9.3687   -30.9451
  410.0000   106.7275     8.0860     6.4692     9.7022   -30.9655
  410.5000   103.1964     8.7961     6.7939     9.5665   -30.3354
  411.0000    98.6301     9.1735     7.4415     9.2364   -30.4878
  411.5000    93.1507     9.5002     7.8197     9.2358   -30.6402
  412.0000    91.9330     9.6333     8.2072     9.2351   -30.4878
  412.5000    92.5419     9.7056     8.2638     9.2995   -30.6402
  413.0000    94.9772    10.1158     8.2624     9.4301   -30.4878
  413.5000   100.1522    10.4027     8.3783     9.4958   -30.0305
  414.0000   104.1096    10.6977     8.4955     9.6292   -29.2683
  414.5000   105.3272    11.0011     8.6140     9.6284   -29.1159
  415.0000   101.9787    11.3131     8.7345     9.6954   -28.9634
  415.5000    99.8478    11.3916     8.8568     9.7631   -28.8110
  416.0000    99.2390    11.4701     9.0438     9.9698   -28.6585
  416.5000    99.8478    11.4684     9.1753    10.1809   -28.6585
  417.0000   101.9787    11.7111     9.2987    10.4756   -28.6585
  417.5000   102.2831    11.9585     9.3628    10.8422   -28.9634
  418.0000   101.3699    12.1265     9.3612    11.1498   -29.2683
  418.5000   100.4566    12.2103     9.4925    11.3861   -29.4207
  419.0000   102.3156    12.2947     9.5577    11.5461   -29.4207
  419.5000   103.8539    12.3797     9.6240    11.6263   -29.4207
  420.0000   105.6317    12.5527     9.8270    11.7075   -29.2683
  420.5000   104.7184    12.7286    10.0346    11.7065   -29.0889
  421.0000   101.6743    12.8166    10.6129    11.7880   -28.9634
  421.5000   100.7610    12.9962    10.9129    11.7872   -28.6585
  422.0000   101.0655    13.2712    10.9882    11.8693   -28.5061
  422.5000   101.0655    13.4571    11.0640    12.0359   -28.0488
  423.0000   100.7610    13.6457    11.0621    12.0351   -27.5915
  423.5000   100.4485    13.6433    11.0606    12.2900   -26.5244
  424.0000    97.9482    13.7381    10.9051    12.5503   -26.5244
  424.5000    95.5860    13.7358    10.3085    12.6377   -26.3633
  425.0000    97.1081    13.7339     9.8132    12.6369   -25.7368
  425.5000    98.9345    13.7320     9.2764    12.5267   -25.6098
  426.0000    99.8478    13.6289     8.6444    12.0299   -25.9146
  426.5000   101.0655    13.4265     8.5852    11.8617   -26.3720
  427.0000   103.5008    13.2521     9.2723    11.9443   -26.8293
  427.5000   105.0634    13.1575     9.8062    12.1975   -27.1341
  428.0000   103.5008    12.9722    10.2263    12.2824   -26.9817
  428.5000   101.9544    12.8796    10.8151    12.2814   -26.6768
  429.0000    99.8478    12.8779    10.6630    12.2806   -26.8293
  429.5000    98.6301    12.6964    10.2221    12.2797   -27.0056
  430.0000    95.5860    12.6058    10.0079    12.2787   -27.1341
  430.5000    91.9330    12.4282     9.9366    12.1069   -27.7439
