~VERSION INFORMATION
 VERS.                2.0:   CWLS LOG ASCII STANDARD - VERSION 2.0
 WRAP.                 NO:   ONE LINE PER DEPTH STEP
~WELL INFORMATION
#MNEM.UNIT      DATA TYPE    INFORMATION
#----------   ------------   ------------------------------
 STRT.F          550.0000:   START DEPTH
 STOP.F         2078.5000:   STOP DEPTH
 STEP.F            0.5000:   STEP LENGTH
 NULL.          -999.2500:   NO VALUE
 COMP. BROWN JOHN E&C INC:   COMPANY
 WELL. 58-61 STX-10 #58-10:   WELL
 FLD .             TEAPOT:   FIELD
 LOC .      S10 T38N R78W:   LOCATION
 CNTY.            NATRONA:   COUNTY
 STAT.            WYOMING:   STATE
 CTRY. UNITED STATES OF AMERICA:   COUNTRY
 SRVC.            Unknown:   SERVICE COMPANY
 DATE.        07-SEP-1991:   LOGDATE
 API .       490251108000:   API NUMBER
~CURVE INFORMATION
#MNEM.UNIT       API CODE    CURVE DESCRIPTION
#----------   ------------   ------------------------------
 DEPT.F                  :   
 ROP .MIN/FT 91 810 01 00:   RAT OF DRILLING PENETRATION
 TGAS.UNITS  91 830 01 00:   TOTAL GAS FROM HOTWIRE
~PARAMETER INFORMATION
#MNEM.UNIT          VALUE    DESCRIPTION
#----------   ------------   ------------------------------
 EKB .F              5216:   KELLING BUSHING
 EGL .F              5206:   GROUND LEVEL
 DATE.             9-7-91:   RUN DATE
 DD  .F              2079:   DEPTH DRILLER
 TCS .HRS            1815:   TIME CURCULATED STOPPED
 TLAB.HRS            1930:   TIME LOGGER AT BOTTOM
 ENGI.         HUSK/TOWER:   RECORDING ENGINEER
 WITN.             HENDRY:   WITNESSED BY
 CLNT.            A2DTECH:   CLIENT CODE
 ORIG.           5" PRINT:   ORIGIN OF DATA
 UWI .       490251108000:   UNIQUE WELL ID
 DICO. A2D Technologies, Inc.:   DIGITIZING COMPANY
~OTHER INFORMATION
~A   DEPT        ROP       TGAS 
# ...
 1765.0000     1.9677     8.7500
 1765.5000     1.9811     8.7500
 1766.0000     1.9815     8.7500
 1766.5000     1.9826     8.7500
 1767.0000     1.9658     8.7500
 1767.5000     1.9609     8.7508
 1768.0000     1.9564     8.7507
 1768.5000     1.9463     8.7421
 1769.0000     1.9332     8.7475
 1769.5000     1.9201     8.1181
 1770.0000     1.9088     7.7770
 1770.5000     1.8326     7.4057
 1771.0000     1.7342     7.2531
 1771.5000     1.6349     7.8000
 1772.0000     1.5358     7.7430
 1772.5000     1.4367     7.7273
 1773.0000     1.3376     7.7216
 1773.5000     1.2385     7.7127
 1774.0000     1.1393     7.7039
 1774.5000     1.0398     7.6950
 1775.0000     0.9422     7.6862
 1775.5000     0.9115     7.6773
 1776.0000     0.8844     7.6685
 1776.5000     0.9057     7.6596
 1777.0000     0.9555     7.6508
 1777.5000     1.0050     7.6419
 1778.0000     1.0548     7.6331
 1778.5000     1.0880     7.6242
 1779.0000     1.1168     7.6154
 1779.5000     1.1450     7.6065
 1780.0000     1.1724     7.5977
 1780.5000     1.1965     7.5889
 1781.0000     1.2539     7.5800
 1781.5000     1.3115     7.5711
 1782.0000     1.3609     7.5623
 1782.5000     1.2744     7.5535
 1783.0000     1.1871     7.5446
 1783.5000     1.0996     7.5358
 1784.0000     1.0381     7.5269
 1784.5000     1.0704     7.5181
 1785.0000     1.1378     7.5092
 1785.5000     1.2036     7.5004
 1786.0000     1.2579     7.4915
 1786.5000     1.2807     7.4827
 1787.0000     1.3054     7.4738
 1787.5000     1.3299     7.4650
 1788.0000     1.3544     7.4561
 1788.5000     1.3789     7.4473
 1789.0000     1.3943     7.4384
 1789.5000     1.4086     7.4296
 1790.0000     1.3824     7.4207
 1790.5000     1.3150     7.4119
 1791.0000     1.2398     7.4030
 1791.5000     1.1647     7.3942
 1792.0000     1.0893     7.3854
 1792.5000     1.0567     7.3765
 1793.0000     1.0692     7.3677
 1793.5000     1.1216     7.3588
 1794.0000     1.1670     7.3500
 1794.5000     1.2313     7.3411
 1795.0000     1.2956     7.3323
 1795.5000     1.3602     7.3234
 1796.0000     1.4253     7.3146
 1796.5000     1.4909     7.3057
 1797.0000     1.4943     7.2969
 1797.5000     1.4643     7.2880
 1798.0000     1.4503     7.2792
 1798.5000     1.4341     7.2703
 1799.0000     1.4176     7.2615
 1799.5000     1.4012     7.2535
 1800.0000     1.3848     7.2030
 1800.5000     1.3684     7.1365
 1801.0000     1.3521     7.0696
 1801.5000     1.3437     7.0028
 1802.0000     1.3438     6.9360
 1802.5000     1.3601     6.8692
 1803.0000     1.3796     6.8024
 1803.5000     1.4799     6.7356
 1804.0000     1.5573     6.6688
 1804.5000     1.5063     6.6020
 1805.0000     1.4071     6.5352
 1805.5000     1.3076     6.4684
 1806.0000     1.2088     6.4016
 1806.5000     1.1421     6.3348
 1807.0000     1.1743     6.2680
 1807.5000     1.3386     6.2012
 1808.0000     1.4696     6.1344
 1808.5000     1.4834     6.0677
 1809.0000     1.4791     6.0009
 1809.5000     1.4479     5.9341
 1810.0000     1.4223     5.8673
 1810.5000     1.3621     5.8005
 1811.0000     1.2961     5.7337
 1811.5000     1.2312     5.6669
 1812.0000     1.1899     5.6001
 1812.5000     1.2106     5.5333
 1813.0000     1.2299     5.4665
 1813.5000     1.2493     5.3997
 1814.0000     1.2689     5.3329
 1814.5000     1.2884     5.2648
 1815.0000     1.3075     5.2502
 1815.5000     1.3183     5.2498
 1816.0000     1.2699     5.2499
 1816.5000     1.1730     5.2492
 1817.0000     1.0753     5.2766
 1817.5000     0.9832     5.3111
 1818.0000     0.9806     5.3458
 1818.5000     0.9811     5.3804
 1819.0000     0.9812     5.4151
 1819.5000     0.9812     5.4497
 1820.0000     0.9812     5.4843
 1820.5000     0.9813     5.5190
 1821.0000     0.9813     5.5536
 1821.5000     0.9812     5.5882
 1822.0000     0.9758     5.6229
 1822.5000     0.9477     5.6575
 1823.0000     0.9200     5.6921
 1823.5000     0.8914     5.7267
 1824.0000     0.8690     5.7614
 1824.5000     0.9618     5.7960
 1825.0000     1.1110     5.8306
 1825.5000     1.3179     5.8653
 1826.0000     1.5261     5.8999
 1826.5000     1.7344     5.9345
 1827.0000     1.9430     5.9692
 1827.5000     2.1493     6.0038
 1828.0000     2.3254     6.0384
 1828.5000     2.3028     6.0731
 1829.0000     2.2008     6.1077
 1829.5000     2.0933     6.1423
 1830.0000     1.9853     6.1770
 1830.5000     1.8582     6.2116
 1831.0000     1.6966     6.2462
 1831.5000     1.5360     6.2808
 1832.0000     1.3084     6.3155
 1832.5000     1.3972     6.3501
 1833.0000     1.6495     6.3847
 1833.5000     1.8971     6.4194
 1834.0000     2.1237     6.4540
 1834.5000     2.0835     6.4886
 1835.0000     2.0205     6.5233
 1835.5000     1.9592     6.5579
 1836.0000     1.9183     6.5925
 1836.5000     2.0126     6.6272
 1837.0000     2.1054     6.6618
 1837.5000     2.1976     6.6933
 1838.0000     2.2900     6.7350
 1838.5000     2.3796     6.8024
 1839.0000     2.4533     6.2495
 1839.5000     2.5270     6.1994
 1840.0000     2.6006     6.1327
 1840.5000     2.6741     6.0753
 1841.0000     2.7486     6.0191
 1841.5000     2.8230     5.9622
 1842.0000     3.0147     5.9052
 1842.5000     3.3070     5.8483
 1843.0000     3.5998     5.7914
 1843.5000     3.8941     5.7344
 1844.0000     4.1951     5.6775
 1844.5000     4.2447     5.6206
 1845.0000     4.1496     5.5636
 1845.5000     4.0471     5.5067
 1846.0000     3.8735     5.4497
 1846.5000     3.4849     5.3928
 1847.0000     3.1083     5.3360
 1847.5000     2.7318     5.2792
 1848.0000     2.3548     5.2473
 1848.5000     1.9988     5.2355
 1849.0000     1.8019     5.2240
 1849.5000     1.5985     5.2127
 1850.0000     1.5283     5.2014
 1850.5000     1.4970     5.1901
 1851.0000     1.4655     5.1788
 1851.5000     1.4345     5.1675
 1852.0000     1.4032     5.1562
 1852.5000     1.3721     5.1449
 1853.0000     1.3689     5.1336
 1853.5000     1.4160     5.1222
 1854.0000     1.4696     5.1109
 1854.5000     1.5231     5.0996
 1855.0000     1.5766     5.0883
 1855.5000     1.6302     5.0770
 1856.0000     1.6826     5.0657
 1856.5000     1.6912     5.0544
 1857.0000     1.6809     5.0430
 1857.5000     1.6779     5.0317
 1858.0000     1.6757     5.0204
 1858.5000     1.6735     5.0091
 1859.0000     1.6712     4.9978
 1859.5000     1.6700     4.9865
 1860.0000     1.6510     4.9752
 1860.5000     1.5430     4.9638
 1861.0000     1.4345     4.9525
 1861.5000     1.3265     4.9412
 1862.0000     1.2186     4.9299
 1862.5000     1.1113     4.9186
 1863.0000     1.0044     4.9073
 1863.5000     0.9490     4.8960
 1864.0000     0.9597     4.8846
 1864.5000     0.9702     4.8733
 1865.0000     0.9812     4.8620
 1865.5000     0.9918     4.8507
 1866.0000     0.9826     4.8394
 1866.5000     0.9500     4.8281
 1867.0000     0.9200     4.8168
 1867.5000     0.8900     4.8054
 1868.0000     0.8599     4.7941
 1868.5000     0.8298     4.7828
 1869.0000     0.7997     4.7715
 1869.5000     0.7696     4.7601
 1870.0000     0.7396     4.7502
 1870.5000     0.7095     4.7443
 1871.0000     0.6794     4.7363
 1871.5000     0.6492     4.7282
 1872.0000     0.6437     4.7202
 1872.5000     0.6579     4.7121
 1873.0000     0.6732     4.7040
 1873.5000     0.6899     4.6960
 1874.0000     0.7068     4.6879
 1874.5000     0.7236     4.6798
 1875.0000     0.7404     4.6718
 1875.5000     0.7572     4.6637
 1876.0000     0.7740     4.6557
 1876.5000     0.7908     4.6476
 1877.0000     0.8076     4.6395
 1877.5000     0.8244     4.6315
 1878.0000     0.8224     4.6234
 1878.5000     0.7991     4.6153
 1879.0000     0.7759     4.6073
 1879.5000     0.7528     4.5992
 1880.0000     0.7296     4.5911
 1880.5000     0.7062     4.5831
 1881.0000     0.6829     4.5750
 1881.5000     0.6459     4.5669
 1882.0000     0.6310     4.5589
 1882.5000     0.6361     4.5508
 1883.0000     0.6407     4.5427
 1883.5000     0.6439     4.5347
 1884.0000     0.6435     4.5266
 1884.5000     0.6288     4.5185
 1885.0000     0.6132     4.5105
 1885.5000     0.5975     4.5024
 1886.0000     0.5819     4.4943
