~VERSION INFORMATION
 VERS.                2.0:   CWLS LOG ASCII STANDARD - VERSION 2.0
 WRAP.                 NO:   ONE LINE PER DEPTH STEP
~WELL INFORMATION
#MNEM.UNIT      DATA TYPE    INFORMATION
#----------   ------------   ------------------------------
 STRT.F           38.0000:   START DEPTH
 STOP.F          846.0000:   STOP DEPTH
 STEP.F            0.5000:   STEP LENGTH
 NULL.          -999.2500:   NO VALUE
 COMP. FENIX & SCISSON INC:   COMPANY
 WELL.    NPR 3 #34-SX-14:   WELL
 FLD .        TEAPOT DOME:   FIELD
 LOC .      S14 T38N R78W:   LOCATION
 CNTY.            NATRONA:   COUNTY
 STAT.            WYOMING:   STATE
 CTRY. UNITED STATES OF AMERICA:   COUNTRY
 SRVC.           BIRDWELL:   SERVICE COMPANY
 DATE.        26-APR-1978:   LOGDATE
 API .       490251063500:   API NUMBER
~CURVE INFORMATION
#MNEM.UNIT       API CODE    CURVE DESCRIPTION
#----------   ------------   ------------------------------
 DEPT.F                  :   
 NEUT.CPS    81 330 30 00:   NEUTRON
 TT  .US/F   81 520 00 00:   TRANSIT TIME
 GRD .GAPI   45 310 01 00:   GAMMA RAY FROM DENSITY LOG
 RHOB.G/C3   45 350 01 00:   BULK DENSITY
 DPOR.DEC    45 890 10 00:   DENSITY POROSITY
 CALD.IN     45 280 60 00:   CALIPER FROM DENSITY LOG
 CORR.G/C3   45 356 01 00:   DENSITY CORRECTION
~PARAMETER INFORMATION
#MNEM.UNIT          VALUE    DESCRIPTION
#----------   ------------   ------------------------------
 PD  .                 GL:   PERMANENT DATUM
 EPD .F              5232:   ELEVATION PERMANENT DATUM
 LMF .                 KB:   LOG MEASURED FROM
 DMF .                 KB:   DRILLING MEASURED FROM
 EKB .F              5236:   KELLING BUSHING
 EGL .F              5232:   GROUND LEVEL
 DATE.          4-26-1978:   RUN DATE
 RUN .                  1:   RUN NUMBER
 DD  .F               855:   DEPTH DRILLER
 DL  .F               853:   DEPTH LOGGER
 BLI .F               846:   BOTTOM LOG INTERVAL
 TLI .F                40:   TOP LOG INTERVAL
 CS  .IN            8.625:   CASING SIZE
 CBD .F                40:   CASING BOTTOM DRILLER
 CBL .F                40:   CASING BOTTOM LOGGER
 BS  .IN            7.875:   BIT SIZE
 BSD .F               855:   BIT SIZE AT DEPTH
 DFT .                KCL:   DRILLING FLUID TYPE
 DFD .                8.5:   DRILLING FLUID DENSITY
 DFV .                 31:   DRILLING FLUID VISCOSITY
 DFPH.                 10:   DRILLING FLUID PH
 DFL .               10.4:   DRILLING FLUID LOSS
 MSS .          FLUID PIT:   MUD SAMPLE SOURCE
 RMS .OHMM            .36:   RESISTIVITY MUD SAMPLE
 MST .F                68:   MUD SAMPLE TEMPERATURE
 RMF .OHMM            .28:   RESISTIVITY MUD FILTRATE SAMPLE
 MFST.F                74:   MUD FILTRATE SAMPLE TEMPERATURE
 RMC .OHMM            .48:   RESISTIVITY MUD CAKE
 MCST.F                79:   MUD CAKE SAMPLE TEMPERATURE
 MFSS.               MEAS:   MUD FILTRATE SAMPLE SOURCE
 RMB .OHMM            .33:   RESISTIVITY MUD AT BHT
 BHT .F                75:   BOTTOM HOLE TEMPERATURE
 TCS .HRS               1:   TIME CURCULATED STOPPED
 MRT .F                75:   MAXIMUM RECORDED TEMPERATURE
 LUN .               3006:   LOGGING UNIT NUMBER
 LUL .              CASP.:   LOGGING UNIT LOCATION
 ENGI.             MILLER:   RECORDING ENGINEER
 WITN.           MCGINLEY:   WITNESSED BY
 CLNT.            A2DTECH:   CLIENT CODE
 ORIG.      2" , 5" PRINT:   ORIGIN OF DATA
 UWI .       490251063500:   UNIQUE WELL ID
 DICO. A2D Technologies, Inc.:   DIGITIZING COMPANY
~OTHER INFORMATION
~A   DEPT     NEUT         TT         GRD      RHOB       DPOR       CALD       CORR   
# ...
  766.0000   507.8791  -999.2500    93.7420     2.4202     0.1231     8.4622    -0.0049
  766.5000   520.6007  -999.2500    92.2331     2.4242     0.1214     8.4632    -0.0041
  767.0000   536.5479  -999.2500    90.6058     2.4281     0.1196     8.4635    -0.0032
  767.5000   548.2391  -999.2500    89.0104     2.4316     0.1178     8.4351    -0.0024
  768.0000   557.0726  -999.2500    87.9700     2.4323     0.1143     8.3944     0.0018
  768.5000  -999.2500  -999.2500    90.3608     2.4331     0.1106     8.3529     0.0080
  769.0000  -999.2500  -999.2500    89.4795     2.4402     0.1086     8.3108     0.0116
  769.5000  -999.2500  -999.2500    86.7427     2.4507     0.1044     8.3033     0.0150
  770.0000  -999.2500  -999.2500    88.8457     2.4608     0.0982     8.3033     0.0247
  770.5000  -999.2500  -999.2500    92.1507     2.4712     0.0930     8.3034     0.0367
  771.0000  -999.2500  -999.2500    95.5030     2.4804     0.0936     8.3032     0.0446
  771.5000  -999.2500  -999.2500    98.5266     2.4790     0.0942     8.3025     0.0457
  772.0000  -999.2500  -999.2500    98.7064     2.4766     0.0928     8.3127     0.0498
  772.5000  -999.2500  -999.2500    96.6244     2.4791     0.0915     8.3666     0.0554
  773.0000  -999.2500  -999.2500    94.2757     2.4820     0.0906     8.4069     0.0606
  773.5000  -999.2500  -999.2500    91.9034     2.4845     0.0906     8.4460     0.0625
  774.0000  -999.2500  -999.2500    91.7273     2.4841     0.0906     8.4851     0.0636
  774.5000  -999.2500  -999.2500    97.3066     2.4830     0.0982     8.4849     0.0608
  775.0000  -999.2500  -999.2500   100.3656     2.4716     0.1055     8.4332     0.0504
  775.5000  -999.2500  -999.2500    99.0348     2.4603     0.1129     8.3814     0.0270
  776.0000  -999.2500  -999.2500    97.8135     2.4491     0.1203     8.3293     0.0174
  776.5000  -999.2500  -999.2500   101.2593     2.4354     0.1277     8.3390     0.0084
  777.0000  -999.2500  -999.2500   105.1546     2.4201     0.1351     8.3576    -0.0007
  777.5000  -999.2500  -999.2500   109.1637     2.4048     0.1419     8.3746    -0.0030
  778.0000  -999.2500  -999.2500   108.8285     2.3898     0.1428     8.4012    -0.0034
  778.5000  -999.2500  -999.2500   107.5343     2.3819     0.1435     8.3824     0.0029
  779.0000  -999.2500  -999.2500   107.9050     2.3858     0.1349     8.3654     0.0092
  779.5000  -999.2500  -999.2500   108.5461     2.3907     0.1248     8.3482     0.0154
  780.0000  -999.2500  -999.2500   108.7134     2.4011     0.1147     8.3308     0.0199
  780.5000  -999.2500  -999.2500   106.4290     2.4332     0.1046     8.3239     0.0146
  781.0000  -999.2500  -999.2500   102.3824     2.4654     0.0955     8.3384     0.0158
  781.5000  -999.2500  -999.2500    98.2626     2.4750     0.0931     8.3441     0.0230
  782.0000  -999.2500  -999.2500    97.3301     2.4787     0.0926     8.3516     0.0271
  782.5000  -999.2500  -999.2500    97.7400     2.4783     0.0935     8.3595     0.0291
  783.0000  -999.2500  -999.2500    98.1958     2.4756     0.0945     8.3674     0.0309
  783.5000  -999.2500  -999.2500    97.7874     2.4797     0.0906     8.3754     0.0328
  784.0000  -999.2500  -999.2500    96.3318     2.4847     0.0870     8.3833     0.0347
  784.5000  -999.2500  -999.2500    94.7915     2.4895     0.0867     8.3912     0.0366
  785.0000  -999.2500  -999.2500    99.2418     2.4924     0.0874     8.3995     0.0377
  785.5000  -999.2500  -999.2500   100.1098     2.4916     0.0856     8.4047     0.0351
  786.0000  -999.2500  -999.2500   100.4193     2.4925     0.0854     8.3821     0.0327
  786.5000  -999.2500  -999.2500   101.2703     2.4934     0.0869     8.3676     0.0302
  787.0000  -999.2500  -999.2500   103.3588     2.4883     0.0919     8.3537     0.0278
  787.5000  -999.2500  -999.2500   104.8436     2.4828     0.0923     8.3400     0.0253
  788.0000  -999.2500  -999.2500   102.9437     2.4811     0.0910     8.3262     0.0229
  788.5000  -999.2500  -999.2500   100.6367     2.4823     0.0918     8.3126     0.0177
  789.0000  -999.2500  -999.2500    98.3571     2.4781     0.0958     8.3061     0.0110
  789.5000  -999.2500  -999.2500    96.4275     2.4739     0.0994     8.3149     0.0042
  790.0000  -999.2500  -999.2500    97.4149     2.4697     0.0998     8.3235     0.0002
  790.5000  -999.2500  -999.2500    98.5195     2.4633     0.1070     8.3322    -0.0077
  791.0000  -999.2500  -999.2500    97.0704     2.4464     0.1157     8.3415    -0.0221
  791.5000  -999.2500  -999.2500    95.4251     2.4298     0.1244     8.3096    -0.0361
  792.0000  -999.2500  -999.2500    94.5274     2.4149     0.1281     8.2616    -0.0462
  792.5000  -999.2500  -999.2500    96.8107     2.4163     0.1262     8.2124    -0.0446
  793.0000  -999.2500  -999.2500    95.5269     2.4181     0.1246     8.2034    -0.0404
  793.5000  -999.2500  -999.2500    94.1043     2.4200     0.1244     8.2030    -0.0362
  794.0000  -999.2500  -999.2500    92.6902     2.4217     0.1226     8.2061    -0.0319
  794.5000  -999.2500  -999.2500    91.2786     2.4276     0.1158     8.2593    -0.0277
  795.0000  -999.2500  -999.2500    90.0807     2.4351     0.1169     8.3114    -0.0239
  795.5000  -999.2500  -999.2500    90.8914     2.4348     0.1190     8.3631    -0.0241
  796.0000  -999.2500  -999.2500    91.7298     2.4306     0.1206     8.4144    -0.0263
  796.5000  -999.2500  -999.2500    92.5629     2.4242     0.1253     8.4398    -0.0320
  797.0000  -999.2500  -999.2500    93.3946     2.4091     0.1298     8.4232    -0.0377
  797.5000  -999.2500  -999.2500    94.2263     2.3958     0.1339     8.4068    -0.0435
  798.0000  -999.2500  -999.2500    95.0581     2.3998     0.1329     8.4031    -0.0466
  798.5000  -999.2500  -999.2500    95.8904     2.4047     0.1279     8.4034    -0.0477
  799.0000  -999.2500  -999.2500    96.7231     2.4096     0.1304     8.3764    -0.0487
  799.5000  -999.2500  -999.2500    97.5426     2.4114     0.1345     8.3332    -0.0498
  800.0000  -999.2500  -999.2500    97.5945     2.4064     0.1357     8.2893    -0.0499
  800.5000  -999.2500  -999.2500    96.8891     2.4040     0.1305     8.2441    -0.0496
  801.0000  -999.2500  -999.2500    94.8930     2.4098     0.1264     8.2994    -0.0494
  801.5000  -999.2500  -999.2500    92.9175     2.4152     0.1287     8.3755    -0.0491
  802.0000  -999.2500  -999.2500    90.9665     2.4130     0.1283     8.4531    -0.0488
  802.5000  -999.2500  -999.2500    89.6878     2.4099     0.1313     8.4199    -0.0485
  803.0000  -999.2500  -999.2500    92.6336     2.4069     0.1335     8.3681    -0.0482
  803.5000  -999.2500  -999.2500    95.1852     2.4056     0.1283     8.3220    -0.0444
  804.0000  -999.2500  -999.2500    97.8121     2.4164     0.1227     8.3278    -0.0373
  804.5000  -999.2500  -999.2500    99.9796     2.4271     0.1170     8.3584    -0.0302
  805.0000  -999.2500  -999.2500    98.7538     2.4360     0.1153     8.3554    -0.0230
  805.5000  -999.2500  -999.2500    97.6996     2.4376     0.1110     8.3472    -0.0159
  806.0000  -999.2500  -999.2500    99.8413     2.4491     0.1097     8.3262    -0.0088
  806.5000  -999.2500  -999.2500   102.6135     2.4523     0.1120     8.3642    -0.0037
  807.0000  -999.2500  -999.2500   105.4059     2.4489     0.1104     8.4000    -0.0030
  807.5000  -999.2500  -999.2500   106.8140     2.4461     0.1000     8.3968    -0.0024
  808.0000  -999.2500  -999.2500   103.8843     2.4665     0.0874     8.3689     0.0097
  808.5000  -999.2500  -999.2500   100.1915     2.4876     0.0748     8.3437     0.0282
  809.0000  -999.2500  -999.2500    98.8134     2.5095     0.0742     8.3431     0.0476
  809.5000  -999.2500  -999.2500    99.8909     2.5150     0.0777     8.3869     0.0539
  810.0000  -999.2500  -999.2500    99.4206     2.5107     0.0752     8.3865     0.0563
  810.5000  -999.2500  -999.2500    98.6195     2.5068     0.0727     8.3572     0.0587
  811.0000  -999.2500  -999.2500   100.1226     2.5133     0.0710     8.3268     0.0611
