~VERSION INFORMATION
 VERS.                2.0:   CWLS LOG ASCII STANDARD - VERSION 2.0
 WRAP.                 NO:   ONE LINE PER DEPTH STEP
~WELL INFORMATION
#MNEM.UNIT      DATA TYPE    INFORMATION
#----------   ------------   ------------------------------
 STRT.F           16.5000:   START DEPTH
 STOP.F          475.0000:   STOP DEPTH
 STEP.F            0.5000:   STEP LENGTH
 NULL.          -999.2500:   NO VALUE
 COMP. BROWN JOHN E&C INC:   COMPANY
 WELL. NAVAL PETROLEUM RESERVE 3 SX-1 #71-1-10:   WELL
 FLD .             TEAPOT:   FIELD
 LOC .      S10 T38N R78W:   LOCATION
 CNTY.            NATRONA:   COUNTY
 STAT.            WYOMING:   STATE
 CTRY. UNITED STATES OF AMERICA:   COUNTRY
 SRVC.     Atlas Wireline:   SERVICE COMPANY
 DATE.        01-OCT-1991:   LOGDATE
 API .       490252244700:   API NUMBER
~CURVE INFORMATION
#MNEM.UNIT       API CODE    CURVE DESCRIPTION
#----------   ------------   ------------------------------
 DEPT.F                  :   
 GRR .GAPI   07 310 01 00:   GAMMA RAY
 RILD.OHMM   07 120 46 00:   INDUCTION LOG DEEP RESISTIVITY
 RILM.OHMM   07 120 44 00:   RESITIVITY LONG MEDIUM
~PARAMETER INFORMATION
#MNEM.UNIT          VALUE    DESCRIPTION
#----------   ------------   ------------------------------
 PD  .                 GL:   PERMANENT DATUM
 EPD .F              5142:   ELEVATION PERMANENT DATUM
 LMF .                 KB:   LOG MEASURED FROM
 DAPD.F                10:   FEET ABOVE PERMANENT DATUM
 DMF .                 KB:   DRILLING MEASURED FROM
 EKB .F              5152:   KELLING BUSHING
 EDF .F              5151:   DRILLING FLOOR
 EGL .F              5142:   GROUND LEVEL
 DATE.        01-OCT-1991:   RUN DATE
 RUN .                  1:   RUN NUMBER
 DD  .F               485:   DEPTH DRILLER
 DL  .F               483:   DEPTH LOGGER
 BLI .F               475:   BOTTOM LOG INTERVAL
 TLI .F                97:   TOP LOG INTERVAL
 CS  .IN            8.625:   CASING SIZE
 CBD .F                89:   CASING BOTTOM DRILLER
 CBL .F                91:   CASING BOTTOM LOGGER
 BS  .IN            7.875:   BIT SIZE
 BSD .F               485:   BIT SIZE AT DEPTH
 DFT . WEIGHTED DISPERSED:   DRILLING FLUID TYPE
 DFD .               16.5:   DRILLING FLUID DENSITY
 DFV .                 37:   DRILLING FLUID VISCOSITY
 DFPH.                9.8:   DRILLING FLUID PH
 DFL .               10.0:   DRILLING FLUID LOSS
 MSS .           FLOWLINE:   MUD SAMPLE SOURCE
 RMS .OHMM           1.67:   RESISTIVITY MUD SAMPLE
 MST .F                70:   MUD SAMPLE TEMPERATURE
 RMF .OHMM           1.44:   RESISTIVITY MUD FILTRATE SAMPLE
 MFST.F                70:   MUD FILTRATE SAMPLE TEMPERATURE
 RMC .OHMM           1.93:   RESISTIVITY MUD CAKE
 MCST.F                70:   MUD CAKE SAMPLE TEMPERATURE
 MFSS.               MEAS:   MUD FILTRATE SAMPLE SOURCE
 MCSS.               MEAS:   MUD CAKE SAMPLE SOURCE
 RMB .OHMM           1.30:   RESISTIVITY MUD AT BHT
 BHT .F                90:   BOTTOM HOLE TEMPERATURE
 TCS .HRS               2:   TIME CURCULATED STOPPED
 MRT .F                99:   MAXIMUM RECORDED TEMPERATURE
 LUN .            HL/6272:   LOGGING UNIT NUMBER
 LUL .             CASPER:   LOGGING UNIT LOCATION
 ENGI.             RAUTIO:   RECORDING ENGINEER
 WITN.             STRONG:   WITNESSED BY
 CLNT.            A2DTECH:   CLIENT CODE
 ORIG.           5" PRINT:   ORIGIN OF DATA
 UWI .       490252244700:   UNIQUE WELL ID
 DICO. A2D Technologies, Inc.:   DIGITIZING COMPANY
~OTHER INFORMATION
~A   DEPT       GRR      RILD       RILM   
# ...
  198.5000    81.7082     7.7908     6.9208
  199.0000    84.9133     7.7936     6.9222
  199.5000    84.8866     7.7864     6.8680
  200.0000    79.2252     7.6360     6.7815
  200.5000    76.4942     7.4798     6.6889
  201.0000    75.3592     7.3269     6.6437
  201.5000    79.7081     7.1271     6.5532
  202.0000    82.0000     6.9315     6.4188
  202.5000    81.7803     6.6973     6.2871
  203.0000    81.5608     6.4245     6.0867
  203.5000    82.7133     6.1627     5.9210
  204.0000    82.2654     5.7891     5.7199
  204.5000    79.7627     5.4382     5.2993
  205.0000    80.9133     5.0449     4.7748
  205.5000    86.9742     4.9760     4.3930
  206.0000    91.4703     4.9082     4.2435
  206.5000    88.2482     4.9437     4.3649
  207.0000    85.2891     4.9447     4.5525
  207.5000    83.2432     4.9856     4.8192
  208.0000    82.1106     5.0923     5.1752
  208.5000    85.3159     5.3111     5.6157
  209.0000    88.7494     5.6959     5.9392
  209.5000    90.5848     6.1513     6.1944
  210.0000    90.1371     6.5056     6.4157
  210.5000    89.4611     6.9285     6.6450
  211.0000    89.2417     7.2289     6.7872
  211.5000    89.0223     7.4325     6.9324
  212.0000    88.1180     7.5393     6.9828
  212.5000    90.1840     7.5941     6.9847
  213.0000    91.1039     7.5961     7.0355
  213.5000    89.9735     7.5982     6.9885
  214.0000    89.5235     7.6003     6.9909
  214.5000    90.9045     7.6024     6.9928
  215.0000    90.0002     7.6044     6.9947
  215.5000    87.2694     7.5537     7.0455
  216.0000    89.6896     7.5557     7.0474
  216.5000    93.9105     7.5578     7.0493
  217.0000    93.2345     7.5074     6.9537
  217.5000    89.5904     7.5099     6.9073
  218.0000    87.5445     7.5120     6.9092
  218.5000    87.7818     7.5140     6.9594
  219.0000    89.8455     7.5161     6.9617
  219.5000    90.7654     7.5181     6.9636
  220.0000    88.7218     7.5202     6.9167
  220.5000    87.5891     7.5222     6.9191
  221.0000    88.5799     7.5243     6.9209
  221.5000    94.0716     7.4222     6.9228
  222.0000    93.7803     7.2599     6.8762
  222.5000    95.3896     6.6898     6.6895
  223.0000    96.3117     6.2413     6.3728
  223.5000    97.0056     5.9045     5.6897
  224.0000    96.1013     5.6643     5.0213
  224.5000    95.6513     5.5871     4.8605
  225.0000    95.7001     5.5113     5.2130
  225.5000    94.0732     5.4365     5.3245
  226.0000    93.8538     5.3630     5.4007
  226.5000    94.8044     5.3273     5.3271
  227.0000    94.3305     5.2903     5.2548
  227.5000    92.2846     5.2200     5.1479
  228.0000    90.2388     5.2217     5.0077
  228.5000    88.8756     5.2232     4.9055
  229.0000    88.6562     5.2246     4.8389
  229.5000    87.5258     5.2625     4.8403
  230.0000    87.9913     5.3008     4.9442
  230.5000    90.0550     5.3393     5.0853
  231.0000    91.4338     5.4157     5.2670
  231.5000    90.7169     5.6484     5.4933
  232.0000    87.1160     5.9323     5.7294
  232.5000    84.3852     6.2800     5.9341
  233.0000    85.3073     6.6969     6.1891
  233.5000    88.0560     7.0673     6.4102
  234.0000    88.5193     7.1186     6.4568
  234.5000    87.1606     7.0711     6.4137
  235.0000    86.2562     6.6432     6.3271
  235.5000    81.0140     5.9856     5.9442
  236.0000    79.8813     5.4308     5.3558
  236.5000    82.4536     5.1378     5.1023
  237.0000    84.4654     4.8946     4.8947
  237.5000    78.0839     4.7283     4.7284
  238.0000    78.3211     4.5967     4.6316
  238.5000    82.4396     4.7643     4.6982
  239.0000    84.7294     5.0387     4.8660
  239.5000    82.9141     5.3290     5.1852
  240.0000    83.3796     5.7953     5.6517
  240.5000    84.3018     6.2151     6.1292
  241.0000    84.9956     6.6654     6.5733
  241.5000    85.0046     7.0493     6.9037
  242.0000    84.7851     7.3012     7.1007
  242.5000    84.7963     7.6150     7.2023
  243.0000    84.1203     7.7794     7.2043
  243.5000    81.6178     7.8892     7.2062
  244.0000    77.0605     7.8366     7.2586
  244.5000    77.5260     7.8940     7.3113
  245.0000    82.5577     7.9514     7.4160
  245.5000    87.8178     8.0651     7.4180
  246.0000    85.7719     8.1237     7.4720
  246.5000    82.3562     8.1260     7.4741
  247.0000    81.9070     8.0712     7.4706
  247.5000    83.2880     8.0178     7.4262
  248.0000    85.3517     7.9644     7.4287
  248.5000    86.5221     7.9112     7.4308
  249.0000    88.2054     7.9135     7.3812
  249.5000    90.4035     7.9714     7.2810
  250.0000    84.9330     8.0855     7.2319
  250.5000    81.7456     8.2585     7.2850
  251.0000    79.9280     8.3767     7.5453
  251.5000    79.9369     8.4965     7.8149
  252.0000    80.4025     8.5583     8.0402
  252.5000    80.8680     8.3835     8.2177
  253.0000    82.9317     7.7671     7.8218
  253.5000    85.9110     6.9983     6.3926
  254.0000    85.3638     6.0731     5.2979
  254.5000    83.4173     5.2497     4.6101
  255.0000    83.8828     4.9787     4.0678
  255.5000    87.3164     4.8429     3.9568
  256.0000    93.7180     4.9814     4.0384
  256.5000    97.8365     5.0527     4.6109
  257.0000    98.0715     5.0541     5.2735
  257.5000    92.3749     5.0555     5.6458
  258.0000    78.9135     5.2978     6.0968
  258.5000    77.2080     6.6218     6.8171
  259.0000    80.4066     8.0492     7.5170
  259.5000    82.4636     8.9996     8.4639
  260.0000    81.3242     9.3894     8.8888
  260.5000    78.3265     9.3215     9.1418
  261.0000    77.9040     9.2577     8.8278
  261.5000    82.9296     9.2592     8.6497
  262.0000    86.8131     9.3904     8.7124
  262.5000    83.6190     9.5901     9.0231
  263.0000    81.3381     9.8624     9.5422
  263.5000    79.2855    10.3567    10.0912
  264.0000    75.1782    11.2677    10.8972
  264.5000    67.1895    12.1850    11.6858
  265.0000    59.2317    12.8591    12.4474
  265.5000    51.8977    13.3167    13.0980
  266.0000    50.9867    13.8871    14.0156
  266.5000    50.3040    14.3813    14.4146
  267.0000    48.7080    14.8931    14.6199
  267.5000    43.9157    15.3161    14.6228
  268.0000    41.1782    15.5331    14.6258
  268.5000    41.8654    15.7532    14.7310
  269.0000    43.9224    15.4299    14.9429
  269.5000    48.1136    15.2180    15.3661
  270.0000    50.0918    15.7601    15.5854
  270.5000    49.6374    16.3210    15.9178
  271.0000    48.4980    16.9018    15.9210
  271.5000    47.3581    16.9041    15.9243
  272.0000    48.0459    17.0246    15.9276
  272.5000    49.6463    17.1460    16.0429
  273.0000    50.3334    17.5110    16.0462
  273.5000    50.3372    17.8833    16.2746
  274.0000    49.3759    18.2635    16.5063
  274.5000    46.9160    18.6517    16.9762
  275.0000    45.0917    19.0482    17.7045
  275.5000    43.2674    19.4532    18.3358
  276.0000    41.6715    19.7288    18.8579
  276.5000    41.2165    20.0084    18.6006
  277.0000    42.8175    20.1511    18.4752
  277.5000    45.3311    20.4372    18.6091
  278.0000    48.3137    20.5828    18.8741
  278.5000    50.3584    20.7295    19.0099
  279.0000    48.7630    20.7323    19.1467
  279.5000    46.4821    20.7351    19.4193
  280.0000    44.6578    20.8829    19.5682
  280.5000    43.5185    21.0318    19.8384
  281.0000    44.2057    21.3298    20.1209
  281.5000    46.0344    21.6327    20.2657
  282.0000    47.8631    21.9392    20.5542
  282.5000    51.0921    22.0956    20.5584
  283.0000    53.3805    22.2531    20.5625
  283.5000    53.8063    22.4117    20.5667
  284.0000    54.0369    22.5714    20.5709
  284.5000    54.9523    22.8912    20.5761
  285.0000    56.3244    23.0652    20.5803
  285.5000    58.6097    23.5453    20.5844
  286.0000    58.3837    23.8789    21.0235
  286.5000    58.1438    24.0491    21.6220
  287.0000    59.3014    24.0524    21.9298
  287.5000    59.2656    23.8886    21.7820
  288.0000    58.1648    23.7252    21.1818
  288.5000    58.8519    23.5644    20.7302
  289.0000    60.2240    23.0801    20.3295
