~VERSION INFORMATION
 VERS.                2.0:   CWLS LOG ASCII STANDARD - VERSION 2.0
 WRAP.                 NO:   ONE LINE PER DEPTH STEP
~WELL INFORMATION
#MNEM.UNIT      DATA TYPE    INFORMATION
#----------   ------------   ------------------------------
 STRT.F           99.0000:   START DEPTH
 STOP.F          750.0000:   STOP DEPTH
 STEP.F            0.5000:   STEP LENGTH
 NULL.          -999.2500:   NO VALUE
 COMP. U S NAVY/INTEX OIL CO:   COMPANY
 WELL.    NRP #3 #43-S-11:   WELL
 FLD .             TEAPOT:   FIELD
 LOC .      S11 T38N R78W:   LOCATION
 CNTY.            NATRONA:   COUNTY
 STAT.            WYOMING:   STATE
 CTRY. UNITED STATES OF AMERICA:   COUNTRY
 SRVC.       Schlumberger:   SERVICE COMPANY
 DATE.        12-JUL-1962:   LOGDATE
 API .       490250636100:   API NUMBER
~CURVE INFORMATION
#MNEM.UNIT       API CODE    CURVE DESCRIPTION
#----------   ------------   ------------------------------
 DEPT.F                  :   
 SPR .MV     05 010 01 00:   SPONTANEOUS POTENTIAL FROM RES.
 CILD.MMHO   05 110 46 00:   CONDUCTIVITY INDUCTION LOG DEEP
 ILD .OHMM   05 120 46 00:   INDUCTION LOG DEEP
 ASN .OHMM   05 041 16 00:   AMPLIFIED SHORT NORMAL 16"
 GR  .GAPI   30 310 01 00:   GAMMA RAY
~PARAMETER INFORMATION
#MNEM.UNIT          VALUE    DESCRIPTION
#----------   ------------   ------------------------------
 EPD .F              5177:   ELEVATION PERMANENT DATUM
 LMF .                 KB:   LOG MEASURED FROM
 DAPD.F                 5:   FEET ABOVE PERMANENT DATUM
 DMF .                 KB:   DRILLING MEASURED FROM
 EKB .F              5182:   KELLING BUSHING
 EGL .F              5177:   GROUND LEVEL
 DATE.          7-12-1962:   RUN DATE
 RUN .                  1:   RUN NUMBER
 DD  .F               750:   DEPTH DRILLER
 DL  .F               751:   DEPTH LOGGER
 BLI .F               750:   BOTTOM LOG INTERVAL
 TLI .F               100:   TOP LOG INTERVAL
 CBD .F                10:   CASING BOTTOM DRILLER
 BS  .IN             6.75:   BIT SIZE
 BSD .F               750:   BIT SIZE AT DEPTH
 DFT .           OIL EMUL:   DRILLING FLUID TYPE
 DFD .               10.2:   DRILLING FLUID DENSITY
 DFV .                 40:   DRILLING FLUID VISCOSITY
 DFL .                4.6:   DRILLING FLUID LOSS
 RMS .OHMM            5.2:   RESISTIVITY MUD SAMPLE
 MST .F                82:   MUD SAMPLE TEMPERATURE
 RMF .OHMM            3.7:   RESISTIVITY MUD FILTRATE SAMPLE
 MFST.F                82:   MUD FILTRATE SAMPLE TEMPERATURE
 RMC .OHMM            5.8:   RESISTIVITY MUD CAKE
 MCST.F                80:   MUD CAKE SAMPLE TEMPERATURE
 TCS .HRS              .5:   TIME CURCULATED STOPPED
 LUN .               2523:   LOGGING UNIT NUMBER
 LUL .               CSPR:   LOGGING UNIT LOCATION
 ENGI.           ELLERMAN:   RECORDING ENGINEER
 WITN.          JORGENSON:   WITNESSED BY
 CLNT.            A2DTECH:   CLIENT CODE
 ORIG.       2", 5" PRINT:   ORIGIN OF DATA
 UWI .       490250636100:   UNIQUE WELL ID
 DICO. A2D Technologies, Inc.:   DIGITIZING COMPANY
~OTHER INFORMATION
~A   DEPT      SPR       CILD        ILD          ASN       GR   
# ...
  160.0000   -59.6225   249.4358     3.1909     3.5987  -999.2500
  160.5000   -59.2522   225.8604     3.6902     3.6601  -999.2500
  161.0000   -58.6286   212.1364     3.8168     3.7209  -999.2500
  161.5000   -58.0025   215.0357     3.7550     3.7291  -999.2500
  162.0000   -57.3751   221.3299     3.6894     3.6773  -999.2500
  162.5000   -56.7445   227.6241     3.6237     3.6545  -999.2500
  163.0000   -56.4650   234.2026     3.5584     3.7140  -999.2500
  163.5000   -57.6625   235.6219     3.4933     3.7140  -999.2500
  164.0000   -58.2461   236.8957     3.4288     3.6279  -999.2500
  164.5000   -57.4679   238.1384     3.3570     3.5435  -999.2500
  165.0000   -56.6206   244.8181     3.0965     3.5121  -999.2500
  165.5000   -56.6888   259.7220     2.8214     3.4619  -999.2500
  166.0000   -58.2025   274.7001     2.5467     3.3358  -999.2500
  166.5000   -58.2586   295.7409     2.2724     3.2047  -999.2500
  167.0000   -57.7922   325.1545     1.9978     3.0735  -999.2500
  167.5000   -57.4114   354.5682     1.7228     2.9424  -999.2500
  168.0000   -57.5834   383.9820     1.4501     2.8122  -999.2500
  168.5000   -57.5439   410.7322     1.2721     2.7111  -999.2500
  169.0000   -57.1661   415.7281     1.3705     2.6967  -999.2500
  169.5000   -56.8074   407.3720     1.4618     2.7930  -999.2500
  170.0000   -57.1375   390.9302     1.5527     2.9287  -999.2500
  170.5000   -57.6630   374.5052     1.6429     2.9228  -999.2500
  171.0000   -58.2453   358.1117     1.7268     2.8125  -999.2500
  171.5000   -59.2226   341.5246     2.1850     2.9880  -999.2500
  172.0000   -59.2986   302.6823     2.7379     3.6139  -999.2500
  172.5000   -58.8884   263.3759     3.2936     3.8696  -999.2500
  173.0000   -58.4791   233.1996     3.8457     3.9055  -999.2500
  173.5000   -58.0777   207.1214     4.2614     3.9375  -999.2500
  174.0000   -57.8920   197.2054     4.2004     4.0096  -999.2500
  174.5000   -58.1294   197.6469     4.1488     4.0820  -999.2500
  175.0000   -57.9308   200.9006     4.0969     4.1171  -999.2500
  175.5000   -57.4620   204.1997     3.9688     4.1105  -999.2500
  176.0000   -56.9889   208.1244     3.6542     4.0672  -999.2500
  176.5000   -57.1219   216.0642     3.3427     4.0149  -999.2500
  177.0000   -57.8394   231.8660     3.0312     3.8510  -999.2500
  177.5000   -58.3733   260.8870     2.7197     3.6143  -999.2500
  178.0000   -58.1420   289.9080     2.4077     3.3781  -999.2500
  178.5000   -57.7385   318.9290     2.0972     3.1422  -999.2500
  179.0000   -57.3294   347.9500     1.8497     2.9370  -999.2500
  179.5000   -56.9062   362.5878     1.8549     2.8690  -999.2500
  180.0000   -56.8191   365.5968     1.8553     3.0023  -999.2500
  180.5000   -57.1295   365.5828     1.8550     3.0268  -999.2500
  181.0000   -57.4713   364.0542     1.8565     2.9164  -999.2500
  181.5000   -57.8078   360.3295     1.9504     2.8598  -999.2500
  182.0000   -58.1361   337.0844     2.2817     3.0636  -999.2500
  182.5000   -58.0367   303.2141     2.6100     3.2580  -999.2500
  183.0000   -57.0913   271.2718     2.9235     3.3557  -999.2500
  183.5000   -56.1542   251.4002     3.2328     3.4590  -999.2500
  184.0000   -56.2930   234.2026     3.3958     3.5584  -999.2500
  184.5000   -57.6379   231.6851     3.4581     3.7171  -999.2500
  185.0000   -58.9603   229.1374     3.4389     3.8803  -999.2500
  185.5000   -59.8070   226.5898     3.4162     3.9387  -999.2500
  186.0000   -58.6182   226.1785     3.3938     3.8870  -999.2500
  186.5000   -57.2536   228.6990     3.3714     3.8330  -999.2500
  187.0000   -56.9709   231.0968     3.3273     3.7786  -999.2500
  187.5000   -57.6142   233.4946     3.2469     3.7173  -999.2500
  188.0000   -58.2696   244.0471     2.9941     3.6025  -999.2500
  188.5000   -58.6357   261.4560     2.7484     3.4642  -999.2500
  189.0000   -58.3777   278.8649     2.5050     3.3252  -999.2500
  189.5000   -58.0825   296.2738     2.2600     3.1863  -999.2500
  190.0000   -57.7044   313.6827     2.1386     3.0566  -999.2500
  190.5000   -57.1993   320.4614     2.1030     3.0545  -999.2500
  191.0000   -56.6923   318.1544     2.0690     3.1417  -999.2500
  191.5000   -56.5030   315.8384     2.0352     3.2263  -999.2500
  192.0000   -56.7095   323.4256     2.0012     3.1198  -999.2500
  192.5000   -56.9131   336.0139     1.9672     2.8026  -999.2500
  193.0000   -57.1033   348.6023     1.9334     2.7542  -999.2500
  193.5000   -57.4394   357.5727     1.8996     3.1921  -999.2500
  194.0000   -56.7814   358.0948     1.8684     2.9456  -999.2500
  194.5000   -55.9095   361.6193     1.6371     2.6684  -999.2500
  195.0000   -55.0307   383.6425     1.3325     2.6325  -999.2500
  195.5000   -55.6428   412.5116     1.0263     2.5935  -999.2500
  196.0000   -56.1550   444.9434     0.7195     2.4991  -999.2500
  196.5000   -55.7799   477.3945     0.4052     2.3276  -999.2500
  197.0000   -55.4217   504.5135     0.4571     2.2412  -999.2500
  197.5000   -55.3247   517.5527     0.5901     2.1995  -999.2500
  198.0000   -55.9218   487.3062     0.7247     2.2311  -999.2500
  198.5000   -56.5020   460.9319     0.8563     2.4047  -999.2500
  199.0000   -56.8170   445.7867     1.0099     2.4805  -999.2500
  199.5000   -56.9024   417.8279     1.1740     2.4030  -999.2500
  200.0000   -57.0858   390.2863     1.6226     2.5366  -999.2500
  200.5000   -57.1953   354.8044     2.0562     2.8628  -999.2500
  201.0000   -57.0235   311.6650     2.3939     3.1006  -999.2500
  201.5000   -57.1209   279.0090     2.4907     3.1774  -999.2500
  202.0000   -57.4511   265.8535     2.5910     3.1716  -999.2500
  202.5000   -57.7769   263.2899     2.5909     3.1637  -999.2500
  203.0000   -58.1049   274.2485     2.3910     3.1278  -999.2500
  203.5000   -58.4350   287.2865     2.1945     3.0630  -999.2500
  204.0000   -58.8340   300.3624     1.9976     2.9977  -999.2500
  204.5000   -58.7144   313.2218     1.8008     2.9222  -999.2500
  205.0000   -58.1748   327.8381     1.6040     2.8304  -999.2500
  205.5000   -57.1194   350.4459     1.4072     2.7417  -999.2500
  206.0000   -55.6333   376.8483     1.2103     2.6683  -999.2500
  206.5000   -55.6131   415.1945     1.0137     2.5953  -999.2500
  207.0000   -56.4224   449.3681     0.8136     2.5222  -999.2500
  207.5000   -56.3065   478.6916     0.8063     2.4492  -999.2500
  208.0000   -55.3576   491.9759     0.8824     2.3782  -999.2500
  208.5000   -54.3774   472.7823     0.9603     2.5281  -999.2500
  209.0000   -54.9338   455.1882     1.0395     2.7475  -999.2500
  209.5000   -55.8701   435.6011     1.1158     2.8042  -999.2500
  210.0000   -56.7706   402.2496     1.5055     2.6931  -999.2500
  210.5000   -57.1005   368.8981     1.9730     2.6727  -999.2500
  211.0000   -57.2382   330.7814     2.5160     3.0694  -999.2500
  211.5000   -57.3913   284.1816     3.1120     3.4655  -999.2500
  212.0000   -57.2217   240.9353     3.7004     3.8511  -999.2500
  212.5000   -56.8136   212.3872     4.0665     3.9439  -999.2500
  213.0000   -56.4043   201.1033     4.0615     4.0235  -999.2500
  213.5000   -56.2212   200.8012     4.0627     4.1042  -999.2500
  214.0000   -56.5278   200.5027     4.0605     4.1850  -999.2500
  214.5000   -56.8222   200.2041     4.1762     4.2659  -999.2500
  215.0000   -56.6017   197.0244     4.3501     4.3816  -999.2500
  215.5000   -56.2351   190.2574     4.5260     4.5905  -999.2500
  216.0000   -56.0273   183.4905     4.7013     4.8073  -999.2500
  216.5000   -55.3266   176.7235     4.8775     5.0118  -999.2500
  217.0000   -55.7220   169.9856     4.9581     5.1714  -999.2500
  217.5000   -57.3540   163.9161     4.9495     5.3238  -999.2500
  218.0000   -58.1930   164.0001     4.9394     5.4765  -999.2500
  218.5000   -57.6706   163.9880     4.9290     5.5342  -999.2500
  219.0000   -57.1936   163.9920     4.9187     5.5017  -999.2500
  219.5000   -57.5749   163.9920     4.9085     5.5184  -999.2500
  220.0000   -58.5222   163.9921     4.8982     5.6103  -999.2500
  220.5000   -59.8704   163.9920     4.8880     5.5767  -999.2500
