~VERSION INFORMATION
 VERS.                2.0:   CWLS LOG ASCII STANDARD - VERSION 2.0
 WRAP.                 NO:   ONE LINE PER DEPTH STEP
~WELL INFORMATION
#MNEM.UNIT      DATA TYPE    INFORMATION
#----------   ------------   ------------------------------
 STRT.F          100.0000:   START DEPTH
 STOP.F          780.0000:   STOP DEPTH
 STEP.F            0.5000:   STEP LENGTH
 NULL.          -999.2500:   NO VALUE
 COMP. U S NAVY-INTEX OIL:   COMPANY
 WELL.        NPR #34-S-2:   WELL
 FLD .             TEAPOT:   FIELD
 LOC .       S2 T38N R78W:   LOCATION
 CNTY.            NATRONA:   COUNTY
 STAT.            WYOMING:   STATE
 CTRY. UNITED STATES OF AMERICA:   COUNTRY
 SRVC.       Schlumberger:   SERVICE COMPANY
 DATE.        16-JUL-1962:   LOGDATE
 API .       490250644000:   API NUMBER
~CURVE INFORMATION
#MNEM.UNIT       API CODE    CURVE DESCRIPTION
#----------   ------------   ------------------------------
 DEPT.F                  :   
 ASN .OHMM   05 041 16 00:   AMPLIFIED SHORT NORMAL 16"
 CILD.MMHO   05 110 46 00:   CONDUCTIVITY INDUCTION LOG DEEP
 ILD .OHMM   05 120 46 00:   INDUCTION LOG DEEP
 SPR .MV     05 010 01 00:   SPONTANEOUS POTENTIAL FROM RES.
 CALM.IN     15 280 01 00:   CALIPER FROM MICRO LOG
 GR  .GAPI   30 310 01 00:   GAMMA RAY
~PARAMETER INFORMATION
#MNEM.UNIT          VALUE    DESCRIPTION
#----------   ------------   ------------------------------
 LMF .                 KB:   LOG MEASURED FROM
 DMF .                 KB:   DRILLING MEASURED FROM
 EKB .F              5130:   KELLING BUSHING
 EGL .F              5125:   GROUND LEVEL
 DATE.        16-JUL-1962:   RUN DATE
 RUN .                  1:   RUN NUMBER
 DD  .F               780:   DEPTH DRILLER
 DL  .F               781:   DEPTH LOGGER
 BLI .F               780:   BOTTOM LOG INTERVAL
 TLI .F               100:   TOP LOG INTERVAL
 CBD .F                10:   CASING BOTTOM DRILLER
 BS  .IN             6.75:   BIT SIZE
 BSD .F               780:   BIT SIZE AT DEPTH
 DFT .       OIL EMULSION:   DRILLING FLUID TYPE
 DFD .               10.3:   DRILLING FLUID DENSITY
 DFV .                 43:   DRILLING FLUID VISCOSITY
 DFL .                4.6:   DRILLING FLUID LOSS
 RMS .OHMM              4:   RESISTIVITY MUD SAMPLE
 MST .F                82:   MUD SAMPLE TEMPERATURE
 RMF .OHMM            3.1:   RESISTIVITY MUD FILTRATE SAMPLE
 MFST.F                82:   MUD FILTRATE SAMPLE TEMPERATURE
 RMC .OHMM            4.3:   RESISTIVITY MUD CAKE
 MCST.F                82:   MUD CAKE SAMPLE TEMPERATURE
 TCS .HRS             0.5:   TIME CURCULATED STOPPED
 LUN .               2503:   LOGGING UNIT NUMBER
 LUL .               CSPR:   LOGGING UNIT LOCATION
 ENGI.           ELLERMAN:   RECORDING ENGINEER
 WITN.          JORGENSON:   WITNESSED BY
 CLNT.            A2DTECH:   CLIENT CODE
 ORIG.           5" PRINT:   ORIGIN OF DATA
 UWI .       490250644000:   UNIQUE WELL ID
 DICO. A2D Technologies, Inc.:   DIGITIZING COMPANY
~OTHER INFORMATION
~A   DEPT       ASN       CILD         ILD      SPR       CALM         GR   
# ...
  464.0000    10.9865    90.5341    10.6436   -50.0476  -999.2500  -999.2500
  464.5000    10.9865    90.4970    10.7206   -50.0387  -999.2500  -999.2500
  465.0000    10.9865    90.4599    10.6469   -50.1768  -999.2500  -999.2500
  465.5000    10.9865    91.1828    10.6150   -50.3190  -999.2500  -999.2500
  466.0000    10.9118    91.1364    10.4991   -50.4590  -999.2500  -999.2500
  466.5000    10.8371    91.0993    10.4413   -50.5989  -999.2500  -999.2500
  467.0000    10.6876    92.0371    10.3518   -50.7389  -999.2500  -999.2500
  467.5000    10.6129    94.0281    10.2785   -50.5790  -999.2500  -999.2500
  468.0000    10.4634    95.5018    10.2044   -50.4214  -999.2500  -999.2500
  468.5000    10.3886    97.7077    10.1310   -50.1149  -999.2500  -999.2500
  469.0000    10.2392    99.1721    10.1324   -50.1061  -999.2500  -999.2500
  469.5000    10.0897   100.1952     9.9836   -50.0972  -999.2500  -999.2500
  470.0000    10.1496   101.3513     9.8947   -50.0884  -999.2500  -999.2500
  470.5000    10.0756   102.0646     9.8361   -50.2306  -999.2500  -999.2500
  471.0000    10.0315   102.7778     9.8376   -50.5194  -999.2500  -999.2500
  471.5000     9.9874   102.7402     9.7639   -50.3595  -999.2500  -999.2500
  472.0000     9.8685   103.8489     9.7464   -50.0530  -999.2500  -999.2500
  472.5000     9.7348   104.1676     9.6917   -49.5978  -999.2500  -999.2500
  473.0000     9.7355   105.6320     9.6180   -48.8449  -999.2500  -999.2500
  473.5000     9.7362   107.8379     9.5443   -48.9849  -999.2500  -999.2500
  474.0000     9.6473   108.5608     9.5402   -49.4224  -999.2500  -999.2500
  474.5000     9.4686   110.0252     9.4722   -49.7113  -999.2500  -999.2500
  475.0000     9.3498   109.9788     9.4737   -49.8512  -999.2500  -999.2500
  475.5000     9.2908   109.9417     9.3999   -49.6935  -999.2500  -999.2500
  476.0000     9.2466   109.9099     9.4017   -49.5238  -999.2500  -999.2500
  476.5000     9.2324   109.8675     9.4032   -49.2292  -999.2500  -999.2500
  477.0000     9.2332   109.8304     9.4047   -49.2202  -999.2500  -999.2500
  477.5000     9.2638   109.7973     9.4062   -49.0607  -999.2500  -999.2500
  478.0000     9.2815   109.2993     9.4828   -49.2007  -999.2500  -999.2500
  478.5000     9.3129   108.2176     9.5595   -49.1919  -999.2500  -999.2500
  479.0000     9.3260   107.4297     9.6362   -49.3340  -999.2500  -999.2500
  479.5000     9.3116   107.3926     9.7129   -49.4740  -999.2500  -999.2500
  480.0000     9.2527   109.6078     9.7143   -49.7628  -999.2500  -999.2500
  480.5000     9.1787   112.5737     9.5654   -49.9028  -999.2500  -999.2500
  481.0000     9.1047   115.5396     9.3414   -49.8917  -999.2500  -999.2500
  481.5000     8.9411   118.5060     8.9649   -49.5853  -999.2500  -999.2500
  482.0000     8.7176   123.7236     8.6616   -48.9812  -999.2500  -999.2500
  482.5000     8.4194   128.2157     8.2832   -47.9307  -999.2500  -999.2500
  483.0000     8.1660   131.2162     7.9800   -47.3266  -999.2500  -999.2500
  483.5000     7.9276   134.2168     7.7698   -46.8713  -999.2500  -999.2500
  484.0000     7.7041   136.4665     7.6961   -46.7137  -999.2500  -999.2500
  484.5000     7.5404   139.3038     7.6980   -47.1513  -999.2500  -999.2500
  485.0000     7.6458   139.2575     7.7744   -47.4400  -999.2500  -999.2500
  485.5000     7.8109   136.9681     7.7761   -47.8776  -999.2500  -999.2500
  486.0000     7.9163   134.6788     7.8526   -48.4640  -999.2500  -999.2500
  486.5000     7.9469   133.1401     7.9295   -49.0504  -999.2500  -999.2500
  487.0000     7.9073   130.8508     8.0062   -49.3393  -999.2500  -999.2500
  487.5000     7.9372   128.5614     8.0827   -49.6280  -999.2500  -999.2500
  488.0000     7.9821   127.0228     8.1594   -49.6190  -999.2500  -999.2500
  488.5000     8.0568   126.9857     8.2362   -49.6101  -999.2500  -999.2500
  489.0000     8.1018   125.4471     8.2583   -49.6007  -999.2500  -999.2500
  489.5000     8.1465   123.9085     8.3143   -49.5923  -999.2500  -999.2500
  490.0000     8.1614   122.8479     8.3910   -49.4328  -999.2500  -999.2500
  490.5000     8.1315   121.5820     8.3925   -49.2751  -999.2500  -999.2500
  491.0000     8.1465   120.7942     8.3940   -48.9686  -999.2500  -999.2500
  491.5000     8.2362   119.2556     8.3203   -48.3646  -999.2500  -999.2500
  492.0000     8.3408   118.4677     8.3219   -47.9115  -999.2500  -999.2500
  492.5000     8.4454   117.6799     8.3988   -48.6467  -999.2500  -999.2500
  493.0000     8.5351   118.3935     8.4000   -48.9355  -999.2500  -999.2500
  493.5000     8.5949   119.9024     8.3262   -49.0744  -999.2500  -999.2500
  494.0000     8.5650   121.4014     8.3281   -49.0644  -999.2500  -999.2500
  494.5000     8.5351   123.5375     8.3293   -48.9068  -999.2500  -999.2500
  495.0000     8.4903   123.4911     8.3308   -48.7491  -999.2500  -999.2500
  495.5000     8.4454   124.2047     8.3325   -48.4427  -999.2500  -999.2500
  496.0000     8.4006   124.1676     8.2586   -48.2850  -999.2500  -999.2500
  496.5000     8.3558   123.6582     8.2601   -47.9785  -999.2500  -999.2500
  497.0000     8.3259   124.3846     8.2617   -47.8209  -999.2500  -999.2500
  497.5000     8.2810   124.3638     8.2633   -47.6632  -999.2500  -999.2500
  498.0000     8.2661   124.3413     8.2647   -47.5056  -999.2500  -999.2500
  498.5000     8.2661   124.3180     8.2662   -47.4968  -999.2500  -999.2500
  499.0000     8.2810   124.2959     8.2677   -47.3391  -999.2500  -999.2500
  499.5000     8.3558   123.5252     8.2692   -47.1815  -999.2500  -999.2500
  500.0000     8.4753   123.8772     8.2707   -47.1726     6.5522  -999.2500
  500.5000     8.5052   124.2293     8.3474   -47.1637     6.5373  -999.2500
  501.0000     8.4753   124.2066     8.3489   -47.3095     6.5821  -999.2500
  501.5000     8.3707   124.1841     8.3504   -47.4613     6.6119  -999.2500
  502.0000     8.2661   124.1617     8.3519   -47.5837     6.6269  -999.2500
  502.5000     8.2511   124.8877     8.3537   -47.4238     6.6418  -999.2500
  503.0000     8.2661   124.8614     8.3551   -46.9879     6.6269  -999.2500
  503.5000     8.2661   124.8428     8.2811   -46.5356     6.6119  -999.2500
  504.0000     8.2511   124.8170     8.2829   -46.2321     6.6119  -999.2500
  504.5000     8.2212   124.7979     8.1719   -45.9286     6.5970  -999.2500
  505.0000     8.1764   125.5267     8.1351   -45.7738     6.5821  -999.2500
  505.5000     8.1249   125.5015     8.0618   -45.7668     6.5672  -999.2500
  506.0000     8.0808   126.2275     8.0633   -45.7609     6.5672  -999.2500
  506.5000     8.0217   126.9572     7.9896   -45.9054     6.5821  -999.2500
  507.0000     7.9477   127.6780     7.9018   -45.8981     6.6119  -999.2500
  507.5000     7.8737   129.1528     7.8418   -46.0425     6.6269  -999.2500
  508.0000     7.7838   131.3761     7.7177   -46.1855     6.6269  -999.2500
  508.5000     7.6918   133.4687     7.6447   -46.1782     6.6269  -999.2500
  509.0000     7.5472   137.9303     7.4980   -45.8748     6.6119  -999.2500
  509.5000     7.3686   145.3858     7.2754   -45.4225     6.5970  -999.2500
  510.0000     7.1750   155.8354     7.0528   -45.1190     6.5970  -999.2500
  510.5000     6.9366   164.7879     6.7550   -44.9643     6.5821  -999.2500
  511.0000     6.6384   168.5083     6.4572   -44.7847     6.5821  -999.2500
  511.5000     6.4448   169.9759     6.3098   -44.3561     6.5672  -999.2500
  512.0000     6.3706   171.4360     6.3128   -44.5005     6.5672   114.2422
  512.5000     6.3564   172.1557     6.3910   -44.4932     6.5672   114.1051
  513.0000     6.3274   172.1256     6.5444   -44.6369     6.5821   101.5083
  513.5000     6.3130   170.5665     6.7735   -44.6310     6.5970    89.5928
  514.0000     6.5531   166.5869     7.0772   -44.8234     6.5970    90.1961
  514.5000     6.8528   158.9305     7.3057   -45.0666     6.6119   101.3754
  515.0000     7.0478   143.5572     7.4591   -45.3569     6.6119   112.3680
  515.5000     7.2000   138.2882     7.6309   -45.6487     6.6119   115.6863
