~VERSION INFORMATION
 VERS.                2.0:   CWLS LOG ASCII STANDARD - VERSION 2.0
 WRAP.                 NO:   ONE LINE PER DEPTH STEP
~WELL INFORMATION
#MNEM.UNIT      DATA TYPE    INFORMATION
#----------   ------------   ------------------------------
 STRT.F           15.0000:   START DEPTH
 STOP.F         5640.0000:   STOP DEPTH
 STEP.F            0.5000:   STEP LENGTH
 NULL.          -999.2500:   NO VALUE
 COMP.       F D SERV INC:   COMPANY
 WELL. NAVAL PETROLEUM RESERVE 3 SX-1 #43-10:   WELL
 FLD .         N.P.R. #.3:   FIELD
 LOC .      S10 T38N R78W:   LOCATION
 CNTY.            NATRONA:   COUNTY
 STAT.            WYOMING:   STATE
 CTRY. UNITED STATES OF AMERICA:   COUNTRY
 SRVC.      Dresser Atlas:   SERVICE COMPANY
 DATE.        05-JUL-1986:   LOGDATE
 API .       490251101800:   API NUMBER
~CURVE INFORMATION
#MNEM.UNIT       API CODE    CURVE DESCRIPTION
#----------   ------------   ------------------------------
 DEPT.F                  :   
 GRR .GAPI   07 310 01 00:   GAMMA RAY
 ILD .OHMM   07 120 46 00:   INDUCTION LOG DEEP
 ILM .OHMM   07 120 44 00:   INDUCTION LOG MEDIUM
 CALS.IN     60 280 50 00:   CALIPER FROM SONIC LOG
 GRS .GAPI   60 310 01 00:   GAMMA RAY FROM SONIC LOG
 AC  .US/F   60 520 00 00:   ACCOUSTIC
~PARAMETER INFORMATION
#MNEM.UNIT          VALUE    DESCRIPTION
#----------   ------------   ------------------------------
 PD  .                 GL:   PERMANENT DATUM
 EPD .F              5205:   ELEVATION PERMANENT DATUM
 LMF .                 KB:   LOG MEASURED FROM
 DAPD.F                 5:   FEET ABOVE PERMANENT DATUM
 DMF .                 KB:   DRILLING MEASURED FROM
 EKB .F              5210:   KELLING BUSHING
 EGL .F              5205:   GROUND LEVEL
 DATE.        05-JUL-1986:   RUN DATE
 RUN .                  1:   RUN NUMBER
 DD  .F               560:   DEPTH DRILLER
 DL  .F               560:   DEPTH LOGGER
 BLI .F               550:   BOTTOM LOG INTERVAL
 TLI .F                15:   TOP LOG INTERVAL
 CS  .IN            8.625:   CASING SIZE
 CBD .F                47:   CASING BOTTOM DRILLER
 CBL .F                47:   CASING BOTTOM LOGGER
 BS  .IN            7.875:   BIT SIZE
 BSD .F               560:   BIT SIZE AT DEPTH
 DFT .                AIR:   DRILLING FLUID TYPE
 BHT .F                83:   BOTTOM HOLE TEMPERATURE
 TCS .HRS            2100:   TIME CURCULATED STOPPED
 TLAB.HRS            2230:   TIME LOGGER AT BOTTOM
 MRT .F                83:   MAXIMUM RECORDED TEMPERATURE
 LUN .               7609:   LOGGING UNIT NUMBER
 LUL .           GILLETTE:   LOGGING UNIT LOCATION
 ENGI.              BAURT:   RECORDING ENGINEER
 CLNT.            A2DTECH:   CLIENT CODE
 ORIG. 1" 2" 2.5", 5" PRINT:   ORIGIN OF DATA
 UWI .       490251101800:   UNIQUE WELL ID
 DICO. A2D Technologies, Inc.:   DIGITIZING COMPANY
 R2  . HEADER NOT CLEARLY VISIBLE:   REMARKS 2
~OTHER INFORMATION
~A   DEPT       GRR       ILD        ILM       CALS        GRS         AC   
# ...
 2667.0000  -999.2500  -999.2500  -999.2500     9.6973    58.3789    73.3574
 2667.5000  -999.2500  -999.2500  -999.2500     9.8190    53.4640    74.1404
 2668.0000  -999.2500  -999.2500  -999.2500    10.0467    56.2799    75.7675
 2668.5000  -999.2500  -999.2500  -999.2500    10.2290    68.7099    76.7464
 2669.0000  -999.2500  -999.2500  -999.2500    10.2900    79.3218    77.3483
 2669.5000  -999.2500  -999.2500  -999.2500    10.2905    86.2973    77.4223
 2670.0000  -999.2500  -999.2500  -999.2500    10.2758    89.0304    77.3454
 2670.5000  -999.2500  -999.2500  -999.2500    10.2763    89.3394    77.3436
 2671.0000  -999.2500  -999.2500  -999.2500    10.2767    89.6495    77.3422
 2671.5000  -999.2500  -999.2500  -999.2500    10.2771    90.5644    77.2653
 2672.0000  -999.2500  -999.2500  -999.2500    10.2776    95.1157    77.0377
 2672.5000  -999.2500  -999.2500  -999.2500    10.2933    95.7276    76.9608
 2673.0000  -999.2500  -999.2500  -999.2500    10.2937    93.6122    76.9590
 2673.5000  -999.2500  -999.2500  -999.2500    10.2941    89.9816    77.1084
 2674.0000  -999.2500  -999.2500  -999.2500    10.2946    90.5949    77.4086
 2674.5000  -999.2500  -999.2500  -999.2500    10.2950    94.5401    77.5584
 2675.0000  -999.2500  -999.2500  -999.2500    10.2955    97.2732    77.7074
 2675.5000  -999.2500  -999.2500  -999.2500    10.2807   100.3093    77.8568
 2676.0000  -999.2500  -999.2500  -999.2500    10.2660   101.8346    77.8550
 2676.5000  -999.2500  -999.2500  -999.2500    10.2665   102.7466    77.3256
 2677.0000  -999.2500  -999.2500  -999.2500    10.2821   102.4480    76.6455
 2677.5000  -999.2500  -999.2500  -999.2500    10.2977   102.1507    75.7391
 2678.0000  -999.2500  -999.2500  -999.2500    10.3286    99.4307    74.7090
 2678.5000  -999.2500  -999.2500  -999.2500    10.2834    96.7093    73.2471
 2679.0000  -999.2500  -999.2500  -999.2500    10.2839    87.2570    72.3407
 2679.5000  -999.2500  -999.2500  -999.2500    10.2995    80.6617    71.2081
 2680.0000  -999.2500  -999.2500  -999.2500    10.3001    78.2433    69.4721
 2680.5000  -999.2500  -999.2500  -999.2500    10.3005    77.9446    67.6223
 2681.0000  -999.2500  -999.2500  -999.2500    10.2857    75.5276    66.4526
 2681.5000  -999.2500  -999.2500  -999.2500    10.2710    72.8061    66.7526
 2682.0000  -999.2500  -999.2500  -999.2500    10.2867    73.4465    67.9825
 2682.5000  -999.2500  -999.2500  -999.2500    10.2894    75.2435    70.8217
 2683.0000  -999.2500  -999.2500  -999.2500    10.3331    79.4917    71.3482
 2683.5000  -999.2500  -999.2500  -999.2500    10.3335    82.5278    71.4225
 2684.0000  -999.2500  -999.2500  -999.2500    10.3340    87.3821    71.4207
 2684.5000  -999.2500  -999.2500  -999.2500    10.3344    87.3996    71.6478
 2685.0000  -999.2500  -999.2500  -999.2500    10.3045    83.9793    72.9258
 2685.5000  -999.2500  -999.2500  -999.2500    10.2898    82.5511    74.5835
 2686.0000  -999.2500  -999.2500  -999.2500    10.2751    83.4674    76.0149
 2686.5000  -999.2500  -999.2500  -999.2500    10.2757    86.5035    77.3710
 2687.0000  -999.2500  -999.2500  -999.2500    10.2761    96.5093    78.8778
 2687.5000  -999.2500  -999.2500  -999.2500    10.2765   109.2424    80.1581
 2688.0000  -999.2500  -999.2500  -999.2500    10.2756   119.2497    80.8357
 2688.5000  -999.2500  -999.2500  -999.2500    10.2471   123.8009    80.2306
 2689.0000  -999.2500  -999.2500  -999.2500    10.2172   124.4128    79.2488
 2689.5000  -999.2500  -999.2500  -999.2500    10.2178   122.2974    78.7948
 2690.0000  -999.2500  -999.2500  -999.2500    10.2182   112.0002    78.7179
 2690.5000  -999.2500  -999.2500  -999.2500    10.2186   111.3999    78.1883
 2691.0000  -999.2500  -999.2500  -999.2500    10.2039   115.0436    77.1311
 2691.5000  -999.2500  -999.2500  -999.2500    10.1742   120.8070    75.4705
 2692.0000  -999.2500  -999.2500  -999.2500    10.1593   123.8431    73.8099
 2692.5000  -999.2500  -999.2500  -999.2500    10.1599   119.9095    72.4358
 2693.0000  -999.2500  -999.2500  -999.2500    10.1755   112.9456    72.0721
 2693.5000  -999.2500  -999.2500  -999.2500    10.1759    97.0707    72.2215
 2694.0000  -999.2500  -999.2500  -999.2500    10.1764    91.1405    72.8988
 2694.5000  -999.2500  -999.2500  -999.2500    10.1769    87.5085    73.6515
 2695.0000  -999.2500  -999.2500  -999.2500    10.1773    90.8491    74.1829
 2695.5000  -999.2500  -999.2500  -999.2500    10.1778    93.5821    74.4782
 2696.0000  -999.2500  -999.2500  -999.2500    10.1782    93.2849    74.4764
 2696.5000  -999.2500  -999.2500  -999.2500    10.1938    91.1338    74.0979
 2697.0000  -999.2500  -999.2500  -999.2500    10.1640    90.8723    73.5686
 2697.5000  -999.2500  -999.2500  -999.2500    10.1645    91.7887    73.2630
 2698.0000  -999.2500  -999.2500  -999.2500    10.1649    93.3096    73.1132
 2698.5000  -999.2500  -999.2500  -999.2500    10.1805    94.5275    74.2426
 2699.0000  -999.2500  -999.2500  -999.2500    10.2415    97.8667    76.5790
 2699.5000  -999.2500  -999.2500  -999.2500    10.2723   100.0422    78.6892
 2700.0000  -999.2500  -999.2500  -999.2500    10.2879   103.3336    79.8944
 2700.5000  -999.2500  -999.2500  -999.2500    10.2708   106.0638    78.5887
 2701.0000  -999.2500  -999.2500  -999.2500    10.2125   105.7637    75.9728
 2701.5000  -999.2500  -999.2500  -999.2500    10.1671   103.2616    74.6908
 2702.0000  -999.2500  -999.2500  -999.2500    10.1521    96.6794    74.4646
 2702.5000  -999.2500  -999.2500  -999.2500    10.1371    98.5005    75.8974
 2703.0000  -999.2500  -999.2500  -999.2500    10.1221   101.8368    76.4253
 2703.5000  -999.2500  -999.2500  -999.2500    10.1071   102.4450    76.6516
 2704.0000  -999.2500  -999.2500  -999.2500    10.1073    99.1153    76.3499
 2704.5000  -999.2500  -999.2500  -999.2500    10.1075   103.0577    75.6545
 2705.0000  -999.2500  -999.2500  -999.2500    10.1076   105.7879    74.7662
 2705.5000  -999.2500  -999.2500  -999.2500    10.0926   103.1858    74.3891
 2706.0000  -999.2500  -999.2500  -999.2500    10.0927    89.4308    74.2383
 2706.5000  -999.2500  -999.2500  -999.2500    10.0929    86.7058    74.2383
 2707.0000  -999.2500  -999.2500  -999.2500    10.0930    91.8610    74.2383
 2707.5000  -999.2500  -999.2500  -999.2500    10.0932    95.1972    74.2383
 2708.0000  -999.2500  -999.2500  -999.2500    10.0934    95.5032    74.4646
 2708.5000  -999.2500  -999.2500  -999.2500    10.0935    96.1122    74.9243
 2709.0000  -999.2500  -999.2500  -999.2500    10.0634    98.6000    75.3695
 2709.5000  -999.2500  -999.2500  -999.2500    10.0483   103.9976    76.0483
 2710.0000  -999.2500  -999.2500  -999.2500    10.0333   107.0308    76.7270
 2710.5000  -999.2500  -999.2500  -999.2500    10.0335   106.1246    77.0287
 2711.0000  -999.2500  -999.2500  -999.2500    10.0336   104.3094    76.5008
 2711.5000  -999.2500  -999.2500  -999.2500    10.0338   102.7972    75.5204
 2712.0000  -999.2500  -999.2500  -999.2500    10.0340   100.0728    74.9170
 2712.5000  -999.2500  -999.2500  -999.2500    10.0341    98.2576    74.3764
 2713.0000  -999.2500  -999.2500  -999.2500    10.0343    95.4527    74.0875
 2713.5000  -999.2500  -999.2500  -999.2500    10.0344    93.1127    74.0121
 2714.0000  -999.2500  -999.2500  -999.2500    10.0345    94.9338    73.6350
 2714.5000  -999.2500  -999.2500  -999.2500    10.0347    97.6640    73.2579
 2715.0000  -999.2500  -999.2500  -999.2500    10.0349    98.8790    73.1071
 2715.5000  -999.2500  -999.2500  -999.2500    10.0350    98.5782    73.1825
 2716.0000  -999.2500  -999.2500  -999.2500    10.0352    96.7637    73.4842
 2716.5000  -999.2500  -999.2500  -999.2500    10.0353    94.3222    73.1772
 2717.0000  -999.2500  -999.2500  -999.2500    10.0355    93.4362    72.7300
 2717.5000  -999.2500  -999.2500  -999.2500    10.0356    95.8641    72.7300
 2718.0000  -999.2500  -999.2500  -999.2500    10.0358    97.6852    72.7300
 2718.5000  -999.2500  -999.2500  -999.2500    10.0359    97.3851    72.8808
