~VERSION INFORMATION
 VERS.                2.0:   CWLS LOG ASCII STANDARD - VERSION 2.0
 WRAP.                 NO:   ONE LINE PER DEPTH STEP
~WELL INFORMATION
#MNEM.UNIT      DATA TYPE    INFORMATION
#----------   ------------   ------------------------------
 STRT.F           38.0000:   START DEPTH
 STOP.F          846.0000:   STOP DEPTH
 STEP.F            0.5000:   STEP LENGTH
 NULL.          -999.2500:   NO VALUE
 COMP. FENIX & SCISSON INC:   COMPANY
 WELL.    NPR 3 #34-SX-14:   WELL
 FLD .        TEAPOT DOME:   FIELD
 LOC .      S14 T38N R78W:   LOCATION
 CNTY.            NATRONA:   COUNTY
 STAT.            WYOMING:   STATE
 CTRY. UNITED STATES OF AMERICA:   COUNTRY
 SRVC.           BIRDWELL:   SERVICE COMPANY
 DATE.        26-APR-1978:   LOGDATE
 API .       490251063500:   API NUMBER
~CURVE INFORMATION
#MNEM.UNIT       API CODE    CURVE DESCRIPTION
#----------   ------------   ------------------------------
 DEPT.F                  :   
 NEUT.CPS    81 330 30 00:   NEUTRON
 TT  .US/F   81 520 00 00:   TRANSIT TIME
 GRD .GAPI   45 310 01 00:   GAMMA RAY FROM DENSITY LOG
 RHOB.G/C3   45 350 01 00:   BULK DENSITY
 DPOR.DEC    45 890 10 00:   DENSITY POROSITY
 CALD.IN     45 280 60 00:   CALIPER FROM DENSITY LOG
 CORR.G/C3   45 356 01 00:   DENSITY CORRECTION
~PARAMETER INFORMATION
#MNEM.UNIT          VALUE    DESCRIPTION
#----------   ------------   ------------------------------
 PD  .                 GL:   PERMANENT DATUM
 EPD .F              5232:   ELEVATION PERMANENT DATUM
 LMF .                 KB:   LOG MEASURED FROM
 DMF .                 KB:   DRILLING MEASURED FROM
 EKB .F              5236:   KELLING BUSHING
 EGL .F              5232:   GROUND LEVEL
 DATE.          4-26-1978:   RUN DATE
 RUN .                  1:   RUN NUMBER
 DD  .F               855:   DEPTH DRILLER
 DL  .F               853:   DEPTH LOGGER
 BLI .F               846:   BOTTOM LOG INTERVAL
 TLI .F                40:   TOP LOG INTERVAL
 CS  .IN            8.625:   CASING SIZE
 CBD .F                40:   CASING BOTTOM DRILLER
 CBL .F                40:   CASING BOTTOM LOGGER
 BS  .IN            7.875:   BIT SIZE
 BSD .F               855:   BIT SIZE AT DEPTH
 DFT .                KCL:   DRILLING FLUID TYPE
 DFD .                8.5:   DRILLING FLUID DENSITY
 DFV .                 31:   DRILLING FLUID VISCOSITY
 DFPH.                 10:   DRILLING FLUID PH
 DFL .               10.4:   DRILLING FLUID LOSS
 MSS .          FLUID PIT:   MUD SAMPLE SOURCE
 RMS .OHMM            .36:   RESISTIVITY MUD SAMPLE
 MST .F                68:   MUD SAMPLE TEMPERATURE
 RMF .OHMM            .28:   RESISTIVITY MUD FILTRATE SAMPLE
 MFST.F                74:   MUD FILTRATE SAMPLE TEMPERATURE
 RMC .OHMM            .48:   RESISTIVITY MUD CAKE
 MCST.F                79:   MUD CAKE SAMPLE TEMPERATURE
 MFSS.               MEAS:   MUD FILTRATE SAMPLE SOURCE
 RMB .OHMM            .33:   RESISTIVITY MUD AT BHT
 BHT .F                75:   BOTTOM HOLE TEMPERATURE
 TCS .HRS               1:   TIME CURCULATED STOPPED
 MRT .F                75:   MAXIMUM RECORDED TEMPERATURE
 LUN .               3006:   LOGGING UNIT NUMBER
 LUL .              CASP.:   LOGGING UNIT LOCATION
 ENGI.             MILLER:   RECORDING ENGINEER
 WITN.           MCGINLEY:   WITNESSED BY
 CLNT.            A2DTECH:   CLIENT CODE
 ORIG.      2" , 5" PRINT:   ORIGIN OF DATA
 UWI .       490251063500:   UNIQUE WELL ID
 DICO. A2D Technologies, Inc.:   DIGITIZING COMPANY
~OTHER INFORMATION
~A   DEPT     NEUT         TT         GRD      RHOB       DPOR       CALD       CORR   
# ...
  447.5000  -999.2500  -999.2500    72.9275     2.4899     0.1009     8.2799     0.0121
  448.0000  -999.2500  -999.2500    74.0104     2.4792     0.0925     8.2774     0.0126
  448.5000  -999.2500  -999.2500    76.5486     2.4702     0.0986     8.3417     0.0133
  449.0000  -999.2500  -999.2500    78.1338     2.4707     0.0984     8.4064     0.0140
  449.5000  -999.2500  -999.2500    77.3419     2.4710     0.0974     8.4429     0.0117
  450.0000  -999.2500  -999.2500    76.4211     2.4713     0.0991     8.4198     0.0087
  450.5000  -999.2500  -999.2500    75.4860     2.4688     0.1017     8.3709     0.0088
  451.0000  -999.2500  -999.2500    74.5457     2.4636     0.1043     8.3225     0.0100
  451.5000  -999.2500  -999.2500    75.5472     2.4584     0.1060     8.2954     0.0112
  452.0000  -999.2500  -999.2500    76.6576     2.4537     0.1063     8.3735     0.0119
  452.5000  -999.2500  -999.2500    77.7492     2.4567     0.1082     8.4487     0.0083
  453.0000  -999.2500  -999.2500    77.4531     2.4546     0.1144     8.4842     0.0046
  453.5000  -999.2500  -999.2500    76.5038     2.4382     0.1206     8.3973     0.0008
  454.0000  -999.2500  -999.2500    75.5546     2.4225     0.1268     8.3149     0.0011
  454.5000  -999.2500  -999.2500    74.6111     2.4067     0.1330     8.2325     0.0025
  455.0000  -999.2500  -999.2500    73.6955     2.3908     0.1391     8.1577     0.0041
  455.5000  -999.2500  -999.2500    74.6084     2.3894     0.1359     8.0946     0.0090
  456.0000  -999.2500  -999.2500    76.0809     2.3930     0.1310     8.0345     0.0216
  456.5000  -999.2500  -999.2500    70.6122     2.4117     0.1260     7.9136     0.0350
  457.0000  -999.2500  -999.2500    77.3200     2.4214     0.1219     7.7885     0.0459
  457.5000  -999.2500  -999.2500    80.1758     2.4255     0.1171     7.6634     0.0510
  458.0000  -999.2500  -999.2500    66.8971     2.4362     0.1108     7.5384     0.0561
  458.5000  -999.2500  -999.2500    69.4001     2.4472     0.1044     7.4135     0.0650
  459.0000  -999.2500  -999.2500    72.5152     2.4583     0.0998     7.2899     0.0759
  459.5000  -999.2500  -999.2500    75.6476     2.4697     0.0973     7.2838     0.0868
  460.0000  -999.2500  -999.2500    78.7740     2.4759     0.0948     7.4137     0.0972
  460.5000  -999.2500  -999.2500    78.9390     2.4808     0.0922     7.5429     0.1027
  461.0000  -999.2500  -999.2500    78.7865     2.4856     0.0900     7.6726     0.1075
  461.5000  -999.2500  -999.2500    79.2103     2.4865     0.0892     7.8021     0.1106
  462.0000  -999.2500  -999.2500    79.6420     2.4864     0.0856     7.9313     0.1137
  462.5000  -999.2500  -999.2500    80.0487     2.4920     0.0841     8.0614     0.1169
  463.0000  -999.2500  -999.2500    78.6490     2.4966     0.0863     8.1476     0.1202
  463.5000  -999.2500  -999.2500    77.0746     2.4932     0.0880     8.1891     0.1200
  464.0000  -999.2500  -999.2500    76.8322     2.4900     0.0896     8.2177     0.1073
  464.5000  -999.2500  -999.2500    77.7226     2.4873     0.0944     8.2472     0.0935
  465.0000  -999.2500  -999.2500    78.5871     2.4707     0.1036     8.2768     0.0708
  465.5000  -999.2500  -999.2500    79.4318     2.4464     0.1128     8.3031     0.0360
  466.0000  -999.2500  -999.2500    79.8784     2.4214     0.1226     8.2920     0.0143
  466.5000  -999.2500  -999.2500    77.9228     2.4230     0.1224     8.2533    -0.0015
  467.0000  -999.2500  -999.2500    77.5520     2.4270     0.1225     8.2151    -0.0087
  467.5000  -999.2500  -999.2500    80.2636     2.4223     0.1240     8.1769    -0.0158
  468.0000  -999.2500  -999.2500    78.9824     2.4170     0.1250     8.1386    -0.0151
  468.5000  -999.2500  -999.2500    77.7283     2.4188     0.1229     8.1041    -0.0142
  469.0000  -999.2500  -999.2500    77.0962     2.4239     0.1210     8.1170    -0.0108
  469.5000  -999.2500  -999.2500    77.3506     2.4291     0.1215     8.1440    -0.0071
  470.0000  -999.2500  -999.2500    77.6891     2.4299     0.1218     8.1710    -0.0042
  470.5000  -999.2500  -999.2500    76.7688     2.4306     0.1210     8.1980    -0.0060
  471.0000  -999.2500  -999.2500    76.2070     2.4313     0.1196     8.2231    -0.0077
  471.5000  -999.2500  -999.2500    76.4352     2.4319     0.1194     8.2211    -0.0096
  472.0000  -999.2500  -999.2500    76.0986     2.4326     0.1167     8.2152    -0.0066
  472.5000  -999.2500  -999.2500    75.5340     2.4334     0.1111     8.2093    -0.0041
  473.0000  -999.2500  -999.2500    74.9593     2.4403     0.1056     8.2040     0.0023
  473.5000  -999.2500  -999.2500    74.4871     2.4477     0.1000     8.2199     0.0090
  474.0000  -999.2500  -999.2500    74.4940     2.4551     0.0990     8.2629     0.0158
  474.5000  -999.2500  -999.2500    74.5075     2.4623     0.1073     8.3055     0.0178
  475.0000  -999.2500  -999.2500    74.9523     2.4540     0.1141     8.3482     0.0126
  475.5000  -999.2500  -999.2500    77.5448     2.4344     0.1209     8.3905     0.0064
  476.0000  -999.2500  -999.2500    81.6185     2.4148     0.1277     8.4331    -0.0056
  476.5000  -999.2500  -999.2500    80.6470     2.3959     0.1319     8.4623    -0.0179
  477.0000  -999.2500  -999.2500    79.7038     2.3958     0.1302     8.4633    -0.0191
  477.5000  -999.2500  -999.2500    78.7824     2.4041     0.1281     8.4693    -0.0178
  478.0000  -999.2500  -999.2500    78.3505     2.4121     0.1261     8.4754    -0.0166
  478.5000  -999.2500  -999.2500    78.2927     2.4201     0.1240     8.4814    -0.0153
  479.0000  -999.2500  -999.2500    78.2923     2.4267     0.1218     8.4875    -0.0141
  479.5000  -999.2500  -999.2500    78.5767     2.4267     0.1218     8.4936    -0.0166
  480.0000  -999.2500  -999.2500    78.9394     2.4214     0.1246     8.4998    -0.0193
  480.5000  -999.2500  -999.2500    79.3207     2.4154     0.1279     8.5020    -0.0220
  481.0000  -999.2500  -999.2500    80.2174     2.4157     0.1270     8.4752    -0.0247
  481.5000  -999.2500  -999.2500    81.4548     2.4177     0.1254     8.4483    -0.0256
  482.0000  -999.2500  -999.2500    82.6698     2.4195     0.1238     8.4215    -0.0247
  482.5000  -999.2500  -999.2500    83.8652     2.4182     0.1267     8.3949    -0.0255
  483.0000  -999.2500  -999.2500    83.4973     2.4124     0.1325     8.3668    -0.0297
  483.5000  -999.2500  -999.2500    82.8051     2.4065     0.1347     8.3979    -0.0314
  484.0000  -999.2500  -999.2500    82.1106     2.4020     0.1291     8.4321    -0.0296
  484.5000  -999.2500  -999.2500    81.2422     2.4104     0.1260     8.4468    -0.0274
  485.0000  -999.2500  -999.2500    83.1876     2.4187     0.1235     8.4612    -0.0218
  485.5000  -999.2500  -999.2500    85.8664     2.4206     0.1201     8.4754    -0.0161
  486.0000  -999.2500  -999.2500    84.3428     2.4282     0.1168     8.4897    -0.0104
  486.5000  -999.2500  -999.2500    82.8598     2.4358     0.1134     8.5041    -0.0048
  487.0000  -999.2500  -999.2500    83.2787     2.4425     0.1100     8.5186     0.0009
  487.5000  -999.2500  -999.2500    83.7362     2.4468     0.1082     8.5222     0.0060
  488.0000  -999.2500  -999.2500    84.1935     2.4515     0.1113     8.5147     0.0042
  488.5000  -999.2500  -999.2500    84.6490     2.4442     0.1174     8.5070    -0.0021
  489.0000  -999.2500  -999.2500    85.1052     2.4297     0.1235     8.4993    -0.0142
  489.5000  -999.2500  -999.2500    85.5607     2.4233     0.1265     8.4917    -0.0250
  490.0000  -999.2500  -999.2500    85.9133     2.4172     0.1296     8.4840    -0.0284
  490.5000  -999.2500  -999.2500    85.8671     2.4112     0.1327     8.4830    -0.0320
  491.0000  -999.2500  -999.2500    84.9428     2.4051     0.1335     8.4830    -0.0356
  491.5000  -999.2500  -999.2500    83.8563     2.3991     0.1331     8.4830    -0.0395
  492.0000  -999.2500  -999.2500    82.7689     2.3949     0.1290     8.4830    -0.0378
  492.5000  -999.2500  -999.2500    81.6583     2.4110     0.1218     8.4831    -0.0240
