~VERSION INFORMATION
 VERS.                2.0:   CWLS LOG ASCII STANDARD - VERSION 2.0
 WRAP.                 NO:   ONE LINE PER DEPTH STEP
~WELL INFORMATION
#MNEM.UNIT      DATA TYPE    INFORMATION
#----------   ------------   ------------------------------
 STRT.F           95.0000:   START DEPTH
 STOP.F          862.0000:   STOP DEPTH
 STEP.F            0.5000:   STEP LENGTH
 NULL.          -999.2500:   NO VALUE
 COMP. U S NAVY INTEX OIL:   COMPANY
 WELL. RES 3 TEAMPT DOME #13-S-35:   WELL
 FLD .        TEAPOT DOME:   FIELD
 LOC .      S35 T39N R78W:   LOCATION
 CNTY.            NATRONA:   COUNTY
 STAT.            WYOMING:   STATE
 CTRY. UNITED STATES OF AMERICA:   COUNTRY
 SRVC.       Schlumberger:   SERVICE COMPANY
 DATE.        27-JUL-1963:   LOGDATE
 API .       490250655000:   API NUMBER
~CURVE INFORMATION
#MNEM.UNIT       API CODE    CURVE DESCRIPTION
#----------   ------------   ------------------------------
 DEPT.F                  :   
 SPR .MV     05 010 01 00:   SPONTANEOUS POTENTIAL FROM RES.
 ILD .OHMM   05 120 46 00:   INDUCTION LOG DEEP
 ASN .OHMM   05 041 18 00:   AMPLIFIED SHORT NORMAL 18"
 CILD.MMHO   05 110 46 00:   CONDUCTIVITY INDUCTION LOG DEEP
 GR  .GAPI   30 310 01 00:   GAMMA RAY
~PARAMETER INFORMATION
#MNEM.UNIT          VALUE    DESCRIPTION
#----------   ------------   ------------------------------
 PD  .                 GL:   PERMANENT DATUM
 EPD .F              5100:   ELEVATION PERMANENT DATUM
 LMF .                 KB:   LOG MEASURED FROM
 DAPD.F               5.0:   FEET ABOVE PERMANENT DATUM
 DMF .                 KB:   DRILLING MEASURED FROM
 EKB .F              5105:   KELLING BUSHING
 EGL .F              5100:   GROUND LEVEL
 DATE.        27-JUL-1963:   RUN DATE
 RUN .                  1:   RUN NUMBER
 DD  .F               862:   DEPTH DRILLER
 DL  .F               863:   DEPTH LOGGER
 BLI .F               862:   BOTTOM LOG INTERVAL
 TLI .F               100:   TOP LOG INTERVAL
 CS  .IN            8.625:   CASING SIZE
 CBD .F                10:   CASING BOTTOM DRILLER
 BS  .IN             6.75:   BIT SIZE
 BSD .F               862:   BIT SIZE AT DEPTH
 DFT . NATURAL- GEL ADDED:   DRILLING FLUID TYPE
 DFD .                9.0:   DRILLING FLUID DENSITY
 DFV .                 38:   DRILLING FLUID VISCOSITY
 DFPH.                8.5:   DRILLING FLUID PH
 DFL .                5.6:   DRILLING FLUID LOSS
 MSS .           FLOWLINE:   MUD SAMPLE SOURCE
 RMS .OHMM            4.6:   RESISTIVITY MUD SAMPLE
 MST .F                83:   MUD SAMPLE TEMPERATURE
 RMF .OHMM            3.8:   RESISTIVITY MUD FILTRATE SAMPLE
 MFST.F                83:   MUD FILTRATE SAMPLE TEMPERATURE
 RMC .OHMM            4.8:   RESISTIVITY MUD CAKE
 MCST.F                83:   MUD CAKE SAMPLE TEMPERATURE
 MFSS.                 FP:   MUD FILTRATE SAMPLE SOURCE
 MCSS.                 FP:   MUD CAKE SAMPLE SOURCE
 TCS .HRS               1:   TIME CURCULATED STOPPED
 LUN .               2523:   LOGGING UNIT NUMBER
 LUL .               CSPR:   LOGGING UNIT LOCATION
 ENGI.            GIFFORD:   RECORDING ENGINEER
 WITN.          JORGENSON:   WITNESSED BY
 CLNT.            A2DTECH:   CLIENT CODE
 ORIG.           5" PRINT:   ORIGIN OF DATA
 UWI .       490250655000:   UNIQUE WELL ID
 DICO. A2D Technologies, Inc.:   DIGITIZING COMPANY
~OTHER INFORMATION
~A   DEPT      SPR        ILD        ASN       CILD         GR   
# ...
  278.0000   -35.2193     3.3372     3.9675   304.5605  -999.2500
  278.5000   -35.2208     3.3350     3.8767   301.5852  -999.2500
  279.0000   -35.0721     3.3328     3.9208   309.8656  -999.2500
  279.5000   -35.0736     3.4059     3.8300   315.8938  -999.2500
  280.0000   -35.0751     3.4036     3.6642   324.1742  -999.2500
  280.5000   -35.0555     3.2503     3.6333   327.1997  -999.2500
  281.0000   -34.9278     3.2481     3.7699   325.6206  -999.2500
  281.5000   -34.6294     3.3212     3.8114   321.2432  -999.2500
  282.0000   -34.4807     3.3190     3.6904   319.0075  -999.2500
  282.5000   -34.1815     3.3926     3.6445   320.5367  -999.2500
  283.0000   -34.0328     3.2392     3.6287   325.0634  -999.2500
  283.5000   -34.0347     3.0864     3.5678   335.5960  -999.2500
  284.0000   -33.8856     2.9336     3.4469   351.3840  -999.2500
  284.5000   -34.0376     2.8561     3.2061   367.1719  -999.2500
  285.0000   -34.0391     2.7786     2.8454   372.4493  -999.2500
  285.5000   -34.1907     2.8517     2.6946   363.4624  -999.2500
  286.0000   -34.1922     3.1647     2.6937   345.4666  -999.2500
  286.5000   -34.1937     3.6885     3.5175   319.2125  -999.2500
  287.0000   -34.3453     3.7486     4.0413   298.2136  -999.2500
  287.5000   -34.6472     3.5953     3.9355   287.7252  -999.2500
  288.0000   -34.6489     3.5930     3.6797   290.7508  -999.2500
  288.5000   -34.6504     3.6667     4.1286   286.6194  -999.2500
  289.0000   -34.6519     3.8898     4.4126   257.0164  -999.2500
  289.5000   -34.6534     4.1888     4.5175   240.5221  -999.2500
  290.0000   -34.6548     4.2625     4.5308   236.7905  -999.2500
  290.5000   -34.6563     4.1844     4.4547   239.8156  -999.2500
  291.0000   -34.6578     4.1069     4.3789   251.8498  -999.2500
  291.5000   -34.5091     3.9541     4.2730   265.3855  -999.2500
  292.0000   -34.5106     3.7972     4.1822   274.4166  -999.2500
  292.5000   -34.5120     3.6483     4.0913   291.7061  -999.2500
  293.0000   -34.3634     3.4950     3.9705   310.4970  -999.2500
  293.5000   -34.2147     3.3422     3.8647   321.7804  -999.2500
  294.0000   -34.1982     3.1141     3.7589   345.8266  -999.2500
  294.5000   -34.0675     2.8860     3.6230   386.3893  -999.2500
  295.0000   -34.6699     2.7332     3.4872   401.4265  -999.2500
  295.5000   -35.1219     2.5804     3.3664   422.0703  -999.2500
  296.0000   -35.2735     2.5028     3.2740   439.2093  -999.2500
  296.5000   -35.2750     2.5006     3.1827   435.2822  -999.2500
  297.0000   -34.6758     2.7243     3.1389   403.7728  -999.2500
  297.5000   -34.3766     2.8727     3.4226   385.7770  -999.2500
  298.0000   -34.0782     3.1727     3.5419   370.0334  -999.2500
  298.5000   -34.0797     3.5530     3.5558   331.7672  -999.2500
  299.0000   -34.2313     4.0085     3.9447   313.0206  -999.2500
  299.5000   -34.6832     4.5952     4.4986   278.5082  -999.2500
  300.0000   -35.1353     4.8948     4.7721   245.5301  -999.2500
  300.5000   -34.9865     4.8160     4.9816   217.0054  -999.2500
  301.0000   -34.6876     5.0384     5.1595   204.7309  -999.2500
  301.5000   -34.5389     5.0339     5.3200   196.0642  -999.2500
  302.0000   -34.2400     5.0295     5.4392   196.0997  -999.2500
  302.5000   -34.0913     5.1774     5.4835   193.1321  -999.2500
  303.0000   -34.0831     5.3244     5.6643   186.3109  -999.2500
  303.5000   -33.9443     5.4706     5.9616   181.1999  -999.2500
  304.0000   -33.9461     5.6929     6.2458   175.9801  -999.2500
  304.5000   -33.9475     5.9144     6.4850   170.7603  -999.2500
  305.0000   -34.0991     6.1368     6.6941   164.7898  -999.2500
  305.5000   -34.5513     6.2839     6.8882   158.8281  -999.2500
  306.0000   -35.0032     6.3561     6.9774   157.3532  -999.2500
  306.5000   -35.3049     6.3517     7.0517   159.6498  -999.2500
  307.0000   -35.6066     6.3475     7.0961   161.1868  -999.2500
  307.5000   -35.7586     6.3440     7.0792   160.4715  -999.2500
  308.0000   -35.7600     6.3403     7.0344   160.5158  -999.2500
  308.5000   -35.7614     6.2607     7.0037   159.7917  -999.2500
  309.0000   -35.6126     6.1818     6.9430   161.3375  -999.2500
  309.5000   -35.3138     6.1783     6.9273   164.4520  -999.2500
  310.0000   -35.0153     6.0994     6.8964   165.9218  -999.2500
  310.5000   -34.7164     6.0950     6.8957   166.7080  -999.2500
  311.0000   -34.5673     6.0161     6.9400   166.7435  -999.2500
  311.5000   -34.5691     5.9372     6.9992   166.7793  -999.2500
  312.0000   -34.5708     5.9337     6.9985   167.5741  -999.2500
  312.5000   -34.7224     5.9292     6.9826   168.3603  -999.2500
  313.0000   -35.1743     5.8504     6.9669   169.8972  -999.2500
  313.5000   -35.1757     5.8468     6.9512   169.1817  -999.2500
  314.0000   -35.0273     5.9187     6.9505   166.2233  -999.2500
  314.5000   -34.7281     5.9903     6.9496   164.0065  -999.2500
  315.0000   -34.5793     6.1365     7.0239   161.7897  -999.2500
  315.5000   -34.4310     6.2091     7.3380   159.5730  -999.2500
  316.0000   -34.2822     6.3561     7.5622   154.8059  -999.2500
  316.5000   -34.4342     6.8085     7.7158   146.8900  -999.2500
  317.0000   -34.7359     7.2509     7.8155   141.6702  -999.2500
  317.5000   -35.1877     7.4741     7.9197   133.4474  -999.2500
  318.0000   -35.6497     7.6202     8.0090   125.1749  -999.2500
  318.5000   -35.9417     7.6920     8.1448   120.7645  -999.2500
  319.0000   -36.0933     7.7637     8.2772   118.5477  -999.2500
  319.5000   -36.0947     7.8355     8.4264   117.8235  -999.2500
  320.0000   -35.9459     7.8310     8.4559   117.8679  -999.2500
  320.5000   -35.7972     7.7522     8.3501   119.4137  -999.2500
  321.0000   -35.6485     7.5879     7.9894   120.9507  -999.2500
  321.5000   -35.1998     7.2171     7.8687   125.4906  -999.2500
  322.0000   -34.7508     6.7617     7.7631   135.2859  -999.2500
  322.5000   -34.4519     6.0804     7.5225   164.6095  -999.2500
  323.0000   -34.1530     5.3891     7.0880   184.9152  -999.2500
  323.5000   -34.0043     4.3405     6.5014   223.2390  -999.2500
  324.0000   -33.8558     3.4333     6.0209   257.8090  -999.2500
  324.5000   -33.7072     2.8274     5.5105   298.0105  -999.2500
  325.0000   -33.7089     2.5226     4.7451   372.0029  -999.2500
  325.5000   -33.7104     2.2922     4.0696   402.0684  -999.2500
  326.0000   -33.7118     2.2887     3.8140   436.6384  -999.2500
  326.5000   -33.7133     2.2851     3.6334   453.3645  -999.2500
  327.0000   -33.7150     2.4322     3.4677   474.2558  -999.2500
  327.5000   -33.8665     2.5783     3.3451   471.2882  -999.2500
  328.0000   -34.0181     2.6501     3.4662   439.7921  -999.2500
  328.5000   -34.3198     2.8724     4.0651   401.5393  -999.2500
  329.0000   -35.0724     3.3207     4.6042   285.2173  -999.2500
  329.5000   -35.3741     4.1001     4.9375   262.7302  -999.2500
  330.0000   -35.6758     5.7223     5.8919   202.7027  -999.2500
  330.5000   -35.8274     6.9236     7.4804   159.2035  -999.2500
  331.0000   -35.8288     8.7272     8.5292   117.1969  -999.2500
  331.5000   -35.6804     9.7853     8.9783   100.7159  -999.2500
  332.0000   -35.5313    10.3767     9.6670    92.4931  -999.2500
  332.5000   -35.6832    10.3723     9.9662    90.2763  -999.2500
  333.0000   -36.1452    10.1428    10.0706    94.8251  -999.2500
  333.5000   -36.4372     9.6875     9.9048   100.1159  -999.2500
  334.0000   -36.5888     9.0806     9.7218   111.4126  -999.2500
  334.5000   -37.3409     8.5499     9.5583   120.6832  -999.2500
  335.0000   -38.2432     8.0193     9.0329   134.7657  -999.2500
  335.5000   -38.6955     7.4133     8.5224   141.5579  -999.2500
  336.0000   -38.6969     6.8625     8.1019   144.5964  -999.2500
  336.5000   -38.5478     6.5017     7.7113   146.9092  -999.2500
  337.0000   -37.1982     6.4981     7.6356   148.4299  -999.2500
  337.5000   -35.9988     6.5699     7.7698   144.7116  -999.2500
  338.0000   -35.8497     6.9528     8.6686   138.7411  -999.2500
  338.5000   -36.7524     7.9173     9.4248   129.7676  -999.2500
