~VERSION INFORMATION
 VERS.                2.0:   CWLS LOG ASCII STANDARD - VERSION 2.0
 WRAP.                 NO:   ONE LINE PER DEPTH STEP
~WELL INFORMATION
#MNEM.UNIT      DATA TYPE    INFORMATION
#----------   ------------   ------------------------------
 STRT.F           38.0000:   START DEPTH
 STOP.F          890.0000:   STOP DEPTH
 STEP.F            0.5000:   STEP LENGTH
 NULL.          -999.2500:   NO VALUE
 COMP. FENIX & SCISSON INC:   COMPANY
 WELL.       43 SX #14-14:   WELL
 FLD .             TEAPOT:   FIELD
 LOC .      S14 T38N R78W:   LOCATION
 CNTY.            NATRONA:   COUNTY
 STAT.            WYOMING:   STATE
 CTRY. UNITED STATES OF AMERICA:   COUNTRY
 SRVC.            Unknown:   SERVICE COMPANY
 DATE.        28-APR-1978:   LOGDATE
 API .       490251063600:   API NUMBER
~CURVE INFORMATION
#MNEM.UNIT       API CODE    CURVE DESCRIPTION
#----------   ------------   ------------------------------
 DEPT.F                  :   
 SPR .MV     05 010 01 00:   SPONTANEOUS POTENTIAL FROM RES.
 SN  .OHMM   05 040 16 00:   SHORT NORMAL 16"
 ILD .OHMM   05 120 46 00:   INDUCTION LOG DEEP
 CILD.MMHO   05 110 46 00:   CONDUCTIVITY INDUCTION LOG DEEP
 CALD.IN     45 280 60 00:   CALIPER FROM DENSITY LOG
 GRD .GAPI   45 310 01 00:   GAMMA RAY FROM DENSITY LOG
 CORR.G/C3   45 356 01 00:   DENSITY CORRECTION
 DPHI.DEC    45 890 12 00:   DENSITY POROSITY SANDSTONE
 DEN .G/C3   45 350 01 00:   COMPENSATED BULK DENSTIY
~PARAMETER INFORMATION
#MNEM.UNIT          VALUE    DESCRIPTION
#----------   ------------   ------------------------------
 PD  .                 GL:   PERMANENT DATUM
 EPD .F              5217:   ELEVATION PERMANENT DATUM
 LMF .                 KB:   LOG MEASURED FROM
 DMF .                 KB:   DRILLING MEASURED FROM
 EKB .F              5221:   KELLING BUSHING
 EGL .F              5217:   GROUND LEVEL
 DATE.        28-APR-1978:   RUN DATE
 RUN .                  1:   RUN NUMBER
 DD  .F               890:   DEPTH DRILLER
 DL  .F               890:   DEPTH LOGGER
 BLI .F               884:   BOTTOM LOG INTERVAL
 TLI .F                40:   TOP LOG INTERVAL
 CS  .IN            8.625:   CASING SIZE
 CBD .F                40:   CASING BOTTOM DRILLER
 CBL .F                40:   CASING BOTTOM LOGGER
 BS  .IN            7.875:   BIT SIZE
 BSD .F               890:   BIT SIZE AT DEPTH
 DFT .                KCL:   DRILLING FLUID TYPE
 DFD .                8.7:   DRILLING FLUID DENSITY
 DFV .                 34:   DRILLING FLUID VISCOSITY
 DFL .                4.8:   DRILLING FLUID LOSS
 MSS .            MUD PIT:   MUD SAMPLE SOURCE
 RMS .OHMM             .4:   RESISTIVITY MUD SAMPLE
 MST .F                56:   MUD SAMPLE TEMPERATURE
 RMF .OHMM            .38:   RESISTIVITY MUD FILTRATE SAMPLE
 MFST.F                64:   MUD FILTRATE SAMPLE TEMPERATURE
 RMC .OHMM              1:   RESISTIVITY MUD CAKE
 MCST.F                66:   MUD CAKE SAMPLE TEMPERATURE
 MFSS.               MEAS:   MUD FILTRATE SAMPLE SOURCE
 RMB .OHMM             .3:   RESISTIVITY MUD AT BHT
 BHT .F                74:   BOTTOM HOLE TEMPERATURE
 TCS .HRS            0100:   TIME CURCULATED STOPPED
 MRT .F                74:   MAXIMUM RECORDED TEMPERATURE
 LUN .               2958:   LOGGING UNIT NUMBER
 LUL .               CASP:   LOGGING UNIT LOCATION
 ENGI.             MILLER:   RECORDING ENGINEER
 WITN.           MCGINLEY:   WITNESSED BY
 CLNT.            A2DTECH:   CLIENT CODE
 ORIG.           5" PRINT:   ORIGIN OF DATA
 UWI .       490251063600:   UNIQUE WELL ID
 DICO. A2D Technologies, Inc.:   DIGITIZING COMPANY
~OTHER INFORMATION
~A   DEPT      SPR         SN        ILD       CILD       CALD        GRD       CORR       DPHI        DEN   
# ...
   74.5000   -39.4748     5.2853     5.0824   183.1946     7.6689    69.8588     0.0276     0.1499     2.3676
   75.0000   -39.6142     5.3601     5.1205   183.1416     7.6842    69.9400     0.0278     0.1502     2.3684
   75.5000   -39.7536     5.4002     5.1588   183.0887     7.6845    69.9550     0.0264     0.1498     2.3700
   76.0000   -39.8932     5.4406     5.1974   183.0357     7.6997    69.8231     0.0250     0.1483     2.3708
   76.5000   -39.8840     5.4436     5.2725   183.7451     7.6849    69.2380     0.0237     0.1480     2.3731
   77.0000   -40.0237     5.4091     5.3488   183.6789     7.6551    68.5030     0.0238     0.1450     2.3838
   77.5000   -40.3111     5.4122     5.3511   184.3882     7.6554    68.6676     0.0285     0.1429     2.3874
   78.0000   -40.3021     5.4904     5.3912   184.3220     7.6557    70.6313     0.0331     0.1326     2.3988
   78.5000   -40.4438     5.5698     5.3941   185.7672     7.6859    73.3446     0.0272     0.1375     2.4078
   79.0000   -40.4325     5.5729     5.3971   185.7142     7.7012    73.2057     0.0259     0.1416     2.4011
   79.5000   -40.4235     5.5369     5.4001   186.4235     7.7015    73.6738     0.0246     0.1434     2.3951
   80.0000   -40.4145     5.4649     5.3659   186.3573     7.7017    76.0872     0.0248     0.1419     2.3914
   80.5000   -40.4055     5.4679     5.3689   186.3044     7.6570    79.1044     0.0249     0.1397     2.3900
   81.0000   -40.3965     5.4710     5.3718   186.2622     7.5971    79.7147     0.0296     0.1400     2.3900
   81.5000   -40.5382     5.5119     5.3748   185.4607     7.5823    78.0838     0.0387     0.1367     2.3953
   82.0000   -40.5269     5.5150     5.3411   184.6592     7.5826    74.9501     0.0433     0.1340     2.4021
   82.5000   -40.3696     5.5562     5.2346   183.8577     7.5793    73.9116     0.0420     0.1253     2.4083
   83.0000   -40.3606     5.4081     5.2375   183.0562     7.5830    73.7800     0.0391     0.1216     2.4146
   83.5000   -40.5022     5.2632     5.2767   182.2545     7.6425    73.3448     0.0378     0.1219     2.4218
   84.0000   -40.4910     5.3400     5.3530   182.2015     7.7188    73.2059     0.0379     0.1237     2.4256
   84.5000   -40.4837     5.4171     5.3930   181.3995     7.8250    73.3741     0.0381     0.1234     2.4272
   85.0000   -40.4748     5.5024     5.4334   179.0993     7.9463    73.3888     0.0382     0.1261     2.4272
   85.5000   -40.4659     5.5742     5.4740   176.7992     8.0824    73.2534     0.0384     0.1315     2.4213
   86.0000   -40.4570     5.6594     5.5150   174.4991     8.2037    72.9683     0.0416     0.1240     2.4205
   86.5000   -40.5966     5.7363     5.5563   171.4498     8.3249    75.7041     0.0492     0.1167     2.4236
   87.0000   -40.5875     5.7395     5.5978   169.1497     8.3870    76.2996     0.0523     0.1143     2.4357
   87.5000   -40.5786     5.7824     5.6788   166.8495     8.4476    76.1607     0.0495     0.1125     2.4380
   88.0000   -40.5696     5.8256     5.7609   166.0475     8.4494    77.2285     0.0421     0.1190     2.4414
   88.5000   -40.5607     5.8692     5.8442   166.7568     8.4209    77.6929     0.0348     0.1202     2.4508
   89.0000   -40.5517     5.9131     5.8879   167.4529     8.3920    77.7076     0.0319     0.1157     2.4411
   89.5000   -40.5427     5.9164     5.9730   164.3905     8.3489    77.1225     0.0321     0.1196     2.4412
   90.0000   -40.5337     5.9197     5.9757   160.5922     8.3205    75.7878     0.0292     0.1217     2.4329
   90.5000   -40.5247     5.9230     6.0203   155.2958     8.2769    75.6362     0.0279     0.1265     2.4262
   91.0000   -40.5157     5.9263     6.0654   152.2466     8.2036    75.8171     0.0280     0.1295     2.4263
   91.5000   -40.3583     6.1242     6.1582   149.9464     8.0970    75.8321     0.0297     0.1309     2.4248
   92.0000   -40.2010     6.3371     6.2893   147.6462     7.9674    75.8471     0.0328     0.1321     2.4151
   92.5000   -40.0436     6.4925     6.4676   146.0952     7.8640    76.0147     0.0345     0.1375     2.4083
   93.0000   -39.7379     6.6319     6.6035   146.0422     7.7906    76.1793     0.0362     0.1345     2.4054
   93.5000   -39.5805     6.7277     6.6071   146.0000     7.7322    76.7936     0.0318     0.1339     2.4039
   94.0000   -39.4232     6.8249     6.5653   145.9495     7.6884    77.1081     0.0245     0.1375     2.4032
   94.5000   -39.4142     6.8759     6.4789   146.4078     7.6902    76.6730     0.0231     0.1386     2.4025
   95.0000   -39.4052     6.8315     6.4825   146.6417     7.7066    76.5340     0.0233     0.1392     2.4033
   95.5000   -39.3962     6.8363     6.4861   148.0378     7.7380    76.5524     0.0249     0.1395     2.4056
   96.0000   -39.5378     6.9351     6.4898   147.9848     7.7545    76.5670     0.0280     0.1398     2.4011
   96.5000   -39.5266     7.2320     6.4934   148.6810     7.7563    76.5837     0.0282     0.1376     2.3974
   97.0000   -39.6659     7.3872     6.4970   147.8789     7.7577    77.0625     0.0298     0.1296     2.4027
   97.5000   -39.6588     7.4425     6.5006   147.8260     7.7592    79.1633     0.0315     0.1223     2.4141
   98.0000   -39.6499     7.4466     6.5042   146.2749     7.7606    79.6278     0.0331     0.1259     2.4179
   98.5000   -39.4926     7.4508     6.5529   144.7238     7.7621    79.0427     0.0335     0.1244     2.4316
   99.0000   -39.4837     7.4549     6.6476   141.6745     7.7636    79.0574     0.0349     0.1211     2.4291
   99.5000   -39.4734     7.4591     6.6513   139.3744     7.7650    79.2219     0.0366     0.1210     2.4285
  100.0000   -39.4659     7.4742     6.7191   138.5856     7.7665    78.1869     0.0352     0.1120     2.4311
  100.5000   -39.4217     7.0661     6.8322   140.0129     7.7374    78.1986     0.0369     0.1192     2.4459
  101.0000   -39.3776     6.9718     6.9452   137.6812     7.6313    78.2104     0.0371     0.1168     2.4406
  101.5000   -39.3334     7.0729     7.0431   136.1154     7.6044    78.2221     0.0417     0.1165     2.4362
  102.0000   -39.2893     7.1745     7.0952   133.0515     7.7702    76.4288     0.0418     0.1165     2.4384
  102.5000   -39.4151     7.2776     7.1973   129.9876     7.7861    75.8468     0.0420     0.1150     2.4392
  103.0000   -39.4021     7.3822     7.2506   126.9237     7.7869    75.8615     0.0391     0.1146     2.4385
  103.5000   -39.3918     7.4883     7.2541   125.3579     7.8028    75.8732     0.0378     0.1167     2.4415
  104.0000   -39.3828     7.5437     7.3079   124.5412     7.9384    75.8849     0.0379     0.1200     2.4460
  104.5000   -39.3711     7.6521     7.3114   124.4736     7.9094    75.8967     0.0381     0.1221     2.4385
  105.0000   -39.3608     7.7088     7.3656   125.1719     7.9102    76.0583     0.0412     0.1203     2.4333
  105.5000   -39.3505     7.7125     7.3691   125.1011     8.0608    79.0686     0.0399     0.1191     2.4296
  106.0000   -39.1918     7.7162     7.3220   125.0337     8.2413    81.4791     0.0385     0.1179     2.4401
  106.5000   -39.3324     7.7199     7.3255   125.7181     8.2878    81.7907     0.0372     0.1191     2.4341
  107.0000   -39.3195     7.7236     7.2778   127.1486     8.2581    81.6522     0.0374     0.1203     2.4311
  107.5000   -39.3091     7.6733     7.0353   127.9276     8.2440    81.5143     0.0360     0.1133     2.4432
  108.0000   -39.2988     7.6242     6.8471   130.7586     8.2149    81.6922     0.0361     0.1178     2.4485
  108.5000   -39.2885     7.5244     6.7092   133.6872     8.1859    82.5877     0.0363     0.1154     2.4370
  109.0000   -39.4265     7.4249     6.6663   136.7540     8.1718    83.0517     0.0379     0.1100     2.4335
  109.5000   -39.8613     7.3259     6.6237   139.5444     8.1577    83.6632     0.0396     0.0968     2.4455
  110.0000   -40.1477     7.1309     6.6736   139.4757     8.1738    83.2251     0.0427     0.0823     2.4591
  110.5000   -40.4367     6.9874     6.6768   138.6592     8.2046    80.2384     0.0414     0.0811     2.4854
