~VERSION INFORMATION
 VERS.                2.0:   CWLS LOG ASCII STANDARD - VERSION 2.0
 WRAP.                 NO:   ONE LINE PER DEPTH STEP
~WELL INFORMATION
#MNEM.UNIT      DATA TYPE    INFORMATION
#----------   ------------   ------------------------------
 STRT.F           20.0000:   START DEPTH
 STOP.F          478.0000:   STOP DEPTH
 STEP.F            0.5000:   STEP LENGTH
 NULL.          -999.2500:   NO VALUE
 COMP. FENIX & SCISSON INC:   COMPANY
 WELL.   56 31 SX #56-3FP:   WELL
 FLD .             TEAPOT:   FIELD
 LOC .       S3 T38N R78W:   LOCATION
 CNTY.            NATRONA:   COUNTY
 STAT.            WYOMING:   STATE
 CTRY. UNITED STATES OF AMERICA:   COUNTRY
 SRVC.              Welex:   SERVICE COMPANY
 DATE.        06-JUN-1980:   LOGDATE
 API .       490251082300:   API NUMBER
~CURVE INFORMATION
#MNEM.UNIT       API CODE    CURVE DESCRIPTION
#----------   ------------   ------------------------------
 DEPT.F                  :   
 RHOB.G/C3   45 350 01 00:   BULK DENSITY
 CORR.G/C3   45 356 01 00:   DENSITY CORRECTION
 GRD .GAPI   45 310 01 00:   GAMMA RAY FROM DENSITY LOG
 CALD.IN     45 280 60 00:   CALIPER
 DPHI.DEC    45 890 12 00:   DENSITY POROSITY SANDSTONE
 NPHI.DEC    42 890 03 00:   NEUTRON POROSITY SANDSTONE
 SPR .MV     07 010 01 00:   SPONTANEOUS POTENTIAL
 ILD .OHMM   07 120 46 00:   INDUCTION LOG DEEP
 ILM .OHMM   07 120 44 00:   INDUCTION LOG MEDIUM
 SGRD.OHMM   07 220 05 00:   SHALLOW GUARD RESISTIVITY
~PARAMETER INFORMATION
#MNEM.UNIT          VALUE    DESCRIPTION
#----------   ------------   ------------------------------
 PD  .                 GL:   PERMANENT DATUM
 EPD .F              5173:   ELEVATION PERMANENT DATUM
 LMF .                 KB:   LOG MEASURED FROM
 DAPD.F                 5:   FEET ABOVE PERMANENT DATUM
 DMF .                 KB:   DRILLING MEASURED FROM
 EKB .F              5178:   KELLING BUSHING
 EGL .F              5173:   GROUND LEVEL
 DATE.             6-6-80:   RUN DATE
 RUN .                  1:   RUN NUMBER
 DD  .F               450:   DEPTH DRILLER
 DL  .F               476:   DEPTH LOGGER
 BLI .F               474:   BOTTOM LOG INTERVAL
 TLI .F                30:   TOP LOG INTERVAL
 BS  .IN            9.875:   BIT SIZE
 BSD .F               450:   BIT SIZE AT DEPTH
 DFT .            KCL MUD:   DRILLING FLUID TYPE
 DFD .                9.5:   DRILLING FLUID DENSITY
 DFV .                 48:   DRILLING FLUID VISCOSITY
 DFPH.                7.5:   DRILLING FLUID PH
 DFL .                  7:   DRILLING FLUID LOSS
 MSS .           FLOWLINE:   MUD SAMPLE SOURCE
 RMS .OHMM           1.56:   RESISTIVITY MUD SAMPLE
 MST .F                62:   MUD SAMPLE TEMPERATURE
 RMF .OHMM           1.24:   RESISTIVITY MUD FILTRATE SAMPLE
 MFST.F                62:   MUD FILTRATE SAMPLE TEMPERATURE
 RMC .OHMM           1.87:   RESISTIVITY MUD CAKE
 MCST.F                62:   MUD CAKE SAMPLE TEMPERATURE
 MFSS.           MEASURED:   MUD FILTRATE SAMPLE SOURCE
 MCSS.           MEASURED:   MUD CAKE SAMPLE SOURCE
 RMB .OHMM           1.32:   RESISTIVITY MUD AT BHT
 BHT .F                73:   BOTTOM HOLE TEMPERATURE
 TCS .HRS               6:   TIME CURCULATED STOPPED
 MRT .F                73:   MAXIMUM RECORDED TEMPERATURE
 LUN .               1892:   LOGGING UNIT NUMBER
 LUL .             CASPER:   LOGGING UNIT LOCATION
 ENGI.               REIN:   RECORDING ENGINEER
 WITN.              AMEND:   WITNESSED BY
 CLNT.            A2DTECH:   CLIENT CODE
 ORIG.        2" 5" PRINT:   ORIGIN OF DATA
 UWI .       490251082300:   UNIQUE WELL ID
 DICO. A2D Technologies, Inc.:   DIGITIZING COMPANY
~OTHER INFORMATION
~A   DEPT     RHOB       CORR        GRD       CALD       DPHI       NPHI        SPR          ILD        ILM     SGRD   
# ...
  355.0000     2.2722     0.0505    68.7583     9.7044     0.2580     0.2489   -14.1040     9.9141    12.8061    19.8717
  355.5000     2.2605     0.0399    69.0633     9.7131     0.2610     0.2511   -13.7367     9.8836    12.7406    20.4925
  356.0000     2.2491     0.0308    69.3679     9.7129     0.2599     0.2533   -13.3622     9.8533    12.6206    21.0371
  356.5000     2.2569     0.0263    69.6729     9.7129     0.2567     0.2530   -13.2002     9.8230    12.5017    19.8712
  357.0000     2.2650     0.0213    69.9784     9.7129     0.2506     0.2517   -13.0994     9.7560    12.3839    18.9078
  357.5000     2.2721     0.0300    70.2771     9.7129     0.2445     0.2504   -13.3203     9.6600    12.2672    18.4641
  358.0000     2.2843     0.0435    70.4291     9.7129     0.2396     0.2484   -13.5579     9.5649    12.1517    18.4054
  358.5000     2.2864     0.0372    70.1371     9.7129     0.2436     0.2448   -13.7947     9.4708    12.0372    18.3469
  359.0000     2.2837     0.0393    69.8625     9.7129     0.2308     0.2442   -14.0341     9.3776    11.9238    18.2886
  359.5000     2.3047     0.0516    69.5875     9.7129     0.2135     0.2424   -14.0749     9.2832    11.8853    18.2305
  360.0000     2.3312     0.0639    69.3124     9.7133     0.2025     0.2370   -14.0750     9.3609    11.8687    18.1739
  360.5000     2.3527     0.0673    69.0362     9.7149     0.1993     0.2273   -14.0749     9.4413    11.8521    17.9429
  361.0000     2.3592     0.0516    68.7601     9.7165     0.1946     0.2162   -14.1019     9.5223    11.8356    17.6670
  361.5000     2.3651     0.0374    68.5173     9.7181     0.1778     0.2040   -14.2357     9.6040    11.8191    17.3894
  362.0000     2.4041     0.0439    68.7100     9.7196     0.1587     0.1929   -14.7997     9.6864    11.7959    17.1617
  362.5000     2.4486     0.0538    68.8927     9.7212     0.1398     0.1822   -15.4333     9.7696    11.7860    19.2826
  363.0000     2.4565     0.0638    69.0729     9.7228     0.1351     0.1774   -15.7923     9.8534    12.5900    26.7325
  363.5000     2.4538     0.0671    69.2528     9.7243     0.1497     0.1930   -16.0143     9.9380    13.2992    35.1902
  364.0000     2.4399     0.0637    69.4325     9.7259     0.1624     0.2099   -16.2353    10.0232    14.0344    38.6482
  364.5000     2.4121     0.0606    69.6156     9.7275     0.1789     0.2287   -16.4286    10.1093    13.0285    33.4254
  365.0000     2.3825     0.0657    69.8398     9.7291     0.2023     0.2476   -16.3035    10.1769    12.0894    23.2083
  365.5000     2.3464     0.0580    70.1196     9.7306     0.2264     0.2639   -16.1752     9.8965    11.2197    16.6261
  366.0000     2.3097     0.0506    70.3955     9.7323     0.2392     0.2665   -16.0485     9.6290    10.6773    14.5291
  366.5000     2.2926     0.0467    70.6726     9.7300     0.2326     0.2660   -15.9221     9.3688    10.4997    14.4316
  367.0000     2.2998     0.0635    70.9582     9.7264     0.2236     0.2630   -15.7957     9.1156    10.3627    14.4501
  367.5000     2.3116     0.0794    71.4938     9.7226     0.2238     0.2599   -15.6693     8.8692    10.3498    14.4724
  368.0000     2.3127     0.0716    72.3160     9.7189     0.2280     0.2630   -15.5429     8.6295    10.3369    14.4946
  368.5000     2.3048     0.0624    73.1313     9.7152     0.2359     0.2634   -15.4164     8.5249    10.3240    14.5166
  369.0000     2.2859     0.0533    73.9813     9.7115     0.2389     0.2640   -15.2864     8.4922    10.3111    14.5391
  369.5000     2.2877     0.0441    74.1121     9.7078     0.2437     0.2690   -15.2044     8.4596    10.2983    14.5638
  370.0000     2.2832     0.0416    74.1807     9.7041     0.2459     0.2711   -15.1333     8.4271    10.2854    14.3940
  370.5000     2.2782     0.0453    74.2505     9.7004     0.2472     0.2666   -15.0628     8.3948    10.2726    14.1989
  371.0000     2.2761     0.0503    74.3211     9.6967     0.2410     0.2619   -14.9915     8.3626    10.2709    14.0051
  371.5000     2.2810     0.0555    74.3918     9.6930     0.2403     0.2627   -14.9210     8.3305    10.2710    13.8143
  372.0000     2.2850     0.0496    74.4625     9.6892     0.2459     0.2641   -14.8892     8.2985    10.2707    13.6261
  372.5000     2.2782     0.0413    74.5332     9.6855     0.2483     0.2655   -15.0807     8.2667    10.2698    13.4404
  373.0000     2.2742     0.0352    74.6040     9.6818     0.2401     0.2674   -15.2704     8.2350    10.3465    13.2573
  373.5000     2.2792     0.0408    74.6750     9.6781     0.2333     0.2697   -15.4607     8.2036    10.4094    13.1642
  374.0000     2.2920     0.0461    74.7451     9.6743     0.2301     0.2740   -15.6410     8.1713    10.4598    13.5322
  374.5000     2.2978     0.0481    74.8134     9.6695     0.2444     0.2798   -15.5536     8.1091    10.0220    13.4560
  375.0000     2.2812     0.0344    74.6984     9.6642     0.2386     0.2854   -15.4531     8.0313     9.6308    13.3469
  375.5000     2.2911     0.0451    74.3887     9.6588     0.2289     0.2891   -15.3537     7.9550     9.3689    13.2387
  376.0000     2.2986     0.0610    74.0635     9.6535     0.2193     0.2910   -15.2547     7.8794     9.7520    12.9384
  376.5000     2.3166     0.0769    74.4832     9.6482     0.2117     0.2885   -15.1557     7.8046     9.9001    12.2289
  377.0000     2.3355     0.0926    74.9602     9.6431     0.2204     0.2851   -15.0567     7.7304     9.6308    11.8982
  377.5000     2.3426     0.0941    75.4379     9.6370     0.2276     0.2817   -14.9577     7.6570    10.1769    12.3438
  378.0000     2.3206     0.0748    75.9193     9.6038     0.2304     0.2782   -14.8584     7.5842     9.8729    11.8747
  378.5000     2.3022     0.0765    76.4221     9.4812     0.2256     0.2748   -14.7586     7.5122     9.5528    11.5746
  379.0000     2.3112     0.0895    76.0238     9.4893     0.2163     0.2744   -14.6702     7.4409     9.2766    12.4578
  379.5000     2.3258     0.1028    75.5575     9.5107     0.2079     0.2775   -14.7440     7.3701     9.2268    11.5746
  380.0000     2.3406     0.1158    75.0917     9.5319     0.1998     0.2806   -14.8211     7.2429     9.1764    11.8865
  380.5000     2.3554     0.1245    74.6282     9.5530     0.1916     0.2835   -14.8975     7.1560     9.1268    11.5433
  381.0000     2.3701     0.1172    74.1647     9.5739     0.1882     0.2782   -14.9736     7.0404     9.0250    11.1545
  381.5000     2.3798     0.1208    73.7013     9.5946     0.1912     0.2708   -15.0497     6.9267     8.9068    11.1588
  382.0000     2.3701     0.0914    73.2375     9.6171     0.1913     0.2651   -15.1253     6.8148     8.7851    10.4615
  382.5000     2.3732     0.0803    72.7757     9.6680     0.1911     0.2607   -15.2026     6.7047     8.9271    10.5193
  383.0000     2.3660     0.0761    72.3117     9.7183     0.1927     0.2562   -15.3226     6.5964     9.0782    10.6247
  383.5000     2.3663     0.0788    72.1356     9.7697     0.1846     0.2520   -15.5950     6.4898     9.1141    10.7549
  384.0000     2.3865     0.0919    72.2359     9.7699     0.1746     0.2537   -15.8573     6.3849     8.3904    10.5381
  384.5000     2.4084     0.1006    72.3393     9.7665     0.1670     0.2539   -16.1193     6.2818     8.6919    10.0838
  385.0000     2.4042     0.0912    72.4440     9.7633     0.1734     0.2531   -16.3816     6.1804     9.2434    10.1442
  385.5000     2.4128     0.0840    72.5482     9.7602     0.1689     0.2552   -16.6430     6.1338     9.7198    10.2226
  386.0000     2.4187     0.0802    72.6525     9.7571     0.1645     0.2561   -16.9064     6.1260     8.9555    10.2709
  386.5000     2.4347     0.0809    72.7566     9.7540     0.1479     0.2536   -17.0264     6.1181     8.7047    10.1445
  387.0000     2.4408     0.0815    72.8594     9.7509     0.1515     0.2543   -16.9845     6.1103     8.6612    10.0543
  387.5000     2.4352     0.0821    73.0799     9.7478     0.1507     0.2511   -16.9266     6.1025     8.4405     9.9649
  388.0000     2.4417     0.0849    73.3110     9.7447     0.1506     0.2559   -16.8680     6.0946     8.3049     9.8763
