~VERSION INFORMATION
 VERS.                2.0:   CWLS LOG ASCII STANDARD - VERSION 2.0
 WRAP.                 NO:   ONE LINE PER DEPTH STEP
~WELL INFORMATION
#MNEM.UNIT      DATA TYPE    INFORMATION
#----------   ------------   ------------------------------
 STRT.F           14.0000:   START DEPTH
 STOP.F          692.5000:   STOP DEPTH
 STEP.F            0.5000:   STEP LENGTH
 NULL.          -999.2500:   NO VALUE
 COMP. FENIX & SCISSON INC:   COMPANY
 WELL. NPR #3 #27-51 SX 11 WP:   WELL
 FLD .        TEAPOT DOME:   FIELD
 LOC .      S11 T38N R78W:   LOCATION
 CNTY.            NATRONA:   COUNTY
 STAT.            WYOMING:   STATE
 CTRY. UNITED STATES OF AMERICA:   COUNTRY
 SRVC.      Dresser Atlas:   SERVICE COMPANY
 DATE.        16-AUG-1980:   LOGDATE
 API .       490251083900:   API NUMBER
~CURVE INFORMATION
#MNEM.UNIT       API CODE    CURVE DESCRIPTION
#----------   ------------   ------------------------------
 DEPT.F                  :   
 RHOB.G/C3   45 350 01 00:   BULK DENSITY
 CORR.G/C3   45 356 01 00:   DENSITY CORRECTION
 GRD .GAPI   45 310 01 00:   GAMMA RAY FROM DENSITY LOG
 CALD.IN     45 280 60 00:   CALIPER
 NPOR.DEC    42 890 03 00:   NEUTRON POROSITY SANDSTONE
 DPOR.DEC    45 890 12 00:   DENSITY POROSITY SANDSTONE
 SPR .MV     07 010 01 00:   SPONTANEOUS POTENTIAL
 SFL .OHMM   07 220 01 00:   SHALLOW FOCUSED LOG RESISTIVITY
 ILM .OHMM   07 120 44 00:   INDUCTION LOG MEDIUM
 ILD .OHMM   07 120 46 00:   INDUCTION LOG DEEP
~PARAMETER INFORMATION
#MNEM.UNIT          VALUE    DESCRIPTION
#----------   ------------   ------------------------------
 PD  .                 GL:   PERMANENT DATUM
 EPD .F              5194:   ELEVATION PERMANENT DATUM
 LMF .                 KB:   LOG MEASURED FROM
 DAPD.F                 5:   FEET ABOVE PERMANENT DATUM
 DMF .                 KB:   DRILLING MEASURED FROM
 EKB .F              5199:   KELLING BUSHING
 EGL .F              5194:   GROUND LEVEL
 DATE.            8-16-80:   RUN DATE
 RUN .                  1:   RUN NUMBER
 DD  .F               685:   DEPTH DRILLER
 DL  .F               693:   DEPTH LOGGER
 BLI .F               692:   BOTTOM LOG INTERVAL
 TLI .F                25:   TOP LOG INTERVAL
 BS  .IN            7.875:   BIT SIZE
 BSD .F               685:   BIT SIZE AT DEPTH
 DFT .                KCL:   DRILLING FLUID TYPE
 DFD .                9.4:   DRILLING FLUID DENSITY
 DFV .                 45:   DRILLING FLUID VISCOSITY
 DFPH.                 11:   DRILLING FLUID PH
 DFL .                7.2:   DRILLING FLUID LOSS
 MSS .           FLOWLINE:   MUD SAMPLE SOURCE
 RMS .OHMM            .74:   RESISTIVITY MUD SAMPLE
 MST .F                60:   MUD SAMPLE TEMPERATURE
 RMF .OHMM            .44:   RESISTIVITY MUD FILTRATE SAMPLE
 MFST.F                60:   MUD FILTRATE SAMPLE TEMPERATURE
 RMC .OHMM           1.35:   RESISTIVITY MUD CAKE
 MCST.F                60:   MUD CAKE SAMPLE TEMPERATURE
 MFSS.               MEAS:   MUD FILTRATE SAMPLE SOURCE
 MCSS.               MEAS:   MUD CAKE SAMPLE SOURCE
 TCS .HRS               1:   TIME CURCULATED STOPPED
 LUN .               6180:   LOGGING UNIT NUMBER
 LUL .               CODY:   LOGGING UNIT LOCATION
 ENGI.              HOYER:   RECORDING ENGINEER
 WITN.           MCINTYRE:   WITNESSED BY
 CLNT.            A2DTECH:   CLIENT CODE
 ORIG.      2" 2.5" PRINT:   ORIGIN OF DATA
 UWI .       490251083900:   UNIQUE WELL ID
 DICO. A2D Technologies, Inc.:   DIGITIZING COMPANY
~OTHER INFORMATION
~A   DEPT     RHOB       CORR        GRD       CALD       NPOR       DPOR        SPR        SFL         ILM       ILD   
# ...
  349.0000     2.4624     0.0159   113.5712     8.2119     0.2773     0.1248   -79.9404     8.0979     5.7734     6.2440
  349.5000     2.4552     0.0146   114.6313     8.2105     0.2790     0.1321   -79.9391     7.5718     5.9077     6.4013
  350.0000     2.4537     0.0137   116.0246     8.2090     0.2808     0.1293   -79.9843     7.4186     6.0451     6.5615
  350.5000     2.4663     0.0126   115.6322     8.2075     0.2812     0.1257   -80.0457     7.5599     6.1857     6.6952
  351.0000     2.4616     0.0104   114.4575     8.2060     0.2800     0.1278   -80.1089     7.6709     6.3296     6.7980
  351.5000     2.4556     0.0075   113.2734     8.2045     0.2788     0.1312   -80.1455     7.7838     6.4768     6.8931
  352.0000     2.4526     0.0043   113.1472     8.2030     0.2780     0.1337   -79.9357     7.8977     6.5236     6.8931
  352.5000     2.4561     0.0071   114.3676     8.2016     0.2797     0.1322   -79.7086     7.9111     6.5236     6.8931
  353.0000     2.4603     0.0106   112.3716     8.2001     0.2804     0.1305   -79.5930     7.8413     6.5149     6.8576
  353.5000     2.4642     0.0145   113.5974     8.1986     0.2764     0.1288   -79.8392     7.7395     6.4836     6.8055
  354.0000     2.4688     0.0182   112.1931     8.1981     0.2721     0.1271   -80.0745     7.6390     6.4525     6.7539
  354.5000     2.4707     0.0199   114.1130     8.2000     0.2683     0.1257   -80.3092     7.6258     6.4219     6.7028
  355.0000     2.4607     0.0137   113.1304     8.2017     0.2727     0.1300   -80.3122     7.5918     6.3811     6.6517
  355.5000     2.4460     0.0082   110.3200     8.2036     0.2786     0.1357   -80.2801     7.4627     6.3298     6.5808
  356.0000     2.4509     0.0043   113.5996     8.2054     0.2845     0.1393   -80.2476     7.3358     6.2789     6.4852
  356.5000     2.4627     0.0111   116.6764     8.2072     0.2892     0.1320   -80.2154     7.2111     6.2309     6.3910
  357.0000     2.4692     0.0198   118.5655     8.2090     0.2892     0.1247   -80.1836     7.0884     6.0995     6.2982
  357.5000     2.4588     0.0166   116.3898     8.2109     0.2876     0.1284   -80.1496     7.0209     5.9768     6.2067
  358.0000     2.4483     0.0093   116.3340     8.2127     0.2912     0.1314   -80.2319     7.0209     5.8590     5.9963
  358.5000     2.4386     0.0019   116.9945     8.2145     0.2972     0.1384   -80.3723     6.9977     5.6133     5.7067
  359.0000     2.4368     0.0052   117.5875     8.2163     0.2980     0.1419   -80.5185     6.9446     5.2325     5.3643
  359.5000     2.4389     0.0123   118.3378     8.2182     0.2965     0.1408   -80.3731     6.8931     4.8745     5.0425
  360.0000     2.4432     0.0202   117.0108     8.2200     0.2952     0.1394   -80.1139     6.8931     4.5420     4.7400
  360.5000     2.4089     0.0147   111.9816     8.2218     0.2952     0.1501   -79.8516     6.4682     4.2369     4.2369
  361.0000     2.3884     0.0044   113.2965     8.2236     0.2957     0.1633   -79.5841     5.4991     4.1982     4.2369
  361.5000     2.3693    -0.0038   113.2976     8.2255     0.2963     0.1733   -79.6723     4.3551     4.4786     4.4835
  362.0000     2.3797    -0.0023   111.7368     8.2273     0.2969     0.1769   -79.8838     3.9732     4.5599     4.7412
  362.5000     2.4106     0.0022   111.2768     8.2291     0.3077     0.1663   -80.1014     5.9732     4.5599     5.0138
  363.0000     2.4398     0.0066   113.1137     8.2310     0.3024     0.1427   -80.1398     7.8388     4.6506     5.3020
  363.5000     2.4506     0.0116   114.1536     8.2327     0.2893     0.1351   -80.1155     7.2210     4.9476     5.6068
  364.0000     2.4613     0.0122   114.0471     8.2349     0.2763     0.1311   -79.9708     6.8301     5.4219     5.8408
  364.5000     2.4666     0.0132   114.2667     8.2362     0.2706     0.1273   -79.8279     6.7677     5.8112     6.0216
  365.0000     2.4691     0.0137   115.3683     8.2366     0.2739     0.1243   -79.6835     6.7677     6.1297     6.2080
  365.5000     2.4769     0.0146   117.2512     8.2176     0.2756     0.1198   -79.5534     6.7677     6.4640     6.4049
  366.0000     2.4787     0.0153   119.2073     8.2016     0.2701     0.1193   -79.8447     6.7673     6.4640     6.5426
  366.5000     2.4734     0.0159   119.4118     8.1842     0.2624     0.1224   -80.1618     6.7863     6.4640     6.5838
  367.0000     2.4713     0.0176   118.1367     8.1662     0.2595     0.1232   -80.4757     6.8359     6.4640     6.5838
  367.5000     2.4801     0.0209   120.2511     8.1566     0.2646     0.1197   -80.7177     6.8861     6.5673     6.6842
  368.0000     2.4883     0.0243   120.7719     8.1612     0.2701     0.1160   -80.5237     6.9366     6.7052     6.8664
  368.5000     2.4911     0.0210   120.0581     8.1647     0.2723     0.1136   -80.3345     6.9876     6.8461     7.0536
  369.0000     2.4876     0.0152   118.7695     8.1683     0.2699     0.1128   -80.1473     7.0214     6.9911     7.2170
  369.5000     2.4837     0.0115   116.9771     8.1722     0.2683     0.1152   -80.1375     7.0210     7.0871     7.2170
  370.0000     2.4802     0.0142   116.9050     8.1758     0.2675     0.1176   -80.1466     7.0208     7.0850     7.2170
  370.5000     2.4791     0.0186   117.7903     8.1796     0.2723     0.1178   -80.2869     7.0209     7.0858     7.2170
  371.0000     2.4883     0.0230   116.8240     8.1833     0.2769     0.1154   -80.1637     7.0726     7.2432     7.1788
  371.5000     2.4879     0.0232   117.7935     8.1870     0.2820     0.1144   -79.9683     7.1702     7.3474     7.1272
  372.0000     2.4832     0.0201   120.1729     8.1907     0.2820     0.1171   -79.7745     7.2693     7.4186     7.0759
  372.5000     2.4788     0.0177   119.8502     8.1944     0.2749     0.1200   -79.5821     7.3697     7.3844     7.0209
  373.0000     2.4774     0.0125   116.4004     8.1981     0.2686     0.1200   -79.3894     7.4715     7.3535     7.0209
  373.5000     2.4855     0.0141   117.5242     8.2018     0.2619     0.1172   -79.1865     7.5747     7.3229     7.1528
  374.0000     2.4928     0.0188   120.8347     8.2056     0.2649     0.1134   -79.2756     7.6794     7.2925     7.2997
  374.5000     2.4995     0.0234   121.4065     8.2093     0.2702     0.1096   -79.4596     7.8388     7.2836     7.4496
  375.0000     2.4994     0.0160   121.5424     8.2130     0.2723     0.1080   -79.6441     7.8020     7.2844     7.5561
  375.5000     2.4921     0.0084   123.7466     8.2167     0.2666     0.1105   -79.5952     7.7291     7.2846     7.4697
  376.0000     2.4815     0.0100   122.6810     8.2204     0.2556     0.1176   -79.3011     7.6570     7.1762     7.3920
  376.5000     2.4872     0.0179   122.5368     8.2241     0.2586     0.1144   -79.0099     7.5855     7.0948     7.3152
  377.0000     2.5092     0.0239   123.3743     8.2278     0.2660     0.1071   -78.7417     7.5147     7.0142     7.2391
  377.5000     2.5015     0.0185   120.9838     8.2315     0.2733     0.1032   -78.9253     7.4445     6.9344     7.1638
  378.0000     2.4837     0.0115   121.4563     8.2352     0.2807     0.1151   -79.1879     7.3750     6.8556     7.0893
  378.5000     2.4674     0.0072   121.3483     8.2391     0.2844     0.1247   -79.4572     7.3061     6.7777     7.0209
  379.0000     2.4694     0.0123   119.9809     8.2434     0.2776     0.1225   -79.5003     7.2836     6.7006     7.0391
  379.5000     2.4776     0.0166   118.6522     8.2476     0.2724     0.1182   -79.4446     7.2836     6.6086     7.0560
  380.0000     2.4870     0.0150   117.2503     8.2519     0.2735     0.1136   -79.3792     7.2836     6.4745     7.0730
  380.5000     2.4892     0.0130   116.8914     8.2561     0.2765     0.1137   -79.1926     7.2836     6.3431     7.0857
  381.0000     2.4852     0.0139   117.0195     8.2604     0.2768     0.1161   -79.0608     7.2836     6.2144     6.8006
  381.5000     2.4970     0.0200   119.0301     8.2646     0.2731     0.1079   -78.9741     7.2829     6.0883     6.5821
  382.0000     2.5009     0.0278   119.6624     8.2689     0.2765     0.1096   -79.0305     7.2863     5.9665     6.3706
