~VERSION INFORMATION
 VERS.                2.0:   CWLS LOG ASCII STANDARD - VERSION 2.0
 WRAP.                 NO:   ONE LINE PER DEPTH STEP
~WELL INFORMATION
#MNEM.UNIT      DATA TYPE    INFORMATION
#----------   ------------   ------------------------------
 STRT.F           28.0000:   START DEPTH
 STOP.F          630.0000:   STOP DEPTH
 STEP.F            0.5000:   STEP LENGTH
 NULL.          -999.2500:   NO VALUE
 COMP. FENIX & SCISSON INC:   COMPANY
 WELL. NAVAL PETROLEUM RESERVE 3 SX-1 #81-15:   WELL
 FLD .             TEAPOT:   FIELD
 LOC .      S15 T38N R78W:   LOCATION
 CNTY.            NATRONA:   COUNTY
 STAT.            WYOMING:   STATE
 CTRY. UNITED STATES OF AMERICA:   COUNTRY
 SRVC.           BIRDWELL:   SERVICE COMPANY
 DATE.        03-JUN-1978:   LOGDATE
 API .       490251063900:   API NUMBER
~CURVE INFORMATION
#MNEM.UNIT       API CODE    CURVE DESCRIPTION
#----------   ------------   ------------------------------
 DEPT.F                  :   
 SPR .MV     05 010 01 00:   SPONTANEOUS POTENTIAL FROM RES.
 SN  .OHMM   05 040 16 00:   SHORT NORMAL 16"
 ILD .OHMM   05 120 46 00:   INDUCTION LOG DEEP
 CALD.IN     45 280 60 00:   CALIPER FROM DENSITY LOG
 GRD .GAPI   45 310 01 00:   GAMMA RAY FROM DENSITY LOG
 CORR.G/C3   45 356 01 00:   DENSITY CORRECTION
 DPHI.DEC    45 890 12 00:   DENSITY POROSITY SANDSTONE
 DEN .G/C3   45 350 01 00:   COMPENSATED BULK DENSITY
~PARAMETER INFORMATION
#MNEM.UNIT          VALUE    DESCRIPTION
#----------   ------------   ------------------------------
 PD  .                 GL:   PERMANENT DATUM
 EPD .F              5263:   ELEVATION PERMANENT DATUM
 LMF .                 KB:   LOG MEASURED FROM
 DAPD.F                 4:   FEET ABOVE PERMANENT DATUM
 DMF .                 KB:   DRILLING MEASURED FROM
 EKB .F              5267:   KELLING BUSHING
 EGL .F              5263:   GROUND LEVEL
 DATE.        03-JUN-1978:   RUN DATE
 RUN .                  1:   RUN NUMBER
 DD  .F               632:   DEPTH DRILLER
 DL  .F               636:   DEPTH LOGGER
 BLI .F               630:   BOTTOM LOG INTERVAL
 TLI .F                40:   TOP LOG INTERVAL
 CS  .IN            8.625:   CASING SIZE
 CBD .F                40:   CASING BOTTOM DRILLER
 CBL .F                40:   CASING BOTTOM LOGGER
 BS  .IN            7.875:   BIT SIZE
 BSD .F               632:   BIT SIZE AT DEPTH
 DFT .                KCL:   DRILLING FLUID TYPE
 DFD .                8.7:   DRILLING FLUID DENSITY
 DFV .                 31:   DRILLING FLUID VISCOSITY
 DFPH.                 10:   DRILLING FLUID PH
 DFL .                9.2:   DRILLING FLUID LOSS
 MSS .           FLOWLINE:   MUD SAMPLE SOURCE
 RMS .OHMM            .26:   RESISTIVITY MUD SAMPLE
 MST .F                66:   MUD SAMPLE TEMPERATURE
 RMF .OHMM            .24:   RESISTIVITY MUD FILTRATE SAMPLE
 MFST.F                74:   MUD FILTRATE SAMPLE TEMPERATURE
 RMC .OHMM            .34:   RESISTIVITY MUD CAKE
 MCST.F                75:   MUD CAKE SAMPLE TEMPERATURE
 MFSS.               MEAS:   MUD FILTRATE SAMPLE SOURCE
 MCSS.               MEAS:   MUD CAKE SAMPLE SOURCE
 RMB .OHMM            .23:   RESISTIVITY MUD AT BHT
 BHT .F                74:   BOTTOM HOLE TEMPERATURE
 TCS .HRS            0100:   TIME CURCULATED STOPPED
 MRT .F                74:   MAXIMUM RECORDED TEMPERATURE
 LUN .               2958:   LOGGING UNIT NUMBER
 LUL .               CASP:   LOGGING UNIT LOCATION
 ENGI.             MILLER:   RECORDING ENGINEER
 WITN.           MCGINLEY:   WITNESSED BY
 CLNT.            A2DTECH:   CLIENT CODE
 ORIG.           5" PRINT:   ORIGIN OF DATA
 UWI .       490251063900:   UNIQUE WELL ID
 DICO. A2D Technologies, Inc.:   DIGITIZING COMPANY
~OTHER INFORMATION
~A   DEPT      SPR         SN        ILD       CALD         GRD      CORR       DPHI        DEN   
# ...
  311.5000   -25.7798     8.8008     8.6565     8.6552    75.7375     0.0357     0.1275     2.4681
  312.0000   -25.7841     8.8020     8.6542     8.6382    69.6246     0.0355     0.1287     2.4650
  312.5000   -25.7885     8.8032     8.7126     8.6516    66.1071     0.0337     0.1279     2.4664
  313.0000   -25.6427     8.7436     8.7097     8.6342    64.8797     0.0351     0.1252     2.4696
  313.5000   -25.6682     8.7450     8.7074     8.6324    64.7210     0.0349     0.1234     2.4728
  314.0000   -25.8026     8.6855     8.7050     8.6154    65.1730     0.0347     0.1177     2.4873
  314.5000   -25.8069     8.6870     8.6421     8.5985    72.0372     0.0345     0.1141     2.4903
  315.0000   -25.8116     8.6281     8.6398     8.5815    72.4892     0.0343     0.1138     2.4871
  315.5000   -25.9657     8.5106     8.5779     8.5646    68.8183     0.0341     0.1154     2.4840
  316.0000   -25.9701     8.4530     8.5164     8.5325    67.1329     0.0354     0.1178     2.4809
  316.5000   -26.1246     8.3958     8.4554     8.4700    67.4321     0.0367     0.1224     2.4739
  317.0000   -26.1300     8.3390     8.3947     8.4379    67.8078     0.0381     0.1322     2.4586
  317.5000   -26.1343     8.2826     8.3341     8.4210    67.7246     0.0379     0.1337     2.4593
  318.0000   -26.1387     8.2265     8.2744     8.4192    66.6499     0.0392     0.1323     2.4645
  318.5000   -26.1434     8.0587     8.2151     8.4174    66.3385     0.0390     0.1302     2.4644
  319.0000   -26.1477     7.8378     8.0999     8.4004    66.3325     0.0373     0.1302     2.4643
  319.5000   -26.0012     7.7328     7.9864     8.3077    66.7845     0.0325     0.1306     2.4619
  320.0000   -26.0060     7.6274     7.8744     8.2302    67.6945     0.0263     0.1327     2.4558
  320.5000   -26.0113     7.5758     7.7635     8.1677    68.9098     0.0278     0.1368     2.4519
  321.0000   -26.0156     7.5245     7.7615     8.1356    71.4992     0.0319     0.1417     2.4449
  321.5000   -26.0200     7.5258     7.7594     8.1035    73.6305     0.0423     0.1404     2.4486
  322.0000   -26.0243     7.5268     7.7573     8.1017    74.3879     0.0482     0.1304     2.4637
  322.5000   -25.8785     7.5801     7.8634     8.0999    74.5345     0.0496     0.1208     2.4819
  323.0000   -25.8829     7.6871     7.9174     8.0981    72.5437     0.0432     0.1220     2.4795
  323.5000   -25.8875     7.8495     8.0795     8.0963    68.7209     0.0355     0.1230     2.4786
  324.0000   -25.8926     8.0154     8.1340     8.0945    67.6462     0.0307     0.1209     2.4793
  324.5000   -25.7461     8.1282     8.1883     8.0927    68.2508     0.0290     0.1234     2.4718
  325.0000   -25.7511     8.2427     8.1856     8.0758    70.0768     0.0258     0.1301     2.4662
  325.5000   -25.7555     8.3011     8.2408     8.0739    70.0708     0.0256     0.1295     2.4669
  326.0000   -25.7598     8.2449     8.2381     8.0873    65.6366     0.0284     0.1295     2.4660
  326.5000   -25.7643     8.1891     8.1790     8.0855    65.1725     0.0282     0.1314     2.4636
  327.0000   -25.7696     8.0778     8.1763     8.0837    66.1589     0.0296     0.1317     2.4620
  327.5000   -25.7733     8.0229     8.1742     8.0970    68.5192     0.0293     0.1297     2.4657
  328.0000   -25.7782     7.9686     8.1156     8.1255    70.0391     0.0292     0.1340     2.4534
  328.5000   -25.7829     7.9149     8.1134     8.1540    70.7964     0.0335     0.1349     2.4564
  329.0000   -25.7869     7.9160     8.0553     8.1821    71.5537     0.0349     0.1322     2.4578
  329.5000   -25.6411     7.8624     7.9975     8.1959    72.4637     0.0362     0.1322     2.4630
  330.0000   -25.6465     7.8637     7.9949     8.2239    74.2898     0.0390     0.1286     2.4682
  330.5000   -25.6509     7.8105     7.9376     8.2221    75.0471     0.0403     0.1247     2.4696
  331.0000   -25.6552     7.8115     7.8807     8.2203    73.0563     0.0401     0.1248     2.4711
  331.5000   -25.6595     7.8125     7.8786     8.2185    71.5236     0.0399     0.1268     2.4687
  332.0000   -25.6639     7.7061     7.7682     8.2323    70.7542     0.0428     0.1313     2.4717
  332.5000   -25.5180     7.5444     7.6029     8.2301    70.5955     0.0442     0.1313     2.4594
  333.0000   -25.5225     7.1927     7.3451     8.2283    70.4368     0.0454     0.1265     2.4654
  333.5000   -25.5278     6.9488     7.0933     8.2113    70.4307     0.0435     0.1301     2.4645
  334.0000   -25.3809     6.7599     6.8976     8.1792    70.5774     0.0387     0.1390     2.4560
  334.5000   -25.3863     6.6218     6.8010     8.1623    70.5713     0.0372     0.1448     2.4400
  335.0000   -25.2405     6.5769     6.7522     8.1453    70.8706     0.0400     0.1482     2.4307
  335.5000   -25.2449     6.5324     6.7504     8.1284    71.1699     0.0489     0.1497     2.4276
  336.0000   -25.2493     6.5787     6.7951     8.1265    71.4692     0.0533     0.1486     2.4275
  336.5000   -25.1034     6.6255     6.8885     8.1096    71.7677     0.0485     0.1425     2.4496
  337.0000   -25.1088     6.7655     7.0796     8.1078    70.2350     0.0453     0.1344     2.4623
  337.5000   -24.9619     7.0535     7.2765     8.0908    66.8702     0.0436     0.1256     2.4706
  338.0000   -24.9673     7.4048     7.5309     8.1345    66.1008     0.0464     0.1305     2.4636
  338.5000   -24.8204     7.6667     7.7941     8.5418    70.7513     0.0478     0.1320     2.4605
  339.0000   -24.8259     7.8305     7.9556     8.6763    73.5689     0.0491     0.1324     2.4589
  339.5000   -24.8303     7.8844     7.8981     8.7200    74.0209     0.0550     0.1318     2.4611
  340.0000   -24.8356     7.9403     7.7336     8.7333    72.9462     0.0639     0.1294     2.4670
  340.5000   -24.6887     7.9414     7.5203     8.7315    73.5508     0.0652     0.1258     2.4730
  341.0000   -24.6942     7.9424     7.4664     8.7297    74.0028     0.0650     0.1289     2.4699
  341.5000   -24.6985     7.9987     7.4129     8.7279    71.8593     0.0664     0.1320     2.4606
  342.0000   -24.8530     7.9997     7.4055     8.7109    70.3266     0.0752     0.1296     2.4628
  342.5000   -24.8574     8.0008     7.3066     8.7066    70.6259     0.0841     0.1229     2.4787
  343.0000   -25.1630     7.9467     7.3047     8.6312    71.0779     0.0921     0.1199     2.4763
  343.5000   -25.3175     7.8387     7.2523     8.5687    70.4612     0.0822     0.1188     2.4694
  344.0000   -25.4720     7.7319     7.2003     8.5366    69.8444     0.0577     0.1325     2.4548
  344.5000   -25.7767     7.5739     7.1488     8.5197    69.2277     0.0348     0.1435     2.4327
  345.0000   -26.0813     7.3680     7.0453     8.5183    67.3896     0.0300     0.1471     2.4341
  345.5000   -26.6862     7.1676     6.8537     8.5192    66.0095     0.0283     0.1484     2.4325
  346.0000   -27.1572     6.9120     6.7110     8.5200    66.0035     0.0266     0.1493     2.4263
  346.5000   -27.5969     6.6439     6.5259     8.5208    69.2036     0.0234     0.1531     2.4132
  347.0000   -27.9015     6.3304     6.3021     8.5215    69.8082     0.0217     0.1642     2.3977
  347.5000   -28.2062     6.0316     6.0023     8.5223    70.1068     0.0215     0.1727     2.3862
  348.0000   -28.2105     5.6679     5.6350     8.5231    71.3221     0.0213     0.1806     2.3736
  348.5000   -28.2149     5.4005     5.0802     8.5239    74.0641     0.0210     0.1945     2.3468
  349.0000   -28.2192     5.0713     4.5148     8.5247    70.6994     0.0193     0.2115     2.3201
  349.5000   -28.2246     4.5749     3.8224     8.5255    67.7918     0.0191     0.2265     2.2828
  350.0000   -28.0777     4.2018     3.2716     8.5263    68.1214     0.0229     0.2356     2.2620
  350.5000   -27.8860     3.7294     2.9330     8.5270    68.9971     0.0340     0.2603     2.2423
  351.0000   -27.4925     3.3253     2.8943     8.5277    70.8186     0.0490     0.2700     2.2210
  351.5000   -27.0275     3.2561     2.9135     8.5564    72.6402     0.0610     0.2722     2.2133
