~VERSION INFORMATION
 VERS.                2.0:   CWLS LOG ASCII STANDARD - VERSION 2.0
 WRAP.                 NO:   ONE LINE PER DEPTH STEP
~WELL INFORMATION
#MNEM.UNIT      DATA TYPE    INFORMATION
#----------   ------------   ------------------------------
 STRT.F           92.0000:   START DEPTH
 STOP.F          810.0000:   STOP DEPTH
 STEP.F            0.5000:   STEP LENGTH
 NULL.          -999.2500:   NO VALUE
 COMP. U S NAVY/INTEX OIL CO:   COMPANY
 WELL. NPR #3 #86 S 34-34:   WELL
 FLD .        EAST TEAPOT:   FIELD
 LOC .      S34 T39N R78W:   LOCATION
 CNTY.            NATRONA:   COUNTY
 STAT.            WYOMING:   STATE
 CTRY. UNITED STATES OF AMERICA:   COUNTRY
 SRVC. Schlumberger Well Surveying Corp:   SERVICE COMPANY
 DATE.        22-JUL-1962:   LOGDATE
 API .       490250652900:   API NUMBER
~CURVE INFORMATION
#MNEM.UNIT       API CODE    CURVE DESCRIPTION
#----------   ------------   ------------------------------
 DEPT.F                  :   
 GR  .GAPI   30 310 01 00:   GAMMA RAY
 SPR .MV     05 010 01 00:   SPONTANEOUS POTENTIAL FROM RES.
 CILD.MMHO   05 110 46 00:   CONDUCTIVITY INDUCTION LOG DEEP
 ASN .OHMM   05 041 16 00:   AMPLIFIED SHORT NORMAL 16"
 ILD .OHMM   05 120 46 00:   INDUCTION LOG DEEP
 CALM.IN     15 280 01 00:   CALIPER FROM MICRO LOG
~PARAMETER INFORMATION
#MNEM.UNIT          VALUE    DESCRIPTION
#----------   ------------   ------------------------------
 PD  .                 GL:   PERMANENT DATUM
 EPD .F              5094:   ELEVATION PERMANENT DATUM
 LMF .                 KB:   LOG MEASURED FROM
 DAPD.F                 5:   FEET ABOVE PERMANENT DATUM
 DMF .                 KB:   DRILLING MEASURED FROM
 EKB .F              5099:   KELLING BUSHING
 EGL .F              5094:   GROUND LEVEL
 DATE.            7-22-62:   RUN DATE
 RUN .                  1:   RUN NUMBER
 DD  .F               810:   DEPTH DRILLER
 DL  .F               811:   DEPTH LOGGER
 BLI .F               810:   BOTTOM LOG INTERVAL
 TLI .F               100:   TOP LOG INTERVAL
 BS  .IN             6.75:   BIT SIZE
 BSD .F               810:   BIT SIZE AT DEPTH
 DFT .                GEL:   DRILLING FLUID TYPE
 DFD .               10.3:   DRILLING FLUID DENSITY
 DFV .                 43:   DRILLING FLUID VISCOSITY
 RMS .OHMM              4:   RESISTIVITY MUD SAMPLE
 MST .F                75:   MUD SAMPLE TEMPERATURE
 RMF .OHMM            2.9:   RESISTIVITY MUD FILTRATE SAMPLE
 MFST.F                75:   MUD FILTRATE SAMPLE TEMPERATURE
 RMC .OHMM            3.8:   RESISTIVITY MUD CAKE
 MCST.F                75:   MUD CAKE SAMPLE TEMPERATURE
 TCS .HRS               1:   TIME CURCULATED STOPPED
 LUN .               2503:   LOGGING UNIT NUMBER
 ENGI.           ELLERMAN:   RECORDING ENGINEER
 WITN.          JORGENSON:   WITNESSED BY
 CLNT.            A2DTECH:   CLIENT CODE
 ORIG.   1", 2", 5" PRINT:   ORIGIN OF DATA
 UWI .       490250652900:   UNIQUE WELL ID
 DICO. A2D Technologies, Inc.:   DIGITIZING COMPANY
~OTHER INFORMATION
~A   DEPT       GR        SPR       CILD        ASN        ILD       CALM   
   92.0000  -999.2500   -22.8778  -999.2500  -999.2500  -999.2500  -999.2500
   92.5000  -999.2500   -22.8778  -999.2500  -999.2500  -999.2500  -999.2500
   93.0000  -999.2500   -22.8778  -999.2500  -999.2500  -999.2500  -999.2500
   93.5000  -999.2500   -22.8778  -999.2500  -999.2500  -999.2500  -999.2500
   94.0000  -999.2500   -22.8778  -999.2500  -999.2500  -999.2500  -999.2500
   94.5000  -999.2500   -22.8778  -999.2500  -999.2500  -999.2500  -999.2500
   95.0000  -999.2500   -22.8757  -999.2500  -999.2500  -999.2500  -999.2500
   95.5000  -999.2500   -22.8795  -999.2500  -999.2500  -999.2500  -999.2500
   96.0000  -999.2500   -22.8973  -999.2500  -999.2500  -999.2500  -999.2500
   96.5000  -999.2500   -23.9730  -999.2500  -999.2500  -999.2500  -999.2500
   97.0000  -999.2500   -25.8007  -999.2500  -999.2500  -999.2500  -999.2500
   97.5000  -999.2500   -33.1582  -999.2500  -999.2500  -999.2500  -999.2500
   98.0000  -999.2500   -40.9670     2.5961     5.4517     5.2440  -999.2500
   98.5000  -999.2500   -41.4929     2.5961     5.4517     5.2440  -999.2500
   99.0000  -999.2500   -41.5772    56.5940     5.4517     5.2440  -999.2500
   99.5000  -999.2500   -41.6993    50.7906     5.4521     5.2536  -999.2500
  100.0000  -999.2500   -41.8306   147.0403     5.4511     5.2153  -999.2500
  100.5000  -999.2500   -41.8875   216.2149     5.3930     5.1578  -999.2500
  101.0000  -999.2500   -41.7476   221.9347     5.1890     5.1053  -999.2500
  101.5000  -999.2500   -41.6118   226.4200     4.9816     5.0562  -999.2500
  102.0000  -999.2500   -41.4755   231.0437     4.8472     5.0072  -999.2500
  102.5000  -999.2500   -41.3359   235.7571     4.7295     4.9581  -999.2500
  103.0000  -999.2500   -41.2527   240.4631     4.7238     4.9090  -999.2500
  103.5000  -999.2500   -41.1824   244.5483     4.7346     4.8606  -999.2500
  104.0000  -999.2500   -41.1083   244.5483     4.7528     4.8393  -999.2500
  104.5000  -999.2500   -41.2352   242.5735     4.7709     4.8719  -999.2500
  105.0000  -999.2500   -41.4144   240.5255     4.7889     4.9035  -999.2500
  105.5000  -999.2500   -41.5948   238.4776     4.8070     4.9353  -999.2500
  106.0000  -999.2500   -41.7752   236.4296     4.8253     4.9670  -999.2500
  106.5000  -999.2500   -41.9565   234.3817     4.8338     4.9987  -999.2500
  107.0000  -999.2500   -42.1244   232.3337     4.8406     5.0304  -999.2500
  107.5000  -999.2500   -42.0261   230.2852     4.8461     5.0622  -999.2500
  108.0000  -999.2500   -41.9175   228.2356     4.9325     5.0939  -999.2500
  108.5000  -999.2500   -41.8102   226.1909     5.0545     5.1256  -999.2500
  109.0000  -999.2500   -41.7031   224.7331     5.0634     5.1573  -999.2500
  109.5000  -999.2500   -41.5959   223.3911     5.0684     5.1890  -999.2500
  110.0000  -999.2500   -41.4880   222.0491     5.0735     5.2207  -999.2500
  110.5000  -999.2500   -41.3828   220.7072     5.0801     5.2525  -999.2500
  111.0000  -999.2500   -41.3729   219.3652     5.1253     5.2842  -999.2500
  111.5000  -999.2500   -41.6837   218.0233     5.1761     5.3159  -999.2500
  112.0000  -999.2500   -41.9826   216.6813     5.2280     5.3476  -999.2500
  112.5000  -999.2500   -42.1325   215.4725     5.2804     5.3793  -999.2500
  113.0000  -999.2500   -42.0906   211.3066     5.3333     5.4110  -999.2500
  113.5000  -999.2500   -42.0440   207.5167     5.3863     5.4433  -999.2500
  114.0000  -999.2500   -41.9970   203.7269     5.3683     5.4901  -999.2500
  114.5000  -999.2500   -41.9502   199.9370     5.3597     5.5435  -999.2500
  115.0000  -999.2500   -41.9035   196.1471     5.4559     5.5969  -999.2500
  115.5000  -999.2500   -41.8568   192.9048     5.5523     5.6503  -999.2500
  116.0000  -999.2500   -41.8101   190.7012     5.6484     5.7037  -999.2500
  116.5000  -999.2500   -41.7634   188.4976     5.7436     5.7571  -999.2500
  117.0000  -999.2500   -41.7166   186.2939     5.8131     5.8105  -999.2500
  117.5000  -999.2500   -41.6699   185.1575     5.8252     5.8640  -999.2500
  118.0000  -999.2500   -41.6231   184.8086     5.8086     5.9178  -999.2500
  118.5000  -999.2500   -41.5767   184.4597     5.7911     5.9704  -999.2500
  119.0000  -999.2500   -41.5279   185.4958     5.7733     5.9274  -999.2500
  119.5000  -999.2500   -41.6336   187.4351     5.7379     5.8724  -999.2500
  120.0000  -999.2500   -41.8308   195.3790     5.6743     5.8182  -999.2500
  120.5000  -999.2500   -42.0296   204.4464     5.5909     5.7557  -999.2500
  121.0000  -999.2500   -42.2270   215.1629     5.4757     5.5149  -999.2500
  121.5000  -999.2500   -42.2988   225.8832     5.3328     5.2707  -999.2500
  122.0000  -999.2500   -42.2028   236.6202     5.0684     5.0273  -999.2500
  122.5000  -999.2500   -42.1315   245.6686     4.8086     4.7846  -999.2500
  123.0000  -999.2500   -42.1349   249.7404     4.5492     4.5427  -999.2500
  123.5000  -999.2500   -42.0418   250.7788     4.4734     4.4065  -999.2500
  124.0000  -999.2500   -41.9386   247.2612     4.3881     4.5200  -999.2500
  124.5000  -999.2500   -41.9000   239.2999     4.5225     4.7352  -999.2500
  125.0000  -999.2500   -41.8715   226.7126     4.6831     5.0461  -999.2500
  125.5000  -999.2500   -41.8430   213.9716     5.1060     5.3605  -999.2500
  126.0000  -999.2500   -41.8144   201.2520     5.5158     5.6747  -999.2500
  126.5000  -999.2500   -41.7858   188.5418     5.9370     5.9891  -999.2500
  127.0000  -999.2500   -41.7572   174.9740     6.0705     6.3135  -999.2500
  127.5000  -999.2500   -41.7286   170.0310     6.1248     6.4243  -999.2500
  128.0000  -999.2500   -41.7001   164.8669     6.2084     6.4779  -999.2500
  128.5000  -999.2500   -41.6715   159.8365     6.3585     6.5295  -999.2500
  129.0000  -999.2500   -41.6429   156.2056     6.5041     6.5817  -999.2500
  129.5000  -999.2500   -41.6143   152.7951     6.4783     6.6337  -999.2500
  130.0000  -999.2500   -41.5856   150.6144     6.4740     6.6835  -999.2500
  130.5000  -999.2500   -41.5570   148.4530     6.6332     6.8814  -999.2500
  131.0000  -999.2500   -41.5290   146.7490     6.7757     7.1049  -999.2500
  131.5000  -999.2500   -41.5328   146.0517     6.8434     7.0823  -999.2500
  132.0000  -999.2500   -41.5884   145.2959     6.8967     7.0485  -999.2500
  132.5000  -999.2500   -41.6432   146.1319     6.8495     7.0176  -999.2500
  133.0000  -999.2500   -41.6983   149.1848     6.7610     6.9020  -999.2500
  133.5000  -999.2500   -41.7448   152.1288     6.6741     6.7713  -999.2500
  134.0000  -999.2500   -41.7865   158.2269     6.5058     6.6402  -999.2500
  134.5000  -999.2500   -41.8283   164.2908     6.3260     6.5093  -999.2500
  135.0000  -999.2500   -41.8699   170.5711     6.1459     6.3785  -999.2500
  135.5000  -999.2500   -41.9129   177.3164     5.9659     6.2477  -999.2500
  136.0000  -999.2500   -41.8818   184.5979     5.7860     6.1158  -999.2500
  136.5000  -999.2500   -41.8189   191.8795     5.6061     5.9893  -999.2500
  137.0000  -999.2500   -41.7549   199.1828     5.4262     5.7879  -999.2500
  137.5000  -999.2500   -41.6910   207.0783     5.2463     5.5297  -999.2500
  138.0000  -999.2500   -41.6271   219.8503     5.0664     5.2678  -999.2500
  138.5000  -999.2500   -41.5632   233.8678     4.8864     5.0087  -999.2500
  139.0000  -999.2500   -41.4993   247.9160     4.7060     4.7874  -999.2500
  139.5000  -999.2500   -41.4352   260.1246     4.5260     4.6661  -999.2500
  140.0000  -999.2500   -41.3700   260.1246     4.3682     4.5408  -999.2500
  140.5000  -999.2500   -41.3101   259.7858     4.4237     4.4214  -999.2500
  141.0000  -999.2500   -41.4830   258.8045     4.3348     4.5817  -999.2500
  141.5000  -999.2500   -41.6766   257.8232     4.3139     4.7624  -999.2500
  142.0000  -999.2500   -41.8252   254.3898     4.5095     4.9423  -999.2500
  142.5000  -999.2500   -41.9650   239.0377     4.6995     5.1218  -999.2500
  143.0000  -999.2500   -42.1044   223.7076     4.7875     5.3015  -999.2500
  143.5000  -999.2500   -42.0116   209.7784     4.8678     5.4820  -999.2500
