~VERSION INFORMATION
 VERS.                2.0:   CWLS LOG ASCII STANDARD - VERSION 2.0
 WRAP.                 NO:   ONE LINE PER DEPTH STEP
~WELL INFORMATION
#MNEM.UNIT      DATA TYPE    INFORMATION
#----------   ------------   ------------------------------
 STRT.F            0.0000:   START DEPTH
 STOP.F          700.0000:   STOP DEPTH
 STEP.F            0.5000:   STEP LENGTH
 NULL.          -999.2500:   NO VALUE
 COMP. FENIX & SCISSON INC:   COMPANY
 WELL. 37-11 SX 11 WP #11-11:   WELL
 FLD .             TEAPOT:   FIELD
 LOC .      S11 T38N R78W:   LOCATION
 CNTY.            NATRONA:   COUNTY
 STAT.            WYOMING:   STATE
 CTRY. UNITED STATES OF AMERICA:   COUNTRY
 SRVC.      Dresser Atlas:   SERVICE COMPANY
 DATE.        21-AUG-1980:   LOGDATE
 API .       490251084200:   API NUMBER
~CURVE INFORMATION
#MNEM.UNIT       API CODE    CURVE DESCRIPTION
#----------   ------------   ------------------------------
 DEPT.F                  :   
 SPR .MV     07 010 01 00:   SPONTANEOUS POTENTIAL
 RFOC.OHMM   07 220 04 00:   RESISTIVITY FOCUSED LOG
 RILD.OHMM   07 120 46 00:   INDUCTION LOG DEEP RESISTIVITY
 RILM.OHMM   07 120 44 00:   INDUCTION LOG MEDIUM RESISTIVITY
 GRD .GAPI   45 310 01 00:   GAMMA RAY FROM DENSITY LOG
 CALD.IN     45 280 60 00:   CALIPER
 RHOB.G/C3   45 350 01 00:   BULK DENSITY
 CORR.G/C3   45 356 01 00:   DENSITY CORRECTION
 CNC .DEC    42 890 03 00:   NEUTRON POROSITY SANDSTONE
 PORD.DEC    45 890 12 00:   POROSITY DENSITY SANDSTONE
~PARAMETER INFORMATION
#MNEM.UNIT          VALUE    DESCRIPTION
#----------   ------------   ------------------------------
 PD  .                 GL:   PERMANENT DATUM
 EPD .F              5194:   ELEVATION PERMANENT DATUM
 LMF .                 KB:   LOG MEASURED FROM
 DAPD.F                 5:   FEET ABOVE PERMANENT DATUM
 DMF .                 KB:   DRILLING MEASURED FROM
 EKB .F              5199:   KELLING BUSHING
 EDF .F              5198:   DRILLING FLOOR
 EGL .F              5194:   GROUND LEVEL
 DATE.            8-21-80:   RUN DATE
 RUN .                  1:   RUN NUMBER
 DD  .F               695:   DEPTH DRILLER
 DL  .F               700:   DEPTH LOGGER
 BLI .F               699:   BOTTOM LOG INTERVAL
 BS  .IN            7.875:   BIT SIZE
 BSD .F               695:   BIT SIZE AT DEPTH
 DFT .      DISPERSED KCL:   DRILLING FLUID TYPE
 DFD .               2.68:   DRILLING FLUID DENSITY
 DFV .                 50:   DRILLING FLUID VISCOSITY
 DFPH.                 14:   DRILLING FLUID PH
 DFL .                 18:   DRILLING FLUID LOSS
 MSS .           FLOWLINE:   MUD SAMPLE SOURCE
 RMS .OHMM           .256:   RESISTIVITY MUD SAMPLE
 MST .F                70:   MUD SAMPLE TEMPERATURE
 RMF .OHMM           .393:   RESISTIVITY MUD FILTRATE SAMPLE
 MFST.F                66:   MUD FILTRATE SAMPLE TEMPERATURE
 RMC .OHMM           .858:   RESISTIVITY MUD CAKE
 MCST.F                66:   MUD CAKE SAMPLE TEMPERATURE
 MFSS.               MEAS:   MUD FILTRATE SAMPLE SOURCE
 MCSS.               MEAS:   MUD CAKE SAMPLE SOURCE
 RMB .OHMM            .53:   RESISTIVITY MUD AT BHT
 BHT .F                99:   BOTTOM HOLE TEMPERATURE
 TCS .HRS               3:   TIME CURCULATED STOPPED
 MRT .F                99:   MAXIMUM RECORDED TEMPERATURE
 LUN .               9369:   LOGGING UNIT NUMBER
 LUL .       ROCK SPRINGS:   LOGGING UNIT LOCATION
 ENGI.            PAULSON:   RECORDING ENGINEER
 WITN.              SCOTT:   WITNESSED BY
 CLNT.            A2DTECH:   CLIENT CODE
 ORIG.       2", 5" PRINT:   ORIGIN OF DATA
 UWI .       490251084200:   UNIQUE WELL ID
 DICO. A2D Technologies, Inc.:   DIGITIZING COMPANY
~OTHER INFORMATION
~A    DEPT     SPR       RFOC       RILD       RILM        GRD       CALD       RHOB       CORR        CNC         PORD 
# ...
  636.5000   -35.4688    11.5809    10.2839    10.4304    79.7916     7.8649     2.5156     0.0745     0.2338     0.0913
  637.0000   -35.4665    11.4143    10.2008    10.3701    77.2877     7.8650     2.4935     0.0586     0.2254     0.0786
  637.5000   -35.4653    11.2496    10.1183    10.3102    77.5635     7.8626     2.4757     0.0616     0.2140     0.0716
  638.0000   -35.5322    11.0871    10.0365    10.2625    82.5472     7.8592     2.4960     0.0675     0.2125     0.0706
  638.5000   -36.1389    10.9445     9.9554    10.3735    86.8022     7.8559     2.5236     0.0734     0.2217     0.0756
  639.0000   -36.6832    11.3477     9.8850    10.4809    89.4455     7.8525     2.5460     0.0784     0.2289     0.0835
  639.5000   -36.4699    11.8131     9.9059    10.5895    90.1717     7.8491     2.5611     0.0803     0.2314     0.0939
  640.0000   -36.2219    12.4643     9.9268    10.6442    90.3232     7.8457     2.5634     0.0815     0.2368     0.0960
  640.5000   -35.9756    12.2669     9.9479    10.5281    91.6058     7.8481     2.5573     0.0699     0.2515     0.0970
  641.0000   -35.7297    11.8808     9.9753    10.4397    92.8573     7.8529     2.5447     0.0577     0.2519     0.0999
  641.5000   -35.4834    11.5073     9.9390    10.3521    90.8755     7.8577     2.5289     0.0585     0.2442     0.1022
  642.0000   -35.2658    11.2534     9.8672    10.2652    86.9645     7.8625     2.5184     0.0632     0.2411     0.1049
  642.5000   -35.3932    11.2534     9.7960    10.1790    83.1144     7.8631     2.5179     0.0679     0.2422     0.1121
  643.0000   -35.5401    11.2534     9.7253    10.0935    81.7080     7.8595     2.5137     0.0681     0.2433     0.1095
  643.5000   -35.6869    11.2534     9.6550    10.0087    82.6096     7.8559     2.5087     0.0653     0.2445     0.1053
  644.0000   -35.8305    11.1813     9.5853     9.9247    85.0883     7.8523     2.5011     0.0625     0.2434     0.1044
  644.5000   -35.6444    11.1018     9.5168     9.8702    88.1977     7.8487     2.4917     0.0599     0.2402     0.1086
  645.0000   -34.8362    11.0512     9.4552     9.8277    90.7186     7.8451     2.4952     0.0625     0.2425     0.1111
  645.5000   -34.0380    11.1072     9.3940     9.7854    91.1090     7.8378     2.5020     0.0654     0.2511     0.1133
  646.0000   -33.7221    11.1542     9.3333     9.7433    90.1105     7.8300     2.5048     0.0672     0.2542     0.1149
  646.5000   -34.0139    11.2016     9.2729     9.7013    89.7517     7.8245     2.4992     0.0621     0.2411     0.1129
  647.0000   -34.2990    11.2539     9.2128     9.6595    89.4993     7.8246     2.4940     0.0568     0.2293     0.1094
  647.5000   -34.8075    11.1256     9.1532     9.6180    88.9997     7.8244     2.4910     0.0547     0.2211     0.0987
  648.0000   -35.3171    10.9445     9.0940     9.5766    88.2369     7.8335     2.4872     0.0533     0.2267     0.0868
  648.5000   -35.7042    10.7669     9.0353     9.5353    87.6620     7.8460     2.4888     0.0519     0.2455     0.0778
  649.0000   -36.0437    10.6336     8.9768     9.4085    88.2667     7.8586     2.4936     0.0536     0.2527     0.0810
  649.5000   -36.3828    10.5986     8.9059     9.2473    89.2737     7.8576     2.5050     0.0563     0.2506     0.0858
  650.0000   -36.7209    10.5636     8.7239     9.0888    91.0125     7.8430     2.5248     0.0664     0.2445     0.0883
  650.5000   -37.0617    10.5459     8.5455     8.9331    93.4978     7.8278     2.5456     0.0844     0.2394     0.0854
  651.0000   -36.7024    10.3726     8.3708     8.7800    94.8307     7.8298     2.5484     0.0795     0.2438     0.0840
  651.5000   -36.1429    10.2157     8.2096     8.6864    93.9679     7.8366     2.5371     0.0681     0.2487     0.0855
  652.0000   -35.5748    10.0612     8.1338     8.5767    92.9691     7.8437     2.5306     0.0619     0.2533     0.0859
  652.5000   -35.0060     9.9090     8.1345     8.4685    94.4960     7.8448     2.5337     0.0589     0.2556     0.0865
  653.0000   -34.4568     9.7591     8.1325     8.3633    96.3455     7.8448     2.5383     0.0558     0.2510     0.0914
  653.5000   -34.2413     9.6117     8.1412     7.9836    97.8450     7.8448     2.5355     0.0570     0.2424     0.1020
  654.0000   -34.2468     9.7203     7.1887     7.4195    98.3162     7.8447     2.5354     0.0589     0.2330     0.1080
  654.5000   -34.2494     9.9050     6.3551     6.6112    98.6217     7.8428     2.5333     0.0646     0.2383     0.1101
  655.0000   -34.0685    10.0933     5.6181     5.8880    99.6715     7.8372     2.5193     0.0653     0.2436     0.1133
  655.5000   -33.7561    10.2709     4.9665     5.2462   100.3630     7.8317     2.5033     0.0646     0.2643     0.1375
  656.0000   -33.4484     8.4045     4.5766     4.9275   100.8529     7.8262     2.4971     0.0640     0.2857     0.1691
  656.5000   -33.3194     6.4261     5.0682     5.0536   102.0602     7.8246     2.4934     0.0585     0.2723     0.1763
  657.0000   -33.6219     4.5561     5.0417     5.1267   103.6294     7.8246     2.4799     0.0490     0.2576     0.1336
  657.5000   -33.9151     4.5616     5.0130     5.3474   104.3269     7.8247     2.4415     0.0417     0.2592     0.1077
  658.0000   -34.1979     5.6127     4.9751     5.7382   106.5141     7.8292     2.3805     0.0376     0.2524     0.0974
  658.5000   -34.7119     7.0474     5.3173     6.1577   111.5763     7.8340     2.3983     0.0364     0.2402     0.0871
  659.0000   -35.2425     8.8605     5.8711     6.6078   117.9544     7.8387     2.4467     0.0397     0.2330     0.0802
  659.5000   -35.7651     9.7089     6.4825     7.0908   122.5973     7.8437     2.4931     0.0412     0.2435     0.0803
  660.0000   -35.7522     9.6491     7.1577     7.6092   117.7876     7.8427     2.5147     0.0428     0.2523     0.0818
  660.5000   -34.9610     9.6026     7.9032     8.1654   108.9709     7.8398     2.5293     0.0499     0.2473     0.0755
  661.0000   -34.3988     9.5588     8.0937     8.5495   100.0745     7.8369     2.5444     0.0594     0.2413     0.0692
  661.5000   -34.0321     9.5230     8.1524     8.6243    95.0849     7.8340     2.5470     0.0628     0.2352     0.0657
  662.0000   -34.0236     9.6187     8.2114     8.6997    94.7148     7.8311     2.5434     0.0663     0.2314     0.0734
  662.5000   -34.0082     9.7005     8.2709     8.7758    97.9122     7.8282     2.5490     0.0725     0.2334     0.0879
  663.0000   -33.9916     9.7830     8.2858     8.8682    99.0640     7.8252     2.5608     0.0806     0.2431     0.0932
  663.5000   -33.9749     9.8657     8.5070     9.0611    99.1523     7.8258     2.5684     0.0881     0.2523     0.0913
  664.0000   -33.9582     9.9503     8.7498     9.2582    99.2236     7.8273     2.5548     0.0851     0.2616     0.0820
  664.5000   -33.9415    10.1687     8.9995     9.4596    99.3952     7.8289     2.5368     0.0708     0.2632     0.0694
  665.0000   -33.9248    10.4524     9.2564     9.6654    99.4483     7.8305     2.5261     0.0547     0.2593     0.0649
  665.5000   -33.9081    10.7432     9.5206     9.8756    98.4242     7.8321     2.5252     0.0541     0.2563     0.0663
  666.0000   -33.8914    10.9033     9.6612    10.0904    97.4390     7.8336     2.5409     0.0662     0.2522     0.0685
  666.5000   -33.8744    10.9943     9.7365    10.2565    96.4403     7.8352     2.5598     0.0786     0.2473     0.0707
  667.0000   -33.8567    11.1258     9.8124    10.2239    96.2972     7.8368     2.5721     0.0800     0.2427     0.0719
  667.5000   -33.8476    11.3123     9.8889    10.1850    98.3439     7.8384     2.5695     0.0801     0.2384     0.0728
  668.0000   -34.0241    11.4641     9.9660    10.1604   100.7415     7.8400     2.5660     0.0757     0.2321     0.0748
  668.5000   -34.2073    11.4641    10.0437    10.4292   102.4456     7.8415     2.5625     0.0702     0.2239     0.0953
  669.0000   -34.3897    11.4641    10.1220    10.6575   100.9380     7.8431     2.5601     0.0645     0.2193     0.1083
  669.5000   -34.5709    11.5019    10.2009    10.8909    99.4711     7.8447     2.5583     0.0581     0.2217     0.1137
