~VERSION INFORMATION
 VERS.                2.0:   CWLS LOG ASCII STANDARD - VERSION 2.0
 WRAP.                 NO:   ONE LINE PER DEPTH STEP
~WELL INFORMATION
#MNEM.UNIT      DATA TYPE    INFORMATION
#----------   ------------   ------------------------------
 STRT.F           85.5000:   START DEPTH
 STOP.F         1080.5000:   STOP DEPTH
 STEP.F            0.5000:   STEP LENGTH
 NULL.          -999.2500:   NO VALUE
 COMP.         U.S.  NAVY:   COMPANY
 WELL.  N.P.R. #3 #67-S-2:   WELL
 FLD .             TEAPOT:   FIELD
 LOC .       S2 T38N R78W:   LOCATION
 CNTY.            NATRONA:   COUNTY
 STAT.            WYOMING:   STATE
 CTRY. UNITED STATES OF AMERICA:   COUNTRY
 SRVC.       Schlumberger:   SERVICE COMPANY
 DATE.        20-JUL-1964:   LOGDATE
 API .       490250639700:   API NUMBER
~CURVE INFORMATION
#MNEM.UNIT       API CODE    CURVE DESCRIPTION
#----------   ------------   ------------------------------
 DEPT.F                  :   
 GR  .GAPI   30 310 01 00:   GAMMA RAY
 DT  .US/F   60 520 33 00:   INTERVAL TRANSIT TIME
 SPR .MV     06 010 01 00:   SPONTANEOUS POTENTIAL
 CILD.MMHO   06 110 46 00:   CONDUCTIVITY INDUCTION LOG DEEP
 ASN .OHMM   06 041 16 00:   AMPLIFIED SHORT NORMAL 16"
 ILD .OHMM   06 120 46 00:   INDUCTION LOG DEEP
~PARAMETER INFORMATION
#MNEM.UNIT          VALUE    DESCRIPTION
#----------   ------------   ------------------------------
 PD  .                 GL:   PERMANENT DATUM
 EPD .F              5207:   ELEVATION PERMANENT DATUM
 LMF .                 KB:   LOG MEASURED FROM
 DAPD.F                 5:   FEET ABOVE PERMANENT DATUM
 DMF .                 KB:   DRILLING MEASURED FROM
 EKB .F              5212:   KELLING BUSHING
 EGL .F              5207:   GROUND LEVEL
 DATE.          7-20-1964:   RUN DATE
 RUN .                  1:   RUN NUMBER
 DD  .F              1080:   DEPTH DRILLER
 DL  .F              1081:   DEPTH LOGGER
 BLI .F              1080:   BOTTOM LOG INTERVAL
 TLI .F                86:   TOP LOG INTERVAL
 CS  .IN            8.625:   CASING SIZE
 CBD .F                10:   CASING BOTTOM DRILLER
 BS  .IN             6.75:   BIT SIZE
 BSD .F              1080:   BIT SIZE AT DEPTH
 DFT .            GEL-OIL:   DRILLING FLUID TYPE
 DFD .                9.5:   DRILLING FLUID DENSITY
 DFV .                 43:   DRILLING FLUID VISCOSITY
 MSS .           FLOWLINE:   MUD SAMPLE SOURCE
 RMS .OHMM           1.85:   RESISTIVITY MUD SAMPLE
 MST .F                83:   MUD SAMPLE TEMPERATURE
 RMF .OHMM           1.29:   RESISTIVITY MUD FILTRATE SAMPLE
 MFST.F                83:   MUD FILTRATE SAMPLE TEMPERATURE
 RMC .OHMM           2.49:   RESISTIVITY MUD CAKE
 MCST.F                83:   MUD CAKE SAMPLE TEMPERATURE
 MFSS.                 FP:   MUD FILTRATE SAMPLE SOURCE
 MCSS.                 FP:   MUD CAKE SAMPLE SOURCE
 TCS .HRS               2:   TIME CURCULATED STOPPED
 LUN .               4507:   LOGGING UNIT NUMBER
 LUL .               CSPR:   LOGGING UNIT LOCATION
 ENGI.             DANNER:   RECORDING ENGINEER
 WITN.          JORGENSEN:   WITNESSED BY
 CLNT.            A2DTECH:   CLIENT CODE
 ORIG.           2" PRINT:   ORIGIN OF DATA
 UWI .       490250639700:   UNIQUE WELL ID
 DICO. A2D Technologies, Inc.:   DIGITIZING COMPANY
~OTHER INFORMATION
~A   DEPT       GR         DT        SPR       CILD        ASN        ILD   
# ...
  813.5000    63.3833   101.4101   -21.4660   174.6414     6.7347     5.8905
  814.0000    57.8442   101.4685   -21.5565   166.5936     6.9981     6.0779
  814.5000    52.6537   101.3732   -21.5564   161.0558     7.1623     6.2657
  815.0000    48.6604   101.0629   -21.5565   157.8685     7.2368     6.4533
  815.5000    44.6164   100.7543   -21.5564   156.8127     7.3130     6.6408
  816.0000    42.0414   100.7533   -21.5565   155.8068     7.3875     6.7048
  816.5000    48.1200   100.8024   -21.5563   154.8008     7.4205     6.6726
  817.0000    52.9483   100.4868   -21.5564   153.7948     7.4194     6.6412
  817.5000    55.6806   100.2542   -21.5561   152.7888     7.3764     6.6089
  818.0000    66.8503   100.4891   -21.5562   151.8924     7.3396     6.5778
  818.5000    63.4356   100.7246   -21.5560   154.5697     7.3516     6.5453
  819.0000    58.9228   100.9009   -21.5562   156.9841     7.3607     6.5143
  819.5000    55.8893   100.6895   -21.6120   159.3984     7.3718     6.4818
  820.0000    55.3861   100.5005   -21.6788   161.8127     7.3794     6.4509
  820.5000    51.3552   101.2697   -21.7447   163.8446     7.1958     6.4236
  821.0000    56.8143   101.8521   -21.8117   170.0598     7.0339     6.0603
  821.5000    50.7609   102.0405   -21.8775   175.3347     6.8743     5.7456
  822.0000    50.4314   102.6541   -21.9446   180.5657     6.7123     5.4318
  822.5000    56.4962   103.4740   -22.0102   184.7610     6.5526     5.1174
  823.0000    54.4122   104.2939   -22.0774   207.1429     6.4240     4.8034
  823.5000    50.6706   105.1137   -22.1517   225.8253     6.2015     4.4892
  824.0000    47.7679   107.6670   -22.0045   244.5077     6.0157     4.1749
  824.5000    49.3348   112.0779   -21.8330   250.2390     5.6427     3.9355
  825.0000    48.7304   113.9056   -21.6632   251.4940     5.1997     3.9353
  825.5000    47.7500   113.4868   -21.4917   249.7278     4.8716     3.9355
  826.0000    56.1339   112.9915   -21.3219   247.3805     4.8713     4.1205
  826.5000    54.2489   111.6768   -21.1504   244.5219     4.8715     4.3638
  827.0000    53.0816   109.8098   -20.9610   235.8665     5.0081     4.6066
  827.5000    55.4416   106.2988   -21.0023   222.6096     5.4841     4.8498
  828.0000    54.2059   103.2821   -21.1116   207.5498     5.9602     5.0927
  828.5000    68.3354   102.2868   -21.2196   188.7716     6.3591     5.3357
  829.0000    74.8192   101.9361   -21.3287   166.8327     6.5925     5.5788
  829.5000    66.0131   101.5462   -21.4369   162.8486     6.8627     5.8215
  830.0000    55.5965   101.0753   -21.5459   161.3166     6.9700     6.0648
  830.5000    51.9086   100.6019   -21.6542   159.4963     7.0974     6.3073
  831.0000    59.5413   100.1001   -21.7631   157.6760     7.2410     6.5508
  831.5000    57.6106    99.7189   -21.8715   155.8556     7.3055     6.8221
  832.0000    57.2278    99.3169   -21.9802   154.0353     7.3787     6.8626
  832.5000    57.3429    98.8989   -22.0887   152.2150     7.4603     6.9074
  833.0000    48.2969    99.2780   -22.1673   150.3946     7.6347     6.9534
  833.5000    43.9980    99.6728   -22.2035   148.5743     7.8300     6.9983
  834.0000    53.6624    99.9856   -22.2396   146.7539     8.0368     7.0442
  834.5000    49.4182    99.9019   -22.2758   144.9336     8.0579     7.0892
  835.0000    59.7738    99.8182   -22.3119   143.6255     8.0367     7.1351
  835.5000    62.2683    99.7344   -22.3482   142.9548     7.9464     7.1802
  836.0000    65.8700    99.6507   -22.3843   142.2842     7.8485     7.2258
  836.5000    62.4263    99.4658   -22.4207   141.6136     7.7993     7.2711
  837.0000    60.6159    99.1232   -22.4568   140.9429     8.0936     7.3166
  837.5000    53.5596    98.7806   -22.4931   140.2722     8.3967     7.3620
  838.0000    60.0160    98.4380   -22.5291   139.6016     8.6941     7.4073
  838.5000    66.9034    98.0991   -22.5654   138.9442     8.6389     7.4527
  839.0000    69.7898    98.1303   -22.6015   138.9442     8.5287     7.4980
  839.5000    63.9826    98.1608   -22.6378   139.2402     8.4203     7.5102
  840.0000    58.8885    98.1926   -22.6739   139.5276     8.3158     7.4932
  840.5000    56.9602    98.4537   -22.7102   139.8150     8.3901     7.4765
  841.0000    61.2232    98.8649   -22.7478   139.9402     8.4553     7.4594
  841.5000    64.2728    99.2760   -22.7226   139.0797     8.3791     7.4429
  842.0000    65.6034    99.6871   -22.6959   138.2749     8.2465     7.4259
  842.5000    57.6714   100.0000   -22.6696   136.9522     8.1133     7.3198
  843.0000    59.8144    99.7284   -22.6430   136.9522     7.9811     7.1519
  843.5000    63.7260    99.4054   -22.6166   140.5219     7.8476     6.9846
  844.0000    57.8890    99.1019   -22.5900   143.7410     7.7017     6.8169
  844.5000    65.0983    99.5593   -22.5636   152.1447     7.5457     6.6495
  845.0000    68.8610   100.1059   -22.4656   161.8526     7.3916     6.4819
  845.5000    70.7987   100.9528   -22.2888   167.3734     7.2602     6.0384
  846.0000    71.3839   102.1498   -22.1117   178.8702     6.7165     5.4487
  846.5000    75.6432   103.3462   -21.9348   190.3671     6.2455     4.8586
  847.0000    68.6776   104.5426   -21.7577   199.7012     5.7762     4.2690
  847.5000    60.0010   105.9660   -21.5809   271.8924     5.3055     3.6788
  848.0000    61.8645   107.9907   -21.4037   332.6534     4.8358     3.0893
  848.5000    50.6990   109.8363   -21.2270   387.8685     4.3652     2.4990
  849.0000    57.7812   114.5612   -21.0497   428.7849     3.8953     2.0439
  849.5000    59.2495   118.8943   -21.0508   442.5470     3.5366     2.0884
  850.0000    53.3690   123.2355   -21.2313   453.7564     3.3476     2.1252
  850.5000    45.3123   127.5836   -21.4128   467.6295     3.1583     2.1614
  851.0000    51.4058   127.7277   -21.5931   467.3606     3.1092     2.1981
  851.5000    53.2323   127.6199   -21.7747   455.9562     3.0450     2.2425
  852.0000    57.7461   128.5285   -21.9533   417.4417     3.1008     2.5690
  852.5000    57.9973   121.4364   -21.9155   378.9272     3.4565     2.9869
  853.0000    59.2039   116.6264   -21.8770   340.4126     3.8113     3.4040
  853.5000    64.3389   112.5749   -21.8396   301.8981     4.0928     3.8222
  854.0000    69.4456   111.6644   -21.8010   263.3836     4.2331     4.2390
  854.5000    66.9232   108.9152   -21.7635   224.8691     4.9196     4.6576
  855.0000    64.3453   106.2289   -21.7252   195.2855     5.8660     5.0165
  855.5000    66.1347   106.3890   -21.6876   180.7769     5.9206     5.2689
  856.0000    69.1584   106.6695   -21.6494   177.7440     5.9830     5.5191
  856.5000    72.0716   105.6569   -21.6117   173.8048     6.0469     5.7715
  857.0000    72.4032   105.8328   -21.5737   175.5777     6.1093     6.0245
  857.5000    60.8161   105.8899   -21.4887   178.9841     6.1733     5.7789
  858.0000    74.3829   105.0907   -21.3631   184.5169     6.2358     5.5019
  858.5000    72.5737   104.4855   -21.2372   192.2365     6.3048     5.2258
  859.0000    74.3981   104.4141   -21.1119   203.0279     6.3042     4.9491
  859.5000    76.8561   105.0822   -20.9858   213.8193     6.1540     4.6726
  860.0000    78.8132   106.7549   -20.8605   224.6107     5.8076     4.3965
  860.5000    72.8354   109.3075   -20.7342   235.4020     5.4485     4.1196
  861.0000    66.1249   109.7399   -20.6090   246.5139     5.2873     3.8356
  861.5000    61.8899   110.1504   -20.4827   250.4980     5.1134     3.8837
  862.0000    58.0089   111.4042   -20.3650   251.4841     4.9387     3.9349
  862.5000    60.4147   113.0130   -20.5051   252.4845     4.9609     3.9842
  863.0000    61.9975   111.1738   -20.6384   244.3146     5.1818     4.0351
  863.5000    56.7141   109.1091   -20.7705   234.0548     5.2895     4.3387
  864.0000    68.5378   109.4695   -20.9037   223.7941     5.2891     4.6413
  864.5000    80.0376   109.7920   -21.0360   213.5347     5.4544     4.9422
  865.0000    78.8763   108.3403   -21.1691   203.2745     5.7623     5.2445
