~VERSION INFORMATION
 VERS.                2.0:   CWLS LOG ASCII STANDARD - VERSION 2.0
 WRAP.                 NO:   ONE LINE PER DEPTH STEP
~WELL INFORMATION
#MNEM.UNIT      DATA TYPE    INFORMATION
#----------   ------------   ------------------------------
 STRT.F            0.0000:   START DEPTH
 STOP.F          962.0000:   STOP DEPTH
 STEP.F            0.5000:   STEP LENGTH
 NULL.          -999.2500:   NO VALUE
 COMP. FENIX & SCISSON INC:   COMPANY
 WELL.      NPR #3 #51-14:   WELL
 FLD .             TEAPOT:   FIELD
 LOC .      S14 T38N R78W:   LOCATION
 CNTY.            NATRONA:   COUNTY
 STAT.            WYOMING:   STATE
 CTRY. UNITED STATES OF AMERICA:   COUNTRY
 SRVC.              Welex:   SERVICE COMPANY
 DATE.        03-MAR-1977:   LOGDATE
 API .       490251029700:   API NUMBER
~CURVE INFORMATION
#MNEM.UNIT       API CODE    CURVE DESCRIPTION
#----------   ------------   ------------------------------
 DEPT.F                  :   
 SGRD.OHMM   07 220 05 00:   SHALLOW RESISTIVITY
 ILM .OHMM   07 120 44 00:   INDUCTION LOG MEDIUM
 ILD .OHMM   07 120 46 00:   INDUCTION LOG DEEP
 SPR .MV     07 010 01 00:   SPONTANEOUS POTENTIAL
 DPHI.DEC    45 890 12 00:   DENSITY POROSITY SANDSTONE
 RHOB.G/C3   45 350 01 00:   BULK DENSITY
 CORR.G/C3   45 356 01 00:   DENSITY CORRECTION
 CALD.IN     45 280 60 00:   CALIPER
 GRD .GAPI   45 310 01 00:   GAMMA RAY FROM DENSITY LOG
~PARAMETER INFORMATION
#MNEM.UNIT          VALUE    DESCRIPTION
#----------   ------------   ------------------------------
 PD  .                 GL:   PERMANENT DATUM
 EPD .F            5221.8:   ELEVATION PERMANENT DATUM
 LMF .                 GL:   LOG MEASURED FROM
 DMF .                 GL:   DRILLING MEASURED FROM
 EGL .F            5221.8:   GROUND LEVEL
 DATE.             3-3-77:   RUN DATE
 RUN .                  1:   RUN NUMBER
 DD  .F               967:   DEPTH DRILLER
 DL  .F               964:   DEPTH LOGGER
 BLI .F               962:   BOTTOM LOG INTERVAL
 TLI .F                42:   TOP LOG INTERVAL
 CS  .IN            8.625:   CASING SIZE
 CBD .F                42:   CASING BOTTOM DRILLER
 CBL .F                42:   CASING BOTTOM LOGGER
 BS  .IN            7.875:   BIT SIZE
 BSD .F               967:   BIT SIZE AT DEPTH
 DFT .           CHEM-GEL:   DRILLING FLUID TYPE
 DFD .                8.7:   DRILLING FLUID DENSITY
 DFV .                 33:   DRILLING FLUID VISCOSITY
 DFPH.                7.2:   DRILLING FLUID PH
 DFL .                 10:   DRILLING FLUID LOSS
 MSS .          FLOW LINE:   MUD SAMPLE SOURCE
 RMS .OHMM           .422:   RESISTIVITY MUD SAMPLE
 MST .F                56:   MUD SAMPLE TEMPERATURE
 RMF .OHMM           .372:   RESISTIVITY MUD FILTRATE SAMPLE
 MFST.F                56:   MUD FILTRATE SAMPLE TEMPERATURE
 RMC .OHMM           .484:   RESISTIVITY MUD CAKE
 MCST.F                56:   MUD CAKE SAMPLE TEMPERATURE
 MFSS.           MEASURED:   MUD FILTRATE SAMPLE SOURCE
 MCSS.           MEASURED:   MUD CAKE SAMPLE SOURCE
 RMB .OHMM           .284:   RESISTIVITY MUD AT BHT
 BHT .F                83:   BOTTOM HOLE TEMPERATURE
 TCS .HRS               2:   TIME CURCULATED STOPPED
 MRT .F                83:   MAXIMUM RECORDED TEMPERATURE
 LUN .               8611:   LOGGING UNIT NUMBER
 LUL .           GILLETTE:   LOGGING UNIT LOCATION
 ENGI.          D. LAWSON:   RECORDING ENGINEER
 WITN.         STUEBINGER:   WITNESSED BY
 CLNT.            A2DTECH:   CLIENT CODE
 ORIG.        2" 5" PRINT:   ORIGIN OF DATA
 UWI .       490251029700:   UNIQUE WELL ID
 DICO. A2D Technologies, Inc.:   DIGITIZING COMPANY
~OTHER INFORMATION
~A    DEPT    SGRD        ILM        ILD        SPR       DPHI       RHOB       CORR       CALD        GRD   
# ...
  401.5000     9.1515     7.5896     5.4763   -43.1275     0.0908     2.4984     0.0587     8.1606   114.5587
  402.0000     9.5918     7.8808     5.5281   -43.1275     0.0908     2.4999     0.0637     8.1582   115.6233
  402.5000     9.9728     8.0609     5.5805   -43.1275     0.0909     2.4998     0.0626     8.1697   115.2737
  403.0000    10.0445     8.0565     5.6333   -43.1275     0.0909     2.4996     0.0616     8.1813   115.4311
  403.5000     9.6997     7.8186     5.6866   -43.1275     0.0910     2.4994     0.0606     8.1928   117.2339
  404.0000     9.4299     7.5512     5.7405   -43.1275     0.0910     2.4993     0.0596     8.2044   118.4297
  404.5000     9.2477     7.4153     5.7949   -43.1275     0.0911     2.4992     0.0586     8.2161   119.1341
  405.0000     9.7715     7.6762     5.8497   -43.1275     0.0912     2.4990     0.0578     8.2178   119.8664
  405.5000     9.9186     7.8797     5.9051   -43.1275     0.0889     2.5029     0.0589     8.2189   121.4458
  406.0000    10.1368     8.0882     5.9611   -43.1275     0.0846     2.5103     0.0613     8.2200   123.1072
  406.5000    10.1028     8.3023     6.0175   -43.1275     0.0802     2.5177     0.0663     8.2211   124.2307
  407.0000    10.0424     8.5142     6.0745   -43.1275     0.0755     2.5254     0.0691     8.2223   120.1745
  407.5000     9.9836     8.3008     6.1320   -43.1275     0.0747     2.5270     0.0669     8.2234   117.5036
  408.0000     9.9527     8.0536     6.1739   -43.1275     0.0763     2.5250     0.0648     8.2245   114.8994
  408.5000    10.0392     7.8358     6.1277   -43.1275     0.0807     2.5182     0.0627     8.2257   113.1165
  409.0000    10.0983     8.0174     6.0918   -43.1275     0.0851     2.5115     0.0606     8.2268   114.4311
  409.5000    10.1371     8.2184     6.0561   -43.1275     0.0895     2.5048     0.0584     8.2279   115.9386
  410.0000     9.9778     8.4241     6.0207   -43.1275     0.0940     2.4980     0.0563     8.2291   117.4520
  410.5000     9.8612     8.5927     5.9854   -43.1277     0.0962     2.4911     0.0541     8.2302   118.9655
  411.0000     9.7460     8.2672     5.9503   -43.1275     0.0902     2.4997     0.0571     8.2313   120.4892
  411.5000     9.6202     7.9552     5.9154   -43.1148     0.0854     2.5116     0.0617     8.2324   122.0242
  412.0000     9.3722     7.6550     5.8808   -43.0615     0.0839     2.5066     0.0651     8.2336   121.2434
  412.5000     9.1305     7.2836     5.8463   -43.0105     0.0908     2.4992     0.0599     8.2347   119.8665
  413.0000     8.8327     7.4365     5.8117   -42.9594     0.0958     2.4916     0.0597     8.2358   117.1425
  413.5000     9.0632     7.6583     5.7895   -42.9083     0.0980     2.4936     0.0597     8.2366   114.3499
  414.0000     9.3885     7.8867     5.8302   -42.8572     0.0919     2.5041     0.0597     8.2366   116.1701
  414.5000     9.7254     8.1218     5.8608   -42.8061     0.0856     2.5148     0.0597     8.2366   119.4998
  415.0000     9.8617     8.3592     5.8915   -42.7550     0.0820     2.5137     0.0597     8.2366   120.9684
  415.5000     9.6996     8.0963     5.9226   -42.7039     0.0882     2.5039     0.0597     8.2366   119.7613
  416.0000     9.5862     7.8465     5.9511   -42.6528     0.0959     2.4935     0.0607     8.2366   117.7678
  416.5000     9.5060     7.6044     5.9152   -42.6017     0.0913     2.5009     0.0625     8.2366   115.7611
  417.0000     9.5234     7.3508     5.8816   -42.5506     0.0828     2.5125     0.0648     8.2366   115.2868
  417.5000     9.5370     7.5590     5.8482   -42.4995     0.0743     2.5242     0.0677     8.2366   117.6194
  418.0000     9.5506     7.7925     5.8149   -42.4484     0.0693     2.5357     0.0707     8.2366   120.0170
  418.5000     9.5644     8.1321     5.7818   -42.3973     0.0698     2.5353     0.0736     8.2366   119.4801
  419.0000     9.5774     8.0084     5.7367   -42.3457     0.0738     2.5283     0.0724     8.2366   117.7865
  419.5000     9.5937     7.8056     5.7482   -42.3200     0.0778     2.5213     0.0711     8.2366   116.6459
  420.0000     9.4491     7.6080     5.7669   -42.3047     0.0819     2.5144     0.0698     8.2366   118.8338
  420.5000     9.2798     7.4154     5.7856   -42.2895     0.0860     2.5092     0.0684     8.2366   121.7902
  421.0000     9.1759     7.2977     5.8044   -42.2743     0.0889     2.5045     0.0671     8.2366   123.7028
  421.5000     9.3369     7.4681     5.8232   -42.2590     0.0919     2.4997     0.0658     8.2366   122.6394
  422.0000     9.4731     7.6132     5.8422   -42.2438     0.0933     2.4952     0.0644     8.2366   121.2512
  422.5000     9.6114     7.7622     5.8611   -42.2285     0.0915     2.4976     0.0631     8.2366   119.8555
  423.0000     9.7514     7.9104     5.8802   -42.2133     0.0898     2.5004     0.0618     8.2366   118.4625
  423.5000     9.8941     7.7670     5.8993   -42.1980     0.0881     2.5031     0.0604     8.2345   118.6352
  424.0000    10.0377     7.6237     5.9186   -42.1828     0.0863     2.5059     0.0591     8.2291   120.5426
  424.5000    10.2306     7.4841     5.9373   -42.1675     0.0864     2.5082     0.0578     8.2237   122.4258
  425.0000     9.8493     7.3472     5.9507   -42.1523     0.0896     2.5017     0.0565     8.2183   124.2335
  425.5000     9.3170     7.2127     5.8267   -42.1370     0.0929     2.4941     0.0562     8.2129   126.0524
  426.0000     9.0604     7.1511     5.7322   -42.1218     0.0936     2.4972     0.0574     8.2075   127.7513
  426.5000     9.0250     7.1511     5.6393   -42.1065     0.0908     2.5014     0.0587     8.2022   126.8509
  427.0000     8.9480     7.1511     5.5478   -42.0913     0.0901     2.4996     0.0596     8.1971   125.8396
  427.5000     8.6993     7.0974     5.4578   -42.0760     0.0924     2.4943     0.0588     8.1914   124.8456
  428.0000     8.5149     7.0310     5.3693   -42.0608     0.0947     2.4899     0.0580     8.1848   123.4741
  428.5000     8.6390     6.9652     5.2822   -42.0455     0.0966     2.4900     0.0573     8.1782   121.8862
  429.0000     8.7411     6.8931     5.1965   -42.0303     0.0980     2.4901     0.0565     8.1715   120.2787
  429.5000     8.8445     7.0510     5.1381   -42.0150     0.0994     2.4838     0.0558     8.1649   119.7076
  430.0000     8.9142     7.2318     5.1483   -41.9998     0.1009     2.4761     0.0550     8.1582   120.6604
  430.5000     8.8947     7.3508     5.1561   -41.9845     0.1023     2.4764     0.0543     8.1516   123.0232
  431.0000     8.8795     7.0372     5.1639   -41.9693     0.1032     2.4782     0.0535     8.1449   124.7805
  431.5000     8.8647     6.8144     5.1718   -41.9543     0.1030     2.4800     0.0528     8.1382   124.1419
  432.0000     8.8496     6.5246     5.1799   -41.9380     0.1029     2.4766     0.0520     8.1393   124.5049
  432.5000     8.8348     6.6613     5.2128   -41.8823     0.1023     2.4778     0.0513     8.1419   123.7706
  433.0000     8.4814     6.8874     5.3271   -41.7466     0.1002     2.4821     0.0505     8.1446   121.2016
  433.5000     8.2168     7.1187     5.4425   -41.6123     0.0980     2.4866     0.0497     8.1472   119.2662
  434.0000     8.3336     7.3577     5.5606   -41.4778     0.0945     2.4943     0.0529     8.1498   117.6184
  434.5000     8.6117     7.6046     5.6812   -41.3433     0.0863     2.5066     0.0569     8.1525   114.8218
  435.0000     9.0556     7.8598     5.8045   -41.2086     0.0781     2.5190     0.0608     8.1552   112.0477
  435.5000     9.6822     8.1236     5.9304   -41.0724     0.0687     2.5313     0.0648     8.1563   109.9218
  436.0000    11.0242     8.3963     6.0591   -40.9443     0.0755     2.5324     0.0687     8.1354   111.5549
  436.5000    11.8498     8.6792     6.1905   -41.0999     0.0861     2.5148     0.0714     8.1142   115.2446
  437.0000    11.4621     8.8338     6.2884   -41.2719     0.0920     2.5029     0.0696     8.0933   116.9055
  437.5000    10.1313     8.8391     6.2884   -41.4426     0.0844     2.5110     0.0679     8.0778   116.0010
