~VERSION INFORMATION
 VERS.                2.0:   CWLS LOG ASCII STANDARD - VERSION 2.0
 WRAP.                 NO:   ONE LINE PER DEPTH STEP
~WELL INFORMATION
#MNEM.UNIT      DATA TYPE    INFORMATION
#----------   ------------   ------------------------------
 STRT.F         1000.5000:   START DEPTH
 STOP.F         2590.0000:   STOP DEPTH
 STEP.F            0.5000:   STEP LENGTH
 NULL.          -999.2500:   NO VALUE
 COMP. LAWRENCE/ALLISON INC:   COMPANY
 WELL.    LAWENCE #14x-10:   WELL
 FLD .               NONE:   FIELD
 LOC .      S10 T38N R78W:   LOCATION
 CNTY.            NATRONA:   COUNTY
 STAT.            WYOMING:   STATE
 CTRY. UNITED STATES OF AMERICA:   COUNTRY
 SRVC.            Unknown:   SERVICE COMPANY
 DATE.        13-SEP-1988:   LOGDATE
 API .       490251137000:   API NUMBER
~CURVE INFORMATION
#MNEM.UNIT       API CODE    CURVE DESCRIPTION
#----------   ------------   ------------------------------
 DEPT.F                  :   
 ROP .MIN/FT 91 810 01 00:   RATE OF DRILLING PENETRATION
 TGAS.UNITS  91 830 01 00:   TOTAL GAS FROM HOTWIRE
~PARAMETER INFORMATION
#MNEM.UNIT          VALUE    DESCRIPTION
#----------   ------------   ------------------------------
 EKB .F              5278:   KELLING BUSHING
 EGL .F              5268:   GROUND LEVEL
 DATE.         09-13-1988:   RUN DATE
 RUN .                  1:   RUN NUMBER
 DD  .F              2590:   DEPTH DRILLER
 BLI .F              2590:   BOTTOM LOG INTERVAL
 TLI .F              1000:   TOP LOG INTERVAL
 CS  .IN                7:   CASING SIZE
 CBD .F               991:   CASING BOTTOM DRILLER
 BSD .F              2590:   BIT SIZE AT DEPTH
 ENGI. R. HUSK D. PETERSON:   RECORDING ENGINEER
 CLNT.            A2DTECH:   CLIENT CODE
 ORIG.           5" PRINT:   ORIGIN OF DATA
 UWI .       490251137000:   UNIQUE WELL ID
 DICO. A2D Technologies, Inc.:   DIGITIZING COMPANY
~OTHER INFORMATION
~A  DEPT       ROP         TGAS 
 1000.5000  -999.2500     0.5118
 1001.0000  -999.2500     0.5987
 1001.5000  -999.2500     0.6856
 1002.0000  -999.2500     0.7726
 1002.5000     0.6025     0.8595
 1003.0000     0.5950     0.9464
 1003.5000     0.5839     1.0334
 1004.0000     0.5727     1.1203
 1004.5000     0.5616     1.2072
 1005.0000     0.5337     1.2942
 1005.5000     0.5161     1.3811
 1006.0000     0.5159     1.4680
 1006.5000     0.5156     1.5550
 1007.0000     0.5153     1.6419
 1007.5000     0.5257     1.7288
 1008.0000     0.5572     1.8158
 1008.5000     0.5569     1.9027
 1009.0000     0.5564     1.9896
 1009.5000     0.5452     2.0765
 1010.0000     0.5341     2.1635
 1010.5000     0.5229     2.2504
 1011.0000     0.5118     2.3373
 1011.5000     0.5006     2.4243
 1012.0000     0.4916     2.5112
 1012.5000     0.5149     2.5981
 1013.0000     0.5310     3.5198
 1013.5000     0.5696     3.5117
 1014.0000     0.6036     3.5047
 1014.5000     0.5815     3.4977
 1015.0000     0.5376     3.4907
 1015.5000     0.5066     3.4836
 1016.0000     0.5046     3.4766
 1016.5000     0.5103     3.4696
 1017.0000     0.5257     3.4626
 1017.5000     0.5526     3.4555
 1018.0000     0.5916     3.4485
 1018.5000     0.6091     3.4415
 1019.0000     0.5721     3.4345
 1019.5000     0.5039     3.4274
 1020.0000     0.4626     3.4204
 1020.5000     0.4626     3.4292
 1021.0000     0.4733     3.4380
 1021.5000     0.4999     3.4468
 1022.0000     0.5323     3.4556
 1022.5000     0.5601     3.4643
 1023.0000     0.6022     3.4731
 1023.5000     0.6337     3.4819
 1024.0000     0.6546     3.4907
 1024.5000     0.6332     3.4995
 1025.0000     0.6012     3.5083
 1025.5000     0.5691     3.4999
 1026.0000     0.5470     3.4765
 1026.5000     0.5030     3.4531
 1027.0000     0.4592     3.4297
 1027.5000     0.4187     3.4063
 1028.0000     0.4075     3.3829
 1028.5000     0.3981     3.3596
 1029.0000     0.4084     3.3362
 1029.5000     0.3869     3.3128
 1030.0000     0.3866     3.2894
 1030.5000     0.3864     3.2660
 1031.0000     0.3861     3.2426
 1031.5000     0.3858     3.2192
 1032.0000     0.3895     3.1958
 1032.5000     0.4043     3.1725
 1033.0000     0.4169     3.1491
 1033.5000     0.4166     3.1257
 1034.0000     0.4214     3.1023
 1034.5000     0.4429     3.0789
 1035.0000     0.4639     3.0555
 1035.5000     0.4987     3.0321
 1036.0000     0.5403     3.0088
 1036.5000     0.5394     2.9854
 1037.0000     0.5103     2.9620
 1037.5000     0.4773     2.9386
 1038.0000     0.4596     2.9224
 1038.5000     0.4555     2.9329
 1039.0000     0.4631     2.9435
 1039.5000     0.4739     2.9541
 1040.0000     0.4926     2.9647
 1040.5000     0.5060     2.9753
 1041.0000     0.5251     2.9859
 1041.5000     0.5085     2.9965
 1042.0000     0.4661     3.0071
 1042.5000     0.4449     3.0176
 1043.0000     0.4237     3.0282
 1043.5000     0.4237     3.0388
 1044.0000     0.4025     3.0494
 1044.5000     0.4025     3.0600
 1045.0000     0.4025     3.0706
 1045.5000     0.4131     3.0812
 1046.0000     0.4131     3.0918
 1046.5000     0.4237     3.1024
 1047.0000     0.4237     3.1129
 1047.5000     0.4237     3.1235
 1048.0000     0.4237     3.1341
 1048.5000     0.4237     3.1447
 1049.0000     0.4237     3.1553
 1049.5000     0.4237     3.1659
 1050.0000     0.4237     3.1765
 1050.5000     0.4237     3.1871
 1051.0000     0.4237     3.1976
 1051.5000     0.4251     3.2082
 1052.0000     0.4391     3.2370
 1052.5000     0.4679     3.2891
 1053.0000     0.4825     3.3412
 1053.5000     0.5106     3.3933
 1054.0000     0.5191     3.4454
 1054.5000     0.5191     3.4975
 1055.0000     0.5191     3.5496
 1055.5000     0.5163     3.6017
 1056.0000     0.5085     3.6538
 1056.5000     0.5042     3.7059
 1057.0000     0.4898     3.7580
 1057.5000     0.4753     3.8101
 1058.0000     0.4608     3.8622
 1058.5000     0.4464     3.9143
 1059.0000     0.4319     3.9664
 1059.5000     0.4189     4.0185
 1060.0000     0.4078     4.0706
 1060.5000     0.3967     4.1227
 1061.0000     0.3919     4.1748
 1061.5000     0.3919     4.2269
 1062.0000     0.3919     4.2773
 1062.5000     0.3919     4.2022
 1063.0000     0.3919     4.1295
 1063.5000     0.3919     4.0568
 1064.0000     0.4131     3.9841
 1064.5000     0.4237     3.9114
 1065.0000     0.4343     3.8387
 1065.5000     0.4662     3.7659
 1066.0000     0.4990     3.6932
 1066.5000     0.5232     3.6205
 1067.0000     0.5659     3.5478
 1067.5000     0.5932     3.4751
 1068.0000     0.5858     3.3882
 1068.5000     0.5555     3.3882
 1069.0000     0.5300     3.3882
 1069.5000     0.5085     3.3882
 1070.0000     0.4953     3.3882
 1070.5000     0.4718     3.3882
 1071.0000     0.4661     3.3882
 1071.5000     0.4602     3.3882
 1072.0000     0.4555     3.3882
 1072.5000     0.4623     3.3882
 1073.0000     0.4719     3.3882
 1073.5000     0.4805     3.3882
 1074.0000     0.4892     3.3882
 1074.5000     0.4979     3.3882
 1075.0000     0.5066     3.3882
 1075.5000     0.5153     3.3882
 1076.0000     0.5240     3.3882
 1076.5000     0.5424     3.3882
 1077.0000     0.5636     3.3882
 1077.5000     0.5826     3.3882
 1078.0000     0.6034     3.3882
 1078.5000     0.6229     3.4869
 1079.0000     0.6434     3.5982
 1079.5000     0.6631     3.7095
 1080.0000     0.6780     3.8135
 1080.5000     0.6605     3.8350
 1081.0000     0.6381     3.8565
 1081.5000     0.6149     3.8779
 1082.0000     0.5815     3.8994
 1082.5000     0.5482     3.9209
 1083.0000     0.5148     3.9424
 1083.5000     0.4873     3.9638
 1084.0000     0.4707     3.9853
 1084.5000     0.4587     4.0068
 1085.0000     0.4528     4.0283
 1085.5000     0.4515     4.0497
 1086.0000     0.4502     4.0712
 1086.5000     0.4489     4.0927
 1087.0000     0.4476     4.1142
 1087.5000     0.4462     4.1356
 1088.0000     0.4449     4.1571
 1088.5000     0.4436     4.1786
 1089.0000     0.4491     4.2001
 1089.5000     0.4515     4.2215
 1090.0000     0.4714     4.2430
 1090.5000     0.4807     4.2645
 1091.0000     0.4866     4.2859
 1091.5000     0.4886     4.3074
 1092.0000     0.4873     4.3289
 1092.5000     0.4785     4.3504
 1093.0000     0.4589     4.3718
 1093.5000     0.4327     4.3933
 1094.0000     0.4051     4.4148
 1094.5000     0.3775     4.4363
 1095.0000     0.3500     4.4577
 1095.5000     0.3224     4.4792
 1096.0000     0.2966     4.5007
 1096.5000     0.2966     4.5222
 1097.0000     0.2966     4.5436
 1097.5000     0.2987     4.5651
 1098.0000     0.3072     4.5866
 1098.5000     0.3072     4.6081
 1099.0000     0.3107     4.6295
 1099.5000     0.3178     4.6510
 1100.0000     0.3222     4.6725
 1100.5000     0.3284     4.6647
 1101.0000     0.3337     4.6429
 1101.5000     0.3390     4.6210
 1102.0000     0.3515     4.5991
 1102.5000     0.3669     4.5773
 1103.0000     0.3708     4.5554
 1103.5000     0.3708     4.5335
 1104.0000     0.3708     4.5117
 1104.5000     0.3708     4.4898
 1105.0000     0.3708     4.4679
 1105.5000     0.3708     4.4461
 1106.0000     0.3390     4.4242
 1106.5000     0.3390     4.4023
 1107.0000     0.3284     4.3805
 1107.5000     0.3405     4.3586
 1108.0000     0.3614     4.3367
 1108.5000     0.3776     4.3149
 1109.0000     0.4153     4.2930
 1109.5000     0.4316     4.2711
 1110.0000     0.4617     4.2493
 1110.5000     0.4838     4.2274
 1111.0000     0.4979     4.2055
 1111.5000     0.4979     4.1837
 1112.0000     0.5028     4.1618
 1112.5000     0.5085     4.1399
 1113.0000     0.5026     4.1181
 1113.5000     0.4979     4.0962
 1114.0000     0.4707     4.0743
 1114.5000     0.4264     4.0525
 1115.0000     0.3823     4.0306
 1115.5000     0.3708     4.0087
 1116.0000     0.3814     3.9869
 1116.5000     0.4237     3.9650
 1117.0000     0.4369     3.9431
 1117.5000     0.4522     3.9213
 1118.0000     0.4674     3.8994
 1118.5000     0.4827     3.8775
 1119.0000     0.4980     3.8557
 1119.5000     0.5132     3.8338
 1120.0000     0.5285     3.8119
 1120.5000     0.5291     3.7907
 1121.0000     0.5296     3.7697
 1121.5000     0.5301     3.7487
