~VERSION INFORMATION
 VERS.                2.0:   CWLS LOG ASCII STANDARD - VERSION 2.0
 WRAP.                 NO:   ONE LINE PER DEPTH STEP
~WELL INFORMATION
#MNEM.UNIT      DATA TYPE    INFORMATION
#----------   ------------   ------------------------------
 STRT.F           66.0000:   START DEPTH
 STOP.F         1030.5000:   STOP DEPTH
 STEP.F            0.5000:   STEP LENGTH
 NULL.          -999.2500:   NO VALUE
 COMP. U S NAVY/INTEX OIL CO:   COMPANY
 WELL.      NRP-3 #68S-11:   WELL
 FLD .             TEAPOT:   FIELD
 LOC .      S11 T38N R78W:   LOCATION
 CNTY.            NATRONA:   COUNTY
 STAT.            WYOMING:   STATE
 CTRY. UNITED STATES OF AMERICA:   COUNTRY
 SRVC.       Schlumberger:   SERVICE COMPANY
 DATE.        07-JUL-1962:   LOGDATE
 API .       490250632700:   API NUMBER
~CURVE INFORMATION
#MNEM.UNIT       API CODE    CURVE DESCRIPTION
#----------   ------------   ------------------------------
 DEPT.F                  :   
 SPR .MV     05 010 01 00:   SPONTANEOUS POTENTIAL FROM RES.
 ASN .OHMM   05 041 16 00:   AMPLIFIED SHORT NORMAL 16"
 ILD .OHMM   05 120 46 00:   INDUCTION LOG DEEP
 CILD.MMHO   05 110 46 00:   CONDUCTIVITY INDUCTION LOG DEEP
 GRN .GAPI   35 310 30 00:   GAMMA RAY
 GR  .GAPI   81 310 01 00:   GAMMA RAY
~PARAMETER INFORMATION
#MNEM.UNIT          VALUE    DESCRIPTION
#----------   ------------   ------------------------------
 LMF .                 KB:   LOG MEASURED FROM
 DMF .                 KB:   DRILLING MEASURED FROM
 EKB .F              5226:   KELLING BUSHING
 EGL .F              5221:   GROUND LEVEL
 DATE.           7-7-1962:   RUN DATE
 RUN .                  1:   RUN NUMBER
 DD  .F              1030:   DEPTH DRILLER
 DL  .F              1031:   DEPTH LOGGER
 BLI .F              1030:   BOTTOM LOG INTERVAL
 TLI .F                90:   TOP LOG INTERVAL
 CBD .F                10:   CASING BOTTOM DRILLER
 BS  .IN             6.75:   BIT SIZE
 BSD .F              1030:   BIT SIZE AT DEPTH
 DFT .            GEL-OIL:   DRILLING FLUID TYPE
 DFD .               10.2:   DRILLING FLUID DENSITY
 DFV .                 50:   DRILLING FLUID VISCOSITY
 DFL .                3.6:   DRILLING FLUID LOSS
 RMS .OHMM           5.06:   RESISTIVITY MUD SAMPLE
 MST .F                71:   MUD SAMPLE TEMPERATURE
 RMF .OHMM           4.89:   RESISTIVITY MUD FILTRATE SAMPLE
 MFST.F                71:   MUD FILTRATE SAMPLE TEMPERATURE
 RMC .OHMM           4.85:   RESISTIVITY MUD CAKE
 MCST.F                71:   MUD CAKE SAMPLE TEMPERATURE
 MFSS.                  M:   MUD FILTRATE SAMPLE SOURCE
 MCSS.                  M:   MUD CAKE SAMPLE SOURCE
 RMB .OHMM           4.54:   RESISTIVITY MUD AT BHT
 BHT .F                82:   BOTTOM HOLE TEMPERATURE
 TCS .HRS               1:   TIME CURCULATED STOPPED
 MRT .F                82:   MAXIMUM RECORDED TEMPERATURE
 LUN .               2503:   LOGGING UNIT NUMBER
 LUL .              CSPR.:   LOGGING UNIT LOCATION
 ENGI.             KNOBEL:   RECORDING ENGINEER
 WITN.          JORGENSEN:   WITNESSED BY
 CLNT.            A2DTECH:   CLIENT CODE
 ORIG.      2" & 5" PRINT:   ORIGIN OF DATA
 UWI .       490250632700:   UNIQUE WELL ID
 DICO. A2D Technologies, Inc.:   DIGITIZING COMPANY
~OTHER INFORMATION
~A   DEPT      SPR        ASN        ILD       CILD        GRN          GR  
# ...
 1002.0000   -34.5668    11.1228    10.6564   100.7074  -999.2500  -999.2500
 1002.5000   -34.4956    11.1228    10.6503   100.5362  -999.2500  -999.2500
 1003.0000   -34.8009    11.1228    10.6441   100.3650  -999.2500  -999.2500
 1003.5000   -35.0906    11.1228    10.6380   100.1937  -999.2500  -999.2500
 1004.0000   -35.3786    11.1228    10.6317   100.0225  -999.2500  -999.2500
 1004.5000   -35.6653    11.1228    10.6250    99.8513  -999.2500  -999.2500
 1005.0000   -35.6297    11.1228    10.6506    99.6801  -999.2500  -999.2500
 1005.5000   -35.2762    11.1228    10.6797    99.5088  -999.2500  -999.2500
 1006.0000   -35.0434    11.1228    10.7089    99.3376  -999.2500  -999.2500
 1006.5000   -35.1636    11.1228    10.7211    99.1664  -999.2500  -999.2500
 1007.0000   -35.2741    11.1228    10.7135    98.9952  -999.2500  -999.2500
 1007.5000   -35.3831    11.1228    10.7060    98.8240  -999.2500  -999.2500
 1008.0000   -35.6726    11.1228    10.6985    98.6527  -999.2500  -999.2500
 1008.5000   -36.0384    11.1228    10.6909    98.4815  -999.2500  -999.2500
 1009.0000   -36.6668    11.1228    10.6834    98.3103  -999.2500  -999.2500
 1009.5000   -37.5945    11.1228    10.6759    98.6332  -999.2500  -999.2500
 1010.0000   -38.5615    11.1230    10.6684    99.0402  -999.2500  -999.2500
 1010.5000   -38.4343    11.1344    10.6608    99.4472  -999.2500  -999.2500
 1011.0000   -37.9175    11.1608    10.6533    99.8542  -999.2500  -999.2500
 1011.5000   -38.3603    11.1868    10.6458   100.2613  -999.2500  -999.2500
 1012.0000   -39.1610    11.2127    10.6386   100.6683  -999.2500  -999.2500
 1012.5000   -38.5486    11.1953    10.6306   101.0752  -999.2500  -999.2500
 1013.0000   -37.8276    11.1330    10.5992   101.4823  -999.2500  -999.2500
 1013.5000   -37.1182    11.0710    10.4718   101.8893  -999.2500  -999.2500
 1014.0000   -36.6222    11.0089    10.3474   102.2963  -999.2500  -999.2500
 1014.5000   -36.7329    10.9468    10.2233   102.7033  -999.2500  -999.2500
 1015.0000   -36.7607    10.8845    10.0998   103.1103  -999.2500  -999.2500
 1015.5000   -35.8677    10.8259    10.0270   103.1838  -999.2500  -999.2500
 1016.0000   -35.0082    10.8106    10.0278   103.0565  -999.2500  -999.2500
 1016.5000   -34.1327    10.7949    10.0276   102.9292  -999.2500  -999.2500
 1017.0000   -32.8316    10.7789    10.0276   102.8019  -999.2500  -999.2500
 1017.5000   -31.5593    10.7629    10.0276   102.6745  -999.2500  -999.2500
 1018.0000   -30.4229    10.7469    10.0276   102.5472  -999.2500  -999.2500
 1018.5000   -29.6503    10.7309    10.0276   102.4199  -999.2500  -999.2500
 1019.0000   -29.7937    10.7148    10.0276   102.2926  -999.2500  -999.2500
 1019.5000   -29.9244    10.6988    10.0276   102.8823  -999.2500  -999.2500
 1020.0000   -30.0541    10.6828    10.0277   103.6462  -999.2500  -999.2500
 1020.5000   -30.0160    10.6668    10.0277   104.4101  -999.2500  -999.2500
 1021.0000   -29.9656    10.6508    10.0277   105.1740  -999.2500  -999.2500
 1021.5000   -29.9163    10.6347    10.0237   105.9379  -999.2500  -999.2500
 1022.0000   -29.8702    10.6137    10.0008   106.4046  -999.2500  -999.2500
 1022.5000   -29.6479    10.5847     9.9782   106.6659  -999.2500  -999.2500
 1023.0000   -29.4111    10.5567     9.9557   106.9273  -999.2500  -999.2500
 1023.5000   -29.1732    10.5183     9.9339   107.1886  -999.2500  -999.2500
 1024.0000   -28.9359    10.2353     9.8683  -999.2500  -999.2500  -999.2500
 1024.5000   -28.6987     9.9752     9.7921  -999.2500  -999.2500  -999.2500
 1025.0000   -28.4614     9.9257     9.7156  -999.2500  -999.2500  -999.2500
 1025.5000   -28.2243     9.8703     9.6392  -999.2500  -999.2500  -999.2500
 1026.0000   -27.9868     9.7744     9.5628  -999.2500  -999.2500  -999.2500
 1026.5000   -27.7390     9.6717     9.4864  -999.2500  -999.2500  -999.2500
 1027.0000   -27.6800     9.5095     9.4100  -999.2500  -999.2500  -999.2500
 1027.5000   -27.6822     9.3415     9.3336  -999.2500  -999.2500  -999.2500
 1028.0000   -27.5306     9.1691     9.2572  -999.2500  -999.2500  -999.2500
 1028.5000   -27.3649     9.1434     9.1814  -999.2500  -999.2500  -999.2500
 1029.0000   -27.2833     9.1492     9.1194  -999.2500  -999.2500  -999.2500
 1029.5000   -27.2818     8.9858     9.0868  -999.2500  -999.2500  -999.2500
 1030.0000   -27.2816     8.8226     9.0540  -999.2500  -999.2500  -999.2500
 1030.5000   -27.2817     8.7632  -999.2500  -999.2500  -999.2500  -999.2500
