~VERSION INFORMATION
 VERS.                2.0:   CWLS LOG ASCII STANDARD - VERSION 2.0
 WRAP.                 NO:   ONE LINE PER DEPTH STEP
~WELL INFORMATION
#MNEM.UNIT      DATA TYPE    INFORMATION
#----------   ------------   ------------------------------
 STRT.F           36.0000:   START DEPTH
 STOP.F          442.0000:   STOP DEPTH
 STEP.F            0.5000:   STEP LENGTH
 NULL.          -999.2500:   NO VALUE
 COMP.    FENIX & SCISSON:   COMPANY
 WELL.      NPR #66-SX-10:   WELL
 FLD .             TEAPOT:   FIELD
 LOC .      S10 T38N R78W:   LOCATION
 CNTY.            NATRONA:   COUNTY
 STAT.            WYOMING:   STATE
 CTRY. UNITED STATES OF AMERICA:   COUNTRY
 SRVC.              Welex:   SERVICE COMPANY
 DATE.        19-APR-1977:   LOGDATE
 API .       490251036100:   API NUMBER
~CURVE INFORMATION
#MNEM.UNIT       API CODE    CURVE DESCRIPTION
#----------   ------------   ------------------------------
 DEPT.F                  :   
 CALD.IN     45 280 60 00:   CALIPER FROM DENSITY LOG
 DPHI.DEC    45 890 12 00:   DENSITY POROSITY SANDSTONE
 DRHO.G/C3   45 356 01 00:   DENSITY CORRECTION
 GRD .GAPI   45 310 01 00:   GAMMA RAY FROM DENSITY LOG
 RHOB.G/C3   45 350 01 00:   BULK DENSITY
 ILD .OHMM   07 120 46 00:   INDUCTION LOG DEEP
 ILM .OHMM   07 120 44 00:   INDUCTION LOG MEDIUM
 SGRD.OHMM   07 221 05 00:   SHALLOW SHORT GUARD RESISTIVITY
 SPR .MV     07 010 01 00:   SPONTANEOUS POTENTIAL
~PARAMETER INFORMATION
#MNEM.UNIT          VALUE    DESCRIPTION
#----------   ------------   ------------------------------
 PD  .                 GL:   PERMANENT DATUM
 EPD .F              5200:   ELEVATION PERMANENT DATUM
 LMF .                 GL:   LOG MEASURED FROM
 DMF .                 GL:   DRILLING MEASURED FROM
 EGL .F              5200:   GROUND LEVEL
 DATE.        19-APR-1977:   RUN DATE
 RUN .                  1:   RUN NUMBER
 DD  .F               476:   DEPTH DRILLER
 DL  .F               447:   DEPTH LOGGER
 BLI .F               445:   BOTTOM LOG INTERVAL
 TLI .F                35:   TOP LOG INTERVAL
 CS  .IN            8.625:   CASING SIZE
 CBD .F                42:   CASING BOTTOM DRILLER
 CBL .F                42:   CASING BOTTOM LOGGER
 BS  .IN            7.875:   BIT SIZE
 BSD .F               476:   BIT SIZE AT DEPTH
 DFT .            KCL MUD:   DRILLING FLUID TYPE
 DFD .                8.8:   DRILLING FLUID DENSITY
 DFV .                 37:   DRILLING FLUID VISCOSITY
 MSS .           FLOWLINE:   MUD SAMPLE SOURCE
 RMS .OHMM           1.06:   RESISTIVITY MUD SAMPLE
 MST .F                48:   MUD SAMPLE TEMPERATURE
 RMF .OHMM           1.03:   RESISTIVITY MUD FILTRATE SAMPLE
 MFST.F                48:   MUD FILTRATE SAMPLE TEMPERATURE
 RMC .OHMM           1.18:   RESISTIVITY MUD CAKE
 MCST.F                48:   MUD CAKE SAMPLE TEMPERATURE
 MFSS.               MEAS:   MUD FILTRATE SAMPLE SOURCE
 MCSS.               MEAS:   MUD CAKE SAMPLE SOURCE
 RMB .OHMM           0.86:   RESISTIVITY MUD AT BHT
 BHT .F                59:   BOTTOM HOLE TEMPERATURE
 TCS .HRS               5:   TIME CURCULATED STOPPED
 MRT .F                59:   MAXIMUM RECORDED TEMPERATURE
 LUN .               8611:   LOGGING UNIT NUMBER
 LUL .             CASPER:   LOGGING UNIT LOCATION
 ENGI.               DOAK:   RECORDING ENGINEER
 WITN.        MR. R. LYON:   WITNESSED BY
 CLNT.            A2DTECH:   CLIENT CODE
 ORIG.      2.5" 5" PRINT:   ORIGIN OF DATA
 UWI .       490251036100:   UNIQUE WELL ID
 DICO. A2D Technologies, Inc.:   DIGITIZING COMPANY
~OTHER INFORMATION
~A   DEPT     CALD       DPHI       DRHO         GRD      RHOB        ILD        ILM       SGRD        SPR   
# ...
  255.0000     7.7938     0.0699     0.0113   107.0591     2.5319     7.9804     9.3141    12.1056   -43.9086
  255.5000     7.7948     0.0735     0.0009   105.1445     2.5155     8.0888     9.4357    12.0998   -43.9193
  256.0000     7.7808     0.0793    -0.0111   106.9371     2.5014     8.1986     9.5590    12.0948   -43.9294
  256.5000     7.7987     0.0880    -0.0280   109.1706     2.4925     8.2397     9.5526    12.0899   -43.9395
  257.0000     7.8147     0.1020    -0.0484   110.9599     2.4739     8.3476     9.6773    12.0849   -44.2448
  257.5000     7.8306     0.1061    -0.0724   112.4532     2.4687     8.3417     9.6709    12.0800   -44.2552
  258.0000     7.8465     0.0753    -0.0209   113.5026     2.5247     8.4518     9.7972    12.0751   -44.2655
  258.5000     7.8477     0.0595     0.0154   113.5367     2.5479     8.4466     9.7906    12.2593   -44.2758
  259.0000     7.8568     0.0675     0.0095   114.8640     2.5338     8.4409     9.9185    12.7410   -44.2861
  259.5000     7.8648     0.0735     0.0036   117.9856     2.5196     8.4358     9.9118    13.2680   -44.2965
  260.0000     7.8662     0.0773     0.0007   121.6993     2.5213     8.4311    10.0413    13.6296   -44.3068
  260.5000     7.8526     0.0693     0.0069   122.3012     2.5298     8.4256    10.1725    13.6241   -44.0206
  261.0000     7.8536     0.0608     0.0146   120.9853     2.5429     8.4206    10.3053    13.4340   -43.7357
  261.5000     7.8548     0.0587     0.0208   118.3004     2.5497     8.5310    10.4753    13.0671   -43.4509
  262.0000     7.8560     0.0647     0.0240   117.1278     2.5319     8.5258    10.5763    12.5380   -43.1681
  262.5000     7.8720     0.0781     0.0176   116.3992     2.5080     8.5207    10.7622    12.0303   -43.1785
  263.0000     7.8731     0.0864    -0.0013   115.5227     2.4961     8.6323    11.0034    11.8624   -43.1888
  263.5000     7.8743     0.0932    -0.0102   114.2020     2.4880     8.6269    11.1456    12.3531   -43.1991
  264.0000     7.8902     0.0956    -0.0131   116.1379     2.4813     8.6216    11.1380    13.2200   -43.2094
  264.5000     7.8919     0.0961    -0.0069   116.5936     2.4836     8.7350    11.1304    13.9560   -43.2217
  265.0000     7.9074     0.0970    -0.0068   115.4013     2.4866     8.7291    11.1228    14.3363   -43.5268
  265.5000     7.9086     0.0997    -0.0081   112.7137     2.4814     8.6057    11.1152    14.7337   -43.5370
  266.0000     7.9099     0.1023    -0.0110   109.2299     2.4738     8.5671    10.8072    14.9233   -44.1371
  266.5000     7.9109     0.1053    -0.0093   108.7945     2.4629     8.2918     9.9510    13.7447   -44.4422
  267.0000     7.9270     0.1139    -0.0047   112.5097     2.4473     7.8398     8.5584    14.5630   -44.7473
  267.5000     7.9282     0.1261    -0.0015   117.5541     2.4369     6.2336     7.3607    13.1885   -44.7574
  268.0000     7.9293     0.1467    -0.0014   121.4144     2.3996     5.2031     7.0607    12.1416   -44.4726
  268.5000     7.9375     0.1610    -0.0148   122.3112     2.3796     5.6876     6.9604    12.7249   -44.1877
  269.0000     7.9464     0.1631    -0.0237   121.1415     2.3699     6.2648     7.0513    13.6811   -43.9027
  269.5000     7.9476     0.1485    -0.0295   113.4557     2.4162     6.8928     7.2415    14.9257   -43.3230
  270.0000     7.9490     0.1095    -0.0339   106.3620     2.4790     7.3386     7.4369    15.7807   -43.3333
  270.5000     7.9649     0.0994    -0.0398   102.0706     2.4820     7.8808     7.6375    15.9192   -43.3225
  271.0000     7.9659     0.0990    -0.0427   100.1181     2.4828     8.2046     8.1743    15.9115   -43.0265
  271.5000     7.9671     0.0996    -0.0335    99.5876     2.4831     8.4262     8.6365    15.8116   -42.7736
  272.0000     7.9832     0.0858    -0.0032   104.0428     2.5019     8.6538     9.2466    15.6830   -42.7847
  272.5000     7.9843     0.0810     0.0000   104.3476     2.5053     8.7679     9.6829    15.6766   -42.4989
  273.0000     7.9855     0.0852     0.0002   101.5496     2.5047     8.8827    10.1614    15.6702   -42.5103
  273.5000     7.9866     0.0864     0.0018   100.6730     2.5032     8.9990    10.4411    15.6638   -42.4317
  274.0000     7.9878     0.0878     0.0020    99.7964     2.4973     9.2415    10.7662    15.8725   -42.2343
  274.5000     7.9890     0.0977     0.0006    98.0317     2.4847     9.4911    11.2207    15.6498   -41.8397
  275.0000     7.9901     0.1004     0.0008    92.7153     2.4698     9.7474    11.6944    15.6435   -41.2488
  275.5000     7.9765     0.1053     0.0024    87.8420     2.4646    10.1480    12.2920    15.6372   -40.6578
  276.0000     7.9629     0.1110     0.0071    81.7845     2.4535    10.7099    13.2057    16.9645   -40.0669
  276.5000     7.9495     0.1175     0.0133    73.8026     2.4438    11.6257    14.6577    20.2489   -39.9277
  277.0000     7.9356     0.1235     0.0210    67.0050     2.4319    12.4557    15.7076    23.5187   -39.6431
  277.5000     7.9072     0.1324     0.0317    58.5791     2.4074    13.7497    18.1005    29.6468   -39.6554
  278.0000     7.8643     0.1530     0.0303    56.2165     2.3731    16.0297    22.9301    33.5071   -39.3687
  278.5000     7.8211     0.1717     0.0305    55.9378     2.3560    19.8448    25.0981    34.8931   -39.0857
  279.0000     7.6893     0.1666     0.0321    59.8009     2.3799    20.8045    27.2211    36.3365   -38.8008
  279.5000     7.4983     0.1561     0.0306    63.9573     2.3867    16.8989    29.9293    38.3594   -38.8109
  280.0000     7.5941     0.1710     0.0249    66.0412     2.3666    13.6591    28.3206    35.8152   -38.5251
  280.5000     7.7817     0.1773     0.0220    67.6811     2.3539    11.7555    27.1665    29.1745   -38.2412
  281.0000     7.9159     0.1737     0.0222    69.6170     2.3555     9.4170    26.0595    33.0646   -38.2514
  281.5000     7.8727     0.1748     0.0239    71.4049     2.3570    11.3067    25.6891    36.9143   -38.2615
  282.0000     7.8147     0.1766     0.0225    71.7096     2.3556    13.5222    25.6720    35.4423   -38.2716
  282.5000     7.7568     0.1828     0.0226    70.0958     2.3340    15.2119    25.6548    30.9071   -38.2818
  283.0000     7.7428     0.1861     0.0303    68.9232     2.3386    16.0844    26.3469    29.5158   -38.2920
  283.5000     7.7738     0.1834     0.0305    64.7231     2.3376    16.7531    27.0676    31.6708   -38.3020
  284.0000     7.7898     0.1941     0.0246    63.7654     2.3065    17.2136    28.2106    38.7901   -38.0172
  284.5000     7.7909     0.2012     0.0247    65.7043     2.3141    17.5467    29.8055    41.0688   -38.0280
  285.0000     7.7611     0.1970     0.0295    65.4198     2.3186    18.2655    31.0641    42.0174   -38.0383
  285.5000     7.7049     0.1943     0.0343    64.5432     2.3224    19.0161    32.8205    41.2224   -37.7526
  286.0000     7.6765     0.1898     0.0418    64.2558     2.3269    20.0691    34.6760    41.4146   -37.7640
  286.5000     7.6776     0.1799     0.0254    64.5664     2.3381    20.1353    36.5082    37.1137   -37.7743
  287.0000     7.6788     0.1784     0.0119    65.7622     2.3509    19.5061    37.3663    40.2306   -37.7847
  287.5000     7.7095     0.1867     0.0030    67.9941     2.3375    18.9703    35.3606    39.1782   -37.7950
  288.0000     7.7845     0.1882     0.0213    72.1505     2.3341    18.7023    32.9523    36.6024   -37.5103
  288.5000     7.8744     0.1679     0.0320    74.8265     2.3742    18.6910    31.0508    39.2884   -37.5206
  289.0000     7.9937     0.1610     0.0367    74.3823     2.3780    18.9360    29.5873    42.4492   -37.5310
  289.5000     8.0553     0.1681     0.0368    71.0372     2.3708    19.4474    28.7318    41.8570   -37.5413
  290.0000     7.8030     0.1830     0.0339    64.2063     2.3378    19.7023    28.1184    38.0287   -37.5516
  290.5000     7.7460     0.1716     0.0311    66.4382     2.3677    21.9607    27.7033    39.0651   -37.2670
  291.0000     7.7474     0.1656     0.0392    69.4103     2.3640    23.8141    27.5195    42.9631   -37.2791
