~VERSION INFORMATION
 VERS.                2.0:   CWLS LOG ASCII STANDARD - VERSION 2.0
 WRAP.                 NO:   ONE LINE PER DEPTH STEP
~WELL INFORMATION
#MNEM.UNIT      DATA TYPE    INFORMATION
#----------   ------------   ------------------------------
 STRT.F           70.0000:   START DEPTH
 STOP.F         1043.0000:   STOP DEPTH
 STEP.F            0.5000:   STEP LENGTH
 NULL.          -999.2500:   NO VALUE
 COMP. U S NAVY/INTEX OIL CO:   COMPANY
 WELL.       NPR 3 #54S-2:   WELL
 FLD .             TEAPOT:   FIELD
 LOC .       S2 T38N R78W:   LOCATION
 CNTY.            NATRONA:   COUNTY
 STAT.            WYOMING:   STATE
 CTRY. UNITED STATES OF AMERICA:   COUNTRY
 SRVC.         Lane Wells:   SERVICE COMPANY
 DATE.        14-JUN-1960:   LOGDATE
 API .       490250643300:   API NUMBER
~CURVE INFORMATION
#MNEM.UNIT       API CODE    CURVE DESCRIPTION
#----------   ------------   ------------------------------
 DEPT.F                  :   
 CILD.MMHO   05 110 46 00:   CONDUCTIVITY INDUCTION LOG DEEP
 ILD .OHMM   05 120 46 00:   INDUCTION LOG DEEP
 ASN .OHMM   05 041 16 00:   AMPLIFIED SHORT NORMAL 16"
 SPR .MV     05 010 01 00:   SPONTANEOUS POTENTIAL FROM RES.
~PARAMETER INFORMATION
#MNEM.UNIT          VALUE    DESCRIPTION
#----------   ------------   ------------------------------
 PD  .                 GL:   PERMANENT DATUM
 EPD .F              6164:   ELEVATION PERMANENT DATUM
 LMF .                 KB:   LOG MEASURED FROM
 DAPD.F                 5:   FEET ABOVE PERMANENT DATUM
 DMF .                 KB:   DRILLING MEASURED FROM
 EKB .F              6169:   KELLING BUSHING
 EGL .F              6164:   GROUND LEVEL
 DATE.            6-14-60:   RUN DATE
 RUN .                  1:   RUN NUMBER
 DD  .F              1045:   DEPTH DRILLER
 DL  .F              1045:   DEPTH LOGGER
 BLI .F              1043:   BOTTOM LOG INTERVAL
 TLI .F                70:   TOP LOG INTERVAL
 CS  .IN            8.625:   CASING SIZE
 CBD .F                12:   CASING BOTTOM DRILLER
 BS  .IN            7.875:   BIT SIZE
 BSD .F              1045:   BIT SIZE AT DEPTH
 DFT .   GEL/OIL EMULSION:   DRILLING FLUID TYPE
 DFD .                9.7:   DRILLING FLUID DENSITY
 DFV .                 45:   DRILLING FLUID VISCOSITY
 DFPH.                  8:   DRILLING FLUID PH
 DFL .               11.6:   DRILLING FLUID LOSS
 MSS .          FLOW LINE:   MUD SAMPLE SOURCE
 RMS .OHMM            1.6:   RESISTIVITY MUD SAMPLE
 MST .F                62:   MUD SAMPLE TEMPERATURE
 RMF .OHMM            1.4:   RESISTIVITY MUD FILTRATE SAMPLE
 MFST.F                60:   MUD FILTRATE SAMPLE TEMPERATURE
 RMC .OHMM           1.75:   RESISTIVITY MUD CAKE
 MCST.F                60:   MUD CAKE SAMPLE TEMPERATURE
 MFSS.                MUD:   MUD FILTRATE SAMPLE SOURCE
 MCSS.              PRESS:   MUD CAKE SAMPLE SOURCE
 RMB .OHMM            1.4:   RESISTIVITY MUD AT BHT
 BHT .F                72:   BOTTOM HOLE TEMPERATURE
 MRT .F                72:   MAXIMUM RECORDED TEMPERATURE
 LUN .             C-4474:   LOGGING UNIT NUMBER
 LUL .             CASPER:   LOGGING UNIT LOCATION
 ENGI.      NELSON/GRIGGS:   RECORDING ENGINEER
 WITN.   JORGENSEN/HUDSON:   WITNESSED BY
 CLNT.            A2DTECH:   CLIENT CODE
 ORIG.       2", 5" PRINT:   ORIGIN OF DATA
 UWI .       490250643300:   UNIQUE WELL ID
 DICO. A2D Technologies, Inc.:   DIGITIZING COMPANY
~OTHER INFORMATION
~A   DEPT     CILD          ILD        ASN      SPR   
# ...
  216.0000   160.5934     6.7338     7.6797   -50.8175
  216.5000   158.9430     6.7801     7.7210   -50.7725
  217.0000   157.2925     6.8247     7.7546   -50.3793
  217.5000   156.6225     6.8715     7.8003   -49.8781
  218.0000   156.6225     6.8916     7.8562   -49.4183
  218.5000   156.6225     6.8992     7.9069   -48.9052
  219.0000   156.6225     6.9105     7.9616   -48.6219
  219.5000   156.6225     6.9200     8.0043   -48.7983
  220.0000   156.6225     6.9305     8.0201   -49.0825
  220.5000   156.6225     6.9405     8.0227   -49.4116
  221.0000   156.6185     6.9505     8.0135   -49.5628
  221.5000   156.6208     6.9610     8.0033   -49.5602
  222.0000   156.6273     6.9705     7.9971   -49.4026
  222.5000   156.6361     6.9803     7.9764   -48.9581
  223.0000   156.6432     6.9710     7.8834   -48.5040
  223.5000   156.6453     6.9058     7.7969   -47.9880
  224.0000   158.4894     6.8452     7.7626   -47.7409
  224.5000   160.0006     6.7845     7.7453   -47.7967
  225.0000   161.4908     6.7235     7.6677   -48.0380
  225.5000   163.0038     6.6635     7.5557   -48.3330
  226.0000   164.5167     6.6014     7.4534   -48.6130
  226.5000   166.4155     6.5391     7.3539   -48.8931
  227.0000   169.3203     6.5029     7.2382   -49.1860
  227.5000   172.8004     6.4245     7.1257   -49.4476
  228.0000   173.6324     6.3433     6.9715   -49.7755
  228.5000   174.6698     6.2626     6.8665   -49.8395
  229.0000   175.7073     6.1779     6.8368   -48.9323
  229.5000   176.7447     6.1658     6.7852   -47.9471
  230.0000   177.7821     6.1499     6.7590   -47.1138
  230.5000   178.8196     6.1271     6.7554   -46.9032
  231.0000   179.9905     6.1021     6.7482   -46.9759
  231.5000   182.8666     6.0857     6.7341   -47.1904
  232.0000   186.1675     6.0314     6.6579   -47.4093
  232.5000   189.4685     5.9028     6.5142   -47.5299
  233.0000   192.7694     5.7776     6.3515   -47.2247
  233.5000   196.0703     5.6528     6.1702   -46.8033
  234.0000   198.5843     5.5223     5.9943   -46.9689
  234.5000   200.0367     5.4053     5.8116   -47.5601
  235.0000   201.5610     5.2526     5.6399   -48.0984
  235.5000   200.8260     5.2018     5.5258   -48.2381
  236.0000   199.2122     5.2952     5.4992   -47.9985
  236.5000   197.5984     5.3662     5.5990   -47.9332
  237.0000   195.9846     5.4476     5.6952   -47.8846
  237.5000   194.3709     5.5255     5.7975   -47.8630
  238.0000   194.6302     5.6012     5.8939   -47.8071
  238.5000   194.8896     5.6863     5.9982   -47.8077
  239.0000   195.1489     5.7016     6.0582   -47.4933
  239.5000   195.4083     5.6501     6.0351   -46.9419
  240.0000   195.6677     5.6105     6.0119   -46.4783
  240.5000   195.9270     5.5650     5.9890   -45.9629
  241.0000   196.1684     5.5227     5.9997   -45.7535
  241.5000   197.1391     5.4786     6.0253   -45.6675
  242.0000   198.0468     5.4355     6.0458   -45.7867
  242.5000   198.9546     5.3918     6.0715   -46.1099
  243.0000   199.8624     5.3487     6.0539   -46.3364
  243.5000   200.7701     5.3046     5.9728   -46.6087
  244.0000   201.6779     5.2688     5.8832   -46.8364
  244.5000   202.5856     5.2749     5.7948   -47.1067
  245.0000   203.3586     5.2902     5.7100   -47.1292
  245.5000   203.3586     5.3033     5.6182   -46.9317
  246.0000   202.8912     5.3173     5.6157   -46.7297
  246.5000   202.4877     5.3308     5.6758   -47.0313
  247.0000   202.0843     5.3446     5.7734   -47.7318
  247.5000   201.6809     5.3582     5.8667   -48.0400
  248.0000   201.2783     5.3719     5.9626   -47.4596
  248.5000   200.8721     5.3856     5.9662   -46.9554
  249.0000   200.4654     5.3992     5.9155   -46.4983
  249.5000   200.0596     5.4128     5.8785   -46.0259
  250.0000   199.7554     5.4265     5.8317   -45.5106
  250.5000   199.3679     5.4401     5.8239   -45.2880
  251.0000   199.0587     5.4537     5.8308   -45.4924
  251.5000   198.7498     5.4674     5.8460   -45.8212
  252.0000   198.4415     5.4809     5.8791   -46.1307
  252.5000   198.1303     5.4948     5.9289   -46.4754
  253.0000   197.8191     5.5080     5.9752   -46.5841
  253.5000   197.5078     5.5224     6.0230   -46.6373
  254.0000   197.1966     5.5352     6.0733   -46.7784
  254.5000   196.8854     5.5483     6.0936   -46.8408
  255.0000   196.5741     5.5789     6.1124   -46.6759
  255.5000   196.2629     5.6086     6.1284   -46.5368
  256.0000   195.9517     5.6399     6.1472   -46.3764
  256.5000   195.6404     5.6688     6.1801   -46.2400
  257.0000   195.3292     5.7026     6.2245   -46.0636
  257.5000   195.0180     5.7171     6.1941   -46.0333
  258.0000   194.7067     5.6705     6.2108   -46.3102
  258.5000   194.3709     5.6166     6.2975   -46.7020
  259.0000   195.4853     5.5631     6.2601   -47.1216
  259.5000   196.6957     5.5091     6.1151   -47.5229
  260.0000   197.9060     5.4561     5.9845   -47.2763
  260.5000   199.1164     5.4014     5.8405   -46.8399
  261.0000   201.4532     5.3497     5.7291   -46.4739
  261.5000   205.0842     5.2920     5.6486   -46.0186
  262.0000   208.7152     5.2669     5.5603   -45.8093
  262.5000   211.4475     5.2939     5.4861   -45.8869
  263.0000   211.7351     5.3186     5.4683   -45.9571
  263.5000   210.5487     5.3454     5.4912   -45.8719
  264.0000   207.2572     5.3711     5.5256   -45.5692
  264.5000   204.0296     5.3973     5.6159   -45.2471
  265.0000   200.8021     5.4233     5.7120   -45.0744
  265.5000   197.5745     5.4494     5.8057   -45.0841
  266.0000   196.1684     5.4754     5.9023   -45.1929
  266.5000   196.1684     5.5016     5.9859   -45.4909
  267.0000   196.1684     5.5274     6.0248   -45.7672
  267.5000   196.1684     5.5538     6.0570   -46.0486
  268.0000   196.1684     5.5791     6.0911   -46.3415
  268.5000   196.1684     5.6066     6.1226   -46.6024
  269.0000   196.1684     5.6244     6.1581   -46.9344
  269.5000   196.1684     5.6016     6.1681   -46.8920
  270.0000   196.1684     5.5777     6.1720   -46.4231
  270.5000   196.9043     5.5539     6.1372   -46.0069
  271.0000   197.5451     5.5301     6.1036   -45.5733
  271.5000   198.1859     5.5063     6.0635   -45.1257
  272.0000   198.8266     5.4825     5.9987   -44.8203
  272.5000   199.4674     5.4586     5.9440   -44.6915
  273.0000   200.1082     5.4351     5.8940   -44.5191
  273.5000   200.7490     5.4107     5.8544   -44.3991
  274.0000   201.3897     5.3879     5.8168   -44.4769
  274.5000   201.5610     5.3628     5.7815   -44.6964
  275.0000   200.7680     5.3625     5.7486   -45.0139
  275.5000   200.1272     5.4084     5.7443   -45.3180
  276.0000   199.4865     5.4481     5.7821   -45.6299
  276.5000   198.8457     5.4889     5.8168   -45.9349
  277.0000   198.2049     5.5293     5.8604   -46.2476
  277.5000   197.5641     5.5693     5.9217   -46.5485
  278.0000   196.9234     5.6108     6.0117   -46.8140
  278.5000   196.1684     5.6492     6.0741   -46.7769
  279.0000   195.1738     5.6942     6.0997   -46.5234
  279.5000   193.9634     5.7241     6.1343   -46.3172
  280.0000   192.5733     5.7969     6.1639   -46.0729
  280.5000   189.2239     5.9004     6.2244   -45.9769
  281.0000   185.2903     5.9949     6.4017   -45.9813
  281.5000   181.3567     6.0966     6.6203   -45.9888
  282.0000   177.4230     6.1899     6.8292   -45.8725
  282.5000   173.4894     6.2980     7.0476   -45.6174
  283.0000   169.2053     6.3511     7.2523   -45.4202
  283.5000   171.0094     6.3003     7.4837   -45.1569
  284.0000   172.9899     6.2504     7.6053   -45.2442
  284.5000   174.9705     6.1969     7.5744   -45.5833
  285.0000   176.9511     6.1454     7.4037   -45.8930
  285.5000   178.9316     6.0930     7.1862   -46.1080
  286.0000   179.9905     6.0405     6.9840   -45.7695
  286.5000   179.9905     5.9915     6.7704   -45.4020
  287.0000   180.0158     5.9904     6.5798   -45.2162
  287.5000   180.0082     6.0322     6.5337   -45.1500
  288.0000   180.0082     6.0782     6.5145   -45.1000
  288.5000   180.0170     6.1234     6.4797   -45.1861
