~VERSION INFORMATION
 VERS.                2.0:   CWLS LOG ASCII STANDARD - VERSION 2.0
 WRAP.                 NO:   ONE LINE PER DEPTH STEP
~WELL INFORMATION
#MNEM.UNIT      DATA TYPE    INFORMATION
#----------   ------------   ------------------------------
 STRT.F          350.0000:   START DEPTH
 STOP.F         2259.0000:   STOP DEPTH
 STEP.F            0.5000:   STEP LENGTH
 NULL.          -999.2500:   NO VALUE
 COMP. LAWRENCE/ALLISON INC:   COMPANY
 WELL.        45 X #33-33:   WELL
 FLD .             TEAPOT:   FIELD
 LOC .      S33 T39N R78W:   LOCATION
 CNTY.            NATRONA:   COUNTY
 STAT.            WYOMING:   STATE
 CTRY. UNITED STATES OF AMERICA:   COUNTRY
 SRVC.      NL McCullough:   SERVICE COMPANY
 DATE.        19-MAY-1988:   LOGDATE
 API .       490251119400:   API NUMBER
~CURVE INFORMATION
#MNEM.UNIT       API CODE    CURVE DESCRIPTION
#----------   ------------   ------------------------------
 DEPT.F                  :   
 ROP .MIN/FT 91 810 01 00:   RATE OF DRILLING PENETRATION
 GR  .GAPI   81 310 01 00:   GAMMA RAY
 TGAS.UNITS  91 830 01 00:   TOTAL GAS FROM HOTWIRE
~PARAMETER INFORMATION
#MNEM.UNIT          VALUE    DESCRIPTION
#----------   ------------   ------------------------------
 PD  .                 GL:   PERMANENT DATUM
 EPD .F              5198:   ELEVATION PERMANENT DATUM
 LMF .                 KB:   LOG MEASURED FROM
 DAPD.F                11:   FEET ABOVE PERMANENT DATUM
 DMF .                 KB:   DRILLING MEASURED FROM
 EKB .F              5209:   KELLING BUSHING
 EGL .F              5198:   GROUND LEVEL
 DATE.            5-19-88:   RUN DATE
 RUN .                  1:   RUN NUMBER
 DD  .F              2232:   DEPTH DRILLER
 DL  .F               750:   DEPTH LOGGER
 BLI .F               746:   BOTTOM LOG INTERVAL
 TLI .F               350:   TOP LOG INTERVAL
 CS  .IN                7:   CASING SIZE
 CBD .F               808:   CASING BOTTOM DRILLER
 DFT .              WATER:   DRILLING FLUID TYPE
 TCS .HRS            0830:   TIME CURCULATED STOPPED
 TLAB.HRS            0930:   TIME LOGGER AT BOTTOM
 ENGI.          SANGERTER:   RECORDING ENGINEER
 WITN.             NORMAN:   WITNESSED BY
 CLNT.            A2DTECH:   CLIENT CODE
 ORIG.           5" PRINT:   ORIGIN OF DATA
 UWI .       490251119400:   UNIQUE WELL ID
 DICO. A2D Technologies, Inc.:   DIGITIZING COMPANY
~OTHER INFORMATION
~A   DEPT      ROP          GR      TGAS   
# ...
  805.0000  -999.2500  -999.2500  -999.2500
  805.5000  -999.2500  -999.2500  -999.2500
  806.0000  -999.2500  -999.2500  -999.2500
  806.5000  -999.2500  -999.2500  -999.2500
  807.0000  -999.2500  -999.2500  -999.2500
  807.5000  -999.2500  -999.2500  -999.2500
  808.0000  -999.2500  -999.2500  -999.2500
  808.5000  -999.2500  -999.2500  -999.2500
  809.0000  -999.2500  -999.2500  -999.2500
  809.5000  -999.2500  -999.2500  -999.2500
  810.0000  -999.2500  -999.2500  -999.2500
  810.5000  -999.2500  -999.2500  -999.2500
  811.0000  -999.2500  -999.2500  -999.2500
  811.5000  -999.2500  -999.2500  -999.2500
  812.0000  -999.2500  -999.2500  -999.2500
  812.5000  -999.2500  -999.2500  -999.2500
  813.0000  -999.2500  -999.2500  -999.2500
  813.5000  -999.2500  -999.2500  -999.2500
  814.0000  -999.2500  -999.2500  -999.2500
  814.5000  -999.2500  -999.2500  -999.2500
  815.0000     0.4275  -999.2500  -999.2500
  815.5000     0.3859  -999.2500     0.8773
  816.0000     0.3860  -999.2500     0.8957
  816.5000     0.3862  -999.2500     0.9141
  817.0000     0.3863  -999.2500     0.9324
  817.5000     0.3970  -999.2500     0.9508
  818.0000     0.4389  -999.2500     0.9692
  818.5000     0.5121  -999.2500     0.9875
  819.0000     0.5644  -999.2500     1.0059
  819.5000     0.5959  -999.2500     1.0243
  820.0000     0.5856  -999.2500     1.0426
  820.5000     0.5127  -999.2500     1.0610
  821.0000     0.4189  -999.2500     1.0793
  821.5000     0.3564  -999.2500     1.0977
  822.0000     0.3357  -999.2500     1.1161
  822.5000     0.3150  -999.2500     1.1344
  823.0000     0.3047  -999.2500     1.1528
  823.5000     0.3049  -999.2500     1.1712
  824.0000     0.3050  -999.2500     1.1895
  824.5000     0.3052  -999.2500     1.2079
  825.0000     0.3054  -999.2500     1.2262
  825.5000     0.3159  -999.2500     1.2446
  826.0000     0.3474  -999.2500     1.2630
  826.5000     0.3893  -999.2500     1.2813
  827.0000     0.4312  -999.2500     1.2997
  827.5000     0.4731  -999.2500     1.3181
  828.0000     0.4837  -999.2500     1.3364
  828.5000     0.4839  -999.2500     1.3548
  829.0000     0.4736  -999.2500     1.3731
  829.5000     0.4738  -999.2500     1.3915
  830.0000     0.4739  -999.2500     1.4099
  830.5000     0.4845  -999.2500     1.4282
  831.0000     0.5264  -999.2500     1.4466
  831.5000     0.5892  -999.2500     1.4650
  832.0000     0.5685  -999.2500     1.4833
  832.5000     0.4852  -999.2500     1.5017
  833.0000     0.4227  -999.2500     1.5201
  833.5000     0.3706  -999.2500     1.5384
  834.0000     0.3603  -999.2500     1.5568
  834.5000     0.3501  -999.2500     1.5751
  835.0000     0.3502  -999.2500     1.5935
  835.5000     0.3190  -999.2500     1.6119
  836.0000     0.3192  -999.2500     1.6302
  836.5000     0.3298  -999.2500     1.6486
  837.0000     0.3404  -999.2500     1.6670
  837.5000     0.3510  -999.2500     1.6853
  838.0000     0.3512  -999.2500     1.7037
  838.5000     0.3513  -999.2500     1.7220
  839.0000     0.3515  -999.2500     1.7404
  839.5000     0.3516  -999.2500     1.7588
  840.0000     0.3518  -999.2500     1.7771
  840.5000     0.3520  -999.2500     1.7955
  841.0000     0.3521  -999.2500     1.8139
  841.5000     0.3523  -999.2500     1.8322
  842.0000     0.3524  -999.2500     1.8506
  842.5000     0.3526  -999.2500     1.8689
  843.0000     0.3632  -999.2500     1.8873
  843.5000     0.3633  -999.2500     1.9057
  844.0000     0.3739  -999.2500     1.9240
  844.5000     0.3845  -999.2500     1.9424
  845.0000     0.3847  -999.2500     1.9608
  845.5000     0.3848  -999.2500     1.9791
  846.0000     0.3954  -999.2500     1.9975
  846.5000     0.3956  -999.2500     2.0159
  847.0000     0.3957  -999.2500     2.0342
  847.5000     0.3959  -999.2500     2.0526
  848.0000     0.3961  -999.2500     2.0709
  848.5000     0.3857  -999.2500     2.0893
  849.0000     0.3755  -999.2500     2.1077
  849.5000     0.3757  -999.2500     2.1260
  850.0000     0.3758  -999.2500     2.1444
  850.5000     0.3760  -999.2500     2.1628
  851.0000     0.3656  -999.2500     2.1811
  851.5000     0.3658  -999.2500     2.1995
  852.0000     0.3660  -999.2500     2.2178
  852.5000     0.3975  -999.2500     2.2362
  853.0000     0.4289  -999.2500     2.2546
  853.5000     0.4813  -999.2500     2.2729
  854.0000     0.5232  -999.2500     2.2913
  854.5000     0.4815  -999.2500     2.3097
  855.0000     0.4400  -999.2500     2.3280
  855.5000     0.3984  -999.2500     2.3464
  856.0000     0.3672  -999.2500     2.3647
  856.5000     0.3674  -999.2500     2.3831
  857.0000     0.3571  -999.2500     2.4015
  857.5000     0.3573  -999.2500     2.4198
  858.0000     0.3574  -999.2500     2.4382
  858.5000     0.3576  -999.2500     2.4566
  859.0000     0.3682  -999.2500     2.4749
  859.5000     0.3997  -999.2500     2.4933
  860.0000     0.4416  -999.2500     2.5116
  860.5000     0.4417  -999.2500     2.5300
  861.0000     0.4523  -999.2500     2.5484
  861.5000     0.4420  -999.2500     2.5667
  862.0000     0.4422  -999.2500     2.5851
  862.5000     0.4424  -999.2500     2.6035
  863.0000     0.4425  -999.2500     2.6218
  863.5000     0.4322  -999.2500     2.6402
  864.0000     0.4115  -999.2500     2.6586
  864.5000     0.4117  -999.2500     2.6769
  865.0000     0.4013  -999.2500     2.6953
  865.5000     0.3911  -999.2500     2.7136
  866.0000     0.3703  -999.2500     2.7320
  866.5000     0.3601  -999.2500     2.7504
  867.0000     0.3602  -999.2500     2.7687
  867.5000     0.3604  -999.2500     2.7871
  868.0000     0.3605  -999.2500     2.8055
  868.5000     0.3607  -999.2500     2.8238
  869.0000     0.3504  -999.2500     2.8422
  869.5000     0.3401  -999.2500     2.8605
  870.0000     0.3298  -999.2500     2.8789
  870.5000     0.3509  -999.2500     2.8973
  871.0000     0.3511  -999.2500     2.9156
  871.5000     0.3512  -999.2500     2.9340
  872.0000     0.3618  -999.2500     2.9524
  872.5000     0.3515  -999.2500     2.9707
  873.0000     0.3517  -999.2500     2.9891
  873.5000     0.3414  -999.2500     4.0902
  874.0000     0.3311  -999.2500     5.6602
  874.5000     0.3313  -999.2500     7.2303
  875.0000     0.3210  -999.2500     7.6652
  875.5000     0.3212  -999.2500     7.6660
  876.0000     0.3213  -999.2500     7.6669
  876.5000     0.3110  -999.2500     7.6677
  877.0000     0.3112  -999.2500     7.6686
  877.5000     0.3113  -999.2500     7.6694
  878.0000     0.3219  -999.2500     7.6702
  878.5000     0.3639  -999.2500     7.6711
  879.0000     0.4162  -999.2500     7.6719
  879.5000     0.4581  -999.2500     7.6728
  880.0000     0.4896  -999.2500     7.6736
  880.5000     0.4793  -999.2500     7.6745
  881.0000     0.4585  -999.2500     7.6753
  881.5000     0.4483  -999.2500     7.6761
  882.0000     0.4380  -999.2500     7.6770
  882.5000     0.4277  -999.2500     7.6778
  883.0000     0.4174  -999.2500     7.6787
  883.5000     0.4176  -999.2500     7.6795
  884.0000     0.4073  -999.2500     7.6804
  884.5000     0.4075  -999.2500     7.6812
  885.0000     0.4077  -999.2500     7.6820
  885.5000     0.4078  -999.2500     7.6829
  886.0000     0.4080  -999.2500     7.6837
  886.5000     0.4081  -999.2500     7.6846
  887.0000     0.4187  -999.2500     7.6854
  887.5000     0.4502  -999.2500     7.6863
  888.0000     0.4608  -999.2500     7.6871
  888.5000     0.4922  -999.2500     7.6879
  889.0000     0.4819  -999.2500     7.6888
  889.5000     0.4612  -999.2500     7.6896
  890.0000     0.4509  -999.2500     7.6905
  890.5000     0.4198  -999.2500     7.6913
  891.0000     0.4200  -999.2500     7.6921
  891.5000     0.4097  -999.2500     7.6930
  892.0000     0.4098  -999.2500     7.6938
  892.5000     0.4204  -999.2500     7.6947
  893.0000     0.4519  -999.2500     7.6955
  893.5000     0.4625  -999.2500     7.6964
  894.0000     0.4940  -999.2500     7.6972
  894.5000     0.5046  -999.2500     7.6980
  895.0000     0.5256  -999.2500     7.6989
  895.5000     0.5362  -999.2500     7.6997
