~VERSION INFORMATION
 VERS.                2.0:   CWLS LOG ASCII STANDARD - VERSION 2.0
 WRAP.                 NO:   ONE LINE PER DEPTH STEP
~WELL INFORMATION
#MNEM.UNIT      DATA TYPE    INFORMATION
#----------   ------------   ------------------------------
 STRT.F           80.0000:   START DEPTH
 STOP.F          718.5000:   STOP DEPTH
 STEP.F            0.5000:   STEP LENGTH
 NULL.          -999.2500:   NO VALUE
 COMP. U S NAVY-INTEX OIL:   COMPANY
 WELL. RES 3 TEAPOT DOM #21-S-2:   WELL
 FLD .        TEAPOT DOME:   FIELD
 LOC .       S2 T38N R78W:   LOCATION
 CNTY.            NATRONA:   COUNTY
 STAT.            WYOMING:   STATE
 CTRY. UNITED STATES OF AMERICA:   COUNTRY
 SRVC. Schlumberger Well Surveying Corp:   SERVICE COMPANY
 DATE.        18-JUL-1962:   LOGDATE
 API .       490250648100:   API NUMBER
~CURVE INFORMATION
#MNEM.UNIT       API CODE    CURVE DESCRIPTION
#----------   ------------   ------------------------------
 DEPT.F                  :   
 CALM.IN     15 280 01 00:   CALIPER FROM MICRO LOG
 SPR .MV     05 010 01 00:   SPONTANEOUS POTENTIAL FROM RES.
 ASN .OHMM   05 041 16 00:   AMPLIFIED SHORT NORMAL 16"
 ILD .OHMM   05 120 46 00:   INDUCTION LOG DEEP
 CILD.MMHO   05 110 46 00:   CONDUCTIVITY INDUCTION LOG DEEP
~PARAMETER INFORMATION
#MNEM.UNIT          VALUE    DESCRIPTION
#----------   ------------   ------------------------------
 LMF .                 KB:   LOG MEASURED FROM
 DMF .                 KB:   DRILLING MEASURED FROM
 EKB .F              5116:   KELLING BUSHING
 EGL .F              5111:   GROUND LEVEL
 DATE.          7-18-1962:   RUN DATE
 RUN .                  1:   RUN NUMBER
 DD  .F               719:   DEPTH DRILLER
 DL  .F               719:   DEPTH LOGGER
 BLI .F               718:   BOTTOM LOG INTERVAL
 TLI .F                90:   TOP LOG INTERVAL
 BS  .IN             6.75:   BIT SIZE
 BSD .F               719:   BIT SIZE AT DEPTH
 DFT .           OIL EMUL:   DRILLING FLUID TYPE
 DFD .                 10:   DRILLING FLUID DENSITY
 DFV .                 45:   DRILLING FLUID VISCOSITY
 DFL .                2.8:   DRILLING FLUID LOSS
 RMS .OHMM           3.87:   RESISTIVITY MUD SAMPLE
 MST .F                94:   MUD SAMPLE TEMPERATURE
 RMF .OHMM           2.93:   RESISTIVITY MUD FILTRATE SAMPLE
 MFST.F                94:   MUD FILTRATE SAMPLE TEMPERATURE
 RMC .OHMM           3.95:   RESISTIVITY MUD CAKE
 MCST.F                94:   MUD CAKE SAMPLE TEMPERATURE
 TCS .HRS              .5:   TIME CURCULATED STOPPED
 LUN .               2503:   LOGGING UNIT NUMBER
 LUL .              CSPR.:   LOGGING UNIT LOCATION
 ENGI.             DANNER:   RECORDING ENGINEER
 WITN.          JORGENSEN:   WITNESSED BY
 CLNT.            A2DTECH:   CLIENT CODE
 ORIG.      2" , 5" PRINT:   ORIGIN OF DATA
 UWI .       490250648100:   UNIQUE WELL ID
 DICO. A2D Technologies, Inc.:   DIGITIZING COMPANY
~OTHER INFORMATION
~A   DEPT     CALM        SPR          ASN        ILD      CILD  
   80.0000  -999.2500   -75.1008     0.3719     4.7739   200.5025
   80.5000  -999.2500   -75.1008     0.3719     4.7739   200.5025
   81.0000  -999.2500   -75.1232     0.3719     4.7739   200.6946
   81.5000  -999.2500   -75.1784     0.3718     4.7507   201.1339
   82.0000  -999.2500   -75.2464     0.3717     4.7078   202.8418
   82.5000  -999.2500   -75.2585     0.3727     4.6379   206.3805
   83.0000  -999.2500   -74.9676     0.3995     4.4390   212.5843
   83.5000  -999.2500   -74.6804     0.4266     4.2423   222.3842
   84.0000  -999.2500   -74.3955     0.4882     4.0460   232.9190
   84.5000  -999.2500   -74.1066     0.6008     3.8497   246.2329
   85.0000  -999.2500   -73.6913     0.7653     3.6534   259.2563
   85.5000  -999.2500   -72.7585     1.2043     3.4571   273.9645
   86.0000  -999.2500   -71.8479     2.0697     3.2605   289.6883
   86.5000  -999.2500   -70.9361     3.4510     3.0631   306.0302
   87.0000  -999.2500   -70.1604     3.7860     2.8706   312.0491
   87.5000  -999.2500   -69.4373     3.7125     2.8601   316.2479
   88.0000  -999.2500   -68.7190     3.6512     2.9739   312.0603
   88.5000  -999.2500   -68.0295     3.6768     3.1100   302.6533
   89.0000  -999.2500   -67.4228     4.0115     3.2413   293.9698
   89.5000  -999.2500   -67.0312     4.3373     3.5072   277.2598
   90.0000  -999.2500   -67.0379     4.5199     3.7866   261.3560
   90.5000  -999.2500   -67.0431     4.7030     4.0667   245.5226
   91.0000  -999.2500   -66.7689     4.8864     4.3464   229.6665
   91.5000  -999.2500   -66.4420     5.0700     4.6258   216.1362
   92.0000  -999.2500   -66.1136     5.1631     4.9036   204.5226
   92.5000  -999.2500   -65.7850     5.2529     5.1009   197.7864
   93.0000  -999.2500   -65.4605     5.3436     5.2337   190.9795
   93.5000  -999.2500   -65.3910     5.4026     5.3673   186.3946
   94.0000  -999.2500   -65.3561     5.4430     5.5002   183.1591
   94.5000  -999.2500   -65.3214     5.5265     5.6343   179.9129
   95.0000  -999.2500   -65.2867     5.6280     5.7729   176.6667
   95.5000  -999.2500   -65.2511     5.7307     5.7235   173.4204
   96.0000  -999.2500   -65.1696     5.8341     5.6433   170.1742
   96.5000  -999.2500   -64.8497     5.9358     5.5632   169.8241
   97.0000  -999.2500   -64.5323     5.9284     5.4834   171.0754
   97.5000  -999.2500   -64.2155     5.8526     5.4037   175.1759
   98.0000  -999.2500   -63.8988     5.7772     5.3239   179.2764
   98.5000  -999.2500   -63.5822     5.6747     5.2442   183.9761
   99.0000  -999.2500   -63.2652     5.5727     5.1650   190.8342
   99.5000  -999.2500   -62.9458     5.4710     5.0904   197.6378
  100.0000  -999.2500   -62.6177     5.3142     4.8863   204.3999
  100.5000  -999.2500   -62.5982     5.1617     4.6716   211.2993
  101.0000  -999.2500   -62.6002     5.0096     4.4563   218.5068
  101.5000  -999.2500   -62.6009     4.8123     4.2414   229.4536
  102.0000  -999.2500   -62.6014     4.5263     4.0267   241.9339
  102.5000  -999.2500   -62.6017     4.0080     3.8117   254.4142
  103.0000  -999.2500   -62.5675     3.0616     3.5952   267.8392
  103.5000  -999.2500   -62.2745     2.0010     3.3769   275.4171
  104.0000  -999.2500   -61.9786     1.5916     3.3651   281.4606
  104.5000  -999.2500   -61.6836     2.8691     3.3665   280.9849
  105.0000  -999.2500   -61.3926     3.8943     3.3668   279.7236
  105.5000  -999.2500   -61.1856     4.1871     3.3663   278.4623
  106.0000  -999.2500   -61.1909     4.0958     3.3664   277.8894
  106.5000  -999.2500   -61.2686     4.0764     3.4013   270.8332
  107.0000  -999.2500   -61.5250     4.2151     3.6438   259.4742
  107.5000  -999.2500   -61.7774     4.3522     3.8860   244.2666
  108.0000  -999.2500   -61.9956     4.4616     4.1269   228.6432
  108.5000  -999.2500   -61.9377     4.5498     4.3700   221.9548
  109.0000  -999.2500   -61.8842     4.5642     4.4696   216.8402
  109.5000  -999.2500   -61.8316     4.5750     4.4261   216.1852
  110.0000  -999.2500   -61.7792     4.5858     4.3779   217.8069
  110.5000  -999.2500   -61.7267     4.5848     4.3295   219.4286
  111.0000  -999.2500   -61.6742     4.5626     4.2815   221.0481
  111.5000  -999.2500   -61.6217     4.5407     4.2334   222.6684
  112.0000  -999.2500   -61.5693     4.5190     4.1856   224.2464
  112.5000  -999.2500   -61.5168     4.4988     4.1368   228.6432
  113.0000  -999.2500   -61.4643     4.4102     4.0932   237.6884
  113.5000  -999.2500   -61.4119     4.2544     3.8195   253.6080
  114.0000  -999.2500   -61.3594     4.0964     3.4636   282.5568
  114.5000  -999.2500   -61.3069     3.9409     3.1029   319.8914
  115.0000  -999.2500   -61.2546     3.7205     2.7421   357.2261
  115.5000  -999.2500   -61.2022     3.4890     2.3806   393.3065
  116.0000  -999.2500   -61.1123     3.2581     2.0153   412.8121
  116.5000  -999.2500   -61.0087     3.0909     2.0094   421.6080
  117.0000  -999.2500   -60.9879     3.1231     2.0695   419.8727
  117.5000  -999.2500   -60.9877     3.2036     2.1309   412.4027
  118.0000  -999.2500   -60.9876     3.1878     2.1907   404.0616
  118.5000  -999.2500   -61.0144     3.1106     2.2446   389.4167
  119.0000  -999.2500   -61.0601     3.2513     2.5462   355.4573
  119.5000  -999.2500   -61.1060     3.5358     2.8822   320.1407
  120.0000  -999.2500   -61.1519     3.8182     3.2196   284.8241
  120.5000  -999.2500   -61.1979     4.0166     3.5559   253.8590
  121.0000  -999.2500   -61.2438     4.0631     3.8917   235.0764
  121.5000  -999.2500   -61.2897     4.1009     4.0714   228.1894
  122.0000  -999.2500   -61.3358     4.1391     4.0714   228.9384
  122.5000  -999.2500   -61.3837     4.1470     4.0317   233.6683
  123.0000  -999.2500   -61.3455     4.1419     3.9870   238.3982
  123.5000  -999.2500   -61.2881     4.1369     3.9423   242.7136
  124.0000  -999.2500   -61.2301     4.1335     3.8978   245.7067
  124.5000  -999.2500   -61.1724     4.0559     3.8537   248.4587
  125.0000  -999.2500   -61.1146     3.9718     3.8096   257.7889
  125.5000  -999.2500   -61.0567     3.8882     3.7341   269.0676
  126.0000  -999.2500   -60.9974     3.8015     3.4244   283.0821
  126.5000  -999.2500   -61.0141     3.7111     3.1103   305.7545
  127.0000  -999.2500   -61.0465     3.5921     2.7967   336.7466
  127.5000  -999.2500   -61.0793     3.4095     2.4833   367.7387
  128.0000  -999.2500   -61.1120     3.2295     2.1740   398.7308
  128.5000  -999.2500   -61.1442     3.0841     1.9561   423.4439
  129.0000  -999.2500   -61.1787     3.0265     1.9601   432.8945
  129.5000  -999.2500   -61.0768     3.0122     1.9601   426.6332
  130.0000  -999.2500   -60.8981     3.1002     1.9987   411.9900
  130.5000  -999.2500   -60.7177     3.1865     2.1182   395.4774
  131.0000  -999.2500   -60.5367     3.2015     2.2352   379.3970
  131.5000  -999.2500   -60.3548     3.1826     2.3665   354.4143
  132.0000  -999.2500   -60.1906     3.5826     2.8909   326.2513
  132.5000  -999.2500   -60.3276     4.1827     3.4507   288.2180
  133.0000  -999.2500   -60.4737     4.5940     4.0090   250.3877
  133.5000  -999.2500   -60.6169     4.5047     4.5319   218.6780
  134.0000  -999.2500   -60.7627     4.4150     4.5469   209.6028
  134.5000  -999.2500   -60.9070     4.4468     4.5121   209.6374
  135.0000  -999.2500   -61.0513     4.4934     4.4766   212.3541
  135.5000  -999.2500   -61.1956     4.5123     4.4421   214.7783
  136.0000  -999.2500   -61.3403     4.5132     4.4088   215.8995
  136.5000  -999.2500   -61.4846     4.5107     4.3638   220.8509
  137.0000  -999.2500   -61.5951     4.4371     4.0400   233.4648
  137.5000  -999.2500   -61.5492     4.3066     3.7023   253.0151
  138.0000  -999.2500   -61.3407     4.0884     3.3653   277.8769
  138.5000  -999.2500   -61.1383     3.8716     3.0294   306.2563
  139.0000  -999.2500   -60.9363     3.6545     2.6901   334.6357
  139.5000  -999.2500   -60.7341     3.4714     2.5647   354.7404
  140.0000  -999.2500   -60.5312     3.3708     2.5625   361.3065
  140.5000  -999.2500   -60.3309     3.4077     2.5623   360.5714
