~VERSION INFORMATION
 VERS.                2.0:   CWLS LOG ASCII STANDARD - VERSION 2.0
 WRAP.                 NO:   ONE LINE PER DEPTH STEP
~WELL INFORMATION
#MNEM.UNIT      DATA TYPE    INFORMATION
#----------   ------------   ------------------------------
 STRT.F          520.5000:   START DEPTH
 STOP.F         2062.0000:   STOP DEPTH
 STEP.F            0.5000:   STEP LENGTH
 NULL.          -999.2500:   NO VALUE
 COMP. LAWRENCE-ALLISON &AS:   COMPANY
 WELL.     NPR 3 #18-X-28:   WELL
 FLD .             TEAPOT:   FIELD
 LOC .      S28 T39N R78W:   LOCATION
 CNTY.            NATRONA:   COUNTY
 STAT.            WYOMING:   STATE
 CTRY. UNITED STATES OF AMERICA:   COUNTRY
 SRVC.            Unknown:   SERVICE COMPANY
 DATE.        08-DEC-1987:   LOGDATE
 API .       490251119700:   API NUMBER
~CURVE INFORMATION
#MNEM.UNIT       API CODE    CURVE DESCRIPTION
#----------   ------------   ------------------------------
 DEPT.F                  :   
 ROP .MIN/FT 91 810 01 00:   RAT OF DRILLING PENETRATION
 TGAS.UNITS  91 830 01 00:   TOTAL GAS FROM HOTWIRE
~PARAMETER INFORMATION
#MNEM.UNIT          VALUE    DESCRIPTION
#----------   ------------   ------------------------------
 EKB .F              5090:   KELLING BUSHING
 EGL .F              5080:   GROUND LEVEL
 DATE.            12-8-87:   RUN DATE
 DD  .F              2062:   DEPTH DRILLER
 CS  .IN                7:   CASING SIZE
 CBD .F               513:   CASING BOTTOM DRILLER
 TCS .HRS            1000:   TIME CURCULATED STOPPED
 TLAB.HRS            0432:   TIME LOGGER AT BOTTOM
 ENGI.              TOWER:   RECORDING ENGINEER
 WITN.               HUSK:   WITNESSED BY
 CLNT.            A2DTECH:   CLIENT CODE
 ORIG.           5" PRINT:   ORIGIN OF DATA
 UWI .       490251119700:   UNIQUE WELL ID
 DICO. A2D Technologies, Inc.:   DIGITIZING COMPANY
~OTHER INFORMATION
~A   DEPT      ROP         TGAS 
# ...
  642.0000     0.3215     0.0004
  642.5000     0.3112     0.0004
  643.0000     0.3114     0.0004
  643.5000     0.3115     0.0004
  644.0000     0.3220     0.0004
  644.5000     0.3117     0.0004
  645.0000     0.3119     0.0004
  645.5000     0.3223     0.0004
  646.0000     0.3225     0.0004
  646.5000     0.3226     0.0004
  647.0000     0.3227     0.0004
  647.5000     0.3229     0.0004
  648.0000     0.3334     0.0894
  648.5000     0.3335     0.1202
  649.0000     0.3336     0.1509
  649.5000     0.3337     0.6003
  650.0000     0.3339     0.6311
  650.5000     0.3340     0.6619
  651.0000     0.3341     0.6927
  651.5000     0.3342     0.7235
  652.0000     0.3344     0.7543
  652.5000     0.3345     0.7850
  653.0000     0.3346     0.8163
  653.5000     0.3348     0.4280
  654.0000     0.3349     0.8851
  654.5000     0.3350     0.9159
  655.0000     0.3352     0.9467
  655.5000     0.3353     0.9775
  656.0000     0.3354     1.0082
  656.5000     0.3355     1.0390
  657.0000     0.3357     1.0698
  657.5000     0.3255     1.1006
  658.0000     0.3048     1.1314
  658.5000     0.2843     0.7436
  659.0000     0.2844     0.7744
  659.5000     0.2846     0.8058
  660.0000     0.2847     0.8372
  660.5000     0.2848     0.8744
  661.0000     0.2849     0.9052
  661.5000     0.2851     0.9360
  662.0000     0.2956     1.3854
  662.5000     0.2957     1.4162
  663.0000     0.3062     1.4469
  663.5000     0.3063     1.8963
  664.0000     0.3168     1.9271
  664.5000     0.3169     1.9579
  665.0000     0.3170     1.5698
  665.5000     0.3275     1.6012
  666.0000     0.3276     1.6326
  666.5000     0.3174     1.6701
  667.0000     0.3175     1.2746
  667.5000     0.3177     1.3131
  668.0000     0.3178     1.3439
  668.5000     0.3180     1.7933
  669.0000     0.3077     1.8241
  669.5000     0.3079     1.8549
  670.0000     0.3080     2.3042
  670.5000     0.3081     2.3350
  671.0000     0.3082     2.3658
  671.5000     0.3187     2.3966
  672.0000     0.3188     2.0088
  672.5000     0.3293     2.0407
  673.0000     0.3398     2.0781
  673.5000     0.3710     1.6825
  674.0000     0.3815     1.7210
  674.5000     0.3816     1.3255
  675.0000     0.3818     1.3640
  675.5000     0.3715     0.9685
  676.0000     0.3717     0.5807
  676.5000     0.3718     0.6191
  677.0000     0.3719     0.6499
  677.5000     0.3617     1.0993
  678.0000     0.3618     1.1373
  678.5000     0.3619     1.5802
  679.0000     0.3724     1.6116
  679.5000     0.3829     1.6488
  680.0000     0.3830     1.2532
  680.5000     0.3624     0.0305
  681.0000     0.3626     0.0686
  681.5000     0.3627     0.0990
  682.0000     0.3628     0.1295
  682.5000     0.3630     0.1600
  683.0000     0.3631     0.6091
  683.5000     0.3736     0.6395
  684.0000     0.3751     0.6700
  684.5000     0.3842     0.7012
  685.0000     0.3843     0.7386
  685.5000     0.3845     0.7691
  686.0000     0.3846     0.7995
  686.5000     0.3743     0.8300
  687.0000     0.3641     0.8605
  687.5000     0.3643     0.8910
  688.0000     0.3333     0.9214
  688.5000     0.3331     0.9523
  689.0000     0.3232     0.9837
  689.5000     0.3234     1.0205
  690.0000     0.3131     1.0510
  690.5000     0.3133     1.0814
  691.0000     0.3238     1.1119
  691.5000     0.3239     1.1424
  692.0000     0.3136     1.1729
  692.5000     0.3242     1.2035
  693.0000     0.3243     1.2349
  693.5000     0.3244     1.2719
  694.0000     0.3245     0.8761
  694.5000     0.3247     0.9142
  695.0000     0.3248     1.3633
  695.5000     0.3249     1.3938
  696.0000     0.3251     1.4243
  696.5000     0.3252     1.4547
  697.0000     0.3253     1.4860
  697.5000     0.3151     1.5233
  698.0000     0.3152     1.5538
  698.5000     0.3153     1.5843
  699.0000     0.3155     1.6147
  699.5000     0.3156     1.2266
  700.0000     0.3158     1.2571
  700.5000     0.3159     1.2876
  701.0000     0.3263     1.3186
  701.5000     0.3161     1.3561
  702.0000     0.3163     1.3866
  702.5000     0.3164     1.4171
  703.0000     0.3269     1.4475
  703.5000     0.3270     1.4780
  704.0000     0.3271     1.0899
  704.5000     0.3273     1.1204
  705.0000     0.3274     1.1508
  705.5000     0.3275     0.7627
  706.0000     0.3277     0.8008
  706.5000     0.3278     0.4127
  707.0000     0.3279     0.4432
  707.5000     0.3280     0.4736
  708.0000     0.3282     0.5041
  708.5000     0.3283     0.5346
  709.0000     0.3284     0.5651
  709.5000     0.3286     0.5965
  710.0000     0.3287     0.2074
  710.5000     0.3392     0.2455
  711.0000     0.3393     0.2760
  711.5000     0.3394     0.7250
  712.0000     0.3396     0.7555
  712.5000     0.3397     0.7860
  713.0000     0.3398     0.8165
  713.5000     0.3399     0.8477
  714.0000     0.3504     0.8850
  714.5000     0.3609     1.3341
  715.0000     0.3610     1.3646
  715.5000     0.3612     1.3951
  716.0000     0.3613     0.9993
  716.5000     0.3614     1.0374
  717.0000     0.3616     0.6493
  717.5000     0.3410     0.6798
  718.0000     0.3411     0.0004
  718.5000     0.3412     0.0004
  719.0000     0.3414     0.0004
  719.5000     0.3311     0.0004
  720.0000     0.3313     0.0025
  720.5000     0.3305     0.0004
  721.0000     0.3299     0.0004
  721.5000     0.3603     0.0004
  722.0000     0.3806     0.0211
  722.5000     0.3798     0.0263
  723.0000     0.3584     0.0314
  723.5000     0.3261     0.0366
  724.0000     0.3157     0.0419
  724.5000     0.3046     0.0471
  725.0000     0.2936     0.0523
  725.5000     0.2930     0.0586
  726.0000     0.2820     0.0637
  726.5000     0.2814     0.0689
  727.0000     0.2808     0.0741
  727.5000     0.2698     0.0792
  728.0000     0.2692     0.0844
  728.5000     0.2685     0.0896
  729.0000     0.2677     0.0004
  729.5000     0.2671     0.0004
  730.0000     0.2665     0.0004
  730.5000     0.2658     0.1102
  731.0000     0.2757     0.0004
  731.5000     0.2749     0.0004
  732.0000     0.2847     0.0004
  732.5000     0.2840     0.1309
  733.0000     0.2834     0.1361
  733.5000     0.2827     0.1413
  734.0000     0.2820     0.0004
  734.5000     0.2919     0.0004
  735.0000     0.2911     0.1570
  735.5000     0.3008     0.1632
  736.0000     0.3002     0.1684
  736.5000     0.2995     0.1736
  737.0000     0.2989     0.1787
  737.5000     0.2983     0.1839
  738.0000     0.2976     0.1891
  738.5000     0.3074     0.1942
  739.0000     0.3066     0.1994
  739.5000     0.3059     0.2046
  740.0000     0.3053     0.0004
  740.5000     0.3047     0.0004
  741.0000     0.3040     0.0004
  741.5000     0.3034     0.0004
  742.0000     0.3028     0.0004
  742.5000     0.3021     0.0004
  743.0000     0.3015     0.0004
  743.5000     0.3007     0.0004
  744.0000     0.2897     0.0004
  744.5000     0.2891     0.0004
  745.0000     0.2885     0.0004
  745.5000     0.2879     0.2679
  746.0000     0.2872     0.0004
  746.5000     0.2866     0.0004
  747.0000     0.2860     0.0004
  747.5000     0.2853     0.0004
  748.0000     0.2743     0.0004
  748.5000     0.2736     0.0004
  749.0000     0.2729     0.0004
  749.5000     0.2723     0.0004
  750.0000     0.2717     0.0004
  750.5000     0.2710     0.0004
  751.0000     0.2808     0.0004
  751.5000     0.2801     0.0004
  752.0000     0.2795     0.0004
  752.5000     0.2789     0.0004
  753.0000     0.2886     0.0004
  753.5000     0.2878     0.0004
  754.0000     0.2872     0.0004
  754.5000     0.2865     0.0004
  755.0000     0.2859     0.0004
  755.5000     0.2853     0.0004
  756.0000     0.2847     0.0004
  756.5000     0.2840     0.0004
  757.0000     0.2834     0.0004
  757.5000     0.2827     0.0004
  758.0000     0.2820     0.3984
  758.5000     0.2813     0.4035
  759.0000     0.2807     0.0004
  759.5000     0.2697     0.0004
  760.0000     0.2796     0.0004
  760.5000     0.2905     0.4814
  761.0000     0.2913     0.5559
  761.5000     0.2919     0.1830
  762.0000     0.2925     0.0004
  762.5000     0.3035     0.0004
  763.0000     0.3041     0.0004
