~VERSION INFORMATION
 VERS.                2.0:   CWLS LOG ASCII STANDARD - VERSION 2.0
 WRAP.                 NO:   ONE LINE PER DEPTH STEP
~WELL INFORMATION
#MNEM.UNIT      DATA TYPE    INFORMATION
#----------   ------------   ------------------------------
 STRT.F           88.0000:   START DEPTH
 STOP.F          991.0000:   STOP DEPTH
 STEP.F            0.5000:   STEP LENGTH
 NULL.          -999.2500:   NO VALUE
 COMP. US NAVY /INTEX OIL CO.:   COMPANY
 WELL.    NPR #3 #S-11 63:   WELL
 FLD .             TEAPOT:   FIELD
 LOC .      S11 T38N R78W:   LOCATION
 CNTY.            NATRONA:   COUNTY
 STAT.            WYOMING:   STATE
 CTRY. UNITED STATES OF AMERICA:   COUNTRY
 SRVC.       Schlumberger:   SERVICE COMPANY
 DATE.        24-JUL-1964:   LOGDATE
 API .       490250636200:   API NUMBER
~CURVE INFORMATION
#MNEM.UNIT       API CODE    CURVE DESCRIPTION
#----------   ------------   ------------------------------
 DEPT.F                  :   
 SPR .MV     05 010 01 00:   SPONTANEOUS POTENTIAL FROM RES.
 ASN .OHMM   05 041 16 00:   AMPLIFIED SHORT NORMAL 16"
 ILD .OHMM   05 120 46 00:   INDUCTION LOG DEEP
 CILD.MMHO   05 110 46 00:   CONDUCTIVITY INDUCTION LOG DEEP
 CALS.IN     60 280 50 00:   CALIPER FROM SONIC LOG
 DT  .US/F   60 520 33 00:   INTERVAL TRANSIT TIME
 GR  .GAPI   30 310 01 00:   GAMMA RAY
~PARAMETER INFORMATION
#MNEM.UNIT          VALUE    DESCRIPTION
#----------   ------------   ------------------------------
 PD  .                 GL:   PERMANENT DATUM
 LMF .                 KB:   LOG MEASURED FROM
 DAPD.F                 5:   FEET ABOVE PERMANENT DATUM
 DMF .                 KB:   DRILLING MEASURED FROM
 EKB .F              5914:   KELLING BUSHING
 DATE.          7-24-1964:   RUN DATE
 RUN .                  1:   RUN NUMBER
 DD  .F               990:   DEPTH DRILLER
 DL  .F               992:   DEPTH LOGGER
 BLI .F               991:   BOTTOM LOG INTERVAL
 TLI .F               990:   TOP LOG INTERVAL
 CS  .IN            8.625:   CASING SIZE
 CBD .F                15:   CASING BOTTOM DRILLER
 BS  .IN             6.75:   BIT SIZE
 BSD .F               990:   BIT SIZE AT DEPTH
 DFT .            GEL OIL:   DRILLING FLUID TYPE
 DFD .                9.2:   DRILLING FLUID DENSITY
 DFV .                 47:   DRILLING FLUID VISCOSITY
 MSS .            MUD PIT:   MUD SAMPLE SOURCE
 RMS .OHMM           1.24:   RESISTIVITY MUD SAMPLE
 MST .F                75:   MUD SAMPLE TEMPERATURE
 RMF .OHMM           .801:   RESISTIVITY MUD FILTRATE SAMPLE
 MFST.F                80:   MUD FILTRATE SAMPLE TEMPERATURE
 MFSS.                 FP:   MUD FILTRATE SAMPLE SOURCE
 RMB .OHMM           1.09:   RESISTIVITY MUD AT BHT
 BHT .F                85:   BOTTOM HOLE TEMPERATURE
 TCS .HRS              .5:   TIME CURCULATED STOPPED
 MRT .F                85:   MAXIMUM RECORDED TEMPERATURE
 LUN .               2572:   LOGGING UNIT NUMBER
 LUL .                 MC:   LOGGING UNIT LOCATION
 ENGI.             BOWLER:   RECORDING ENGINEER
 WITN.          JORGENSEN:   WITNESSED BY
 CLNT.            A2DTECH:   CLIENT CODE
 ORIG.      2" & 5" PRINT:   ORIGIN OF DATA
 UWI .       490250636200:   UNIQUE WELL ID
 DICO. A2D Technologies, Inc.:   DIGITIZING COMPANY
~OTHER INFORMATION
~A   DEPT      SPR          ASN        ILD      CILD      CALS         DT         GR   
# ...
  452.0000   -44.5937    15.1449    15.3422    64.8059     6.6456   116.4046    54.3614
  452.5000   -44.5849    15.1455    15.3467    64.7706     6.6458   134.1108    53.1551
  453.0000   -44.4324    15.2210    15.4247    62.5027     6.6459   137.3824    50.5933
  453.5000   -44.2800    15.2966    15.4283    60.9812     6.6460   159.2894    55.1099
  454.0000   -44.2729    15.2972    15.5064    58.7133     6.6462   140.5772    62.6385
  454.5000   -44.1205    15.2978    15.5100    57.9380     6.6463   124.5034    69.1129
  455.0000   -43.9680    15.1434    15.3648    58.6625     6.7225   116.9864    75.8885
  455.5000   -43.8154    14.7612    15.1452    62.3576     6.8198   108.2789    78.8991
  456.0000   -43.6614    14.0253    14.6280    66.8454     6.8632   106.1190    71.2168
  456.5000   -43.5089    13.2013    13.7172    73.0595     6.8634   105.8845    73.6249
  457.0000   -43.3565    12.0774    12.5528    83.1588     6.8635   105.5190    76.9367
  457.5000   -42.7680    10.5397    11.2171    93.5775     6.8636   104.9216    80.2484
  458.0000   -41.8888     9.9647     9.9559   106.2350     6.8638   105.6635    76.3313
  458.5000   -40.5736     9.5455     7.4300   112.1762     6.8639   106.3315    78.4382
  459.0000   -38.8223     9.0663     6.6896   120.3561     6.8641   106.4032    85.8162
  459.5000   -37.6524     8.4930     6.3212   129.2823     6.8553   106.7063    88.5255
  460.0000   -36.6279     7.9800     6.0272   138.9547     6.8559   107.3657    82.4999
  460.5000   -36.0392     7.6289     5.8067   147.9856     6.8566   107.9588    75.7213
  461.0000   -36.0306     7.4196     5.7359   156.1789     6.8571   108.3287    82.0451
  461.5000   -36.0235     7.2702     5.5172   162.7410     6.8577   108.4759    85.0560
  462.0000   -36.1635     7.2257     5.4465   165.7043     6.8871   108.1012    79.9336
  462.5000   -36.1546     7.3914     5.3757   165.6680     6.9176   107.4913    77.2213
  463.0000   -36.0040     7.4819     5.2305   165.6390     6.8872   106.6082    73.6053
  463.5000   -35.9951     7.5574     5.1597   164.8637     6.8024   105.8620    78.1219
  464.0000   -35.9880     7.6180     5.1642   163.3421     6.7596   105.4135    84.5967
  464.5000   -35.9809     7.6336     5.1678   162.5668     6.8323   105.0393    82.4863
  465.0000   -35.9738     7.5294     5.1715   160.2985     6.8616   104.6651    72.2439
  465.5000   -35.8212     7.3650     5.1751   159.5164     6.8046   105.4305    76.6098
  466.0000   -35.6672     7.1857     5.1787   158.7411     6.7475   107.2645    80.0722
  466.5000   -35.5147     7.0813     5.1823   158.7121     6.7337   108.5272    76.4562
  467.0000   -35.3623     7.1119     5.2605   158.6831     6.7632   109.4923    77.5089
  467.5000   -35.2099     7.2024     5.4137   158.6541     6.7782   109.9366    79.1640
  468.0000   -35.2028     7.2780     5.4917   157.8788     6.8075   109.9435    77.2047
  468.5000   -35.0503     7.3985     5.4953   157.8497     6.8081   109.4050    76.6008
  469.0000   -34.8979     7.4757     5.5734   157.0744     6.7942   108.7392    76.7502
  469.5000   -34.7455     7.5394     5.5770   156.2985     6.7804   108.0674    78.2544
  470.0000   -34.7384     7.5803     5.6550   155.5166     6.7811   107.6188    81.2653
  470.5000   -34.5857     7.5809     5.7330   155.4875     6.7816   107.5428    79.9080
  471.0000   -34.5771     7.5065     5.8111   156.2121     6.7822   107.7634    78.7017
  471.5000   -34.5700     7.4022     5.8148   156.1758     6.7827   108.0588    78.0977
  472.0000   -34.5629     7.2978     5.8185   158.3855     6.7977   108.2793    77.0420
  472.5000   -34.5558     7.1934     5.8972   159.1100     6.8127   108.5004    77.1911
  473.0000   -34.6958     7.0591     5.9008   161.3126     6.8422   108.7215    78.3944
  473.5000   -34.6870     6.9393     5.9045   162.7761     6.8716   108.9431    85.7724
  474.0000   -34.8252     6.8168     5.9081   164.9858     6.8865   109.1636    93.6022
  474.5000   -34.8181     6.6862     5.9117   167.1956     6.9159   109.2361    92.3959
  475.0000   -34.8110     6.8067     5.9153   167.9129     6.9164   109.3825    94.5028
  475.5000   -34.9493     6.9572     5.9190   167.8766     6.9170   109.3799    94.8029
  476.0000   -34.9404     7.1077     5.9226   167.1013     6.9010   109.2289    94.6504
  476.5000   -34.9334     7.1533     5.9263   164.8335     6.8749   108.9291    95.7031
  477.0000   -34.9263     7.2438     5.9307   163.3119     6.8610   108.5550    98.5630
  477.5000   -34.9192     7.4543     6.0831   161.7903     6.8617   108.2552    95.2483
  478.0000   -34.9121     7.6348     6.1612   158.7761     6.8623   108.0297    85.7588
  478.5000   -35.0521     7.6654     6.1648   156.4129     6.8772   107.9528    82.4444
  479.0000   -35.0432     7.6509     6.2428   152.7408     6.9079   107.7274    83.6474
  479.5000   -35.1817     7.6517     6.3952   151.2192     6.9217   107.4276    86.5077
  480.0000   -35.1744     7.7122     6.4733   148.9513     6.8933   106.9791    78.3733
  480.5000   -35.0218     7.7878     6.5513   146.6835     6.8364   106.6049    79.5766
  481.0000   -34.8678     7.9383     6.6408   145.9082     6.8224   106.2212    81.6839
  481.5000   -34.5700     8.0288     6.7827   144.3867     6.8231   105.7816    79.1217
  482.0000   -34.5629     8.0744     6.8607   143.6114     6.8236   105.4074    75.9576
  482.5000   -34.5558     8.0900     6.9387   142.0645     6.8387   104.9589    75.3540
  483.0000   -34.5487     8.1517     6.8679   140.4572     6.8825   104.5103    77.9124
  483.5000   -34.5416     8.2133     6.8715   139.0394     6.9263   103.9873    73.5434
  484.0000   -34.5345     8.2718     6.8752   138.2641     6.9557   103.3819    71.4335
  484.5000   -34.5274     8.3173     6.8043   138.9886     6.9706   103.0152    67.5163
  485.0000   -34.5198     8.2729     6.8080   139.6986     6.9712   103.0875    72.0329
  485.5000   -34.5131     8.1986     6.6522   140.4231     6.9412   103.6062    75.3446
  486.0000   -34.5044     8.1242     6.5176   142.6256     6.8858   104.2737    73.9877
  486.5000   -34.3520     8.0198     6.5222   144.8354     6.8289   104.6436    75.3420
  487.0000   -34.0542     7.9155     6.5258   146.2989     6.7862   104.8710    70.8220
  487.5000   -33.9017     7.8411     6.5294   147.7624     6.7580   105.1596    68.1097
  488.0000   -33.7493     7.7817     6.4577   148.4796     6.7441   105.3062    64.3435
  488.5000   -33.7422     7.8274     6.4622   148.4433     6.7600   105.2297    66.7516
  489.0000   -33.7351     8.0829     6.3914   147.6681     6.8030   104.9299    58.9184
  489.5000   -33.7280     8.8031     6.3207   146.8928     6.8468   103.0677    51.6880
  490.0000   -33.7209     9.4933     6.2499   146.8637     6.8761    97.5795    38.2530
  490.5000   -33.8592     9.5689     6.2544   146.8347     6.8911    95.7717    36.9263
  491.0000   -33.9957     8.9997     6.3324   146.8057     6.8917    96.2155    44.3263
  491.5000   -34.4264     8.1008     6.3361   146.7762     6.8922    96.4371    63.3163
  492.0000   -34.5647     7.7265     6.4141   148.2329     6.8928    96.8064    75.2258
  492.5000   -34.4104     7.6072     6.4177   150.4427     6.8933   102.4590    82.2516
  493.0000   -34.4034     7.6280     6.4957   153.3987     6.8940   104.4762    71.6272
  493.5000   -34.3963     7.6685     6.5737   155.6085     6.8946   104.6869    67.4050
  494.0000   -34.0985     7.7290     6.5774   155.5795     6.8951   105.5770    69.4756
  494.5000   -33.8007     7.7596     6.6555   154.8042     6.8957   108.6255    73.6100
  495.0000   -33.7936     7.7752     6.7343   154.0289     6.8962   113.9061    74.4127
  495.5000   -33.6410     7.7308     6.8124   153.2536     6.8969   115.9873    75.6418
  496.0000   -33.6323     7.6714     6.8904   151.7313     6.8975   105.1121    79.3795
  496.5000   -33.6252     7.5520     6.8940   150.9495     6.8980   105.5658    78.3238
  497.0000   -33.6181     7.5834     6.8976   150.9204     6.8986   105.9357    77.8524
