~VERSION INFORMATION
 VERS.                2.0:   CWLS LOG ASCII STANDARD - VERSION 2.0
 WRAP.                 NO:   ONE LINE PER DEPTH STEP
~WELL INFORMATION
#MNEM.UNIT      DATA TYPE    INFORMATION
#----------   ------------   ------------------------------
 STRT.F            0.0000:   START DEPTH
 STOP.F         1283.5000:   STOP DEPTH
 STEP.F            0.5000:   STEP LENGTH
 NULL.          -999.2500:   NO VALUE
 COMP.      U.S. NAVY NPR:   COMPANY
 WELL. NAVAL PETROLEUM RESERVE 3 ST-11 #88-11:   WELL
 FLD .             TEAPOT:   FIELD
 LOC .      S11 T38N R78W:   LOCATION
 CNTY.            NATRONA:   COUNTY
 STAT.            WYOMING:   STATE
 CTRY. UNITED STATES OF AMERICA:   COUNTRY
 SRVC.       Schlumberger:   SERVICE COMPANY
 DATE.        01-NOV-1958:   LOGDATE
 API .       490250632600:   API NUMBER
~CURVE INFORMATION
#MNEM.UNIT       API CODE    CURVE DESCRIPTION
#----------   ------------   ------------------------------
 DEPT.F                  :   
 GRN .GAPI   35 310 01 00:   GAMMA RAY
 NEUT.NAPI   35 330 01 00:   NEUTRON
 ASN .OHMM   01 041 16 00:   AMPLIFIED SHORT NORMAL
 LAT .OHMM   01 070 18 00:   LATERAL 18"
 LN  .OHMM   01 060 64 00:   LONG NORMAL 64"
 SPR .MV     01 010 01 00:   SPONTANEOUS POTENTIAL
 CALM.IN     15 280 01 00:   CALIPER FROM MICRO LOG
~PARAMETER INFORMATION
#MNEM.UNIT          VALUE    DESCRIPTION
#----------   ------------   ------------------------------
 LMF .                 KB:   LOG MEASURED FROM
 DMF .                 KB:   DRILLING MEASURED FROM
 EKB .F              5289:   KELLING BUSHING
 EGL .F              5279:   GROUND LEVEL
 DATE.        01-NOV-1958:   RUN DATE
 RUN .                  1:   RUN NUMBER
 DD  .F              1280:   DEPTH DRILLER
 DL  .F              1283:   DEPTH LOGGER
 BLI .F              1282:   BOTTOM LOG INTERVAL
 TLI .F               150:   TOP LOG INTERVAL
 CBD .F                45:   CASING BOTTOM DRILLER
 BS  .IN            7.875:   BIT SIZE
 BSD .F              1280:   BIT SIZE AT DEPTH
 DFT .                GEL:   DRILLING FLUID TYPE
 DFD .                9.1:   DRILLING FLUID DENSITY
 DFV .                 63:   DRILLING FLUID VISCOSITY
 DFL .                2.1:   DRILLING FLUID LOSS
 RMS .OHMM            2.4:   RESISTIVITY MUD SAMPLE
 MST .F                56:   MUD SAMPLE TEMPERATURE
 RMF .OHMM           1.45:   RESISTIVITY MUD FILTRATE SAMPLE
 MFST.F                79:   MUD FILTRATE SAMPLE TEMPERATURE
 RMC .OHMM            1.7:   RESISTIVITY MUD CAKE
 MCST.F                79:   MUD CAKE SAMPLE TEMPERATURE
 MFSS.               MEAS:   MUD FILTRATE SAMPLE SOURCE
 MCSS.               MEAS:   MUD CAKE SAMPLE SOURCE
 RMB .OHMM            1.6:   RESISTIVITY MUD AT BHT
 BHT .F                79:   BOTTOM HOLE TEMPERATURE
 TCS .HRS               1:   TIME CURCULATED STOPPED
 MRT .F                79:   MAXIMUM RECORDED TEMPERATURE
 LUN .               2544:   LOGGING UNIT NUMBER
 LUL .                 NC:   LOGGING UNIT LOCATION
 ENGI.            EARNEST:   RECORDING ENGINEER
 WITN.             MARTIN:   WITNESSED BY
 CLNT.            A2DTECH:   CLIENT CODE
 ORIG.         2.5" PRINT:   ORIGIN OF DATA
 UWI .       490250632600:   UNIQUE WELL ID
 DICO. A2D Technologies, Inc.:   DIGITIZING COMPANY
~OTHER INFORMATION
~A    DEPT       GRN     NEUT        ASN        LAT         LN        SPR       CALM   
# ...
  728.0000     5.6797   272.9473     2.9812     3.1250     4.2508   -10.9093     8.5183
  728.5000     5.7416   298.0558     2.7228     3.0935     4.4667   -10.9039     8.4891
  729.0000     5.7163   310.7042     2.6395     2.8157     4.6047   -10.8985     8.4338
  729.5000     5.7440   320.3672     2.5562     2.7174     4.6067   -10.8930     8.3463
  730.0000     5.8167   330.0302     2.6686     2.7174     4.4728   -10.8875     8.2354
  730.5000     5.2049   334.4688     2.8593     2.9092     4.4752   -10.8821     8.1668
  731.0000     4.9841   335.6939     3.1044     3.1871     4.4772   -10.8766     8.1763
  731.5000     4.6632   343.3460     3.7571     3.5330     4.3430   -10.9459     8.2324
  732.0000     4.6023   358.0492     4.6272     3.8786     4.0733   -11.1401     8.3272
  732.5000     4.4814   373.1208     5.5245     4.2120     3.9392   -11.4083     8.4261
  733.0000     4.5006   368.7601     6.5848     4.4837     3.6695   -11.7885     8.5094
  733.5000     4.7197   369.9623     7.4821     4.7554     3.6715   -12.2170     8.5228
  734.0000     4.2951   358.6678     8.2978     4.8913     3.6662   -12.4851     8.5233
  734.5000     4.2779   351.2995     8.5701     5.1630     3.8114   -12.4796     8.4965
  735.0000     4.3710   353.4991     8.7627     5.2989     3.9585   -13.0202     8.4969
  735.5000     4.4362   355.8532     8.8157     5.2989     4.2338   -13.5620     8.4973
  736.0000     4.4203   349.6884     8.6130     5.1630     4.5299   -13.5566     8.4977
  736.5000     4.2147   328.7515     8.3327     4.8913     4.9294   -13.2777     8.4981
  737.0000     4.1350   303.6628     7.9498     4.7554     5.0733   -12.9988     8.4713
  737.5000     4.5508   282.6768     6.6916     4.6139     5.4890   -12.7199     8.4717
  738.0000     4.9314   266.5039     5.6920     4.4719     5.6329   -12.4410     8.4173
  738.5000     4.8306   259.2794     5.3491     4.1941     5.9127   -11.8886     8.3365
  739.0000     4.8587   256.9055     5.1510     3.9162     6.1409   -11.3361     8.3426
  739.5000     4.5288   280.9806     5.4422     3.6384     6.2789   -11.0571     8.4502
  740.0000     4.2640   301.1980     5.6630     3.5326     6.4169   -11.3435     8.4792
  740.5000     4.4671   315.7284     5.9834     3.7108     6.4883   -11.6243     8.5353
  741.0000     4.1633   324.6451     7.0632     3.8528     6.6322   -12.1788     8.5642
  741.5000     4.1254   333.5618     7.9800     4.2665     6.6953   -12.7331     8.5837
  742.0000     4.2385   329.7906     8.3066     4.4085     6.6973   -13.2189     8.5841
  742.5000     4.4036   329.5778     8.4702     4.5505     6.4274   -13.2948     8.5845
  743.0000     4.5109   349.2208     8.7425     4.8284     6.5654   -13.5757     8.5716
  743.5000     4.5902   357.2869     9.0419     4.8913     7.2471   -13.7500     8.5581
  744.0000     4.5811   351.8802     9.3414     5.1630     7.6570   -14.0170     8.5314
  744.5000     4.5824   362.3361     9.5049     5.1630     7.7949   -14.0115     8.5318
  745.0000     4.8388   369.1100     9.7229     5.1630     8.0688   -14.2796     8.5050
  745.5000     4.9580   361.0403     9.8907     5.1630     8.2068   -14.5477     8.4783
  746.0000     5.0617   346.2079     9.9005     5.1630     8.3447   -14.8158     8.4515
  746.5000     4.7762   352.5525     9.9103     5.1630     8.4827   -14.8095     8.4519
  747.0000     4.5354   351.0204     9.9201     5.1630     8.6207   -14.5306     8.4523
  747.5000     4.5545   339.0395     9.9299     5.1630     8.7587   -14.5252     8.4527
  748.0000     4.2336   341.9854     9.9397     5.1630     8.8967   -14.5199     8.4531
  748.5000     4.2127   353.8875     9.9495     5.0272     9.0347   -14.2410     8.4535
  749.0000     4.2357   361.3114     9.9593     4.8913     9.1727   -14.2356     8.4267
  749.5000     4.2962   355.4124     9.9691     4.6196     9.3106   -14.2303     8.4271
  750.0000     4.2833   346.3057     9.9728     4.7781     9.4486   -14.2249     8.4003
  750.5000     4.4294   363.9576    10.1092     5.0559     9.6378   -13.9459     8.4007
  751.0000     4.5671   395.1586    10.2457     5.2989     9.7246   -13.9404     8.3739
  751.5000     4.6182   421.4280    10.3091     5.4758     9.8626   -13.9350     8.3659
  752.0000     4.6662   415.2704    10.3826     5.6648     9.8647   -14.2035     8.2736
  752.5000     4.8454   384.4410    10.4579     5.9783    10.0026   -14.1976     8.2009
  753.0000     4.8245   371.4250    10.5197     6.3093    10.0051   -14.2687     8.1852
  753.5000     4.5636   365.4148    10.6561     6.5217    10.1430   -14.7346     8.1719
  754.0000     4.3228   381.0485    10.7925     6.7292    10.1450   -14.7283     8.0894
  754.5000     4.2819   381.9042    10.9289     6.9293    10.2830   -14.7228     8.0777
  755.0000     4.2410   378.7307    10.9294     7.0652    10.4209   -14.9909     8.0782
  755.5000     4.2422   355.0861    11.0658     7.0652    10.6948   -15.3994     8.1058
  756.0000     4.3331   330.9727    11.2022     7.0652    10.9687   -15.9538     8.1333
  756.5000     4.6324   324.7008    11.3386     7.0652    11.2426   -16.3412     8.1337
  757.0000     4.8425   325.7036    11.4750     7.0652    11.6525   -16.3358     8.1613
  757.5000     4.9167   330.0213    11.6114     7.0652    12.0623   -16.3305     8.1617
  758.0000     4.6265   327.3404    11.7515     7.0652    12.4758   -16.5987     8.1349
  758.5000     4.6147   333.1632    12.1655     7.0652    12.7461   -16.3198     8.1353
  759.0000     4.5736   342.5710    12.4437     7.2011    12.8996   -16.5884     8.1357
  759.5000     4.4328   358.2048    12.7431     7.4757    13.1794   -16.3091     8.1361
  760.0000     4.5719   367.8677    13.2717     7.6178    13.4864   -16.5775     8.1366
  760.5000     4.5750   373.0527    13.7188     7.8956    13.8419   -16.2984     8.1370
  761.0000     4.4701   386.4474    14.4495     8.1735    13.8440   -16.2930     8.1374
  761.5000     4.2893   392.4449    16.0954     8.6146    13.8011   -16.2675     8.1030
  762.0000     4.4687   394.5783    18.0348     9.3397    13.4746   -15.9757     8.0477
  762.5000     4.3975   387.0755    19.4520    10.2524    12.7851   -15.7295     8.0298
  763.0000     4.2267   393.9638    20.6256    11.6890    11.8971   -15.6657     8.0302
  763.5000     4.3058   392.3192    22.0142    13.7104    10.8614   -15.4450     8.0963
  764.0000     4.0672   371.6231    22.8957    15.1576     9.9009   -15.5234     8.4161
  764.5000     4.1948   362.5202    22.9519    16.6889     9.4276   -15.8043     8.3466
  765.0000     4.3143   350.2878    22.3534    18.9129     8.8304   -16.3586     8.0591
  765.5000     4.2920   335.3215    21.2669    20.2613     9.5122   -16.9131     8.0051
  766.0000     4.4674   318.1162    19.2294    20.7880    10.1939   -17.4675     8.0599
  766.5000     4.7201   303.1500    16.9202    20.1087    11.2835   -18.1696     8.1419
  767.0000     4.6793   300.1252    15.1544    18.7500    12.3732   -19.0104     8.2239
  767.5000     4.6698   298.4612    13.6604    16.3043    13.1909   -20.0507     8.7409
  768.0000     4.6175   290.1824    12.8457    14.1304    13.6007   -19.9477     8.9044
  768.5000     4.6967   286.2879    12.8462    12.3641    13.8746   -19.8223     8.9864
  769.0000     4.5958   291.2076    12.8467    10.5978    13.8766   -20.0355     9.0684
  769.5000     4.5749   288.9061    12.7114     9.6467    13.8786   -20.0298     9.0548
  770.0000     4.8847   286.2726    12.5670     9.5109    13.4456   -20.0243     8.5879
  770.5000     5.0532   301.0375    12.2899     9.5109    12.7502   -20.0188     8.0514
  771.0000     5.0123   317.7021    12.1487     9.5263    11.9189   -19.9331     7.9823
  771.5000     5.1514   325.8725    11.8717     9.9323    11.0876   -19.6413     8.0100
  772.0000     5.1306   306.4282    11.5874    10.3460    10.2888   -19.3496     8.0104
  772.5000     5.1205   305.6424    11.2492    10.7597     9.7353   -19.0577     8.0380
  773.0000     5.0707   304.8566    10.9111    11.0376     9.1817   -18.2189     8.0490
