~VERSION INFORMATION
 VERS.                2.0:   CWLS LOG ASCII STANDARD - VERSION 2.0
 WRAP.                 NO:   ONE LINE PER DEPTH STEP
~WELL INFORMATION
#MNEM.UNIT      DATA TYPE    INFORMATION
#----------   ------------   ------------------------------
 STRT.F          376.0000:   START DEPTH
 STOP.F         2400.0000:   STOP DEPTH
 STEP.F            0.5000:   STEP LENGTH
 NULL.          -999.2500:   NO VALUE
 COMP. LAWRENCE/ALLISON INC:   COMPANY
 WELL.        55 X #15-15:   WELL
 FLD .            WILDCAT:   FIELD
 LOC .      S15 T38N R78W:   LOCATION
 CNTY.            NATRONA:   COUNTY
 STAT.            WYOMING:   STATE
 CTRY. UNITED STATES OF AMERICA:   COUNTRY
 SRVC.            Unknown:   SERVICE COMPANY
 DATE.        12-APR-1988:   LOGDATE
 API .       490251119800:   API NUMBER
~CURVE INFORMATION
#MNEM.UNIT       API CODE    CURVE DESCRIPTION
#----------   ------------   ------------------------------
 DEPT.F                  :   
 GR  .GAPI   30 310 01 00:   GAMMA RAY
 TGAS.UNITS  91 830 01 00:   TOTAL GAS UNIT
 ROP .FT/HR  91 810 01 00:   RATE OF DRILLING PENETRATION
~PARAMETER INFORMATION
#MNEM.UNIT          VALUE    DESCRIPTION
#----------   ------------   ------------------------------
 PD  .                 GL:   PERMANENT DATUM
 EPD .F              5293:   ELEVATION PERMANENT DATUM
 LMF .                 GL:   LOG MEASURED FROM
 DMF .                 KB:   DRILLING MEASURED FROM
 EKB .F              5304:   KELLING BUSHING
 EGL .F              5293:   GROUND LEVEL
 DATE.        12-APR-1988:   RUN DATE
 RUN .                  1:   RUN NUMBER
 DD  .F              2400:   DEPTH DRILLER
 DL  .F               851:   DEPTH LOGGER
 BLI .F               846:   BOTTOM LOG INTERVAL
 TLI .F               372:   TOP LOG INTERVAL
 CS  .IN                7:   CASING SIZE
 CBL .F               890:   CASING BOTTOM LOGGER
 BSD .F              2400:   BIT SIZE AT DEPTH
 DFT .              WATER:   DRILLING FLUID TYPE
 TCS .HRS               1:   TIME CURCULATED STOPPED
 ENGI.          BANGERTER:   RECORDING ENGINEER
 WITN.             NORHAN:   WITNESSED BY
 CLNT.            A2DTECH:   CLIENT CODE
 ORIG.           5" PRINT:   ORIGIN OF DATA
 UWI .       490251119800:   UNIQUE WELL ID
 DICO. A2D Technologies, Inc.:   DIGITIZING COMPANY
~OTHER INFORMATION
~A   DEPT        GR      TGAS        ROP   
# ...
 1286.0000  -999.2500     2.6078     0.3284
 1286.5000  -999.2500     2.6227     0.3289
 1287.0000  -999.2500     2.6375     0.3293
 1287.5000  -999.2500     2.6526     0.3296
 1288.0000  -999.2500     2.7333     0.3394
 1288.5000  -999.2500     3.0646     0.3398
 1289.0000  -999.2500     3.0794     0.3496
 1289.5000  -999.2500     3.0943     0.3499
 1290.0000  -999.2500     3.1091     0.3503
 1290.5000  -999.2500     3.1239     0.3507
 1291.0000  -999.2500     2.7598     0.3511
 1291.5000  -999.2500     2.7746     0.3608
 1292.0000  -999.2500     2.7894     0.3612
 1292.5000  -999.2500     3.1832     0.3616
 1293.0000  -999.2500     3.2260     0.3525
 1293.5000  -999.2500     3.5924     0.3529
 1294.0000  -999.2500     3.6103     0.3439
 1294.5000  -999.2500     3.6252     0.3255
 1295.0000  -999.2500     2.8821     0.3164
 1295.5000  -999.2500     2.8969     0.3168
 1296.0000  -999.2500     3.2907     0.3172
 1296.5000  -999.2500     3.6845     0.3080
 1297.0000  -999.2500     3.6993     0.3085
 1297.5000  -999.2500     3.7141     0.3089
 1298.0000  -999.2500     3.7289     0.3093
 1298.5000  -999.2500     3.7440     0.3096
 1299.0000  -999.2500     3.7592     0.3194
 1299.5000  -999.2500     3.7771     0.3198
 1300.0000  -999.2500     3.7919     0.3202
 1300.5000  -999.2500     3.8068     0.3299
 1301.0000  -999.2500     3.8216     0.3303
 1301.5000  -999.2500     3.8380     0.3214
 1302.0000  -999.2500     3.8529     0.3217
 1302.5000  -999.2500     3.8678     0.3221
 1303.0000  -999.2500     3.8827     0.3225
 1303.5000  -999.2500     3.8976     0.3434
 1304.0000  -999.2500     3.9125     0.3440
 1304.5000  -999.2500     3.9274     0.3446
 1305.0000  -999.2500     3.9424     0.3452
 1305.5000  -999.2500     3.9573     0.3552
 1306.0000  -999.2500     3.5895     0.3558
 1306.5000  -999.2500     3.6082     0.3658
 1307.0000  -999.2500     3.6231     0.3664
 1307.5000  -999.2500     3.2589     0.3670
 1308.0000  -999.2500     3.2741     0.3676
 1308.5000  -999.2500     2.9099     0.3683
 1309.0000  -999.2500     2.8608     0.3689
 1309.5000  -999.2500     2.5608     0.3695
 1310.0000  -999.2500     2.5795     0.3701
 1310.5000  -999.2500     2.5944     0.3801
 1311.0000  -999.2500     2.6093     0.3901
 1311.5000  -999.2500     2.6242     0.3907
 1312.0000  -999.2500     2.6391     0.3913
 1312.5000  -999.2500     2.6540     0.3919
 1313.0000  -999.2500     2.6689     0.3831
 1313.5000  -999.2500     2.6839     0.3743
 1314.0000  -999.2500     2.6981     0.3656
 1314.5000  -999.2500     2.7137     0.3662
 1315.0000  -999.2500     2.7286     0.3668
 1315.5000  -999.2500     2.7436     0.3769
 1316.0000  -999.2500     2.7587     0.3775
 1316.5000  -999.2500     2.7739     0.3780
 1317.0000  -999.2500     2.7920     0.3787
 1317.5000  -999.2500     2.8069     0.3793
 1318.0000  -999.2500     2.8218     0.3798
 1318.5000  -999.2500     2.8367     0.3805
 1319.0000  -999.2500     2.8517     0.3811
 1319.5000  -999.2500     2.8666     0.3817
 1320.0000  -999.2500     2.8815     0.3823
 1320.5000  -999.2500     2.8964     0.3829
 1321.0000  -999.2500     2.9113     0.3835
 1321.5000  -999.2500     2.9262     0.3747
 1322.0000  -999.2500     2.9412     0.3753
 1322.5000  -999.2500     2.9561     0.3759
 1323.0000  -999.2500     2.9710     0.3766
 1323.5000  -999.2500     2.9861     0.3773
 1324.0000  -999.2500     3.0013     0.3872
 1324.5000  -999.2500     3.0164     0.3878
 1325.0000  -999.2500     3.0316     0.3885
 1325.5000  -999.2500     3.0493     0.3891
 1326.0000  -999.2500     3.0642     0.3897
 1326.5000  -999.2500     3.0791     0.3903
 1327.0000  -999.2500     3.0940     0.3909
 1327.5000  -999.2500     3.1090     0.3915
 1328.0000  -999.2500     3.1239     0.3921
 1328.5000  -999.2500     3.1388     0.3928
 1329.0000  -999.2500     3.1537     0.3934
 1329.5000  -999.2500     2.7891     0.3940
 1330.0000  -999.2500     2.8046     0.3946
 1330.5000  -999.2500     2.8195     0.3952
 1331.0000  -999.2500     2.8345     0.3958
 1331.5000  -999.2500     2.8497     0.3964
 1332.0000  -999.2500     2.8648     0.3970
 1332.5000  -999.2500     2.8829     0.3976
 1333.0000  -999.2500     2.8978     0.3982
 1333.5000  -999.2500     2.9127     0.3988
 1334.0000  -999.2500     2.9276     0.3994
 1334.5000  -999.2500     2.9426     0.4002
 1335.0000  -999.2500     2.9575     0.4007
 1335.5000  -999.2500     2.9724     0.4014
 1336.0000  -999.2500     2.9873     0.4020
 1336.5000  -999.2500     3.0022     0.4026
 1337.0000  -999.2500     3.0171     0.3936
 1337.5000  -999.2500     3.4110     0.4038
 1338.0000  -999.2500     3.4259     0.4044
 1338.5000  -999.2500     3.4408     0.4050
 1339.0000  -999.2500     3.4827     0.4056
 1339.5000  -999.2500     3.8501     0.3872
 1340.0000  -999.2500     3.9033     0.3503
 1340.5000  -999.2500     4.2621     0.3319
 1341.0000  -999.2500     4.2770     0.3233
 1341.5000  -999.2500     4.6709     0.3333
 1342.0000  -999.2500     5.0648     0.3339
 1342.5000  -999.2500     5.0797     0.3345
 1343.0000  -999.2500     5.0946     0.3351
 1343.5000  -999.2500     5.1095     0.3357
 1344.0000  -999.2500     4.7417     0.3458
 1344.5000  -999.2500     4.7604     0.3464
 1345.0000  -999.2500     4.7753     0.3471
 1345.5000  -999.2500     4.7902     0.3477
 1346.0000  -999.2500     4.8051     0.3388
 1346.5000  -999.2500     4.8202     0.3205
 1347.0000  -999.2500     4.8354     0.3023
 1347.5000  -999.2500     4.4709     0.2935
 1348.0000  -999.2500     4.4896     0.2942
 1348.5000  -999.2500     4.5045     0.2948
 1349.0000  -999.2500     4.5194     0.2955
 1349.5000  -999.2500     4.5343     0.2961
 1350.0000  -999.2500     4.5474     0.2967
 1350.5000  -999.2500     4.5641     0.2973
 1351.0000  -999.2500     4.5791     0.2979
 1351.5000  -999.2500     4.5940     0.3079
 1352.0000  -999.2500     4.6089     0.3085
 1352.5000  -999.2500     4.6238     0.3091
 1353.0000  -999.2500     4.6387     0.3003
 1353.5000  -999.2500     4.6536     0.2915
 1354.0000  -999.2500     4.6686     0.2921
 1354.5000  -999.2500     4.6838     0.2927
 1355.0000  -999.2500     4.3194     0.2933
 1355.5000  -999.2500     4.3381     0.2939
 1356.0000  -999.2500     4.3530     0.2947
 1356.5000  -999.2500     4.3679     0.2952
 1357.0000  -999.2500     4.3828     0.2968
 1357.5000  -999.2500     4.3977     0.3059
 1358.0000  -999.2500     4.4127     0.3064
 1358.5000  -999.2500     4.4261     0.3070
 1359.0000  -999.2500     4.4425     0.3077
 1359.5000  -999.2500     4.8364     0.3083
 1360.0000  -999.2500     4.8513     0.3089
 1360.5000  -999.2500     4.8662     0.3095
 1361.0000  -999.2500     4.8811     0.3195
 1361.5000  -999.2500     4.8960     0.3201
 1362.0000  -999.2500     4.9112     0.3302
 1362.5000  -999.2500     4.9263     0.3308
 1363.0000  -999.2500     4.9445     0.3314
 1363.5000  -999.2500     4.9594     0.3320
 1364.0000  -999.2500     4.9743     0.3326
 1364.5000  -999.2500     4.9892     0.3284
 1365.0000  -999.2500     5.0042     0.3244
 1365.5000  -999.2500     5.0191     0.3145
 1366.0000  -999.2500     5.4129     0.3064
 1366.5000  -999.2500     5.4278     0.2979
 1367.0000  -999.2500     5.4428     0.2891
 1367.5000  -999.2500     5.0787     0.2899
 1368.0000  -999.2500     5.4726     0.2905
 1368.5000  -999.2500     5.4875     0.2911
 1369.0000  -999.2500     5.5024     0.2917
 1369.5000  -999.2500     5.8964     0.3111
 1370.0000  -999.2500     5.9116     0.3117
 1370.5000  -999.2500     5.5472     0.3218
 1371.0000  -999.2500     5.1831     0.3318
 1371.5000  -999.2500     5.2018     0.3418
 1372.0000  -999.2500     4.8340     0.3518
 1372.5000  -999.2500     4.8527     0.3807
 1373.0000  -999.2500     4.8676     0.3907
 1373.5000  -999.2500     4.4998     0.4007
 1374.0000  -999.2500     4.5185     0.4013
 1374.5000  -999.2500     4.1507     0.4019
 1375.0000  -999.2500     3.7867     0.4025
 1375.5000  -999.2500     3.8053     0.4032
 1376.0000  -999.2500     3.8202     0.4038
 1376.5000  -999.2500     3.8352     0.4044
