~VERSION INFORMATION
 VERS.                2.0:   CWLS LOG ASCII STANDARD - VERSION 2.0
 WRAP.                 NO:   ONE LINE PER DEPTH STEP
~WELL INFORMATION
#MNEM.UNIT      DATA TYPE    INFORMATION
#----------   ------------   ------------------------------
 STRT.F           66.0000:   START DEPTH
 STOP.F          892.0000:   STOP DEPTH
 STEP.F            0.5000:   STEP LENGTH
 NULL.          -999.2500:   NO VALUE
 COMP. LAWRENCE/ALLISON INC:   COMPANY
 WELL. NPR #3 #31-11 SX 2:   WELL
 FLD .             TEAPOT:   FIELD
 LOC .       S2 T38N R78W:   LOCATION
 CNTY.            NATRONA:   COUNTY
 STAT.            WYOMING:   STATE
 CTRY. UNITED STATES OF AMERICA:   COUNTRY
 SRVC.      Dresser Atlas:   SERVICE COMPANY
 DATE.        10-AUG-1985:   LOGDATE
 API .       490251103900:   API NUMBER
~CURVE INFORMATION
#MNEM.UNIT       API CODE    CURVE DESCRIPTION
#----------   ------------   ------------------------------
 DEPT.F                  :   
 PORD.DEC    45 890 12 00:   POROSITY DENSITY SANDSTONE
 CNC .DEC    42 890 03 00:   NEUTRON POROSITY SANDSTONE
 CORR.G/C3   45 356 01 00:   DENSITY CORRECTION
 DEN .G/C3   45 350 01 00:   COMPENSATED BULK DENSTIY
 CALD.IN     45 280 60 00:   CALIPER FROM DENSITY LOG
 SPR .MV     07 010 01 00:   SPONTANEOUS POTENTIAL
 RILD.OHMM   07 120 46 00:   INDUCTION LOG DEEP RESISTIVITY
 RILM.OHMM   07 120 44 00:   INDUCTION LOG MEDIUM RESISTIVITY
 RFOC.OHMM   07 220 04 00:   RESISTIVITY FOCUSED LOG
~PARAMETER INFORMATION
#MNEM.UNIT          VALUE    DESCRIPTION
#----------   ------------   ------------------------------
 PD  .                 GL:   PERMANENT DATUM
 EPD .F              5110:   ELEVATION PERMANENT DATUM
 LMF .                 GL:   LOG MEASURED FROM
 DMF .                 GL:   DRILLING MEASURED FROM
 EKB .F              5115:   KELLING BUSHING
 EGL .F              5110:   GROUND LEVEL
 DATE.        10-AUG-1985:   RUN DATE
 RUN .                  1:   RUN NUMBER
 DD  .F               899:   DEPTH DRILLER
 DL  .F               895:   DEPTH LOGGER
 BLI .F               892:   BOTTOM LOG INTERVAL
 CS  .IN            8.625:   CASING SIZE
 CBD .F                75:   CASING BOTTOM DRILLER
 CBL .F                78:   CASING BOTTOM LOGGER
 BS  .IN            7.875:   BIT SIZE
 BSD .F               899:   BIT SIZE AT DEPTH
 DFT .                KCL:   DRILLING FLUID TYPE
 MSS .           FLOWLINE:   MUD SAMPLE SOURCE
 RMS .OHMM            .21:   RESISTIVITY MUD SAMPLE
 MST .F                75:   MUD SAMPLE TEMPERATURE
 TCS .HRS            0200:   TIME CURCULATED STOPPED
 MRT .F               100:   MAXIMUM RECORDED TEMPERATURE
 LUN .               6274:   LOGGING UNIT NUMBER
 LUL .               GLTE:   LOGGING UNIT LOCATION
 ENGI.             RAUTIO:   RECORDING ENGINEER
 WITN.        LINDA FIVAS:   WITNESSED BY
 CLNT.            A2DTECH:   CLIENT CODE
 ORIG.           5" PRINT:   ORIGIN OF DATA
 UWI .       490251103900:   UNIQUE WELL ID
 DICO. A2D Technologies, Inc.:   DIGITIZING COMPANY
~OTHER INFORMATION
~A   DEPT     PORD        CNC       CORR        DEN       CALD        SPR       RILD       RILM       RFOC   
# ...
  540.5000     0.1110     0.3077     0.0266     2.4762     8.1867   -67.7564     8.2325     8.1170     8.3593
  541.0000     0.1219     0.3008     0.0090     2.4619     8.1860   -68.2189     8.2896     8.1154     8.4171
  541.5000     0.1330     0.2863    -0.0046     2.4551     8.1854   -68.6814     8.1742     8.0575     8.3580
  542.0000     0.1348     0.2830    -0.0062     2.4528     8.1848   -69.1439     8.0604     7.8892     8.2995
  542.5000     0.1351     0.2815     0.0074     2.4543     8.1994   -69.3041     7.8300     7.7164     8.1840
  543.0000     0.1348     0.2842     0.0223     2.4566     8.1988   -68.7095     7.6753     7.6690     8.0143
  543.5000     0.1333     0.2909     0.0297     2.4610     8.2133   -68.1131     7.6215     7.5613     7.8482
  544.0000     0.1315     0.3029     0.0357     2.4624     8.2278   -67.9683     7.6210     7.5074     7.7391
  544.5000     0.1294     0.2999     0.0251     2.4609     8.2271   -67.9791     7.6205     7.5059     7.6316
  545.0000     0.1300     0.2924     0.0113     2.4556     8.2266   -67.8365     7.6200     7.5568     7.6310
  545.5000     0.1333     0.2927     0.0069     2.4465     8.2411   -67.3934     7.7263     7.5549     7.7915
  546.0000     0.1385     0.2967     0.0249     2.4412     8.2254   -66.9482     7.7799     7.7130     8.0110
  546.5000     0.1424     0.2963     0.0309     2.4367     8.2247   -66.5030     7.8339     7.8747     8.1797
  547.0000     0.1463     0.2951     0.0278     2.4314     8.2241   -66.2088     7.9433     7.8727     8.1790
  547.5000     0.1509     0.2942     0.0127     2.4253     8.2235   -66.2179     8.0543     7.8711     8.1728
  548.0000     0.1542     0.2927    -0.0069     2.4223     8.2229   -66.2286     8.0536     7.8146     8.1210
  548.5000     0.1530     0.2879    -0.0235     2.4298     8.2224   -66.3885     7.9416     7.7588     8.0082
  549.0000     0.1466     0.2876    -0.0251     2.4357     8.2369   -66.5485     7.7226     7.5440     7.8970
  549.5000     0.1417     0.2937    -0.0188     2.4402     8.2211   -66.8597     7.4057     7.3352     7.7872
  550.0000     0.1433     0.3109    -0.0016     2.4372     8.2186   -66.8684     7.3429     7.2323     7.5729
  550.5000     0.1476     0.3139     0.0107     2.4334     8.2057   -66.5845     7.2969     7.2641     7.6415
  551.0000     0.1506     0.3130     0.0183     2.4296     8.1927   -66.2789     7.2509     7.2798     7.7101
  551.5000     0.1521     0.3115     0.0167     2.4265     8.1798   -66.2862     7.3523     7.2780     7.7311
  552.0000     0.1493     0.3004     0.0106     2.4272     8.1711   -66.2935     7.3517     7.3274     7.7270
  552.5000     0.1425     0.2925     0.0060     2.4325     8.2154   -66.3025     7.3512     7.3259     7.7300
  553.0000     0.1391     0.2906     0.0044     2.4377     8.2293   -66.3098     7.3507     7.3245     7.7294
  553.5000     0.1367     0.2916     0.0028     2.4429     8.2282   -66.0144     7.2991     7.3230     7.7289
  554.0000     0.1346     0.2898     0.0178     2.4482     8.2270   -66.0217     7.1949     7.2680     7.7825
  554.5000     0.1360     0.2856     0.0448     2.4519     8.2260   -66.0289     6.9990     7.0200     7.7818
  555.0000     0.1395     0.2795     0.0538     2.4509     8.2250   -66.0362     6.7588     6.7783     7.7812
  555.5000     0.1389     0.2796     0.0462     2.4465     8.2240   -65.8922     6.4364     6.4544     7.7267
  556.0000     0.1380     0.2853     0.0281     2.4450     8.2230   -65.7481     6.2155     6.1889     7.4619
  556.5000     0.1377     0.3067     0.0265     2.4465     8.2217   -65.7572     5.9604     5.9344     7.1561
  557.0000     0.1414     0.3170     0.0460     2.4472     8.2207   -65.7644     5.8329     5.7701     6.7680
  557.5000     0.1489     0.3248     0.0474     2.4456     8.2197   -65.7717     5.6362     5.6101     6.3052
  558.0000     0.1474     0.3282     0.0473     2.4351     8.2187   -65.6116     5.5192     5.4548     5.6861
  558.5000     0.1417     0.3294     0.0472     2.4313     8.2177   -65.1828     5.4805     5.5689     5.5683
  559.0000     0.1341     0.3276     0.0427     2.4365     8.2164   -64.8875     5.6745     5.6854     6.4893
  559.5000     0.1329     0.3206     0.0351     2.4455     8.2308   -64.5922     5.8754     5.8449     7.0543
  560.0000     0.1378     0.2995     0.0229     2.4537     8.2295   -64.2969     6.0891     6.0201     7.3547
  560.5000     0.1432     0.2965    -0.0012     2.4477     8.2134   -63.8503     6.2550     6.2638     7.4056
  561.0000     0.1441     0.3074     0.0107     2.4394     8.2124   -63.4037     6.3869     6.4395     7.0527
  561.5000     0.1417     0.3276     0.0047     2.4393     8.2111   -62.9589     6.5669     6.5742     6.7168
  562.0000     0.1386     0.3333    -0.0090     2.4455     8.1952   -62.8130     6.6126     6.6655     6.7633
  562.5000     0.1339     0.3292    -0.0135     2.4528     8.1940   -62.6690     6.6120     6.6638     7.1502
  563.0000     0.1330     0.3219    -0.0076     2.4565     8.1930   -62.8293     6.6115     6.6159     7.4599
  563.5000     0.1339     0.3177     0.0029     2.4557     8.1920   -63.1412     6.6110     6.6146     7.5063
  564.0000     0.1327     0.3153     0.0166     2.4572     8.2061   -63.6021     6.7034     6.6598     7.3505
  564.5000     0.1306     0.3144     0.0283     2.4609     8.2048   -63.9119     6.7499     6.6119     7.0493
  565.0000     0.1312     0.3113     0.0387     2.4624     8.2038   -64.0704     6.7025     6.4289     6.9514
  565.5000     0.1330     0.3031     0.0447     2.4570     8.2028   -63.9246     6.3810     6.3369     6.9509
  566.0000     0.1327     0.2990     0.0491     2.4555     8.2018   -63.9337     6.3379     6.2494     6.9504
  566.5000     0.1315     0.2960     0.0445     2.4592     8.2008   -63.9410     6.3375     6.2482     6.9499
  567.0000     0.1297     0.3159     0.0415     2.4652     8.1995   -63.7987     6.2059     6.1177     6.9494
  567.5000     0.1273     0.3213     0.0414     2.4675     8.1985   -63.5015     6.0348     5.9484     6.9490
  568.0000     0.1279     0.3174     0.0413     2.4659     8.1975   -62.6029     5.7470     5.6641     6.8524
  568.5000     0.1301     0.3102     0.0412     2.4629     8.1814   -62.0050     5.3164     5.2702     6.7572
  569.0000     0.1340     0.3081     0.0396     2.4550     8.1653   -61.7095     4.7934     4.7235     6.5711
  569.5000     0.1403     0.3168     0.0381     2.4327     8.1489   -61.4144     4.4084     4.4048     6.3902
  570.0000     0.1497     0.3349     0.0305     2.4161     8.1328   -61.1190     4.1690     4.2236     5.9187
  570.5000     0.1700     0.3491     0.0199     2.3965     8.1318   -60.9750     4.0540     4.1067     4.5744
  571.0000     0.1872     0.3561     0.0077     2.3603     8.1761   -60.8310     3.9976     4.0490     4.0607
  571.5000     0.1956     0.3555     0.0002     2.3505     8.1902   -60.8400     4.1173     4.1050     3.8700
  572.0000     0.1916     0.3484     0.0076     2.3618     8.1890   -60.6959     4.5632     4.4309     4.9719
  572.5000     0.1715     0.3304     0.0150     2.3817     8.1879   -60.5520     5.0659     4.8163     6.0415
  573.0000     0.1652     0.3157     0.0180     2.4038     8.1869   -60.5610     5.3937     5.1628     6.7061
  573.5000     0.1585     0.3048     0.0059     2.4113     8.1859   -60.5683     5.7027     5.5729     6.9432
  574.0000     0.1528     0.2991    -0.0063     2.4226     8.1849   -60.4224     5.9875     5.8502     6.9427
  574.5000     0.1479     0.2940    -0.0018     2.4323     8.1837   -60.2784     6.2134     6.1124     6.9908
  575.0000     0.1498     0.2934     0.0056     2.4293     8.1827   -60.2874     6.3744     6.3575     7.0391
  575.5000     0.1540     0.3145     0.0071     2.4232     8.1816   -60.4478     6.5541     6.5358     6.8452
  576.0000     0.1535     0.3136     0.0025     2.4233     8.1806   -60.9089     6.6457     6.6262     6.7501
  576.5000     0.1516     0.3094     0.0054     2.4276     8.1796   -61.3700     6.7386     6.7178     6.7992
