~VERSION INFORMATION
 VERS.                2.0:   CWLS LOG ASCII STANDARD - VERSION 2.0
 WRAP.                 NO:   ONE LINE PER DEPTH STEP
~WELL INFORMATION
#MNEM.UNIT      DATA TYPE    INFORMATION
#----------   ------------   ------------------------------
 STRT.F           29.0000:   START DEPTH
 STOP.F          882.0000:   STOP DEPTH
 STEP.F            0.5000:   STEP LENGTH
 NULL.          -999.2500:   NO VALUE
 COMP. FENIX & SCISSON INC:   COMPANY
 WELL. NAVAL PETROLEUM RESERVE 3 S-14 #42-14:   WELL
 FLD .             TEAPOT:   FIELD
 LOC .      S14 T38N R78W:   LOCATION
 CNTY.            NATRONA:   COUNTY
 STAT.            WYOMING:   STATE
 CTRY. UNITED STATES OF AMERICA:   COUNTRY
 SRVC.              Welex:   SERVICE COMPANY
 DATE.        03-MAY-1977:   LOGDATE
 API .       490251035400:   API NUMBER
~CURVE INFORMATION
#MNEM.UNIT       API CODE    CURVE DESCRIPTION
#----------   ------------   ------------------------------
 DEPT.F                  :   
 CALD.IN     45 280 60 00:   CALIPER FROM DENSITY LOG
 GRD .GAPI   45 310 01 00:   GAMMA RAY FROM DENSITY LOG
 CORR.G/C3   45 356 01 00:   DENSITY CORRECTION
 DPHI.DEC    45 890 12 00:   DENSITY POROSITY SANDSTONE
 RHOB.G/C3   45 350 01 00:   BULK DENSITY
 SPR .MV     07 010 01 00:   SPONTANEOUS POTENTIAL
 ILD .OHMM   07 120 46 00:   INDUCTION LOG DEEP
 ILM .OHMM   07 120 44 00:   INDUCTION LOG MEDIUM
 SGRD.OHMM   07 221 05 00:   SHALLOW SHORT GUARD RESISTIVITY
~PARAMETER INFORMATION
#MNEM.UNIT          VALUE    DESCRIPTION
#----------   ------------   ------------------------------
 PD  .                 GL:   PERMANENT DATUM
 EPD .F              5206:   ELEVATION PERMANENT DATUM
 LMF .                 GL:   LOG MEASURED FROM
 DMF .                 GL:   DRILLING MEASURED FROM
 EGL .F              5206:   GROUND LEVEL
 DATE.        03-MAY-1977:   RUN DATE
 RUN .                  1:   RUN NUMBER
 DD  .F               855:   DEPTH DRILLER
 DL  .F               884:   DEPTH LOGGER
 BLI .F               882:   BOTTOM LOG INTERVAL
 TLI .F                28:   TOP LOG INTERVAL
 CS  .IN            8.625:   CASING SIZE
 BS  .IN               12:   BIT SIZE
 BSD .F               855:   BIT SIZE AT DEPTH
 DFT .            KCL MUD:   DRILLING FLUID TYPE
 DFD .                8.7:   DRILLING FLUID DENSITY
 BHT .F                75:   BOTTOM HOLE TEMPERATURE
 TCS .HRS            0130:   TIME CURCULATED STOPPED
 MRT .F                75:   MAXIMUM RECORDED TEMPERATURE
 ENGI.            C. DOAK:   RECORDING ENGINEER
 WITN.            R. LYON:   WITNESSED BY
 CLNT.            A2DTECH:   CLIENT CODE
 ORIG.           5" PRINT:   ORIGIN OF DATA
 UWI .       490251035400:   UNIQUE WELL ID
 DICO. A2D Technologies, Inc.:   DIGITIZING COMPANY
~OTHER INFORMATION
~A   DEPT       CALD      GRD       CORR       DPHI         RHOB      SPR        ILD        ILM       SGRD   
# ...
  357.5000     8.0433   118.5179     0.0105     0.1393     2.4402   -39.1586     6.9770     6.2527     7.8555
  358.0000     8.0430   121.5270     0.0060     0.1358     2.4387   -39.1659     8.0107     6.2958     8.5464
  358.5000     8.0427   120.0091     0.0210     0.1331     2.4469   -39.1731     8.4069     6.3830    12.0585
  359.0000     8.0424   120.6051     0.0195     0.1361     2.4507   -39.1804     8.3999     6.4715    10.9452
  359.5000     8.0422   115.3620     0.0180     0.1390     2.4454   -39.1878     8.1187     6.5612     9.8662
  360.0000     8.0418   113.4130     0.0180     0.1399     2.4402   -39.1967     7.7877     6.6521     9.2064
  360.5000     8.0415   114.4581     0.0195     0.1331     2.4454   -39.0531     7.3676     6.6977     9.6623
  361.0000     8.0412   119.2449     0.0225     0.1289     2.4544   -39.0622     7.0673     6.6511    10.2821
  361.5000     8.0409   118.9427     0.0240     0.1244     2.4619   -38.9186     6.9212     6.5593    10.4969
  362.0000     8.0407   119.0895     0.0286     0.1208     2.4731   -38.9276     6.8726     6.4687    10.2769
  362.5000     8.0403   120.5837     0.0344     0.1172     2.4806   -39.0839     6.8717     6.3354     9.9880
  363.0000     8.0400   125.3712     0.0359     0.1157     2.4806   -39.0912     6.7749     6.2480     9.6589
  363.5000     8.0397   124.5031     0.0359     0.1157     2.4806   -39.0984     6.6364     6.1193     9.3948
  364.0000     8.0245   119.9756     0.0359     0.1127     2.4813   -39.1177     6.4543     6.0349     9.1379
  364.5000     8.0242   117.5775     0.0357     0.1145     2.4851   -39.2638     6.2774     5.9516     8.8268
  365.0000     8.0089   118.3231     0.0329     0.1115     2.4895   -39.2710     6.1053     5.9512     8.5262
  365.5000     8.0086   122.3622     0.0314     0.1169     2.4819   -39.2783     6.0624     6.0337     8.2931
  366.0000     8.0083   122.5090     0.0269     0.1202     2.4746   -39.2855     6.1039     6.1596     8.1786
  366.5000     8.0081   115.7689     0.0269     0.1189     2.4709   -39.2928     6.2308     6.2884     8.0658
  367.0000     8.0078   113.8200     0.0314     0.1178     2.4753   -39.4491     6.3605     6.4642     8.4651
  367.5000     8.0224   113.6674     0.0299     0.1202     2.4761   -39.4563     6.4519     6.6451     9.0705
  368.0000     8.0221   118.3053     0.0225     0.1271     2.4697   -39.4636     6.5371     6.6908     9.5197
  368.5000     8.0218   119.6632     0.0240     0.1277     2.4559   -39.4709     6.6271     6.7834     9.5191
  369.0000     8.0066   121.5923     0.0284     0.1215     2.4686   -39.4799     6.6724     6.7830     9.3877
  369.5000     8.0063   122.1882     0.0314     0.1163     2.4761   -39.4871     6.7178     6.7358     9.3224
  370.0000     8.0060   122.3358     0.0329     0.1118     2.4836   -39.4944     6.7166     6.5515     9.2575
  370.5000     8.0056   122.3322     0.0329     0.1139     2.4865   -39.6507     6.5778     6.5059     9.3211
  371.0000     8.0053   123.8263     0.0284     0.1187     2.4806   -39.6579     6.4419     6.5507     9.3265
  371.5000     8.0051   125.1701     0.0240     0.1202     2.4746   -39.6652     6.5761     6.6414     9.5152
  372.0000     8.0048   124.8678     0.0301     0.1127     2.4783   -39.6724     6.7192     6.6870     9.7813
  372.5000     8.0045   123.3679     0.0329     0.1112     2.4865   -39.6797     6.9001     6.7797     9.9168
  373.0000     8.0042   122.0178     0.0314     0.1121     2.4918   -39.6870     7.0438     6.8736     9.7125
  373.5000     8.0038   120.3682     0.0240     0.1211     2.4818   -39.6945     7.1412     6.9751     9.5125
  374.0000     8.0035   119.1678     0.0225     0.1229     2.4686   -39.7032     7.2899     7.1144     9.7112
  374.5000     8.0033   121.5594     0.0271     0.1175     2.4761   -39.7105     7.3395     7.2129     9.7780
  375.0000     8.0030   121.7062     0.0344     0.1163     2.4821   -39.7177     7.4404     7.2625     9.9822
  375.5000     8.0027   122.4519     0.0359     0.1196     2.4738   -39.7250     7.4394     7.2620    10.0508
  376.0000     8.0023   124.0957     0.0344     0.1227     2.4671   -39.7323     7.3363     7.2115    10.0500
  376.5000     8.0170   126.5818     0.0299     0.1180     2.4813   -39.8885     7.1844     6.8229     9.9801
  377.0000     8.0167   129.7779     0.0269     0.1166     2.4806   -39.8958     7.0848     6.3667     9.7745
  377.5000     8.0164   128.4277     0.0254     0.1250     2.4694   -39.9031     6.9384     6.1075     9.7739
  378.0000     8.0161   122.7363     0.0269     0.1223     2.4634   -39.9106     6.8422     6.0231     9.6390
  378.5000     8.0159   125.8771     0.0314     0.1184     2.4701   -39.7703     6.7942     6.1067     9.1829
  379.0000     8.0005   124.4877     0.0329     0.1135     2.4811   -39.7776     6.7464     6.1913     8.9318
  379.5000     7.9853   120.3318     0.0359     0.1112     2.4888   -39.7848     6.7455     6.2771     9.0556
  380.0000     7.9850   126.0175     0.0374     0.1109     2.4873   -39.6431     6.7446     6.2334     9.0549
  380.5000     7.9698   127.3620     0.0374     0.1091     2.4865   -39.4995     6.5597     6.1900     9.1172
  381.0000     7.9695   130.2034     0.0344     0.1097     2.4933   -39.5085     6.4240     6.1046     9.0536
  381.5000     7.9692   131.6976     0.0329     0.1119     2.4901   -39.5158     6.6033     6.0621     8.9906
  382.0000     7.9539   129.4310     0.0314     0.1139     2.4783   -39.3740     6.7410     6.0198     9.1152
  382.5000     7.9536   126.9007     0.0299     0.1100     2.4701   -39.3815     6.8814     6.0194     9.2415
  383.0000     7.9533   123.4548     0.0344     0.1043     2.4978   -39.3903     6.9282     5.9775     9.3697
  383.5000     7.9680   120.0088     0.0374     0.1022     2.5052   -39.3976     6.8793     5.9359     9.3689
  384.0000     7.9677   122.4011     0.0359     0.1044     2.4924   -39.4048     6.7839     5.9767     9.3683
  384.5000     7.9674   125.8742     0.0314     0.1148     2.4791   -39.5611     6.7362     6.0595     9.2292
  385.0000     7.9671   126.2876     0.0254     0.1205     2.4723   -39.5684     6.7821     6.1861     9.0486
  385.5000     7.9817   127.0326     0.0195     0.1268     2.4619   -39.5756     6.9233     6.2719     9.0480
  386.0000     7.9815   130.9219     0.0135     0.1310     2.4552   -39.7319     7.0672     6.4028     9.1101
  386.5000     7.9961   132.5658     0.0045     0.1346     2.4514   -39.7437     7.2144     6.4469     9.2364
  387.0000     7.9958   132.7215     0.0015     0.1316     2.4507   -39.8957     7.3141     6.4912     9.3000
  387.5000     7.9955   134.3558     0.0135     0.1259     2.4626   -39.7536     7.4662     6.4907     9.2351
  388.0000     8.0102   138.8439     0.0180     0.1208     2.4709   -39.6137     7.5691     6.5354     9.1077
  388.5000     8.0098   140.4878     0.0180     0.1199     2.4738   -39.4719     7.6206     6.5802     9.1071
  389.0000     8.0096   138.9879     0.0195     0.1220     2.4739   -39.1811     7.5619     6.6254     9.2333
  389.5000     7.9943   134.7859     0.0195     0.1250     2.4708   -38.8903     7.4619     6.6249     9.5573
  390.0000     7.9940   132.3946     0.0210     0.1235     2.4686   -38.5977     7.3584     6.6704     9.7571
  390.5000     7.9937   131.3439     0.0225     0.1193     2.4723   -38.4575     7.3068     6.7163     9.8242
  391.0000     7.9785   130.8919     0.0225     0.1163     2.4821   -38.1640     7.3058     6.8092     9.5553
  391.5000     7.9782   132.5358     0.0240     0.1151     2.4851   -37.8761     7.3555     6.8560     9.4889
  392.0000     7.9779   133.7305     0.0225     0.1199     2.4783   -37.5871     7.4572     6.9032     9.8220
  392.5000     7.9775   134.4986     0.0225     0.1253     2.4709   -37.4435     7.6122     6.9507    10.0968
  393.0000     7.9772   134.3229     0.0210     0.1262     2.4656   -37.3017     7.7189     6.9501    10.3850
  393.5000     7.9770   132.6733     0.0210     0.1202     2.4731   -37.1599     7.8860     6.9978    10.6694
