~VERSION INFORMATION
 VERS.                2.0:   CWLS LOG ASCII STANDARD - VERSION 2.0
 WRAP.                 NO:   ONE LINE PER DEPTH STEP
~WELL INFORMATION
#MNEM.UNIT      DATA TYPE    INFORMATION
#----------   ------------   ------------------------------
 STRT.F            4.0000:   START DEPTH
 STOP.F          516.5000:   STOP DEPTH
 STEP.F            0.5000:   STEP LENGTH
 NULL.          -999.2500:   NO VALUE
 COMP. BROWN JOHN E&C INC:   COMPANY
 WELL. NAVAL PETROLEUM RESERVE 3 SX-1 #72-1-10:   WELL
 FLD .             TEAPOT:   FIELD
 LOC .      S10 T38N R78W:   LOCATION
 CNTY.            NATRONA:   COUNTY
 STAT.            WYOMING:   STATE
 CTRY. UNITED STATES OF AMERICA:   COUNTRY
 SRVC.     Atlas Wireline:   SERVICE COMPANY
 DATE.        19-SEP-1991:   LOGDATE
 API .       490252244600:   API NUMBER
~CURVE INFORMATION
#MNEM.UNIT       API CODE    CURVE DESCRIPTION
#----------   ------------   ------------------------------
 DEPT.F                  :   
 GRR .GAPI   07 310 01 00:   GAMMA RAY FROM RESISTIVITY
 RILD.OHMM   07 120 46 00:   RESISTIVITY INDUCTION LOG DEEP
 RILM.OHMM   07 120 44 00:   RESISTIVITY INDUCTION LOG MEDIUM
~PARAMETER INFORMATION
#MNEM.UNIT          VALUE    DESCRIPTION
#----------   ------------   ------------------------------
 PD  .                 GL:   PERMANENT DATUM
 EPD .F              5140:   ELEVATION PERMANENT DATUM
 LMF .                 KB:   LOG MEASURED FROM
 DAPD.F                10:   FEET ABOVE PERMANENT DATUM
 DMF .                 KB:   DRILLING MEASURED FROM
 EKB .F              5150:   KELLING BUSHING
 EGL .F              5140:   GROUND LEVEL
 DATE.        19-SEP-1991:   RUN DATE
 RUN .                  1:   RUN NUMBER
 DD  .F               530:   DEPTH DRILLER
 DL  .F               527:   DEPTH LOGGER
 BLI .F                55:   BOTTOM LOG INTERVAL
 CS  .IN                7:   CASING SIZE
 CBD .F                80:   CASING BOTTOM DRILLER
 CBL .F                90:   CASING BOTTOM LOGGER
 BS  .IN             8.75:   BIT SIZE
 BSD .F               530:   BIT SIZE AT DEPTH
 DFT .                AIR:   DRILLING FLUID TYPE
 LUN .            HL/6272:   LOGGING UNIT NUMBER
 LUL .          CASPER/WY:   LOGGING UNIT LOCATION
 ENGI.            KINNETT:   RECORDING ENGINEER
 WITN.     STRONG/HERMANN:   WITNESSED BY
 CLNT.            A2DTECH:   CLIENT CODE
 ORIG.           5" PRINT:   ORIGIN OF DATA
 UWI .       490252244600:   UNIQUE WELL ID
 DICO. A2D Technologies, Inc.:   DIGITIZING COMPANY
~OTHER INFORMATION
~A    DEPT      GRR      RILD       RILM   
# ...
  368.0000   107.1979    14.0208    14.4642
  368.5000   104.7877    13.7419    14.3623
  369.0000   103.5833    13.4556    14.0646
  369.5000   103.5870    13.2676    13.7731
  370.0000   105.3999    12.9019    13.5815
  370.5000   108.4195    12.7216    13.3000
  371.0000   109.6284    12.4570    13.1150
  371.5000   106.3139    12.1980    12.9326
  372.0000   103.6020    11.9444    12.5769
  372.5000   105.1133    11.7774    12.4882
  373.0000   105.1162    11.6936    12.4865
  373.5000   103.9125    11.6104    12.4848
  374.0000   104.2172    11.6888    12.5704
  374.5000   109.0468    11.7678    12.8325
  375.0000   108.7481    12.0963    13.2835
  375.5000   106.0160    12.6954    14.0394
  376.0000   105.7375    13.4170    15.4688
  376.5000   107.5505    14.9885    17.6452
  377.0000   106.5682    16.6322    19.1740
  377.5000   102.9311    17.6677    20.6912
  378.0000    97.6054    20.2406    22.6403
  378.5000    73.7773    22.1688    26.3686
  379.0000    70.1604    24.8410    28.2584
  379.5000    71.6717    27.5588    30.7067
  380.0000    75.2946    30.1529    32.4542
  380.5000    80.7272    31.4276    33.3625
  381.0000    85.5568    32.0834    33.8239
  381.5000    87.9730    32.0752    33.8191
  382.0000    88.2777    32.0686    33.8144
  382.5000    87.3757    32.0620    33.5413
  383.0000    84.9654    31.8339    32.4263
  383.5000    84.6364    31.6073    31.9752
  384.0000    85.5747    30.7362    31.0961
  384.5000    84.6727    29.6825    30.4516
  385.0000    83.1674    28.8645    29.6144
  385.5000    80.1538    27.8750    28.8001
  386.0000    81.1222    27.2954    27.4316
  386.5000    84.5040    26.3596    26.6774
  387.0000    88.6899    25.9911    26.3063
  387.5000    91.3776    25.8061    26.1209
  388.0000    91.9335    25.8008    26.1173
  388.5000    90.1273    25.7954    26.1137
  389.0000    88.6220    25.7890    25.9297
  389.5000    86.4048    25.6055    25.5690
  390.0000    85.4985    25.6002    25.2133
  390.5000    87.6133    25.7744    25.2098
  391.0000    89.7281    25.7678    25.0322
  391.5000    90.0302    25.7625    25.0287
  392.0000    90.0302    25.5792    25.0253
  392.5000    89.7281    25.5739    25.0189
  393.0000    90.0302    25.3920    24.8454
  393.5000    90.0302    25.2113    24.8598
  394.0000    90.9366    25.0319    25.1856
  394.5000    94.2598    24.5114    25.1489
  395.0000    96.0725    24.5064    24.8310
  395.5000    96.3746    24.3320    24.6560
  396.0000    93.6556    24.3270    24.4822
  396.5000    91.5408    24.1539    24.1417
  397.0000    90.0302    23.8162    23.8059
  397.5000    88.8218    23.6467    23.4747
  398.0000    87.6133    23.4568    23.1482
  398.5000    90.0302    22.9902    22.6684
  399.0000    91.2387    22.3556    22.3531
  399.5000    91.5408    21.8908    21.7385
  400.0000    94.2598    21.1409    21.2882
  400.5000    96.6767    20.8483    20.7043
  401.0000    96.6767    20.4176    20.2765
  401.5000    96.3746    20.4162    20.2555
  402.0000    96.0725    20.2737    19.9945
  402.5000    97.6913    20.2723    19.9928
  403.0000    99.2580    20.2709    19.9914
  403.5000    99.7124    20.4196    20.2693
  404.0000    98.8372    21.0008    21.2761
  404.5000    97.3527    21.5986    23.6072
  405.0000    94.0583    22.9596    25.8327
  405.5000    91.9705    24.1001    27.6861
  406.0000    85.6595    24.9488    28.8605
  406.5000    75.7286    25.6493    29.8768
  407.0000    69.0960    26.0053    29.6683
  407.5000    67.9331    25.8238    28.4571
  408.0000    70.3512    25.1155    26.5485
  408.5000    82.6828    24.4265    23.9238
  409.0000    85.5068    22.0116    22.3192
  409.5000    85.8264    20.6782    20.3936
  410.0000    85.2469    19.0256    19.1582
  410.5000    85.8800    18.2489    17.8733
  411.0000    87.1105    17.1435    17.1404
  411.5000    89.2459    16.6733    16.7894
  412.0000    92.2863    16.1039    16.6722
  412.5000    94.4218    15.8810    16.6711
  413.0000    94.7473    15.3387    16.4401
  413.5000    94.1678    14.9180    15.8787
  414.0000    91.7784    14.5088    15.5506
  414.5000    93.3105    14.3080    15.2294
  415.0000    96.6526    14.2048    15.1231
  415.5000    98.2192    14.0114    14.8106
  416.0000    97.0019    13.9136    14.6056
  416.5000    94.9141    13.9124    14.5037
  417.0000    94.6363    13.8153    14.4025
  417.5000    95.5656    13.8144    14.3019
  418.0000    95.8906    13.7180    14.2021
  418.5000    94.6536    13.6222    14.1030
  419.0000    94.4300    13.6213    14.1020
  419.5000    96.5714    13.6204    14.1011
  420.0000    97.5002    13.5253    14.1001
  420.5000    96.9207    13.5244    14.0017
  421.0000    95.7379    13.5235    14.0007
  421.5000    96.6667    13.5225    13.9030
  422.0000    97.8972    13.3354    13.9020
  422.5000    98.2227    13.1508    13.9011
  423.0000    98.5482    13.1499    13.9001
  423.5000    97.3654    12.9678    13.8029
  424.0000    97.0816    12.8773    13.7065
  424.5000   100.1280    13.0563    13.7056
  425.0000   102.5651    13.0254    13.6099
  425.5000   102.8906    12.8745    13.5150
  426.0000   102.6128    12.8736    13.3279
  426.5000   101.1283    12.8727    13.3270
  427.0000    98.7389    12.8718    13.2339
  427.5000   100.0201    12.7820    13.1416
  428.0000   102.4474    12.6928    13.1407
  428.5000   102.7330    12.6042    13.1398
  429.0000   103.9684    12.5162    13.0481
  429.5000   105.1988    12.3430    13.0472
  430.0000   104.9151    12.1721    12.9561
  430.5000   104.0399    12.0871    12.7768
  431.0000   103.7561    11.9198    12.7759
  431.5000   104.9925    11.9190    12.8639
  432.0000   108.0330    11.9182    12.8630
  432.5000   109.8667    11.8350    12.7732
  433.0000   108.3823    11.8342    12.7724
  433.5000   105.3895    11.8441    12.7715
  434.0000   105.4134    11.9304    12.7706
  434.5000   109.6604    11.9970    12.6813
  435.0000   111.1926    11.9960    12.6804
  435.5000   109.1048    11.9123    12.5919
  436.0000   108.2232    11.8291    12.5040
  436.5000   109.7558    11.7466    12.5032
  437.0000   110.0812    11.7458    12.4159
  437.5000   107.9688    11.6638    12.2440
  438.0000   106.1276    11.5023    12.1586
  438.5000   105.9295    11.4221    12.0737
  439.0000   114.7035    11.1861    12.0729
  439.5000   117.4422    11.1080    11.9057
  440.0000   115.9578    11.0305    11.8226
  440.5000   115.0766    11.0297    11.7401
  441.0000   115.4328    11.0305    11.5776
  441.5000   115.7285    11.0282    11.4968
  442.0000   113.3441    10.8756    11.2593
  442.5000   109.1447    10.7885    11.1034
  443.0000   106.1520    10.5764    10.9497
  443.5000   106.4775    10.4300    10.7981
  444.0000   108.9146    10.2856    10.6487
  444.5000   114.6699    10.0731    10.5631
  445.0000   121.9336     9.7291    10.2842
  445.5000   122.2531     9.3969    10.0717
  446.0000   119.8697     9.0133     9.7955
  446.5000   115.0610     8.4672     9.3956
  447.0000   118.7107     7.8994     9.0120
  447.5000   123.2594     7.1184     8.3495
  448.0000   123.8866     6.5951     7.1674
  448.5000   123.6078     5.9020     5.7405
  449.0000   124.5375     5.5062     5.2452
  449.5000   129.3879     5.3551     5.3551
  450.0000   138.1599     5.3178     5.8600
  450.5000   150.9441     5.3166     6.2000
  451.0000   148.7055     5.3528     6.6578
  451.5000   134.0392     5.6176     7.3145
  452.0000   121.6699     6.2322     8.2293
  452.5000   119.4878     7.2632     8.8811
  453.0000   117.0805     8.2314     9.3871
  453.5000   114.6717     8.7172     9.7178
  454.0000   116.4896     9.2460     9.7848
  454.5000   116.7957     9.7715    10.0592
  455.0000   115.2949    10.1142    10.2700
  455.5000   114.6960    10.1121    10.4852
  456.0000   116.5134    10.1809    10.7794
  456.5000   116.8210    10.2497    11.0053
  457.0000   120.4469    10.4625    11.1583
  457.5000   121.9612    10.6065    11.2391
  458.0000   121.6655    10.7530    11.4706
  458.5000   120.1631    10.9763    11.7107
