~VERSION INFORMATION
 VERS.                2.0:   CWLS LOG ASCII STANDARD - VERSION 2.0
 WRAP.                 NO:   ONE LINE PER DEPTH STEP
~WELL INFORMATION
#MNEM.UNIT      DATA TYPE    INFORMATION
#----------   ------------   ------------------------------
 STRT.F            1.0000:   START DEPTH
 STOP.F          528.0000:   STOP DEPTH
 STEP.F            0.5000:   STEP LENGTH
 NULL.          -999.2500:   NO VALUE
 COMP. LAWRENCE/ALLISON INC:   COMPANY
 WELL.     78-31 STX #3-3:   WELL
 FLD .             TEAPOT:   FIELD
 LOC .       S3 T38N R78W:   LOCATION
 CNTY.            NATRONA:   COUNTY
 STAT.            WYOMING:   STATE
 CTRY. UNITED STATES OF AMERICA:   COUNTRY
 SRVC.           Gearhart:   SERVICE COMPANY
 DATE.        26-JUN-1988:   LOGDATE
 API .       490251123100:   API NUMBER
~CURVE INFORMATION
#MNEM.UNIT       API CODE    CURVE DESCRIPTION
#----------   ------------   ------------------------------
 DEPT.F                  :   
 GRR .GAPI   07 310 01 00:   GAMMA RAY
 RILD.OHMM   07 120 46 00:   INDUCTION LOG DEEP RESISTIVITY
 RILM.OHMM   07 120 44 00:   INDUCTION LOG MEDIUM RESISTIVITY
~PARAMETER INFORMATION
#MNEM.UNIT          VALUE    DESCRIPTION
#----------   ------------   ------------------------------
 PD  .                 GL:   PERMANENT DATUM
 EPD .F              5154:   ELEVATION PERMANENT DATUM
 LMF .                 KB:   LOG MEASURED FROM
 DAPD.F                10:   FEET ABOVE PERMANENT DATUM
 DMF .                 KB:   DRILLING MEASURED FROM
 EKB .F              5164:   KELLING BUSHING
 EGL .F              5154:   GROUND LEVEL
 DATE.        26-JUN-1988:   RUN DATE
 RUN .                  1:   RUN NUMBER
 DD  .F               520:   DEPTH DRILLER
 DL  .F               536:   DEPTH LOGGER
 BLI .F             527.5:   BOTTOM LOG INTERVAL
 TLI .F                51:   TOP LOG INTERVAL
 CS  .IN            9.625:   CASING SIZE
 CBD .F                51:   CASING BOTTOM DRILLER
 CBL .F                51:   CASING BOTTOM LOGGER
 BS  .IN             8.75:   BIT SIZE
 BSD .F               520:   BIT SIZE AT DEPTH
 DFT .                AIR:   DRILLING FLUID TYPE
 TLAB.HRS            1920:   TIME LOGGER AT BOTTOM
 MRT .F                70:   MAXIMUM RECORDED TEMPERATURE
 LUN .               7597:   LOGGING UNIT NUMBER
 LUL .           GILLETTE:   LOGGING UNIT LOCATION
 ENGI.          HUCKFELDT:   RECORDING ENGINEER
 WITN.              FIVAS:   WITNESSED BY
 CLNT.            A2DTECH:   CLIENT CODE
 ORIG.           5" PRINT:   ORIGIN OF DATA
 UWI .       490251123100:   UNIQUE WELL ID
 DICO. A2D Technologies, Inc.:   DIGITIZING COMPANY
~OTHER INFORMATION
~A    DEPT       GRR     RILD       RILM   
# ...
  274.0000   111.3544     7.6700     8.5450
  274.5000   109.8489     6.9558     7.5699
  275.0000   111.6849     6.8585     6.6152
  275.5000   120.4981     6.8576     5.8664
  276.0000   129.3113     6.9529     5.5860
  276.5000   133.2686     7.0493     6.2901
  277.0000   125.6030     7.1974     6.9361
  277.5000   115.8672     7.4517     7.9204
  278.0000   111.0285     7.8234     8.9189
  278.5000   109.3409     8.7455     9.9734
  279.0000   110.2663    10.4094    10.9211
  279.5000   113.3132    11.6363    11.7929
  280.0000   116.0566    11.7161    11.5696
  280.5000   117.2826    11.7964    11.5656
  281.0000   115.1701    11.9604    11.3223
  281.5000   113.0577    12.2966    11.2398
  282.0000   113.6767    12.9098    11.1579
  282.5000   113.9921    13.3660    11.1541
  283.0000   112.7902    14.0326    11.4682
  283.5000   109.5829    15.2551    12.5014
  284.0000   102.8000    17.6581    14.8995
  284.5000    93.4038    19.6021    18.0190
  285.0000    84.9180    22.0658    20.5643
  285.5000    70.9695    24.3250    24.6430
  286.0000    59.4488    26.0779    30.5782
  286.5000    55.8190    27.9572    35.1417
  287.0000    54.6140    30.8195    37.1448
  287.5000    57.6639    33.5045    38.4493
  288.0000    60.7108    34.9472    38.4361
  288.5000    63.1507    35.1706    37.8908
  289.0000    64.9836    35.1646    34.8377
  289.5000    66.5130    35.1597    32.9364
  290.0000    68.0425    35.4009    32.4691
  290.5000    68.9651    35.6437    32.4580
  291.0000    68.0665    36.1405    33.1199
  291.5000    66.4705    36.8980    33.5923
  292.0000    64.7551    38.2018    34.5558
  292.5000    64.1571    40.3876    35.5847
  293.0000    66.9035    42.6985    40.2661
  293.5000    70.5573    45.4575    45.3422
  294.0000    71.1733    49.4176    48.9617
  294.5000    65.4220    50.8084    55.1340
  295.0000    61.1851    51.8751    59.5352
  295.5000    58.4657    54.1344    61.2197
  296.0000    59.3881    58.0351    60.3648
  296.5000    63.6490    59.1987    59.5229
  297.0000    65.4819    58.3689    57.4751
  297.5000    66.4044    58.3609    56.2798
  298.0000    64.8989    58.3529    57.8702
  298.5000    60.9655    58.3449    59.5065
  299.0000    60.0671    59.5720    62.9236
  299.5000    60.0791    61.6748    67.9466
  300.0000    62.9242    62.5345    71.8484
  300.5000    66.7678    61.6579    74.3867
  301.0000    66.7678    60.7958    74.9706
  301.5000    66.7678    58.7048    70.8064
  302.0000    66.7678    53.2380    65.0431
  302.5000    67.0713    51.0498    59.6830
  303.0000    68.2853    48.9062    52.3942
  303.5000    71.0167    45.8829    48.5076
  304.0000    75.2656    41.9775    45.2243
  304.5000    77.9970    41.6801    42.4589
  305.0000    79.8179    40.2466    41.5695
  305.5000    80.9448    37.7936    41.5610
  306.0000    76.4714    34.0360    41.2632
  306.5000    71.2798    32.6370    40.1175
  307.0000    68.5689    32.4058    37.1416
  307.5000    68.8883    32.4014    34.1155
  308.0000    72.5410    32.3969    32.6295
  308.5000    72.8603    31.0653    30.5207
  309.0000    76.5130    29.5815    29.4667
  309.5000    78.3476    28.1686    28.0542
  310.0000    78.3839    27.7747    26.5234
  310.5000    77.7703    27.7708    25.6074
  311.0000    77.4875    27.9613    25.4239
  311.5000    78.4661    28.7472    25.4187
  312.0000    81.1606    28.3452    25.2365
  312.5000    84.8133    27.7547    24.8812
  313.0000    86.9509    27.3666    25.0668
  313.5000    86.9672    27.3629    25.3979
  314.0000    85.7714    27.5515    25.7487
  314.5000    83.9696    27.7404    26.1071
  315.0000    83.0768    27.9307    26.2848
  315.5000    83.0932    28.3319    26.6493
  316.0000    83.1095    28.9209    26.6425
  316.5000    82.5197    29.1133    26.6370
  317.0000    80.7021    29.1030    26.6316
  317.5000    80.7348    29.0910    26.4407
  318.0000    82.5729    29.0811    26.8123
  318.5000    84.7105    29.0712    27.5845
  319.0000    85.6359    29.0613    28.3356
  319.5000    84.7431    29.0514    27.5489
  320.0000    81.7292    29.0415    26.9718
  320.5000    79.9233    28.8299    26.9663
  321.0000    80.8528    28.6198    26.7730
  321.5000    81.7782    28.0178    26.3974
  322.0000    83.9157    27.8134    26.7616
  322.5000    86.3563    27.4169    26.3848
  323.0000    88.1949    27.2171    26.0133
  323.5000    88.5106    27.2078    25.4684
  324.0000    88.5273    26.6356    25.1097
  324.5000    88.8500    25.5356    24.7562
  325.0000    89.1694    25.3495    24.5787
  325.5000    88.8827    25.3409    24.0481
  326.0000    87.6869    25.3323    23.8902
  326.5000    85.5820    25.5009    24.0540
  327.0000    86.2044    25.4920    24.3863
  327.5000    86.5238    25.4832    24.5536
  328.0000    86.5402    25.4726    24.8928
  328.5000    86.2535    25.4639    25.2392
  329.0000    84.7547    25.6355    25.7674
  329.5000    82.6018    26.1663    26.1249
  330.0000    83.3534    26.1573    26.4869
  330.5000    85.4138    26.1484    26.1091
  331.0000    86.3352    25.9579    25.3676
  331.5000    84.5374    25.5897    24.3402
  332.0000    83.6447    25.0515    23.6656
  332.5000    83.9640    24.6847    23.1687
  333.0000    83.9804    24.3184    22.6834
  333.5000    83.6937    23.8318    22.0536
  334.0000    81.5888    23.3305    21.5916
  334.5000    80.6510    22.9996    21.5872
  335.0000    83.7427    22.6734    21.4325
  335.5000    85.2743    22.3518    21.2789
  336.0000    84.6566    22.0348    21.1263
  336.5000    83.4369    21.4215    20.8287
  337.0000    82.8990    20.8252    20.5345
  337.5000    83.2224    20.3872    20.1044
  338.0000    84.7539    20.0848    19.1407
  338.5000    86.8915    19.6736    18.4797
  339.0000    90.2411    19.5303    18.3472
  339.5000    93.5908    19.3880    18.3435
  340.0000    94.8152    19.2467    18.4683
  340.5000    89.0780    19.2401    18.4646
  341.0000    84.5489    19.5037    18.4608
  341.5000    83.9509    19.4970    18.5864
  342.0000    84.2788    19.3550    18.6051
  342.5000    84.2954    19.0804    18.5779
  343.0000    84.6184    18.9378    18.1887
  343.5000    85.5438    18.5428    17.9326
  344.0000    85.8632    18.1515    17.9289
  344.5000    85.5724    17.8940    17.5534
  345.0000    85.8958    17.6402    17.4276
  345.5000    86.8213    17.3900    16.9437
  346.0000    88.0497    17.2633    16.5888
  346.5000    89.5812    17.1375    16.1282
  347.0000    91.1127    17.1317    16.1248
  347.5000    92.0382    17.0068    16.1208
  348.0000    92.0545    16.3045    16.4589
  348.5000    89.3436    16.0673    16.1142
  349.0000    89.6636    15.9559    15.8873
  349.5000    89.9864    15.9493    15.6635
  350.0000    93.2624    15.9439    15.6603
  350.5000    95.4939    15.9385    15.7664
  351.0000    95.7933    15.9331    15.8810
  351.5000    94.3005    15.9276    15.8810
  352.0000    90.9850    16.0350    15.8810
  352.5000    86.1544    16.0281    15.8810
  353.0000    84.0511    16.2477    15.8810
  353.5000    84.6750    16.3558    15.9924
  354.0000    85.9050    16.5798    16.1045
  354.5000    86.5289    16.7101    16.3312
  355.0000    88.6680    16.8012    16.4457
  355.5000    90.8071    16.9130    16.4457
  356.0000    92.0850    16.9058    16.4457
  356.5000    90.5398    16.7826    16.4457
  357.0000    87.5274    16.4296    16.4457
  357.5000    86.3183    16.1966    16.1045
  358.0000    87.0301    15.8559    15.6592
  358.5000    90.9188    15.6310    15.3357
  359.0000    93.6639    15.4093    14.9883
  359.5000    94.8939    15.0851    14.4009
  360.0000    93.6997    14.8700    14.0039
  360.5000    92.8040    14.5572    13.8096
  361.0000    93.4324    14.2510    13.6179
  361.5000    93.4502    14.0489    13.6179
  362.0000    92.5590    14.1424    13.6179
  362.5000    91.3648    14.2377    13.7134
  363.0000    90.4735    14.5324    13.9064
  363.5000    90.7944    15.5110    14.0039
  364.0000    91.4184    16.5477    14.4009
  364.5000    93.8605    17.9341    15.2289
