~VERSION INFORMATION
 VERS.                2.0:   CWLS LOG ASCII STANDARD - VERSION 2.0
 WRAP.                 NO:   ONE LINE PER DEPTH STEP
~WELL INFORMATION
#MNEM.UNIT      DATA TYPE    INFORMATION
#----------   ------------   ------------------------------
 STRT.F           19.5000:   START DEPTH
 STOP.F         1292.5000:   STOP DEPTH
 STEP.F            0.5000:   STEP LENGTH
 NULL.          -999.2500:   NO VALUE
 COMP. FENIX & SCISSON INC:   COMPANY
 WELL.  NPR-3 "SX" #74-14:   WELL
 FLD .             TEAPOT:   FIELD
 LOC .      S14 T38N R78W:   LOCATION
 CNTY.            NATRONA:   COUNTY
 STAT.            WYOMING:   STATE
 CTRY. UNITED STATES OF AMERICA:   COUNTRY
 SRVC.            Unknown:   SERVICE COMPANY
 DATE.        22-MAR-1978:   LOGDATE
 API .       490251060300:   API NUMBER
~CURVE INFORMATION
#MNEM.UNIT       API CODE    CURVE DESCRIPTION
#----------   ------------   ------------------------------
 DEPT.F                  :   
 SPR .MV     05 010 01 00:   SPONTANEOUS POTENTIAL
 SN  .OHMM   05 040 16 00:   SHORT NORMAL 16'
 ILD .OHMM   05 120 46 00:   INDUCTION LOG DEEP
 CALD.IN     45 280 60 00:   CALIPER
 GRD .GAPI   45 310 01 00:   GAMMA RAY FROM DENSITY LOG
 CORR.G/C3   45 356 01 00:   DENSITY CORRECTION
 RHOB.G/C3   45 350 01 00:   BULK DENSITY
 DPHI.DEC    45 890 12 00:   DENSITY POROSITY SANDSTONE
~PARAMETER INFORMATION
#MNEM.UNIT          VALUE    DESCRIPTION
#----------   ------------   ------------------------------
 PD  .                 GL:   PERMANENT DATUM
 EPD .F              5312:   ELEVATION PERMANENT DATUM
 LMF .                 KB:   LOG MEASURED FROM
 DMF .                 KB:   DRILLING MEASURED FROM
 EKB .F              5316:   KELLING BUSHING
 EGL .F              5312:   GROUND LEVEL
 DATE.          3-22-1978:   RUN DATE
 RUN .                  1:   RUN NUMBER
 DD  .F              1280:   DEPTH DRILLER
 DL  .F              1292:   DEPTH LOGGER
 BLI .F              1286:   BOTTOM LOG INTERVAL
 TLI .F                50:   TOP LOG INTERVAL
 CS  .IN            8.625:   CASING SIZE
 CBD .F                50:   CASING BOTTOM DRILLER
 CBL .F                50:   CASING BOTTOM LOGGER
 BS  .IN            7.875:   BIT SIZE
 BSD .F              1280:   BIT SIZE AT DEPTH
 DFT .                KCL:   DRILLING FLUID TYPE
 DFD .                8.6:   DRILLING FLUID DENSITY
 DFV .                 31:   DRILLING FLUID VISCOSITY
 DFPH.               10.5:   DRILLING FLUID PH
 DFL .               11.6:   DRILLING FLUID LOSS
 MSS .            MUD PIT:   MUD SAMPLE SOURCE
 RMS .OHMM            .38:   RESISTIVITY MUD SAMPLE
 MST .F                52:   MUD SAMPLE TEMPERATURE
 RMF .OHMM            .32:   RESISTIVITY MUD FILTRATE SAMPLE
 MFST.F                66:   MUD FILTRATE SAMPLE TEMPERATURE
 RMC .OHMM             .4:   RESISTIVITY MUD CAKE
 MCST.F                68:   MUD CAKE SAMPLE TEMPERATURE
 MFSS.           MEASURED:   MUD FILTRATE SAMPLE SOURCE
 RMB .OHMM            .24:   RESISTIVITY MUD AT BHT
 BHT .F                82:   BOTTOM HOLE TEMPERATURE
 TCS .HRS               4:   TIME CURCULATED STOPPED
 MRT .F                82:   MAXIMUM RECORDED TEMPERATURE
 LUN .               2958:   LOGGING UNIT NUMBER
 LUL .               CASP:   LOGGING UNIT LOCATION
 ENGI.            POINTER:   RECORDING ENGINEER
 WITN.           MCGINLEY:   WITNESSED BY
 CLNT.            A2DTECH:   CLIENT CODE
 ORIG.        2" 5" PRINT:   ORIGIN OF DATA
 UWI .       490251060300:   UNIQUE WELL ID
 DICO. A2D Technologies, Inc.:   DIGITIZING COMPANY
~OTHER INFORMATION
~A   DEPT      SPR         SN        ILD       CALD         GRD      CORR       RHOB       DPHI   
# ...
  991.5000   -47.7071     5.2920     4.7297     8.2867    97.3627     0.0226     2.4116     0.1353
  992.0000   -47.7206     5.0200     4.4096     8.2876    99.1888     0.0120     2.4014     0.1441
  992.5000   -48.0439     4.7620     4.4386     8.2885    97.8420    -0.0075     2.3900     0.1485
  993.0000   -48.3138     4.5750     4.4761     8.2894    97.4339     0.0077     2.3798     0.1370
  993.5000   -48.3015     4.7042     4.5142     8.2904    96.5675     0.0233     2.3830     0.1255
  994.0000   -48.3278     4.9906     4.5519     8.2913    95.4130     0.0275     2.4329     0.1110
  994.5000   -49.1141     5.4023     4.6148     8.2922    96.9249     0.0318     2.4628     0.0966
  995.0000   -49.2487     5.8479     4.8307     8.2931    99.8910     0.0320     2.4669     0.0915
  995.5000   -49.1284     6.2167     5.2294     8.2940   107.6406     0.0321     2.4784     0.0886
  996.0000   -48.5950     6.4123     5.8021     8.2949   107.6216     0.0270     2.4827     0.0860
  996.5000   -47.7061     6.6141     6.3173     8.2958   104.1958     0.0209     2.4818     0.0865
  997.0000   -47.5142     6.8222     6.5597     8.2968    99.3368     0.0147     2.4847     0.0870
  997.5000   -47.4342     7.0368     6.8211     8.2977    97.6948     0.0142     2.4840     0.0845
  998.0000   -46.9324     7.2582     7.0563     8.2986    97.0950     0.0181     2.4873     0.0772
  998.5000   -46.9213     7.4576     7.1459     8.2995    95.3001     0.0192     2.4904     0.0686
  999.0000   -46.9419     7.5541     7.2711     8.3004    95.0566     0.0180     2.5040     0.0619
  999.5000   -46.9604     7.6907     7.3982     8.3013   101.1170     0.0219     2.5210     0.0520
 1000.0000   -46.9779     7.8296     7.5276     8.3022   105.9045     0.0474     2.5407     0.0323
 1000.5000   -46.9955     7.9708     7.6592     8.3031   106.7510     0.0602     2.5627     0.0392
 1001.0000   -47.0130     8.1028     7.8095     8.3041   106.7910     0.0454     2.5730     0.0531
 1001.5000   -47.0306     8.0963     7.8026     8.3050   106.1760     0.0366     2.5462     0.0642
 1002.0000   -47.0482     8.0902     7.7924     8.3059   105.9913     0.0338     2.5129     0.0741
 1002.5000   -47.0658     8.0842     7.7823     8.3068   102.1096     0.0308     2.5063     0.0776
 1003.0000   -47.0835     8.0781     7.7721     8.3077   100.5479     0.0292     2.4988     0.0779
 1003.5000   -47.1007     8.0721     7.7619     8.3086   102.0612     0.0280     2.4966     0.0782
 1004.0000   -47.0981     8.0661     7.7518     8.3095   103.4482     0.0269     2.4965     0.0785
 1004.5000   -47.0263     8.0600     7.7411     8.3104    99.9344     0.0258     2.4966     0.0802
 1005.0000   -46.9648     8.0540     7.7378     8.3114    98.5472     0.0246     2.4929     0.0826
 1005.5000   -47.1258     8.0481     7.6210     8.3123    98.9461     0.0223     2.4893     0.0851
 1006.0000   -47.8395     8.0421     7.5059     8.3132   100.6509     0.0184     2.4887     0.0894
 1006.5000   -48.3059     8.0352     7.3926     8.3141   102.1709     0.0163     2.4822     0.0983
 1007.0000   -48.2019     8.0299     7.2816     8.3150   101.9226     0.0171     2.4720     0.0981
 1007.5000   -48.1083     7.8979     7.1736     8.3160   101.7260     0.0179     2.4653     0.0979
 1008.0000   -48.0149     7.6680     7.0610     8.3167   102.1495     0.0187     2.4647     0.0974
 1008.5000   -47.9205     7.4449     6.9330     8.3130   108.2163     0.0195     2.4641     0.1008
 1009.0000   -47.9630     7.2283     6.7409     8.3091   109.8536     0.0222     2.4622     0.1043
 1009.5000   -48.0447     7.0180     6.5214     8.3053   104.4635     0.0285     2.4535     0.1079
 1010.0000   -48.1037     6.8137     6.2305     8.3015   102.0193     0.0348     2.4464     0.1116
 1010.5000   -47.9218     6.6155     6.0885     8.2976   100.9672     0.0411     2.4404     0.1152
 1011.0000   -47.7356     6.4008     5.9048     8.2938    98.3023     0.0474     2.4362     0.1210
 1011.5000   -47.5352     6.0805     5.7413     8.2900    94.9819     0.0537     2.4319     0.1286
 1012.0000   -47.9454     5.7822     5.6037     8.2861    96.8966     0.0600     2.4179     0.1366
 1012.5000   -48.3107     5.2778     4.8800     8.2823    99.3111     0.0663     2.4038     0.1481
 1013.0000   -48.3056     4.8174     4.2848     8.2785    97.8318     0.0726     2.3879     0.1597
 1013.5000   -48.3022     4.3600     3.7629     8.2746    95.9279     0.0749     2.3700     0.1740
 1014.0000   -48.3131     3.8370     3.3132     8.2708    95.0315     0.0667     2.3475     0.1894
 1014.5000   -49.0738     3.3767     2.9964     8.2670   100.7151     0.0351     2.3199     0.2049
 1015.0000   -49.2957     2.9937     2.6801     8.2631   102.9918     0.0043     2.2924     0.2172
 1015.5000   -49.3047     2.9530     2.6411     8.2593   103.3516    -0.0003     2.2645     0.2192
 1016.0000   -49.3033     2.9120     2.6312     8.2549   103.0171     0.0069     2.2501     0.1886
 1016.5000   -49.3013     3.0259     2.6764     8.2500   102.5182     0.0044     2.3228     0.1545
 1017.0000   -49.3096     3.1466     2.8014     8.2451   109.1007     0.0047     2.3793     0.1349
 1017.5000   -49.5249     3.3183     2.9322     8.2402   117.0811     0.0108     2.4017     0.1202
 1018.0000   -49.7440     3.7852     3.2305     8.2352   115.9448     0.0168     2.4206     0.1058
 1018.5000   -49.9621     4.3167     3.7145     8.2303   113.3324     0.0190     2.4537     0.1010
 1019.0000   -50.1097     4.9236     4.2709     8.2254   110.8398     0.0202     2.4556     0.1030
 1019.5000   -49.8212     5.3771     4.8598     8.2204   110.6728     0.0214     2.4555     0.1046
 1020.0000   -49.4617     5.8142     5.0867     8.2092   110.5109     0.0227     2.4556     0.1039
 1020.5000   -49.0959     5.8418     5.4509     8.1904   110.2804     0.0239     2.4556     0.1033
 1021.0000   -48.7208     5.8855     5.4028     8.1716   114.4417     0.0240     2.4555     0.1043
 1021.5000   -48.6865     5.9290     5.2997     8.1530   120.1924     0.0214     2.4555     0.1079
 1022.0000   -48.6582     5.9774     5.1149     8.1406   123.9424     0.0163     2.4497     0.1125
 1022.5000   -48.6284     5.8289     4.9367     8.1521   126.6521     0.0097     2.4390     0.1224
 1023.0000   -48.5976     5.6090     4.7639     8.1630   127.8002     0.0032     2.4284     0.1323
 1023.5000   -48.5669     5.3979     4.6251     8.1745   119.5937     0.0048     2.4062     0.1389
 1024.0000   -48.5362     5.1947     4.5330     8.1416   104.2790     0.0136     2.3989     0.1274
 1024.5000   -48.5055     5.1052     4.5239     8.0824   105.3622     0.0179     2.4097     0.1193
 1025.0000   -48.4748     5.0820     4.5092     8.0599   112.6749     0.0180     2.4364     0.1105
 1025.5000   -48.4442     5.0633     4.4914     8.0601   119.5278     0.0260     2.4461     0.1016
 1026.0000   -48.4136     5.2005     4.5574     8.0606   117.7919     0.0237     2.4589     0.0928
 1026.5000   -48.3829     5.4509     4.7350     8.0611   110.8302     0.0147     2.4766     0.0892
 1027.0000   -48.3511     5.5115     4.9239     8.0616   107.9623     0.0098     2.4796     0.0912
 1027.5000   -48.3197     5.6556     5.1203     8.0621   104.1504     0.0065     2.4771     0.0930
 1028.0000   -48.1523     5.9775     5.3818     8.0626   106.3900     0.0044     2.4769     0.0904
 1028.5000   -47.8606     6.3599     5.7849     8.0631   109.6629     0.0065     2.4795     0.0894
 1029.0000   -47.9254     6.8011     6.2558     8.0636   103.6334     0.0084     2.4800     0.0891
 1029.5000   -48.3537     6.9898     6.3778     8.0641   101.4383     0.0098     2.4803     0.0879
 1030.0000   -48.7793     7.1899     6.5135     8.0646   104.0480     0.0086     2.4856     0.0866
 1030.5000   -49.1246     7.3956     6.6500     8.0651   108.3189     0.0075     2.4903     0.0854
 1031.0000   -48.7706     7.6073     6.7894     8.0656   111.9224     0.0063     2.4870     0.0862
 1031.5000   -48.3799     7.8103     6.8638     8.0661   110.7975     0.0052     2.4833     0.0874
