~VERSION INFORMATION
 VERS.                2.0:   CWLS LOG ASCII STANDARD - VERSION 2.0
 WRAP.                 NO:   ONE LINE PER DEPTH STEP
~WELL INFORMATION
#MNEM.UNIT      DATA TYPE    INFORMATION
#----------   ------------   ------------------------------
 STRT.F          748.0000:   START DEPTH
 STOP.F         2238.0000:   STOP DEPTH
 STEP.F            0.5000:   STEP LENGTH
 NULL.          -999.2500:   NO VALUE
 COMP. LAWRENCE/ALLISON INC:   COMPANY
 WELL. NPR 3 #36-2-SHX-10:   WELL
 FLD .             TEAPOT:   FIELD
 LOC .      S10 T38N R78W:   LOCATION
 CNTY.            NATRONA:   COUNTY
 STAT.            WYOMING:   STATE
 CTRY. UNITED STATES OF AMERICA:   COUNTRY
 SRVC.            Unknown:   SERVICE COMPANY
 DATE.        02-JUN-1984:   LOGDATE
 API .       490256012900:   API NUMBER
~CURVE INFORMATION
#MNEM.UNIT       API CODE    CURVE DESCRIPTION
#----------   ------------   ------------------------------
 DEPT.F                  :   
 ROP .MIN/FT 91 810 01 00:   RATE OF DRILLING PENETRATION
 TGAS.UNITS  91 830 01 00:   TOTAL GAS FROM HOTWIRE
~PARAMETER INFORMATION
#MNEM.UNIT          VALUE    DESCRIPTION
#----------   ------------   ------------------------------
 EKB .F              5223:   KELLING BUSHING
 EGL .F              5213:   GROUND LEVEL
 DATE.             6-2-84:   RUN DATE
 DD  .F              2238:   DEPTH DRILLER
 BLI .F              2238:   BOTTOM LOG INTERVAL
 TLI .F               740:   TOP LOG INTERVAL
 CS  .IN            8.625:   CASING SIZE
 CBD .F               717:   CASING BOTTOM DRILLER
 LUN .               T-83:   LOGGING UNIT NUMBER
 ENGI.            JOHNSON:   RECORDING ENGINEER
 WITN.           SCHERGER:   WITNESSED BY
 CLNT.            A2DTECH:   CLIENT CODE
 ORIG.           5" PRINT:   ORIGIN OF DATA
 UWI .       490256012900:   UNIQUE WELL ID
 DICO. A2D Technologies, Inc.:   DIGITIZING COMPANY
~OTHER INFORMATION
~A   DEPT        ROP     TGAS   
# ...
 1598.5000     4.5671    63.6028
 1599.0000     4.5629    63.1871
 1599.5000     4.5588    63.1871
 1600.0000     4.5546    62.7714
 1600.5000     4.5066    63.1871
 1601.0000     4.4292    62.7714
 1601.5000     4.3519    61.9400
 1602.0000     4.2745    61.9400
 1602.5000     4.3052    61.9400
 1603.0000     4.3895    61.5243
 1603.5000     4.4738    61.5243
 1604.0000     4.5581    61.5243
 1604.5000     4.6424    61.5243
 1605.0000     4.7267    61.1085
 1605.5000     4.8111    60.2771
 1606.0000     4.8954    60.2771
 1606.5000     4.9797    59.8614
 1607.0000     5.0640    59.4457
 1607.5000     5.1483    58.6143
 1608.0000     5.2326    58.1986
 1608.5000     5.2697    57.7829
 1609.0000     5.1810    56.9515
 1609.5000     5.0924    56.5358
 1610.0000     4.9706    56.1201
 1610.5000     4.5443    55.2887
 1611.0000     3.8335    54.8730
 1611.5000     2.9893    54.8730
 1612.0000     2.1069    53.6259
 1612.5000     2.1988    53.6259
 1613.0000     2.2950    53.2102
 1613.5000     2.4136    51.9630
 1614.0000     2.5361    51.9630
 1614.5000     2.7196    51.5473
 1615.0000     2.9843    51.5473
 1615.5000     3.2085    52.7945
 1616.0000     3.4529    53.6259
 1616.5000     3.4670    57.3672
 1617.0000     3.3324    63.1871
 1617.5000     3.1978    70.2540
 1618.0000     3.0486    80.2309
 1618.5000     3.0287   181.2471
 1619.0000     3.0295   180.9329
 1619.5000     3.0300   180.6344
 1620.0000     3.0306   180.3358
 1620.5000     3.0311   180.0000
 1621.0000     2.9910   135.1039
 1621.5000     2.9508    99.3533
 1622.0000     2.8499    88.5450
 1622.5000     2.7081    78.1524
 1623.0000     2.6273    69.8383
 1623.5000     2.5465    64.4342
 1624.0000     2.4861    59.8614
 1624.5000     2.4868    56.5358
 1625.0000     2.5484    53.2102
 1625.5000     2.5896    49.8845
 1626.0000     2.6714    47.8060
 1626.5000     2.7126    45.3118
 1627.0000     2.6442    44.0647
 1627.5000     2.5786    42.8176
 1628.0000     2.5129    41.5704
 1628.5000     2.4473    40.3233
 1629.0000     2.3817    39.9076
 1629.5000     2.3160    38.6605
 1630.0000     2.2504    38.2448
 1630.5000     2.1848    36.5820
 1631.0000     2.1191    34.9192
 1631.5000     2.0535    33.6721
 1632.0000     1.9870    33.2564
 1632.5000     2.1554    32.0092
 1633.0000     2.3485    31.5935
 1633.5000     2.5417    31.1778
 1634.0000     2.7413    30.3464
 1634.5000     2.5025    29.9307
 1635.0000     2.2554    29.5150
 1635.5000     2.0082    28.6836
 1636.0000     1.7476    28.2679
 1636.5000     1.8861    28.2679
 1637.0000     2.0325    27.8522
 1637.5000     2.1790    27.0208
 1638.0000     2.3255    26.6051
 1638.5000     2.4719    26.6051
 1639.0000     2.6184    26.1894
 1639.5000     2.7649    25.3580
 1640.0000     2.8902    25.3580
 1640.5000     2.7282    24.9423
 1641.0000     2.5866    24.9423
 1641.5000     2.5666    24.9423
 1642.0000     2.5469    24.9423
 1642.5000     2.6492    24.9423
 1643.0000     2.7311    24.9423
 1643.5000     2.8130    24.9423
 1644.0000     2.8135    25.3580
 1644.5000     2.6515    25.3580
 1645.0000     2.5301    25.3580
 1645.5000     2.3884    25.3580
 1646.0000     2.2668    25.3580
 1646.5000     2.2674    26.6051
 1647.0000     2.2680    26.6051
 1647.5000     2.2685    27.0208
 1648.0000     2.2186    28.6836
 1648.5000     2.1101    33.2564
 1649.0000     2.0017    41.1547
 1649.5000     1.8932    54.4573
 1650.0000     2.0656    82.7252
 1650.5000     2.7334    96.8591
 1651.0000     3.4013    98.1062
 1651.5000     4.0691    88.1293
 1652.0000     4.3651    76.9053
 1652.5000     3.9428    71.5012
 1653.0000     3.5206    69.4226
 1653.5000     3.0983    68.1755
 1654.0000     2.7432    67.7598
 1654.5000     2.9558    66.9284
 1655.0000     3.1392    66.9284
 1655.5000     3.3226    66.5127
 1656.0000     3.5060    64.8499
 1656.5000     3.6894    64.4342
 1657.0000     3.8728    64.4342
 1657.5000     4.0562    63.6028
 1658.0000     3.9797    63.1871
 1658.5000     3.7299    63.1871
 1659.0000     3.4802    63.1871
 1659.5000     3.2304    63.1871
 1660.0000     2.9807    63.1871
 1660.5000     2.7309    63.1871
 1661.0000     2.4811    63.1871
 1661.5000     2.2314    63.1871
 1662.0000     2.0767    63.1871
 1662.5000     2.2289    63.1871
 1663.0000     2.3811    63.1871
 1663.5000     2.5333    62.7714
 1664.0000     2.4783    62.7714
 1664.5000     2.2951    62.7714
 1665.0000     2.1118    62.7714
 1665.5000     1.9286    61.9400
 1666.0000     1.7810    61.9400
 1666.5000     2.0695    61.9400
 1667.0000     2.3111    61.9400
 1667.5000     2.5526    61.9400
 1668.0000     2.6167    61.9400
 1668.5000     2.6172    61.9400
 1669.0000     2.6178    61.9400
 1669.5000     2.6183    61.9400
 1670.0000     2.6189    61.9400
 1670.5000     2.6940    61.5243
 1671.0000     2.8409    61.5243
 1671.5000     2.9877    61.9400
 1672.0000     2.9991    61.9400
 1672.5000     2.8471    61.9400
 1673.0000     2.6950    61.9400
 1673.5000     2.5430    62.7714
 1674.0000     2.3909    63.1871
 1674.5000     2.2389    63.1871
 1675.0000     2.0868    63.1871
 1675.5000     1.9348    63.6028
 1676.0000     1.7720    64.4342
 1676.5000     1.9012    65.2656
 1677.0000     2.0517    66.9284
 1677.5000     2.2022    70.2540
 1678.0000     2.3528    74.8268
 1678.5000     2.5033    79.8152
 1679.0000     2.6539    84.8037
 1679.5000     2.8044    91.4550
 1680.0000     2.9549    98.1062
 1680.5000     2.8513   102.6790
 1681.0000     2.6520   181.2471
 1681.5000     2.4527   181.2471
 1682.0000     2.3045   181.2471
 1682.5000     2.2951   181.2471
 1683.0000     2.2857   133.0254
 1683.5000     2.2764   104.7575
 1684.0000     2.2507    91.4550
 1684.5000     2.1436    83.5566
 1685.0000     2.0365    78.5681
 1685.5000     1.9294    73.1640
 1686.0000     1.8036    68.5912
 1686.5000     1.9291    64.8499
 1687.0000     2.0813    61.1085
 1687.5000     2.2335    58.1986
 1688.0000     2.3857    56.5358
 1688.5000     2.5379    54.8730
 1689.0000     2.6901    53.6259
 1689.5000     2.8423    53.2102
 1690.0000     3.0132    52.7945
 1690.5000     3.2665    51.9630
 1691.0000     3.5198    51.9630
 1691.5000     3.7731    51.9630
 1692.0000     4.0264    51.9630
 1692.5000     4.0155    51.9630
 1693.0000     3.9220    52.3788
 1693.5000     3.8285    52.7945
 1694.0000     3.6346    53.2102
 1694.5000     3.2105    53.2102
 1695.0000     2.7865    53.2102
 1695.5000     2.3624    53.2102
 1696.0000     2.1069    53.6259
 1696.5000     2.2785    53.6259
 1697.0000     2.4500    53.6259
 1697.5000     2.6294    53.6259
 1698.0000     2.7519    53.6259
 1698.5000     2.8744    54.0416
 1699.0000     2.9563    54.4573
 1699.5000     3.0178    54.8730
 1700.0000     3.0387    54.8730
 1700.5000     2.9579    55.2887
 1701.0000     2.8771    55.2887
 1701.5000     2.8166    56.1201
 1702.0000     2.9610    56.5358
 1702.5000     3.1280    56.5358
 1703.0000     3.2950    56.9515
 1703.5000     3.4085    56.9515
 1704.0000     3.4497    57.7829
 1704.5000     3.5110    57.7829
 1705.0000     3.3695    57.7829
 1705.5000     3.2684    57.7829
 1706.0000     3.2078    57.7829
 1706.5000     3.1273    57.7829
 1707.0000     3.0668    58.1986
 1707.5000     2.9861    58.1986
 1708.0000     3.1389    58.6143
 1708.5000     3.4116    59.8614
 1709.0000     3.6844    59.8614
 1709.5000     3.9572    61.1657
 1710.0000     3.9876    61.9400
 1710.5000     3.5875    63.1871
 1711.0000     3.1874    63.6028
 1711.5000     2.7873    64.8499
 1712.0000     2.3873    65.2656
 1712.5000     1.9872    66.5127
 1713.0000     1.5871    80.5861
 1713.5000     1.1870   127.9522
 1714.0000     1.0758   179.7011
 1714.5000     1.0670   179.8678
 1715.0000     1.0582   180.0516
 1715.5000     1.0494   180.2354
 1716.0000     1.0406   180.4192
 1716.5000     1.0318   167.7584
 1717.0000     1.0250   121.8326
 1717.5000     1.0461    84.5343
 1718.0000     1.1076    82.4598
 1718.5000     1.1285    76.6442
 1719.0000     1.1901    69.1655
 1719.5000     1.2516    65.0128
