~VERSION INFORMATION
 VERS.                2.0:   CWLS LOG ASCII STANDARD - VERSION 2.0
 WRAP.                 NO:   ONE LINE PER DEPTH STEP
~WELL INFORMATION
#MNEM.UNIT      DATA TYPE    INFORMATION
#----------   ------------   ------------------------------
 STRT.F          714.0000:   START DEPTH
 STOP.F         1640.0000:   STOP DEPTH
 STEP.F            0.5000:   STEP LENGTH
 NULL.          -999.2500:   NO VALUE
 COMP. BROWN JOHN E&C INC:   COMPANY
 WELL. NPR 3 STX-15 #83-15:   WELL
 FLD .             TEAPOT:   FIELD
 LOC .      S15 T38N R78W:   LOCATION
 CNTY.            NATRONA:   COUNTY
 STAT.            WYOMING:   STATE
 CTRY. UNITED STATES OF AMERICA:   COUNTRY
 SRVC.            Unknown:   SERVICE COMPANY
 DATE.        30-AUG-1991:   LOGDATE
 API .       490251111300:   API NUMBER
~CURVE INFORMATION
#MNEM.UNIT       API CODE    CURVE DESCRIPTION
#----------   ------------   ------------------------------
 DEPT.F                  :   
 TGAS.UNITS  91 830 01 00:   TOTAL GAS FROM HOTWIRE
 C1  .VF     91 831 01 00:   METHANE
 C2  .VF     91 832 01 00:   ETHANE
 C3  .VF     91 833 01 00:   PROPANE
 C4  .VF     91 834 01 00:   BUTANE
 ROP .MIN/FT 91 810 01 00:   RAT OF DRILLING PENETRATION
~PARAMETER INFORMATION
#MNEM.UNIT          VALUE    DESCRIPTION
#----------   ------------   ------------------------------
 EKB .F              5265:   KELLING BUSHING
 EGL .F              5255:   GROUND LEVEL
 DATE.            5-30-91:   RUN DATE
 DD  .F              1626:   DEPTH DRILLER
 TCS .HRS            1200:   TIME CURCULATED STOPPED
 TLAB.HRS            1815:   TIME LOGGER AT BOTTOM
 ENGI.               HUSK:   RECORDING ENGINEER
 WITN.              TOWER:   WITNESSED BY
 CLNT.            A2DTECH:   CLIENT CODE
 ORIG.           5" PRINT:   ORIGIN OF DATA
 UWI .       490251111300:   UNIQUE WELL ID
 DICO. A2D Technologies, Inc.:   DIGITIZING COMPANY
~OTHER INFORMATION
~A   DEPT     TGAS         C1         C2         C3         C4          ROP 
# ...
 1130.0000   787.8049   419.2308  -999.2500     7.9446     1.6250     1.0944
 1130.5000   787.8047   419.2308  -999.2500     7.9633     1.6250     1.1057
 1131.0000   787.8046   419.2308  -999.2500     7.9820     1.6250     1.1415
 1131.5000   787.8140   419.2308  -999.2500     8.0007     1.6250     1.1868
 1132.0000   787.9004   419.2308  -999.2500     8.0193     1.6250     1.2322
 1132.5000   787.9879   419.2308  -999.2500     8.0380     1.6250     1.2738
 1133.0000   788.0751   419.2308  -999.2500     8.0567     1.6250     1.2556
 1133.5000   788.1622   419.2308  -999.2500     8.0754     1.6250     1.1491
 1134.0000   788.2494   419.2307  -999.2500     8.0941     1.6250     1.0454
 1134.5000   788.3365   419.2307  -999.2500     8.1128     1.6250     1.0315
 1135.0000   788.4237   419.2310  -999.2500     8.1315     1.6250     1.0286
 1135.5000   788.5109   419.2483  -999.2500     8.1503     1.6250     1.0258
 1136.0000   788.5980   419.3101  -999.2500     8.1688     1.6250     1.0228
 1136.5000   788.6852   419.3712  -999.2500     8.1708     1.6250     1.0199
 1137.0000   788.7723   419.4322  -999.2500     8.1708     1.6251     1.0169
 1137.5000   788.8595   419.4933  -999.2500     8.1707     1.6255     1.0139
 1138.0000   788.9467   419.5543  -999.2500     8.1707     1.6090     1.0109
 1138.5000   789.0338   419.6154  -999.2500     8.1707     1.5901     1.0079
 1139.0000   789.1210   419.6764  -999.2500     8.1707     1.5711     1.0049
 1139.5000   789.2081   419.7375  -999.2500     8.1707     1.5523     1.0019
 1140.0000   789.2953   419.7985  -999.2500     8.1707     1.5334     0.9991
 1140.5000   789.3825   419.8596  -999.2500     8.1707     1.5145     1.0128
 1141.0000   789.4697   419.9206  -999.2500     8.1707     1.4956     1.0693
 1141.5000   789.5568   419.9817  -999.2500     8.1707     1.4767     1.1251
 1142.0000   789.6440   420.0428  -999.2500     8.1707     1.4578     1.1814
 1142.5000   789.7311   420.1038  -999.2500     8.1707     1.4389     1.1817
 1143.0000   789.8183   420.1648  -999.2500     8.1707     1.4200     1.1269
 1143.5000   789.9055   420.2259  -999.2500     8.1707     1.4012     1.0727
 1144.0000   789.9926   420.2869  -999.2500     8.1707     1.3818     1.0345
 1144.5000   790.0798   420.3480  -999.2500     8.1707     1.3965     1.0378
 1145.0000   790.1669   420.4090  -999.2500     8.1707     1.4305     1.0405
 1145.5000   790.2541   420.4701  -999.2500     8.1707     1.4649     1.0431
 1146.0000   790.3412   420.5311  -999.2500     8.1707     1.4993     1.0457
 1146.5000   790.4284   420.5922  -999.2500     8.1707     1.5337     1.0483
 1147.0000   790.5156   420.6532  -999.2500     8.1707     1.5681     1.0509
 1147.5000   790.6027   420.7143  -999.2500     8.1707     1.6021     1.0535
 1148.0000   790.6899   420.7753  -999.2500     8.1707     1.6224     1.0561
 1148.5000   790.7770   420.8364  -999.2500     8.1707     1.6130     1.0580
 1149.0000   790.8642   420.8974  -999.2500     8.1707     1.6041     1.1037
 1149.5000   790.9514   420.9585  -999.2500     8.1707     1.5952     1.1663
 1150.0000   791.0385   421.0195  -999.2500     8.1707     1.5862     1.2283
 1150.5000   791.1257   421.0806  -999.2500     8.1707     1.5773     1.2741
 1151.0000   791.2128   421.1416  -999.2500     8.1729     1.5684     1.2751
 1151.5000   791.3000   421.2027  -999.2500     8.1859     1.5595     1.2772
 1152.0000   791.3872   421.2637  -999.2500     8.1987     1.5505     1.2790
 1152.5000   791.4744   421.3248  -999.2500     8.2115     1.5416     1.2809
 1153.0000   791.5615   421.3858  -999.2500     8.2243     1.5327     1.2828
 1153.5000   791.6487   421.4469  -999.2500     8.2371     1.5237     1.2844
 1154.0000   791.7358   421.5079  -999.2500     8.2499     1.5148     1.3056
 1154.5000   791.8230   421.5690  -999.2500     8.2627     1.5059     1.3569
 1155.0000   791.9102   421.6300  -999.2500     8.2754     1.4970     1.4086
 1155.5000   791.9973   421.6911  -999.2500     8.2882     1.4880     1.4604
 1156.0000   792.0845   421.7521  -999.2500     8.3010     1.4791     1.5129
 1156.5000   792.1716   421.8129  -999.2500     8.3138     1.4702     1.5003
 1157.0000   792.2588   421.8730  -999.2500     8.3266     1.4613     1.4368
 1157.5000   792.3459   421.9332  -999.2500     8.3394     1.4523     1.3735
 1158.0000   792.4331   421.9933  -999.2500     8.3522     1.4434     1.3106
 1158.5000   792.5203   422.0534  -999.2500     8.3649     1.4345     1.2616
 1159.0000   792.6074   422.1135  -999.2500     8.3777     1.4255     1.2774
 1159.5000   792.6946   422.1736  -999.2500     8.3905     1.4166     1.2928
 1160.0000   792.7817   422.2338  -999.2500     8.4033     1.4077     1.2622
 1160.5000   792.8689   422.2939  -999.2500     8.4150     1.3988     1.2056
 1161.0000   792.9561   422.3540  -999.2500     8.4147     1.3898     1.1485
 1161.5000   793.0432   422.4142  -999.2500     8.4146     1.3810     1.0916
 1162.0000   793.1304   422.4743  -999.2500     8.4146     1.3772     1.0573
 1162.5000   793.2175   422.5344  -999.2500     8.4146     1.3843     1.0529
 1163.0000   793.3047   422.5945  -999.2500     8.4146     1.3912     1.0483
 1163.5000   793.3919   422.6547  -999.2500     8.4146     1.3981     1.0437
 1164.0000   793.4791   422.7148  -999.2500     8.4146     1.4051     1.0391
 1164.5000   793.5662   422.7749  -999.2500     8.4146     1.4120     1.0345
 1165.0000   793.6534   422.8350  -999.2500     8.4146     1.4190     1.0298
 1165.5000   793.7405   422.8951  -999.2500     8.4146     1.4259     1.0253
 1166.0000   793.8277   422.9553  -999.2500     8.4146     1.4328     1.0213
 1166.5000   793.9149   423.0154  -999.2500     8.4146     1.4398     1.0510
 1167.0000   794.0020   423.0755  -999.2500     8.4146     1.4467     1.0916
 1167.5000   794.0892   423.1357  -999.2500     8.4146     1.4536     1.1330
 1168.0000   794.1763   423.1958  -999.2500     8.4146     1.4606     1.1741
 1168.5000   794.2635   423.2559  -999.2500     8.4146     1.4675     1.2044
 1169.0000   794.3506   423.3160  -999.2500     8.4146     1.4744     1.1480
 1169.5000   794.4378   423.3762  -999.2500     8.4146     1.4814     1.0920
 1170.0000   794.5250   423.4363  -999.2500     8.4146     1.4883     1.0342
 1170.5000   794.6121   423.4964  -999.2500     8.4146     1.4953     1.0502
 1171.0000   794.6993   423.5565  -999.2500     8.4146     1.5022     1.1014
 1171.5000   794.7864   423.6166  -999.2500     8.4146     1.5091     1.1532
 1172.0000   794.8736   423.6768  -999.2500     8.4146     1.5161     1.2048
 1172.5000   794.9608   423.7369  -999.2500     8.4146     1.5230     1.2488
 1173.0000   795.0479   423.7970  -999.2500     8.4146     1.5300     1.2478
 1173.5000   795.1351   423.8571  -999.2500     8.4146     1.5369     1.2477
 1174.0000   795.2222   423.9173  -999.2500     8.4146     1.5438     1.2477
 1174.5000   795.3094   423.9774  -999.2500     8.4146     1.5508     1.2477
 1175.0000   795.3965   424.0375  -999.2500     8.4146     1.5577     1.2478
 1175.5000   795.4837   424.0976  -999.2500     8.4146     1.5646     1.2476
 1176.0000   795.5709   424.1578  -999.2500     8.4146     1.5716     1.2371
 1176.5000   795.6580   424.2179  -999.2500     8.4146     1.5785     1.1798
 1177.0000   795.7452   424.2781  -999.2500     8.4146     1.5854     1.1238
 1177.5000   795.8324   424.3382  -999.2500     8.4146     1.5924     1.0663
 1178.0000   795.9196   424.3969  -999.2500     8.4146     1.5993     1.1032
 1178.5000   796.0067   424.4541  -999.2500     8.4146     1.6063     1.1894
 1179.0000   796.0939   424.5117  -999.2500     8.4149     1.6135     1.2769
 1179.5000   796.1810   424.5692  -999.2500     8.4153     1.6198     1.3642
 1180.0000   796.2682   424.6268  -999.2500     8.4134     1.5950     1.4511
 1180.5000   796.3553   424.6843  -999.2500     8.2932     1.4706     1.4840
 1181.0000   796.4425   424.7419  -999.2500     7.8635     1.3511     1.4514
 1181.5000   796.5297   424.7994  -999.2500     7.4390     1.2318     1.4714
