~VERSION INFORMATION
 VERS.                2.0:   CWLS LOG ASCII STANDARD - VERSION 2.0
 WRAP.                 NO:   ONE LINE PER DEPTH STEP
~WELL INFORMATION
#MNEM.UNIT      DATA TYPE    INFORMATION
#----------   ------------   ------------------------------
 STRT.F            8.0000:   START DEPTH
 STOP.F          916.0000:   STOP DEPTH
 STEP.F            0.5000:   STEP LENGTH
 NULL.          -999.2500:   NO VALUE
 COMP. LAWRENCE/ALLISON INC:   COMPANY
 WELL.    41-66 SX #11-11:   WELL
 FLD .             NPR #3:   FIELD
 LOC .      S11 T38N R78W:   LOCATION
 CNTY.            NATRONA:   COUNTY
 STAT.            WYOMING:   STATE
 CTRY. UNITED STATES OF AMERICA:   COUNTRY
 SRVC.           Gearhart:   SERVICE COMPANY
 DATE.        13-MAY-1987:   LOGDATE
 API .       490251112600:   API NUMBER
~CURVE INFORMATION
#MNEM.UNIT       API CODE    CURVE DESCRIPTION
#----------   ------------   ------------------------------
 DEPT.F                  :   
 GRR .GAPI   07 310 01 00:   GAMMA RAY FROM RES. LOG.
 RILM.OHMM   07 120 44 00:   INDUCTION LOG MEDIUM RESISTIVITY
 RILD.OHMM   07 120 46 00:   INDUCTION LOG DEEP RESISTIVITY
~PARAMETER INFORMATION
#MNEM.UNIT          VALUE    DESCRIPTION
#----------   ------------   ------------------------------
 PD  .                 GL:   PERMANENT DATUM
 EPD .F              5166:   ELEVATION PERMANENT DATUM
 LMF .                 KB:   LOG MEASURED FROM
 DAPD.F                 8:   FEET ABOVE PERMANENT DATUM
 DMF .                 KB:   DRILLING MEASURED FROM
 EKB .F              5174:   KELLING BUSHING
 EDF .F              5174:   DRILLING FLOOR
 EGL .F              5166:   GROUND LEVEL
 DATE.            5-13-87:   RUN DATE
 RUN .                  1:   RUN NUMBER
 DD  .F               945:   DEPTH DRILLER
 DL  .F               930:   DEPTH LOGGER
 BLI .F               921:   BOTTOM LOG INTERVAL
 TLI .F                49:   TOP LOG INTERVAL
 CS  .IN            8.625:   CASING SIZE
 CBD .F                47:   CASING BOTTOM DRILLER
 CBL .F                49:   CASING BOTTOM LOGGER
 BS  .IN            7.875:   BIT SIZE
 BSD .F               945:   BIT SIZE AT DEPTH
 DFT .           AIR FOAM:   DRILLING FLUID TYPE
 TCS .HRS            2230:   TIME CURCULATED STOPPED
 TLAB.HRS            1105:   TIME LOGGER AT BOTTOM
 MRT .F                80:   MAXIMUM RECORDED TEMPERATURE
 LUN .               7597:   LOGGING UNIT NUMBER
 LUL .                GLT:   LOGGING UNIT LOCATION
 ENGI.            WANGLER:   RECORDING ENGINEER
 WITN.             STRONG:   WITNESSED BY
 CLNT.            A2DTECH:   CLIENT CODE
 ORIG.       2", 5" PRINT:   ORIGIN OF DATA
 UWI .       490251112600:   UNIQUE WELL ID
 DICO. A2D Technologies, Inc.:   DIGITIZING COMPANY
~OTHER INFORMATION
~A    DEPT      GRR      RILM       RILD   
# ...
  372.0000   110.7680     6.6215     6.5303
  372.5000   111.2474     6.5989     6.4904
  373.0000   111.7245     6.6786     6.4508
  373.5000   112.2411     6.7775     6.4147
  374.0000   113.6137     6.8777     6.3545
  374.5000   114.6914     6.9795     6.5989
  375.0000   113.7022     7.0818     6.8141
  375.5000   109.7537     7.1861     7.0864
  376.0000   105.6705     7.3395     7.2544
  376.5000   104.7687     7.4476     7.2635
  377.0000   105.6878     7.5550     7.2726
  377.5000   107.6529     7.6031     7.2818
  378.0000   108.5649     7.5841     7.2909
  378.5000   106.2093     7.5654     7.3001
  379.0000   102.4461     7.5468     7.3093
  379.5000   103.9454     7.5306     7.3202
  380.0000   106.2374     7.5316     7.3050
  380.5000   109.1787     7.4789     7.2840
  381.0000   111.6547     7.4136     7.2629
  381.5000   113.1580     7.3486     7.2085
  382.0000   113.5995     7.2843     7.1179
  382.5000   113.3921     7.2205     7.0286
  383.0000   112.4344     7.1574     6.9403
  383.5000   111.4881     7.0947     6.8531
  384.0000   110.5105     7.0496     6.7665
  384.5000   111.2402     7.1998     6.7241
  385.0000   112.8541     7.3215     6.8991
  385.5000   114.2847     7.4452     7.0515
  386.0000   113.2338     7.5710     7.2324
  386.5000   110.3283     7.6989     7.4180
  387.0000   107.4346     7.8290     7.6083
  387.5000   106.0460     7.9612     7.8035
  388.0000   106.0311     8.0452     8.0037
  388.5000   106.4889     8.1215     8.0452
  389.0000   104.4004     8.1215     8.0452
  389.5000   105.2210     7.8948     7.8948
  390.0000   106.6761     8.0165     7.8148
  390.5000   107.7101     7.8776     7.6631
  391.0000   107.3697     7.7384     7.5145
  391.5000   107.0436     7.6018     7.3687
  392.0000   106.9085     7.4676     7.2257
  392.5000   106.2549     7.3358     7.0856
  393.0000   105.2878     7.2063     6.9480
  393.5000   106.0968     7.0791     6.8132
  394.0000   108.3627     6.9833     6.6618
  394.5000   110.6591     7.0497     6.7203
  395.0000   112.7331     7.1286     6.7898
  395.5000   112.7763     7.2084     6.8601
  396.0000   109.7318     7.2891     6.9376
  396.5000   106.9444     7.3707     7.0439
  397.0000   108.5914     7.4532     7.1518
  397.5000   111.3641     7.5369     7.2613
  398.0000   110.9433     7.6189     7.3725
  398.5000   107.3547     7.7494     7.4854
  399.0000   103.7114     7.7723     7.5572
  399.5000   102.3917     7.7978     7.6011
  400.0000   102.0847     7.8234     7.6452
  400.5000   105.0201     7.8491     7.6896
  401.0000   108.7168     7.8748     7.7342
  401.5000   109.3255     7.8948     7.7791
  402.0000   108.0629     8.0625     7.8207
  402.5000   106.8619     8.1738     7.8865
  403.0000   108.8325     8.2867     7.9486
  403.5000   110.6045     8.3547     8.0119
  404.0000   108.9790     8.2310     8.0446
  404.5000   106.4414     8.0569     7.8619
  405.0000   106.5967     7.8864     7.7370
  405.5000   109.1856     7.7195     7.6143
  406.0000   111.3358     7.5561     7.4937
  406.5000   112.1313     7.3963     7.3750
  407.0000   111.9633     7.3196     7.2525
  407.5000   111.3274     7.3109     7.2340
  408.0000   110.2908     7.3023     7.2162
  408.5000   108.6682     7.2938     7.1981
  409.0000   108.1330     7.2852     7.1799
  409.5000   109.1485     7.2767     7.1617
  410.0000   110.6793     7.2681     7.1437
  410.5000   109.3145     7.2595     7.1254
  411.0000   107.3781     7.2520     7.1169
  411.5000   106.5550     7.2696     7.1545
  412.0000   107.1425     7.3028     7.1800
  412.5000   108.7695     7.3362     7.2057
  413.0000   110.6402     7.3697     7.2316
  413.5000   112.5203     7.4033     7.2575
  414.0000   112.9700     7.4371     7.2835
  414.5000   112.1058     7.4711     7.3096
  415.0000   111.4602     7.5052     7.3358
  415.5000   111.8570     7.5395     7.3621
  416.0000   112.2302     7.5739     7.3884
  416.5000   112.6299     7.6085     7.4149
  417.0000   113.4806     7.6432     7.4415
  417.5000   115.9079     7.7472     7.4900
  418.0000   119.1961     7.8744     7.5915
  418.5000   119.5128     7.9764     7.6944
  419.0000   117.1508     8.0798     7.7987
  419.5000   112.4526     8.1845     7.9044
  420.0000   107.6450     8.3547     8.0115
  420.5000   104.9279     8.3547     8.1200
  421.0000   105.2853     8.4114     8.2301
  421.5000   111.1585     8.4693     8.3416
  422.0000   117.3973     8.5275     8.3725
  422.5000   118.6795     8.5862     8.3927
  423.0000   117.3531     8.6452     8.4129
  423.5000   116.0141     8.7047     8.4332
  424.0000   115.4785     8.7584     8.4535
  424.5000   115.5230     8.7815     8.4739
  425.0000   117.7013     8.8137     8.4943
  425.5000   117.9070     8.8459     8.5139
  426.0000   115.9043     8.8785     8.6190
  426.5000   113.7845     8.9078     8.7209
  427.0000   113.0595     9.0332     8.8239
  427.5000   113.6769     9.1673     8.9264
  428.0000   114.4237     9.3034     8.9240
  428.5000   115.1670     9.4415     9.1035
  429.0000   115.8997     9.5816     9.2286
  429.5000   116.0398     9.7238     9.3551
  430.0000   115.4949     9.8681     9.4834
  430.5000   115.1319    10.0146     9.6240
  431.0000   114.7664    10.1632     9.7666
  431.5000   114.4006    10.3140     9.9232
  432.0000   114.0351    10.4671    10.0830
  432.5000   113.6621    10.6225    10.2452
  433.0000   112.9202    10.7817    10.4101
  433.5000   111.5463    10.8807    10.5777
  434.0000   110.1252    10.7676    10.7792
  434.5000   109.5209    10.6842    10.7792
  435.0000   109.3649    10.6016    10.5226
  435.5000   109.6373    10.5198    10.4011
  436.0000   111.0880    10.4387    10.2811
  436.5000   112.5104    10.3582    10.1623
  437.0000   113.9307    10.2783    10.0450
  437.5000   115.3553    10.1990     9.9291
  438.0000   113.1665    10.1204     9.9015
  438.5000   110.0894    10.0734     9.9015
  439.0000   107.8753    10.0337     9.9015
  439.5000   107.1978     9.9941     9.9015
  440.0000   109.3804     9.9547     9.9015
  440.5000   111.9942     9.9155     9.8432
  441.0000   114.2170     9.8855     9.7465
  441.5000   115.5950     9.8511     9.6509
  442.0000   116.2264     9.8163     9.5553
  442.5000   114.1919     9.7818     9.5176
  443.0000   112.0445     9.7474     9.4951
  443.5000   110.4850     9.7140     9.4728
  444.0000   110.4217     9.6897     9.4506
  444.5000   113.7426     9.6654     9.4284
  445.0000   117.4363     9.6412     9.4062
  445.5000   118.2676     9.6170     9.3842
  446.0000   117.3854     9.5929     9.3622
  446.5000   116.2865     9.5688     9.3402
  447.0000   116.8062     9.5449     9.3183
  447.5000   119.2948     9.5209     9.2964
  448.0000   121.8922     9.4971     9.2746
  448.5000   122.3984     9.4733     9.2528
  449.0000   121.9565     9.4495     9.2311
  449.5000   121.4798     9.4019     9.2094
  450.0000   121.0102     9.3332     9.1878
  450.5000   120.5422     9.2650     9.0877
  451.0000   120.0915     9.1973     8.9557
  451.5000   118.4843     9.0121     8.7756
  452.0000   116.5425     8.7958     8.5836
  452.5000   114.7377     8.5845     8.3960
  453.0000   114.9527     8.3784     8.2126
  453.5000   115.6458     8.1773     8.0123
  454.0000   117.6578     7.9809     7.7962
  454.5000   120.1658     7.7894     7.5860
  455.0000   122.7110     7.6024     7.4535
  455.5000   124.3828     7.6024     7.4363
  456.0000   125.8625     7.6744     7.4191
  456.5000   127.3402     7.7472     7.4019
  457.0000   128.1558     7.7472     7.3900
  457.5000   126.4380     7.8334     7.5944
  458.0000   123.5734     7.9531     7.7544
  458.5000   120.7393     8.0749     7.9179
  459.0000   115.6921     8.1986     8.0856
  459.5000   109.2201     8.3240     8.2515
  460.0000   107.0963     8.4514     8.3586
  460.5000   109.7486     8.5139     8.3566
  461.0000   114.0124     8.5028     8.3473
  461.5000   115.1337     8.4943     8.3259
  462.0000   109.9290     8.4859     8.3047
  462.5000   102.3230     8.4775     8.2836
