~VERSION INFORMATION
 VERS.                2.0:   CWLS LOG ASCII STANDARD - VERSION 2.0
 WRAP.                 NO:   ONE LINE PER DEPTH STEP
~WELL INFORMATION
#MNEM.UNIT      DATA TYPE    INFORMATION
#----------   ------------   ------------------------------
 STRT.F           32.0000:   START DEPTH
 STOP.F          571.0000:   STOP DEPTH
 STEP.F            0.5000:   STEP LENGTH
 NULL.          -999.2500:   NO VALUE
 COMP. FENIX & SCISSON INCORP.:   COMPANY
 WELL.      NPR-3 #21-S-3:   WELL
 FLD .             TEAPOT:   FIELD
 LOC .       S3 T38N R78W:   LOCATION
 CNTY.            NATRONA:   COUNTY
 STAT.            WYOMING:   STATE
 CTRY. UNITED STATES OF AMERICA:   COUNTRY
 SRVC.           BIRDWELL:   SERVICE COMPANY
 DATE.        25-JUL-1978:   LOGDATE
 API .       490251067100:   API NUMBER
~CURVE INFORMATION
#MNEM.UNIT       API CODE    CURVE DESCRIPTION
#----------   ------------   ------------------------------
 DEPT.F                  :   
 CALD.IN     45 280 60 00:   CALIPER FROM DENSITY LOG
 CORR.G/C3   45 356 01 00:   DENSITY CORRECTION
 DPHI.DEC    45 890 10 00:   DENSITY POROSITY LIMESTONE
 GRD .GAPI   45 310 01 00:   GAMMA RAY FROM DENSITY LOG
 RHOB.G/C3   45 350 01 00:   BULK DENSITY
 ILD .OHMM   05 120 46 00:   INDUCTION LOG DEEP
 SN  .OHMM   05 040 16 00:   SHORT NORMAL 16"
 SPR .MV     05 010 01 00:   SPONTANEOUS POTENTIAL FROM RES.
 NPHI.DEC    42 890 01 00:   NEUTRON POROSITY LIMESTONE
~PARAMETER INFORMATION
#MNEM.UNIT          VALUE    DESCRIPTION
#----------   ------------   ------------------------------
 PD  .                 GL:   PERMANENT DATUM
 EPD .F              5203:   ELEVATION PERMANENT DATUM
 LMF .                 KB:   LOG MEASURED FROM
 DAPD.F                 4:   FEET ABOVE PERMANENT DATUM
 DMF .                 KB:   DRILLING MEASURED FROM
 EKB .F              5207:   KELLING BUSHING
 EGL .F              5203:   GROUND LEVEL
 DATE.        25-JUL-1978:   RUN DATE
 RUN .                  1:   RUN NUMBER
 DD  .F               565:   DEPTH DRILLER
 DL  .F               573:   DEPTH LOGGER
 BLI .F               566:   BOTTOM LOG INTERVAL
 TLI .F                46:   TOP LOG INTERVAL
 CS  .IN            8.625:   CASING SIZE
 CBD .F                40:   CASING BOTTOM DRILLER
 CBL .F                48:   CASING BOTTOM LOGGER
 BS  .IN            7.875:   BIT SIZE
 BSD .F               565:   BIT SIZE AT DEPTH
 DFT .                KCL:   DRILLING FLUID TYPE
 DFD .                8.6:   DRILLING FLUID DENSITY
 DFV .                 30:   DRILLING FLUID VISCOSITY
 DFPH.                  9:   DRILLING FLUID PH
 MSS .           FLOWLINE:   MUD SAMPLE SOURCE
 LUN .               2958:   LOGGING UNIT NUMBER
 LUL .               CASP:   LOGGING UNIT LOCATION
 WITN.           MCGINLEY:   WITNESSED BY
 CLNT.            A2DTECH:   CLIENT CODE
 ORIG.           5" PRINT:   ORIGIN OF DATA
 UWI .       490251067100:   UNIQUE WELL ID
 DICO. A2D Technologies, Inc.:   DIGITIZING COMPANY
~OTHER INFORMATION
~A   DEPT     CALD       CORR       DPHI         GRD      RHOB        ILD         SN        SPR       NPHI   
# ...
  324.0000     7.2851     0.0037     0.1211   113.7900     2.4884     7.1806     7.1275   -48.7005     0.3650
  324.5000     7.3456     0.0022     0.1295   117.2478     2.4809     7.1854     7.0817   -48.6816     0.3644
  325.0000     7.4060     0.0025     0.1346   118.6036     2.4697     7.1904     7.0373   -48.6627     0.3635
  325.5000     7.4679     0.0083     0.1466   116.1407     2.4518     7.1962     7.0913   -48.6438     0.3617
  326.0000     7.5270     0.0158     0.1499   113.7297     2.4360     7.2009     7.0955   -48.7735     0.3572
  326.5000     7.5874     0.0203     0.1490   112.0113     2.4375     7.2057     7.1489   -48.7499     0.3608
  327.0000     7.6178     0.0188     0.1448   111.4151     2.4390     7.1119     7.1532   -49.3254     0.3718
  327.5000     7.6482     0.0173     0.1418   112.7709     2.4434     7.0676     7.1093   -49.3065     0.3731
  328.0000     7.6785     0.0114     0.1347   117.5801     2.4569     6.9757     7.1136   -49.2877     0.3740
  328.5000     7.6939     0.0069     0.1311   117.5845     2.4652     6.9245     7.0679   -49.2688     0.3797
  329.0000     7.7242     0.0054     0.1332   117.2875     2.4614     6.7962     6.8808   -49.2499     0.3800
  329.5000     7.7095     0.0054     0.1344   116.8426     2.4592     6.6617     6.6975   -49.0825     0.3806
  330.0000     7.7248     0.0069     0.1335   116.0962     2.4614     6.4849     6.4746   -49.3608     0.3818
  330.5000     7.7402     0.0009     0.1383   116.2508     2.4683     6.1413     5.7620   -49.6429     0.3863
  331.0000     7.7555    -0.0066     0.1431   116.4054     2.4614     5.8561     5.7258   -49.7688     0.3878
  331.5000     7.7709    -0.0096     0.1466   115.2257     2.4539     5.7389     5.7301   -49.5966     0.4052
  332.0000     7.7712    -0.0065     0.1647   110.1090     2.4412     5.7045     5.7335   -49.5777     0.4201
  332.5000     7.7865    -0.0005     0.1704   109.5117     2.4255     5.7092     5.8166   -49.5588     0.4564
  333.0000     7.7868     0.0025     0.1524   110.4181     2.4105     5.5577     5.7798   -49.2428     0.4552
  333.5000     7.7721     0.0025     0.1452   114.9270     2.4217     5.3731     5.8644   -49.2239     0.3890
  334.0000     7.7724    -0.0005     0.1356   120.3368     2.4472     5.2297     5.9085   -49.3583     0.3836
  334.5000     7.7726    -0.0037     0.1320   121.2421     2.4614     5.1269     5.8714   -49.3347     0.3795
  335.0000     7.7729    -0.0065     0.1344   120.3456     2.4622     5.0602     5.7152   -49.4651     0.3786
  335.5000     7.7732    -0.0064     0.1416   117.6473     2.4575     5.0288     5.6793   -49.5944     0.3789
  336.0000     7.7735    -0.0094     0.1497   114.0481     2.4472     4.9976     5.6828   -49.7239     0.3810
  336.5000     7.7437    -0.0094     0.1542   113.4499     2.4375     5.0018     5.7263   -49.7043     0.4178
  337.0000     7.7441    -0.0034     0.1516   115.6305     2.4330     5.0051     5.7693   -49.8347     0.4274
  337.5000     7.7444    -0.0034     0.1458   118.9165     2.4315     5.1130     5.8529   -49.8111     0.4268
  338.0000     7.6695    -0.0064     0.1407   119.3221     2.4494     5.5192     5.9378   -49.7922     0.3762
  338.5000     7.5495    -0.0064     0.1392   118.5758     2.4584     5.8791     6.0655   -49.7734     0.3732
  339.0000     7.6701    -0.0063     0.1419   114.2259     2.4584     6.2142     6.1125   -49.6059     0.3750
  339.5000     8.1065    -0.0063     0.1422    99.6657     2.4539     6.3046     6.2434   -49.2899     0.3762
  340.0000     8.1865    -0.0078     0.1410    98.6191     2.4509     6.3524     6.3339   -48.8252     0.3622
  340.5000     7.7913    -0.0063     0.1371   107.1820     2.4562     6.3566     6.4257   -48.5092     0.3502
  341.0000     7.7916    -0.0033     0.1449   113.7930     2.4517     6.2738     6.4740   -48.6389     0.3382
  341.5000     7.7919     0.0012     0.1446   116.3500     2.4464     6.1563     6.4324   -48.6196     0.3286
  342.0000     7.7771     0.0088     0.1394   118.3064     2.4487     5.9457     6.3055   -48.7497     0.3200
  342.5000     7.7473     0.0103     0.1278   118.6111     2.4584     5.7879     6.1342   -48.4289     0.3173
  343.0000     7.7477     0.0058     0.1302   113.6487     2.4689     5.5957     6.0572   -48.2615     0.3170
  343.5000     7.7329     0.0058     0.1311   109.3117     2.4727     5.3259     5.9368   -48.0940     0.3192
  344.0000     7.7182     0.0118     0.1276   107.9647     2.4719     5.0888     5.7399   -48.5209     0.3386
  344.5000     7.7185     0.0164     0.1279   108.1193     2.4719     5.0217     5.5487   -49.0964     0.3676
  345.0000     7.7037     0.0194     0.1333   108.7243     2.4689     4.9905     5.4759   -49.5233     0.3814
  345.5000     7.7191     0.0239     0.1399   109.4795     2.4611     4.9947     5.4793   -49.5044     0.4053
  346.0000     7.7194     0.0359     0.1339   108.7331     2.4479     5.0326     5.5639   -49.6345     0.4164
  346.5000     7.7197     0.0209     0.1444   108.4361     2.4539     5.3950     5.7580   -49.6152     0.4158
  347.0000     7.7200     0.0119     0.1333   111.8951     2.4682     6.0396     6.0047   -49.0015     0.3826
  347.5000     7.7504     0.0089     0.1267   113.5512     2.4547     6.5076     6.3054   -48.6812     0.3808
  348.0000     7.7808     0.0074     0.1303   113.4054     2.4704     6.8337     6.6669   -48.5138     0.3730
  348.5000     7.6758     0.0060     0.1309   112.7983     2.4689     7.0293     6.9526   -48.4949     0.3527
  349.0000     7.5107     0.0105     0.1264   112.1892     2.4667     7.1808     7.1513   -48.7779     0.3362
  349.5000     7.4057     0.0120     0.1225   112.2186     2.4831     7.3356     7.2559   -49.0562     0.3359
  350.0000     7.3909     0.0120     0.1195   111.7720     2.4944     7.3405     7.4121   -48.7356     0.3374
  350.5000     7.4508     0.0105     0.1180   108.7705     2.4944     7.3964     7.4684   -49.0154     0.3473
  351.0000     7.4502     0.0075     0.1183   107.5704     2.4937     7.3503     7.4734   -48.7010     0.3581
  351.5000     7.4498     0.0061     0.1219   108.1728     2.4877     7.3564     7.4258   -48.2323     0.3632
  352.0000     7.4664     0.0046     0.1315   108.1742     2.4810     7.4123     7.4834   -48.0713     0.3672
  352.5000     7.4940     0.0046     0.1351   107.5751     2.4743     7.3651     7.4884   -48.4962     0.3865
  353.0000     7.5086     0.0046     0.1345   106.9740     2.4661     7.3712     7.4935   -48.7804     0.3874
  353.5000     7.5381     0.0046     0.1420   106.1887     2.4578     7.3255     7.4986   -48.6102     0.3865
  354.0000     7.5528     0.0046     0.1501   105.3276     2.4494     7.3304     7.5048   -48.1471     0.3847
  354.5000     7.5824     0.0106     0.1492   104.8783     2.4407     7.2850     7.5098   -47.8326     0.3539
  355.0000     7.6120     0.0092     0.1454   105.3305     2.4377     7.2911     7.5149   -47.6667     0.3527
  355.5000     7.6567     0.0047     0.1296   106.9836     2.4512     7.2959     7.5199   -47.7980     0.3680
  356.0000     7.7174     0.0002     0.1231   107.4355     2.4707     7.3008     7.4720   -48.0779     0.3757
  356.5000     7.7910    -0.0013     0.1213   107.2869     2.4752     7.3057     7.4783   -48.0563     0.3838
  357.0000     7.8508     0.0017     0.1207   107.7388     2.4790     7.3106     7.4833   -48.0390     0.3910
  357.5000     7.8954     0.0017     0.1213   109.8574     2.4790     7.4682     7.4883   -48.0217     0.3898
  358.0000     7.9401     0.0032     0.1225   111.8398     2.4783     7.7886     7.4983   -48.0044     0.3859
  358.5000     7.9548     0.0048     0.1231   112.5483     2.4768     8.1282     7.5515   -47.9871     0.3850
  359.0000     7.9543     0.0063     0.1231   112.3993     2.4768     8.2422     7.5566   -47.9698     0.3862
  359.5000     7.9388     0.0078     0.1234   111.8005     2.4768     8.1898     7.5617   -47.9525     0.3910
  360.0000     7.9383     0.0108     0.1243   111.3511     2.4769     8.0845     7.5667   -47.9346     0.3799
