~VERSION INFORMATION
 VERS.                2.0:   CWLS LOG ASCII STANDARD - VERSION 2.0
 WRAP.                 NO:   ONE LINE PER DEPTH STEP
~WELL INFORMATION
#MNEM.UNIT      DATA TYPE    INFORMATION
#----------   ------------   ------------------------------
 STRT.F            0.0000:   START DEPTH
 STOP.F          717.5000:   STOP DEPTH
 STEP.F            0.5000:   STEP LENGTH
 NULL.          -999.2500:   NO VALUE
 COMP. LAWRENCE/ALLISON INC:   COMPANY
 WELL. NPR 3 #27-64-SX-11-WP:   WELL
 FLD .             TEAPOT:   FIELD
 LOC .      S11 T38N R78W:   LOCATION
 CNTY.            NATRONA:   COUNTY
 STAT.            WYOMING:   STATE
 CTRY. UNITED STATES OF AMERICA:   COUNTRY
 SRVC.      Dresser Atlas:   SERVICE COMPANY
 DATE.        15-SEP-1984:   LOGDATE
 API .       490251097500:   API NUMBER
~CURVE INFORMATION
#MNEM.UNIT       API CODE    CURVE DESCRIPTION
#----------   ------------   ------------------------------
 DEPT.F                  :   
 CALD.IN     45 280 60 00:   CALIPER FROM DENSITY LOG
 CNC .DEC    42 890 03 00:   COMPENSATED NEUTRON POROSITY SANDSTONE
 CORR.G/C3   45 356 01 00:   DENSITY CORRECTION
 DEN .G/C3   45 350 01 00:   BULK DENSTIY
 PORD.DEC    45 890 12 00:   POROSITY DENSITY SANDSTONE
 GRR .GAPI   07 310 01 00:   GAMMA RAY FROM RESISTIVITY
 RFOC.OHMM   07 220 01 00:   RESISTIVITY FOCUSED LOG
 RILD.OHMM   07 120 46 00:   RESISTIVITY INDUCTION LOG DEEP
 RILM.OHMM   07 120 44 00:   RESITIVITY INDUCTION LOG MEDIUM
 SPR .MV     07 010 01 00:   SPONTANEOUS POTENTIAL FROM RES.
~PARAMETER INFORMATION
#MNEM.UNIT          VALUE    DESCRIPTION
#----------   ------------   ------------------------------
 PD  .                 GL:   PERMANENT DATUM
 EPD .F              5198:   ELEVATION PERMANENT DATUM
 LMF .                 GL:   LOG MEASURED FROM
 DMF .                 GL:   DRILLING MEASURED FROM
 EGL .F              5198:   GROUND LEVEL
 DATE.        15-SEP-1984:   RUN DATE
 RUN .                  1:   RUN NUMBER
 DD  .F               736:   DEPTH DRILLER
 DL  .F               722:   DEPTH LOGGER
 BLI .F               704:   BOTTOM LOG INTERVAL
 TLI .F                42:   TOP LOG INTERVAL
 CS  .IN            8.625:   CASING SIZE
 CBD .F                42:   CASING BOTTOM DRILLER
 CBL .F                42:   CASING BOTTOM LOGGER
 BS  .IN            7.875:   BIT SIZE
 BSD .F               736:   BIT SIZE AT DEPTH
 DFT .          KCL WATER:   DRILLING FLUID TYPE
 MSS .           FLOWLINE:   MUD SAMPLE SOURCE
 RMS .OHMM           0.22:   RESISTIVITY MUD SAMPLE
 MST .F                70:   MUD SAMPLE TEMPERATURE
 RMB .OHMM           0.17:   RESISTIVITY MUD AT BHT
 BHT .F                90:   BOTTOM HOLE TEMPERATURE
 TCS .HRS               5:   TIME CURCULATED STOPPED
 MRT .F                90:   MAXIMUM RECORDED TEMPERATURE
 LUN .               6274:   LOGGING UNIT NUMBER
 LUL .               GLTE:   LOGGING UNIT LOCATION
 ENGI.             RAUTIO:   RECORDING ENGINEER
 WITN.            JOHNSON:   WITNESSED BY
 CLNT.            A2DTECH:   CLIENT CODE
 ORIG.         2.5" PRINT:   ORIGIN OF DATA
 UWI .       490251097500:   UNIQUE WELL ID
 DICO. A2D Technologies, Inc.:   DIGITIZING COMPANY
~OTHER INFORMATION
~A    DEPT    CALD        CNC       CORR        DEN       PORD         GRR      RFOC       RILD       RILM        SPR   
# ...
  134.0000     8.1982     0.2897     0.0088     2.4426     0.1399    86.3428     8.4695     8.0091     7.7032   -13.7433
  134.5000     8.1988     0.2919     0.0193     2.4395     0.1411    87.4955     8.2302     7.8935     7.5080   -13.1721
  135.0000     8.1994     0.2932     0.0251     2.4380     0.1417    86.8578     8.0002     7.7505     7.2980   -12.8205
  135.5000     8.2000     0.3008     0.0309     2.4385     0.1411    86.2354     7.7758     7.5599     7.2792   -12.3314
  136.0000     8.2007     0.3159     0.0249     2.4430     0.1387    86.2012     7.6604     7.5536     7.1433   -11.7633
  136.5000     8.2013     0.3072     0.0129     2.4446     0.1377    86.7503     7.6536     7.4440     7.0815   -11.1932
  137.0000     8.2019     0.2844     0.0038     2.4452     0.1371    87.3136     7.5419     7.4368     7.0759   -10.6272
  137.5000     8.2025     0.2821     0.0007     2.4451     0.1371    86.6864     7.5342     7.5317     7.0696   -10.0609
  138.0000     8.2032     0.2820    -0.0023     2.4450     0.1380    86.3669     7.5258     7.5322     7.0624    -9.4896
  138.5000     8.2038     0.2839    -0.0025     2.4450     0.1392    86.0205     7.5187     7.5328     7.0570    -9.3787
  139.0000     8.2044     0.2863     0.0041     2.4405     0.1408    85.3964     7.5109     7.5333     7.1489    -8.9491
  139.5000     8.2050     0.2893     0.0157     2.4389     0.1420    86.6983     7.5024     7.5339     7.1406    -8.9704
  140.0000     8.2057     0.2970     0.0217     2.4373     0.1426    88.8716     7.4955     7.5345     7.1351    -8.9941
  140.5000     8.2063     0.3037     0.0159     2.4342     0.1438    87.6016     7.4878     7.5350     7.1289    -9.0207
  141.0000     8.2069     0.3054     0.0059     2.4295     0.1456    85.6331     7.4791     7.5356     7.1214    -9.0414
  141.5000     8.2075     0.2989     0.0057     2.4268     0.1474    86.9891     7.4724     7.5361     7.2141    -8.7658
  142.0000     8.2082     0.2870     0.0102     2.4298     0.1498    89.3252     7.4647     7.5367     7.2080    -8.5006
  142.5000     8.2088     0.2859     0.0174     2.4362     0.1463    91.0697     7.5601     7.5373     7.2016    -8.5211
  143.0000     8.2094     0.2925     0.0202     2.4370     0.1464    89.2485     7.6567     7.5378     7.1946    -7.9498
  143.5000     8.2086     0.2966     0.0171     2.4361     0.1475    88.0344     7.6488     7.5384     7.2883    -7.3888
  144.0000     8.2071     0.3044     0.0081     2.4384     0.1424    88.0000     7.7451     7.5390     7.3832    -7.1134
  144.5000     8.2056     0.3162     0.0020     2.4398     0.1393    87.9576     7.8451     7.6102     7.3747    -6.8380
  145.0000     8.2041     0.3059    -0.0070     2.4383     0.1421    87.9269     7.8374     7.7159     7.3688    -6.4103
  145.5000     8.2027     0.2855    -0.0101     2.4338     0.1443    87.8935     7.9939     7.8217     7.3623    -6.2959
  146.0000     8.2012     0.2871    -0.0039     2.4382     0.1419    87.8580     8.0390     7.9354     7.3548    -6.6154
  146.5000     8.1997     0.2928     0.0056     2.4529     0.1349    88.4112     8.1422     7.9133     7.3491    -6.3432
  147.0000     8.1982     0.2998     0.0111     2.4558     0.1324    88.9723     8.2474     7.8130     7.3894    -6.3690
  147.5000     8.1967     0.2904     0.0162     2.4558     0.1318    88.9349     8.2364     7.8047     7.4299    -6.3905
  148.0000     8.1953     0.2824     0.0172     2.4575     0.1312    87.7121     8.2198     7.7980     7.4704    -6.4142
  148.5000     8.1938     0.2896     0.0219     2.4624     0.1283    85.8698     7.9977     7.7905     7.5109    -6.4407
  149.0000     8.1923     0.3043     0.0218     2.4665     0.1266    87.7160     7.7721     7.6762     7.4162    -6.1653
  149.5000     8.1908     0.3171     0.0246     2.4674     0.1260    92.3384     7.5528     7.4583     7.3096    -6.1893
  150.0000     8.1893     0.2710     0.0275     2.4644     0.1284    92.8994     7.3427     7.1224     7.1060    -5.9206
  150.5000     8.1879     0.2616     0.0274     2.4582     0.1327    92.2722     7.1354     6.9537     6.9574    -5.9410
  151.0000     8.1864     0.2647     0.0272     2.4554     0.1350    91.6392     7.0319     6.8534     6.7144    -5.9645
  151.5000     8.1849     0.2780     0.0212     2.4553     0.1350    91.0168     6.9299     6.7537     6.5276    -5.4005
  152.0000     8.1834     0.3161     0.0181     2.4552     0.1350    90.2406     7.1132     6.8403     6.5217    -5.4209
  152.5000     8.1820     0.3181     0.0090     2.4493     0.1374    89.1649     7.2051     7.0234     6.8824    -5.4438
  153.0000     8.1805     0.3126     0.0027     2.4403     0.1408    88.5425     7.0999     7.1144     7.0682    -5.4721
  153.5000     8.1790     0.3079    -0.0035     2.4343     0.1448    88.8521     6.8510     7.1070     7.0618    -5.7884
  154.0000     8.1775     0.3245    -0.0091     2.4372     0.1466    94.1144     6.5247     7.0997     7.1529    -6.1065
  154.5000     8.1760     0.3293    -0.0152     2.4355     0.1423    96.7219     6.3419     7.0934     7.1465    -6.1302
  155.0000     8.1746     0.3186    -0.0183     2.4308     0.1459    95.7003     6.3354     6.9901     7.1402    -6.1559
  155.5000     8.1731     0.3151    -0.0086     2.4277     0.1506    91.6529     6.3283     6.9827     7.1327    -6.1775
  156.0000     8.1716     0.3215     0.0112     2.4291     0.1509    91.2863     6.5152     6.9767     7.1272    -6.2012
  156.5000     8.1701     0.3258     0.0234     2.4361     0.1454    91.2110     6.9357     7.0091     7.2200    -6.2275
  157.0000     8.1686     0.3184     0.0318     2.4413     0.1401    90.6331     7.3368     7.3549     7.2130    -6.2480
  157.5000     8.1672     0.3070     0.0257     2.4436     0.1395    91.1834     7.4349     7.5564     7.3060    -5.6767
  158.0000     8.1657     0.2999     0.0226     2.4397     0.1420    91.1400     7.6316     7.7565     7.4007    -5.7074
  158.5000     8.1642     0.2910     0.0195     2.4337     0.1450    88.5760     7.7268     7.7468     7.3936    -5.7279
  159.0000     8.1627     0.2917     0.0135     2.4336     0.1462    70.3613     8.4985     7.7404     7.3864    -5.7515
  159.5000     8.1612     0.2917     0.0074     2.4351     0.1455    67.9638    12.6424     7.5240     7.4826    -5.7790
  160.0000     8.1598     0.2840     0.0041     2.4424     0.1402    71.5583    12.4534     7.5155     7.4757    -5.7995
  160.5000     8.1583     0.2662     0.0004     2.4528     0.1358    85.0468     9.9890     7.4071     7.3665    -5.8225
  161.0000     8.1568     0.2397    -0.0055     2.4642     0.1298    86.2643     7.7233     7.5030     7.3608    -5.8507
  161.5000     8.1553     0.2355    -0.0109     2.5142     0.1202    84.3905     7.5741     7.4937     7.3542    -5.8711
  162.0000     8.1538     0.2380    -0.0090     2.5431     0.0800    84.3550     7.9945     7.4875     7.3467    -5.8935
  162.5000     8.1524     0.2457     0.0116     2.5368     0.0818    86.0921     8.2097     7.4808     7.2411    -5.9172
  163.0000     8.1509     0.2676     0.0273     2.5125     0.1037    90.8797     7.9786     7.4736     7.2347    -5.9427
  163.5000     8.1494     0.2804     0.0302     2.4754     0.1203    90.4852     7.7538     7.3642     7.1288    -5.9645
  164.0000     8.1479     0.2848     0.0301     2.4657     0.1245    90.1267     7.6298     7.2576     7.1233    -5.6878
  164.5000     8.1572     0.2822     0.0300     2.4610     0.1281    90.0947     7.4859     7.2506     7.1172    -5.7185
  165.0000     8.1746     0.2849     0.0328     2.4582     0.1311    90.0592     7.3167     7.2429     7.1109    -5.7594
  165.5000     8.1731     0.2901     0.0416     2.4566     0.1329    89.4276     7.2104     7.2369     7.2021    -6.0553
  166.0000     8.1716     0.2886     0.0504     2.4625     0.1308    88.7890     7.3037     7.3306     7.2959    -5.7870
  166.5000     8.1699     0.2862     0.0503     2.4669     0.1262    87.1834     7.2940     7.4226     7.2890    -5.8107
  167.0000     8.1684     0.2898     0.0349     2.4683     0.1247    85.1781     7.3882     7.4164     7.3823    -5.8343
