~VERSION INFORMATION
 VERS.                2.0:   CWLS LOG ASCII STANDARD - VERSION 2.0
 WRAP.                 NO:   ONE LINE PER DEPTH STEP
~WELL INFORMATION
#MNEM.UNIT      DATA TYPE    INFORMATION
#----------   ------------   ------------------------------
 STRT.F           28.0000:   START DEPTH
 STOP.F          551.0000:   STOP DEPTH
 STEP.F            0.5000:   STEP LENGTH
 NULL.          -999.2500:   NO VALUE
 COMP. FENIX & SCISSON, INC.:   COMPANY
 WELL.        NPR #85-S-3:   WELL
 FLD .             TEAPOT:   FIELD
 LOC .       S3 T38N R78W:   LOCATION
 CNTY.            NATRONA:   COUNTY
 STAT.            WYOMING:   STATE
 CTRY. UNITED STATES OF AMERICA:   COUNTRY
 SRVC.            Unknown:   SERVICE COMPANY
 DATE.        22-JAN-1977:   LOGDATE
 API .       490251055800:   API NUMBER
~CURVE INFORMATION
#MNEM.UNIT       API CODE    CURVE DESCRIPTION
#----------   ------------   ------------------------------
 DEPT.F                  :   
 ILD .OHMM   05 120 46 00:   INDUCTION LOG DEEP
 SN  .OHMM   05 040 16 00:   SHORT NORMAL 16"
 SPR .MV     05 010 01 00:   SPONTANEOUS POTENTIAL FROM RES.
 CALD.IN     45 280 60 00:   CALIPER FROM DENSITY LOG
 CORR.G/C3   45 356 01 00:   DENSITY CORRECTION
 DPHI.DEC    45 890 12 00:   DENSITY POROSITY SANDSTONE
 GRD .GAPI   45 310 01 00:   GAMMA RAY FROM DENSITY LOG
 RHOB.G/C3   45 350 01 00:   BULK DENSITY
~PARAMETER INFORMATION
#MNEM.UNIT          VALUE    DESCRIPTION
#----------   ------------   ------------------------------
 PD  .                 GL:   PERMANENT DATUM
 EPD .F              5132:   ELEVATION PERMANENT DATUM
 LMF .                 KB:   LOG MEASURED FROM
 DAPD.F                 4:   FEET ABOVE PERMANENT DATUM
 DMF .                 KB:   DRILLING MEASURED FROM
 EKB .F              5136:   KELLING BUSHING
 EGL .F              5132:   GROUND LEVEL
 DATE.          1-22-1977:   RUN DATE
 RUN .                  1:   RUN NUMBER
 DD  .F               550:   DEPTH DRILLER
 DL  .F               550:   DEPTH LOGGER
 BLI .F               545:   BOTTOM LOG INTERVAL
 TLI .F                50:   TOP LOG INTERVAL
 CS  .IN            8.625:   CASING SIZE
 CBD .F                40:   CASING BOTTOM DRILLER
 CBL .F                40:   CASING BOTTOM LOGGER
 BS  .IN            7.875:   BIT SIZE
 BSD .F               550:   BIT SIZE AT DEPTH
 DFT .                KCL:   DRILLING FLUID TYPE
 DFD .                8.6:   DRILLING FLUID DENSITY
 DFV .                 36:   DRILLING FLUID VISCOSITY
 DFPH.                 10:   DRILLING FLUID PH
 DFL .                7.2:   DRILLING FLUID LOSS
 MSS .           FLOWLINE:   MUD SAMPLE SOURCE
 RMS .OHMM             .3:   RESISTIVITY MUD SAMPLE
 MST .F                56:   MUD SAMPLE TEMPERATURE
 RMF .OHMM             .3:   RESISTIVITY MUD FILTRATE SAMPLE
 MFST.F                58:   MUD FILTRATE SAMPLE TEMPERATURE
 RMC .OHMM             .3:   RESISTIVITY MUD CAKE
 MCST.F                58:   MUD CAKE SAMPLE TEMPERATURE
 MFSS.           MEASURED:   MUD FILTRATE SAMPLE SOURCE
 MCSS.           MEASURED:   MUD CAKE SAMPLE SOURCE
 RMB .OHMM            .25:   RESISTIVITY MUD AT BHT
 BHT .F                68:   BOTTOM HOLE TEMPERATURE
 TCS .HRS               3:   TIME CURCULATED STOPPED
 MRT .F                68:   MAXIMUM RECORDED TEMPERATURE
 LUN .               2958:   LOGGING UNIT NUMBER
 LUL .             CASPER:   LOGGING UNIT LOCATION
 ENGI.           REYNOLDS:   RECORDING ENGINEER
 WITN.             GINLEY:   WITNESSED BY
 CLNT.            A2DTECH:   CLIENT CODE
 ORIG.           5" PRINT:   ORIGIN OF DATA
 UWI .       490251055800:   UNIQUE WELL ID
 DICO. A2D Technologies, Inc.:   DIGITIZING COMPANY
~OTHER INFORMATION
~A   DEPT      ILD         SN        SPR       CALD       CORR       DPHI         GRD      RHOB   
# ...
  109.0000     8.4585     8.3184   -46.9768     8.3589     0.2963     0.1579   128.5528     2.4048
  109.5000     8.3440     8.2058   -46.9716     8.2107     0.2963     0.1576   124.5378     2.4003
  110.0000     8.2311     8.0958   -46.8161     7.8839     0.2964     0.1579   127.0802     2.4003
  110.5000     8.1757     8.0980   -46.7977     7.7028     0.2947     0.1591   128.2813     2.4011
  111.0000     8.2917     8.1002   -46.7641     7.7033     0.2905     0.1600   124.8624     2.3988
  111.5000     8.4672     8.2724   -46.7305     7.7484     0.2845     0.1597   119.0590     2.3989
  112.0000     8.7065     8.5069   -46.6968     7.8083     0.2710     0.1590   114.7460     2.3974
  112.5000     8.8908     8.6878   -46.6632     7.8534     0.2560     0.1662   113.7116     2.3952
  113.0000     9.0790     8.8113   -46.6308     7.9138     0.2350     0.1833   111.7831     2.3794
  113.5000     9.2713     8.8749   -46.6248     7.9742     0.2290     0.1950   111.4916     2.3457
  114.0000     9.4023     8.9390   -46.4694     8.0345     0.2276     0.1926   113.1421     2.3375
  114.5000     9.6014     8.9414   -46.4634     8.0965     0.2261     0.1853   111.9587     2.3406
  115.0000     9.7371     8.9439   -46.3067     8.1870     0.2217     0.1708   108.8379     2.3574
  115.5000     9.8067     8.8841   -46.3008     8.0484     0.2067     0.1477   108.0874     2.4015
  116.0000     9.8087     8.8871   -46.4458     7.8416     0.1947     0.1403   110.4949     2.4222
  116.5000     9.6755     8.8894   -46.4383     7.9017     0.1902     0.1392   111.5470     2.4321
  117.0000     9.5451     8.8919   -46.4323     7.9319     0.1918     0.1398   109.1555     2.4344
  117.5000     9.4808     8.8945   -46.5773     7.9473     0.1933     0.1412   109.5082     2.4336
  118.0000     9.4174     8.8971   -46.5710     7.9477     0.1949     0.1493   110.9776     2.4292
  118.5000     9.4198     8.8993   -46.5650     7.9481     0.1964     0.1556   111.3065     2.4224
  119.0000     9.3563     8.9017   -46.5579     7.9486     0.2010     0.1595   111.4422     2.4165
  119.5000     9.3588     8.9043   -46.5520     7.9490     0.2236     0.1649   110.4101     2.3925
  120.0000     9.3607     8.9067   -46.3965     7.9495     0.2597     0.1685   111.9092     2.3835
  120.5000     9.3626     8.9092   -46.2519     7.9499     0.3034     0.1706   113.5552     2.3828
  121.0000     9.3646     8.9116   -46.2766     7.9504     0.3441     0.1628   112.2250     2.3843
  121.5000     9.3665     8.9141   -46.3014     7.9508     0.3546     0.1538   112.6809     2.4061
  122.0000     9.3034     8.9165   -46.3261     7.9512     0.3531     0.1460   113.2859     2.4248
  122.5000     9.3058     8.9190   -46.3508     7.9070     0.3532     0.1457   113.7397     2.4234
  123.0000     9.3077     8.8599   -46.3756     7.8182     0.3517     0.1420   111.2172     2.4234
  123.5000     9.2455     8.8624   -46.4003     7.6401     0.3502     0.1399   108.3944     2.4279
  124.0000     9.2474     8.8649   -46.4250     7.4471     0.3322     0.1408   108.1030     2.4339
  124.5000     9.2493     8.8673   -46.4498     7.2987     0.3097     0.1489   111.3928     2.4295
  125.0000     9.3154     8.8698   -46.4745     7.2099     0.3008     0.1495   115.4255     2.4182
  125.5000     9.4471     8.8722   -46.6298     7.1804     0.2948     0.1525   117.0737     2.4138
  126.0000     9.5806     8.8752   -46.5975     7.1959     0.2873     0.1543   118.1257     2.4108
  126.5000     9.6491     8.8158   -46.5589     7.2410     0.2768     0.1558   116.0482     2.4078
  127.0000     9.6511     8.8116   -46.5202     7.3009     0.2498     0.1648   114.8648     2.4033
  127.5000     9.6531     8.7598   -46.4816     7.3609     0.2183     0.1744   115.0226     2.3784
  128.0000     9.5885     8.7624   -46.4514     7.4209     0.2078     0.1900   113.6902     2.3537
  128.5000     9.5905     8.7648   -46.4454     7.4808     0.2078     0.1860   110.4204     2.3509
  129.0000     9.5925     8.7072   -46.4395     7.5539     0.2079     0.1808   112.8137     2.3577
  129.5000     9.5945     8.7096   -46.4335     7.6156     0.2064     0.1759   111.7636     2.3624
  130.0000     9.5965     8.7116   -46.4275     7.6756     0.2050     0.1668   110.1391     2.3764
  130.5000     9.5323     8.7055   -46.4215     7.7207     0.1960     0.1584   111.8450     2.3892
  131.0000     9.4686     8.6563   -46.4155     7.7658     0.1870     0.1521   110.9955     2.3990
  131.5000     9.4053     8.5700   -46.4096     7.7962     0.1765     0.1497   110.9206     2.4103
  132.0000     9.3424     8.5418   -46.4036     7.8417     0.1706     0.1500   109.7394     2.4148
  132.5000     9.2799     8.5447   -46.3976     7.8862     0.1661     0.1503   110.7915     2.4163
  133.0000     9.2179     8.5471   -46.3916     7.9178     0.1661     0.1506   110.3532     2.4160
  133.5000     9.1563     8.5492   -46.3857     7.9484     0.1662     0.1512   109.1676     2.4156
  134.0000     9.1582     8.5515   -46.3797     7.9619     0.1662     0.1518   115.5871     2.4149
  134.5000     9.1601     8.5541   -46.2234     7.9772     0.1664     0.1529   112.1682     2.4127
  135.0000     9.1620     8.5563   -45.7690     7.9778     0.1695     0.1559   114.1144     2.4074
  135.5000     9.1639     8.5588   -45.6136     7.9700     0.1741     0.1595   116.5078     2.3999
  136.0000     9.1662     8.5612   -45.6075     7.9603     0.1845     0.1604   117.2618     2.3992
  136.5000     9.1681     8.5634   -45.5944     7.9506     0.1980     0.1562   116.9726     2.4045
  137.0000     9.1700     8.5659   -45.5813     7.9410     0.2252     0.1514   115.9382     2.4083
  137.5000     9.1082     8.5681   -45.5682     7.9313     0.2568     0.1454   115.3510     2.4150
  138.0000     9.1102     8.5706   -45.5551     7.9209     0.2719     0.1381   114.9127     2.4308
  138.5000     9.1121     8.5729   -45.5420     7.9213     0.2749     0.1325   114.1764     2.4406
  139.0000     9.0515     8.5753   -45.5289     7.9068     0.2750     0.1316   112.8440     2.4526
  139.5000     9.0534     8.5777   -45.5159     7.9073     0.2720     0.1309   111.8096     2.4541
  140.0000     9.0549     8.6396   -45.5028     7.9078     0.2675     0.1300   111.0733     2.4542
  140.5000     9.0571     8.6420   -45.4897     7.9082     0.2570     0.1297   110.4858     2.4549
  141.0000     9.0587     8.6444   -45.4766     7.9086     0.2466     0.1294   111.3891     2.4557
  141.5000     9.0609     8.7068   -45.4635     7.9091     0.2376     0.1303   114.0805     2.4557
  142.0000     9.0627     8.7092   -45.4504     7.9244     0.2331     0.1330   112.7164     2.4541
  142.5000     9.0646     8.7116   -45.4373     7.9249     0.2316     0.1339   109.7268     2.4481
  143.0000     9.1294     8.7140   -45.4242     7.9324     0.2302     0.1342   108.7263     2.4444
  143.5000     9.1310     8.7417   -45.4111     7.9406     0.2317     0.1346   108.4527     2.4438
  144.0000     9.1477     8.7794   -45.3980     7.9411     0.2318     0.1435   108.9369     2.4393
  144.5000     9.1984     8.7818   -45.3849     7.9415     0.2348     0.1492   109.5159     2.4184
  145.0000     9.2003     8.7842   -45.3718     7.9420     0.2379     0.1543   110.2534     2.4146
  145.5000     9.2020     8.7867   -45.3587     7.9424     0.2440     0.1617   111.1729     2.4064
  146.0000     9.2041     8.7891   -45.3456     7.9280     0.2606     0.1653   110.7325     2.3937
  146.5000     9.2060     8.8526   -45.3325     7.9070     0.2789     0.1635   112.0848     2.3892
  147.0000     9.2079     8.8550   -45.3194     7.7898     0.2955     0.1587   112.5408     2.3922
  147.5000     9.2099     8.8580   -45.3063     7.6764     0.3043     0.1551   112.8477     2.4057
  148.0000     9.2116     8.9219   -45.2932     7.6025     0.3028     0.1503   113.6017     2.4125
  148.5000     9.2137     8.9864   -45.2802     7.5582     0.2969     0.1449   115.1009     2.4155
  149.0000     9.2156     8.9888   -45.2671     7.5437     0.2879     0.1410   116.7491     2.4298
