~VERSION INFORMATION
 VERS.                2.0:   CWLS LOG ASCII STANDARD - VERSION 2.0
 WRAP.                 NO:   ONE LINE PER DEPTH STEP
~WELL INFORMATION
#MNEM.UNIT      DATA TYPE    INFORMATION
#----------   ------------   ------------------------------
 STRT.F           70.0000:   START DEPTH
 STOP.F          884.0000:   STOP DEPTH
 STEP.F            0.5000:   STEP LENGTH
 NULL.          -999.2500:   NO VALUE
 COMP. U S NAVY/INTEX OIL CO:   COMPANY
 WELL.   NPR#3 "S" #16-35:   WELL
 FLD .             TEAPOT:   FIELD
 LOC .      S35 T39N R78W:   LOCATION
 CNTY.            NATRONA:   COUNTY
 STAT.            WYOMING:   STATE
 CTRY. UNITED STATES OF AMERICA:   COUNTRY
 SRVC.         Lane Wells:   SERVICE COMPANY
 DATE.        21-MAR-1960:   LOGDATE
 API .       490250651800:   API NUMBER
~CURVE INFORMATION
#MNEM.UNIT       API CODE    CURVE DESCRIPTION
#----------   ------------   ------------------------------
 DEPT.F                  :   
 SPR .MV     05 010 01 00:   SPONTANEOUS POTENTIAL FROM RES.
 ASN .OHMM   05 040 16 00:   AMPLIFIED SHORT NORMAL 16"
 ILD .OHMM   05 120 46 00:   INDUCTION LOG DEEP
 CILD.MMHO   05 110 46 00:   CONDUCTIVITY INDUCTION LOG DEEP
 GR  .GAPI   30 310 01 00:   GAMMA RAY
~PARAMETER INFORMATION
#MNEM.UNIT          VALUE    DESCRIPTION
#----------   ------------   ------------------------------
 PD  .                 GL:   PERMANENT DATUM
 EPD .F              5091:   ELEVATION PERMANENT DATUM
 LMF .                 KB:   LOG MEASURED FROM
 DAPD.F                 5:   FEET ABOVE PERMANENT DATUM
 DMF .                 KB:   DRILLING MEASURED FROM
 EKB .F              5096:   KELLING BUSHING
 EGL .F              5091:   GROUND LEVEL
 DATE.          3-21-1960:   RUN DATE
 RUN .                  1:   RUN NUMBER
 DD  .F               913:   DEPTH DRILLER
 DL  .F               885:   DEPTH LOGGER
 BLI .F               883:   BOTTOM LOG INTERVAL
 TLI .F                70:   TOP LOG INTERVAL
 CS  .IN            8.625:   CASING SIZE
 CBD .F                12:   CASING BOTTOM DRILLER
 BS  .IN            7.875:   BIT SIZE
 BSD .F               913:   BIT SIZE AT DEPTH
 DFT .   GEL-OIL EMULSION:   DRILLING FLUID TYPE
 DFD .                9.9:   DRILLING FLUID DENSITY
 DFV .                 40:   DRILLING FLUID VISCOSITY
 MSS .           FLOWLINE:   MUD SAMPLE SOURCE
 RMS .OHMM              3:   RESISTIVITY MUD SAMPLE
 MST .F                64:   MUD SAMPLE TEMPERATURE
 RMF .OHMM            2.2:   RESISTIVITY MUD FILTRATE SAMPLE
 MFST.F                64:   MUD FILTRATE SAMPLE TEMPERATURE
 RMC .OHMM              4:   RESISTIVITY MUD CAKE
 MCST.F                64:   MUD CAKE SAMPLE TEMPERATURE
 MFSS.                MUD:   MUD FILTRATE SAMPLE SOURCE
 MCSS.              PRESS:   MUD CAKE SAMPLE SOURCE
 RMB .OHMM            2.7:   RESISTIVITY MUD AT BHT
 BHT .F                70:   BOTTOM HOLE TEMPERATURE
 MRT .F                70:   MAXIMUM RECORDED TEMPERATURE
 LUN .             L-4474:   LOGGING UNIT NUMBER
 LUL .             CASPER:   LOGGING UNIT LOCATION
 ENGI.             NELSON:   RECORDING ENGINEER
 WITN.          JORGENSEN:   WITNESSED BY
 CLNT.            A2DTECH:   CLIENT CODE
 ORIG.      2" & 5" PRINT:   ORIGIN OF DATA
 UWI .       490250651800:   UNIQUE WELL ID
 DICO. A2D Technologies, Inc.:   DIGITIZING COMPANY
~OTHER INFORMATION
~A   DEPT      SPR          ASN      ILD        CILD        GR   
# ...
  619.0000   -23.1946     6.9840     5.4345   193.6685  -999.2500
  619.5000   -23.1177     6.8402     5.3380   195.8962  -999.2500
  620.0000   -23.1292     6.6121     5.2545   201.7624  -999.2500
  620.5000   -23.1198     6.3552     5.1659   208.4760  -999.2500
  621.0000   -23.0888     6.0851     5.0765   215.1895  -999.2500
  621.5000   -23.0529     5.9548     4.9880   221.9031  -999.2500
  622.0000   -23.0193     5.8770     4.8944   224.8264  -999.2500
  622.5000   -22.9848     6.0289     4.8810   225.4418  -999.2500
  623.0000   -22.9509     6.3099     4.8854   226.0572  -999.2500
  623.5000   -22.9161     6.4511     4.8798   224.7967  -999.2500
  624.0000   -22.8828     6.5529     4.9191   221.6235  -999.2500
  624.5000   -22.8465     6.6479     4.9995   218.4503  -999.2500
  625.0000   -22.8157     6.7438     5.0726   215.2771  -999.2500
  625.5000   -22.7750     6.8408     5.1480   212.1039  -999.2500
  626.0000   -22.8054     6.8875     5.2245   208.9307  -999.2500
  626.5000   -22.8844     6.9027     5.2958   206.2178  -999.2500
  627.0000   -22.9504     6.9118     5.3808   204.6792  -999.2500
  627.5000   -23.0225     6.9110     5.4154   203.1407  -999.2500
  628.0000   -23.0912     6.9102     5.3730   201.2736  -999.2500
  628.5000   -23.1626     6.9109     5.3412   202.5699  -999.2500
  629.0000   -23.2305     6.8654     5.3037   204.2183  -999.2500
  629.5000   -23.3043     6.8196     5.2691   205.8667  -999.2500
  630.0000   -23.3672     6.6939     5.2333   207.5152  -999.2500
  630.5000   -23.4531     6.5123     5.1976   209.1636  -999.2500
  631.0000   -23.4217     6.4068     5.1566   211.7893  -999.2500
  631.5000   -23.2341     6.3082     5.0705   216.2339  -999.2500
  632.0000   -23.0650     6.2019     4.9563   220.6785  -999.2500
  632.5000   -22.8836     5.9289     4.8457   225.1232  -999.2500
  633.0000   -22.7108     5.6899     4.7333   229.5678  -999.2500
  633.5000   -22.5291     5.4258     4.6231   233.5377  -999.2500
  634.0000   -22.3611     5.1943     4.5093   245.4576  -999.2500
  634.5000   -22.1627     4.9226     4.3159   256.2272  -999.2500
  635.0000   -22.0189     4.8352     4.1263   266.9969  -999.2500
  635.5000   -21.9231     4.9184     3.9921   274.7642  -999.2500
  636.0000   -21.9173     4.9936     4.0311   274.7642  -999.2500
  636.5000   -22.4035     5.5063     4.0513   271.9731  -999.2500
  637.0000   -22.8744     6.0263     4.1631   269.3356  -999.2500
  637.5000   -23.2840     6.2486     4.3571   262.0446  -999.2500
  638.0000   -23.2190     6.4339     4.5378   245.7126  -999.2500
  638.5000   -23.1243     6.6156     4.7257   226.3679  -999.2500
  639.0000   -23.0193     6.7205     4.9091   223.0220  -999.2500
  639.5000   -22.9277     6.8185     5.0916   218.9193  -999.2500
  640.0000   -22.8163     6.9142     5.1971   214.8166  -999.2500
  640.5000   -22.7833     7.0034     5.2597   210.7138  -999.2500
  641.0000   -22.8404     7.1040     5.3236   206.6111  -999.2500
  641.5000   -22.8859     7.2153     5.3863   202.5084  -999.2500
  642.0000   -22.9340     7.3176     5.4496   198.4057  -999.2500
  642.5000   -22.8894     7.4207     5.5126   194.3029  -999.2500
  643.0000   -22.7324     7.5228     5.5758   190.5189  -999.2500
  643.5000   -22.5910     7.6268     5.6390   188.9584  -999.2500
  644.0000   -22.6569     7.7262     5.7021   187.5104  -999.2500
  644.5000   -22.6866     7.7629     5.7658   186.0623  -999.2500
  645.0000   -22.7341     7.7995     5.8284   184.6143  -999.2500
  645.5000   -22.7818     7.8391     5.8930   183.1663  -999.2500
  646.0000   -22.9379     7.8579     5.9539   181.7183  -999.2500
  646.5000   -23.0781     7.8799     6.0221   180.2703  -999.2500
  647.0000   -23.2212     7.9178     6.0471   178.8222  -999.2500
  647.5000   -23.3670     7.9697     6.0286   177.3742  -999.2500
  648.0000   -23.4691     7.9665     6.0185   176.1792  -999.2500
  648.5000   -23.3627     7.9161     6.0025   177.0548  -999.2500
  649.0000   -23.2335     7.8764     5.9929   177.8001  -999.2500
  649.5000   -23.1104     7.7986     5.9741   178.5454  -999.2500
  650.0000   -22.9814     7.6651     5.9719   179.2907  -999.2500
  650.5000   -22.9466     7.5057     5.8890   181.3082  -999.2500
  651.0000   -22.9395     7.3850     5.7646   185.5410  -999.2500
  651.5000   -23.0947     7.3460     5.6533   189.7737  -999.2500
  652.0000   -23.4258     7.2207     5.5509   194.0065  -999.2500
  652.5000   -23.2579     7.0286     5.4292   199.0853  -999.2500
  653.0000   -22.7766     6.8424     5.2888   204.8465  -999.2500
  653.5000   -22.5347     6.6464     5.1659   211.5354  -999.2500
  654.0000   -22.4471     6.3943     5.0359   219.8811  -999.2500
  654.5000   -22.3414     5.9925     4.9125   228.1581  -999.2500
  655.0000   -22.2438     5.5896     4.7689   235.4948  -999.2500
  655.5000   -22.1432     5.2695     4.4301   256.4604  -999.2500
  656.0000   -22.0295     4.8241     4.1023   275.3210  -999.2500
  656.5000   -21.7407     4.3895     3.7698   294.1868  -999.2500
  657.0000   -21.4663     3.9229     3.4434   313.0679  -999.2500
  657.5000   -21.1859     3.5484     3.1082   344.1325  -999.2500
  658.0000   -20.9065     3.1384     2.8205   379.2237  -999.2500
  658.5000   -20.6584     2.7681     2.6442   414.2690  -999.2500
  659.0000   -20.7754     2.6678     2.4878   449.3144  -999.2500
  659.5000   -20.9604     2.6268     2.3285   484.3597  -999.2500
  660.0000   -21.1036     2.6114     2.1983   514.9528  -999.2500
  660.5000   -21.3137     2.6472     2.1959   521.6315  -999.2500
  661.0000   -21.3998     2.7053     2.1861   527.5574  -999.2500
  661.5000   -21.9670     3.0669     2.2778   522.5579  -999.2500
  662.0000   -22.0033     3.5681     2.4967   504.1087  -999.2500
  662.5000   -21.5558     3.6460     2.6929   461.8551  -999.2500
  663.0000   -21.8886     4.2128     2.8829   424.6732  -999.2500
  663.5000   -22.0497     4.8039     3.0733   389.3158  -999.2500
  664.0000   -21.9864     5.3116     3.2640   365.5890  -999.2500
  664.5000   -21.9452     5.4545     3.4537   342.8980  -999.2500
  665.0000   -21.9020     5.6032     3.6453   309.0393  -999.2500
  665.5000   -21.7794     5.6635     3.8328   281.5661  -999.2500
  666.0000   -21.4789     5.6542     4.0292   276.4132  -999.2500
  666.5000   -21.2147     5.6620     4.1688   271.2603  -999.2500
  667.0000   -21.0228     5.6510     4.1832   266.1074  -999.2500
  667.5000   -21.3568     5.7024     4.1974   262.5755  -999.2500
  668.0000   -21.5414     5.7578     4.2085   264.0386  -999.2500
  668.5000   -21.4910     5.7847     4.2214   265.5018  -999.2500
  669.0000   -21.6959     5.7198     4.2334   266.9650  -999.2500
  669.5000   -22.0356     5.5214     4.2470   268.3225  -999.2500
  670.0000   -21.8899     5.1473     4.2458   274.4186  -999.2500
  670.5000   -21.7480     4.7440     4.1071   289.2953  -999.2500
  671.0000   -21.5875     4.2704     3.9483   304.1672  -999.2500
  671.5000   -21.4445     4.1328     3.7955   317.8534  -999.2500
  672.0000   -21.2753     4.0534     3.6350   328.4828  -999.2500
  672.5000   -21.2057     3.8906     3.4880   337.5017  -999.2500
  673.0000   -21.5250     4.1685     3.3170   342.8164  -999.2500
  673.5000   -21.8785     4.4020     3.3424   344.6698  -999.2500
  674.0000   -22.0684     4.6008     3.5072   341.0849  -999.2500
  674.5000   -22.0517     4.7248     3.6400   325.0940  -999.2500
  675.0000   -22.0356     4.9418     3.7873   309.0448  -999.2500
  675.5000   -22.2869     5.3584     3.9271   294.4811  -999.2500
  676.0000   -23.0548     5.6092     4.0707   281.7863  -999.2500
  676.5000   -23.0017     5.8416     4.2128   270.1671  -999.2500
  677.0000   -22.8406     6.1251     4.3552   258.6321  -999.2500
  677.5000   -22.7824     6.6688     4.4982   249.5883  -999.2500
  678.0000   -22.9354     6.8186     4.6388   240.6098  -999.2500
  678.5000   -23.0894     6.9298     4.7842   231.6312  -999.2500
  679.0000   -22.9705     7.0312     4.9202   222.7830  -999.2500
  679.5000   -22.6213     7.0317     5.0777   218.4888  -999.2500
