~VERSION INFORMATION
 VERS.                2.0:   CWLS LOG ASCII STANDARD - VERSION 2.0
 WRAP.                 NO:   ONE LINE PER DEPTH STEP
~WELL INFORMATION
#MNEM.UNIT      DATA TYPE    INFORMATION
#----------   ------------   ------------------------------
 STRT.F           30.0000:   START DEPTH
 STOP.F          506.0000:   STOP DEPTH
 STEP.F            0.5000:   STEP LENGTH
 NULL.          -999.2500:   NO VALUE
 COMP. FENIX & SCISSON INC:   COMPANY
 WELL.    42 SX-3F1 #55-3:   WELL
 FLD .             TEAPOT:   FIELD
 LOC .       S3 T38N R78W:   LOCATION
 CNTY.            NATRONA:   COUNTY
 STAT.            WYOMING:   STATE
 CTRY. UNITED STATES OF AMERICA:   COUNTRY
 SRVC.              Welex:   SERVICE COMPANY
 DATE.        26-MAY-1980:   LOGDATE
 API .       490251082900:   API NUMBER
~CURVE INFORMATION
#MNEM.UNIT       API CODE    CURVE DESCRIPTION
#----------   ------------   ------------------------------
 DEPT.F                  :   
 GRD .GAPI   45 310 01 00:   GAMMA RAY FROM DENSITY LOG
 CALD.IN     45 280 60 00:   CALIPER
 RHOB.G/C3   45 350 01 00:   BULK DENSITY
 CORR.G/C3   45 356 01 00:   DENSITY CORRECTION
 DPHI.DEC    45 890 12 00:   DENSITY POROSITY SANDSTONE
 NPHI.DEC    42 890 03 00:   NEUTRON POROSITY SANDSTONE
 GURD.OHMM   07 220 05 00:   GUARD RESISTIVITY
 ILD .OHMM   07 120 46 00:   INDUCTION LOG DEEP
 ILM .OHMM   07 120 44 00:   INDUCTION LOG MEDIUM
 SPR .MV     07 010 01 00:   SPONTANEOUS POTENTIAL
~PARAMETER INFORMATION
#MNEM.UNIT          VALUE    DESCRIPTION
#----------   ------------   ------------------------------
 PD  .                 GL:   PERMANENT DATUM
 EPD .F              5161:   ELEVATION PERMANENT DATUM
 LMF .                 KB:   LOG MEASURED FROM
 DAPD.F                 4:   FEET ABOVE PERMANENT DATUM
 DMF .                 KB:   DRILLING MEASURED FROM
 EKB .F              5165:   KELLING BUSHING
 EGL .F              5161:   GROUND LEVEL
 DATE.            5-26-80:   RUN DATE
 RUN .                  1:   RUN NUMBER
 DD  .F               500:   DEPTH DRILLER
 DL  .F               502:   DEPTH LOGGER
 BLI .F               500:   BOTTOM LOG INTERVAL
 TLI .F                34:   TOP LOG INTERVAL
 BS  .IN            9.875:   BIT SIZE
 BSD .F               500:   BIT SIZE AT DEPTH
 DFT .          KCL WATER:   DRILLING FLUID TYPE
 DFD .                9.5:   DRILLING FLUID DENSITY
 DFV .                 45:   DRILLING FLUID VISCOSITY
 MSS .            MUD PIT:   MUD SAMPLE SOURCE
 RMS .OHMM            .39:   RESISTIVITY MUD SAMPLE
 MST .F                75:   MUD SAMPLE TEMPERATURE
 RMF .OHMM           .312:   RESISTIVITY MUD FILTRATE SAMPLE
 MFST.F                75:   MUD FILTRATE SAMPLE TEMPERATURE
 RMC .OHMM           .468:   RESISTIVITY MUD CAKE
 MCST.F                75:   MUD CAKE SAMPLE TEMPERATURE
 MFSS.           MEASURED:   MUD FILTRATE SAMPLE SOURCE
 MCSS.           MEASURED:   MUD CAKE SAMPLE SOURCE
 RMB .OHMM            .39:   RESISTIVITY MUD AT BHT
 BHT .F                75:   BOTTOM HOLE TEMPERATURE
 TCS .HRS               2:   TIME CURCULATED STOPPED
 MRT .F                75:   MAXIMUM RECORDED TEMPERATURE
 LUN .               9685:   LOGGING UNIT NUMBER
 LUL .             CASPER:   LOGGING UNIT LOCATION
 ENGI.            TOTHILL:   RECORDING ENGINEER
 WITN.            RHOADES:   WITNESSED BY
 CLNT.            A2DTECH:   CLIENT CODE
 ORIG.           5" PRINT:   ORIGIN OF DATA
 UWI .       490251082900:   UNIQUE WELL ID
 DICO. A2D Technologies, Inc.:   DIGITIZING COMPANY
~OTHER INFORMATION
~A   DEPT      GRD       CALD       RHOB       CORR         DPHI       NPHI      GURD        ILD        ILM       SPR   
# ...
   63.5000   106.5333    10.1208     2.4942     0.0325     0.1156     0.2854     9.6175     6.5356     7.3920   -45.6306
   64.0000   106.9941    10.0555     2.4875     0.0377     0.1169     0.2955     9.1838     6.6114     7.3789   -45.8115
   64.5000   107.4502     9.9880     2.4878     0.0349     0.1199     0.2963     9.0450     6.6824     7.3665   -45.9946
   65.0000   107.7695     9.9981     2.4829     0.0322     0.1252     0.2946     9.4695     6.6824     7.3541   -46.1770
   65.5000   107.1566    10.0293     2.4720     0.0306     0.1211     0.2970     9.0753     6.6824     7.3417   -46.3593
   66.0000   106.5513    10.0610     2.4727     0.0366     0.1237     0.2982     8.9657     6.6824     7.3294   -46.5416
   66.5000   105.9288    10.0925     2.4757     0.0321     0.1205     0.2938     9.3868     6.6824     7.3172   -46.7239
   67.0000   106.1227    10.1241     2.4733     0.0291     0.1141     0.2854     9.0435     6.6824     7.3049   -46.9065
   67.5000   106.8287    10.1557     2.4865     0.0427     0.1106     0.2827     8.6840     6.6824     7.2926   -47.0895
   68.0000   107.5351    10.1876     2.4964     0.0541     0.1169     0.2914     8.2522     6.6824     7.2803   -47.2558
   68.5000   108.2432    10.1660     2.4906     0.0448     0.1165     0.2963     8.5321     6.6824     7.2682   -47.2271
   69.0000   108.9519    10.1288     2.4852     0.0415     0.1094     0.2990     9.0501     6.6824     7.2575   -47.1941
   69.5000   109.6566    10.0940     2.4987     0.0493     0.1059     0.2933     8.7903     6.6825     7.3524   -47.1619
   70.0000   110.2235    10.1050     2.5048     0.0463     0.1227     0.2877     8.5606     6.6824     7.4379   -47.1296
   70.5000   109.9683    10.1174     2.4801     0.0282     0.1260     0.2821     8.8806     6.7399     7.5242   -47.0964
   71.0000   109.5840    10.1296     2.4667     0.0141     0.1189     0.2781     8.9454     6.8472     7.6115   -47.0673
   71.5000   109.1977    10.1418     2.4812     0.0293     0.1264     0.2786     9.0145     6.9561     7.7050   -47.2907
   72.0000   108.8113    10.1540     2.4681     0.0162     0.1332     0.2804     9.0841     7.0668     7.8095   -47.5396
   72.5000   108.4252    10.1662     2.4530    -0.0012     0.1149     0.2830     9.2133     7.1792     7.9153   -47.7975
   73.0000   108.0392    10.1691     2.4829     0.0161     0.1185     0.2851     9.4481     7.2935     8.0225   -47.6339
   73.5000   107.6531    10.1622     2.4858     0.0239     0.1145     0.2828     9.6449     7.4095     8.1764   -47.2497
   74.0000   107.2671    10.1552     2.4878     0.0186     0.1164     0.2809     9.4369     7.5288     8.1586   -46.8609
   74.5000   106.8808    10.1525     2.4885     0.0167     0.1181     0.2823     9.2974     7.6441     8.1251   -46.4879
   75.0000   106.4956    10.1572     2.4847     0.0187     0.1226     0.2827     9.6803     7.8102     8.0925   -46.5410
   75.5000   106.1239    10.1619     2.4787     0.0141     0.1343     0.2862    10.1844     7.7922     8.0600   -46.6143
   76.0000   105.5720    10.1667     2.4609     0.0092     0.1309     0.2885    10.2845     7.7622     8.0281   -46.6857
   76.5000   105.0152    10.1714     2.4576     0.0147     0.1317     0.2905     9.2974     7.7325     8.0057   -46.7566
   77.0000   104.4579    10.1762     2.4604     0.0199     0.1236     0.2935     9.2756     7.7028     7.9836   -46.8275
   77.5000   103.8984    10.1809     2.4737     0.0253     0.1283     0.2982     9.2542     7.6732     7.9615   -46.8984
   78.0000   103.8533    10.1857     2.4737     0.0190     0.1312     0.2992     9.2337     7.5783     7.9395   -46.9693
   78.5000   104.2077    10.1907     2.4615     0.0188     0.1222     0.3003     9.2115     7.4714     7.9175   -47.0413
   79.0000   104.5627    10.1830     2.4762     0.0293     0.1285     0.3014     9.0302     7.3661     7.8956   -47.0465
   79.5000   104.9188    10.1727     2.4672     0.0231     0.1338     0.3095     8.8579     7.2623     7.8738   -47.0230
   80.0000   105.2742    10.1624     2.4585     0.0169     0.1372     0.3065     8.7995     7.1599     7.8520   -46.9987
   80.5000   105.6319    10.1523     2.4499     0.0107     0.1325     0.3026     9.2974     7.1015     7.8303   -46.9744
   81.0000   105.9946    10.1518     2.4547     0.0115     0.1272     0.2975     8.8513     7.0651     7.8100   -46.9502
   81.5000   106.2823    10.1519     2.4669     0.0214     0.1264     0.2908     8.5606     7.0290     7.7782   -46.9260
   82.0000   105.5992    10.1519     2.4679     0.0296     0.1247     0.2850     8.5606     6.9931     7.7483   -46.9018
   82.5000   104.9457    10.1519     2.4727     0.0270     0.1304     0.2835     8.4625     6.9573     7.7185   -46.8775
   83.0000   104.3020    10.1519     2.4638     0.0289     0.1201     0.2802     8.3010     6.9232     7.6889   -46.8623
   83.5000   103.6607    10.1519     2.4618     0.0197     0.1257     0.2842     8.2512     6.8929     7.6662   -46.8538
   84.0000   103.0111    10.1519     2.4771     0.0318     0.1207     0.2873     8.2522     6.8625     7.6466   -46.8455
   84.5000   102.7209    10.1519     2.4701     0.0302     0.1117     0.2891     8.4824     6.8326     7.6270   -46.8372
   85.0000   103.1572    10.1519     2.4885     0.0390     0.1113     0.2897     8.2616     6.8062     7.5982   -46.8288
   85.5000   103.8774    10.1519     2.4922     0.0313     0.1197     0.2909     8.1021     6.9103     7.6519   -46.8205
   86.0000   104.6118    10.1519     2.4811     0.0185     0.1168     0.2926     8.2268     7.0045     7.7568   -46.8121
   86.5000   105.3432    10.1519     2.4848     0.0063     0.1113     0.2961     8.3282     7.1266     7.8625   -46.8038
   87.0000   106.0740    10.1519     2.4931     0.0078     0.1165     0.2997     8.6498     7.1251     7.9590   -46.7955
   87.5000   106.8047    10.1519     2.4858     0.0109     0.1209     0.3029     8.8806     7.1256     7.9802   -46.7871
   88.0000   107.5360    10.1519     2.4781     0.0142     0.1331     0.2998     8.4824     7.1429     8.0027   -46.7788
   88.5000   108.2653    10.1519     2.4600     0.0008     0.1451     0.2994     8.6543     7.1919     8.0251   -46.7705
   89.0000   108.9989    10.1519     2.4387    -0.0163     0.1400     0.2941     8.8806     7.2412     8.0476   -46.7621
   89.5000   109.2192    10.1519     2.4493    -0.0159     0.1336     0.2887     8.4050     7.2909     8.0701   -46.7538
   90.0000   108.9467    10.1516     2.4648    -0.0046     0.1338     0.2864     8.6029     7.3409     8.0927   -46.7454
   90.5000   108.6708    10.1492     2.4525    -0.0080     0.1320     0.2848     8.9624     7.3920     8.1020   -46.7371
   91.0000   108.4300    10.1468     2.4644    -0.0054     0.1193     0.2829     8.9624     7.4316     8.1021   -46.7288
   91.5000   108.9943    10.1444     2.4801     0.0123     0.1226     0.2820     8.9624     7.4721     8.1021   -46.7204
   92.0000   109.6149    10.1420     2.4739     0.0098     0.1259     0.2815     8.9624     7.5288     8.1021   -46.7121
   92.5000   110.2348    10.1397     2.4685     0.0104     0.1186     0.2836     8.9624     7.5233     8.1021   -46.7037
   93.0000   110.8543    10.1373     2.4811     0.0294     0.1092     0.2826     8.9624     7.5142     8.0981   -46.6954
   93.5000   111.4768    10.1348     2.4993     0.0479     0.1063     0.2823     8.4824     7.5050     8.0882   -46.6872
   94.0000   111.5537    10.1322     2.5043     0.0439     0.1073     0.2803     8.5821     7.4959     8.0784   -46.6793
   94.5000   110.9340    10.1431     2.4996     0.0419     0.1105     0.2785     8.7049     7.4868     8.0686   -46.6677
   95.0000   110.3278    10.1561     2.4867     0.0377     0.1161     0.2763     8.7995     7.4777     8.0588   -46.5635
   95.5000   109.7232    10.1693     2.4861     0.0347     0.1125     0.2754     8.6217     7.4687     8.0491   -46.4546
   96.0000   109.1186    10.1716     2.4915     0.0384     0.1189     0.2752     8.4808     7.4602     8.0393   -46.3460
   96.5000   108.5107    10.1716     2.4835     0.0451     0.1124     0.2717     8.4050     7.4601     8.0276   -46.2376
