~VERSION INFORMATION
 VERS.                2.0:   CWLS LOG ASCII STANDARD - VERSION 2.0
 WRAP.                 NO:   ONE LINE PER DEPTH STEP
~WELL INFORMATION
#MNEM.UNIT      DATA TYPE    INFORMATION
#----------   ------------   ------------------------------
 STRT.F           90.0000:   START DEPTH
 STOP.F         1312.0000:   STOP DEPTH
 STEP.F            0.5000:   STEP LENGTH
 NULL.          -999.2500:   NO VALUE
 COMP. US NAVY/ INTEX OIL CO:   COMPANY
 WELL. RES 3 TEAPOT DOME NPR "S' #42-2:   WELL
 FLD .             TEAPOT:   FIELD
 LOC .       S2 T38N R78W:   LOCATION
 CNTY.            NATRONA:   COUNTY
 STAT.            WYOMING:   STATE
 CTRY. UNITED STATES OF AMERICA:   COUNTRY
 SRVC. Schlumberger Well Surveying Corp:   SERVICE COMPANY
 DATE.        17-JUL-1964:   LOGDATE
 API .       490250646400:   API NUMBER
~CURVE INFORMATION
#MNEM.UNIT       API CODE    CURVE DESCRIPTION
#----------   ------------   ------------------------------
 DEPT.F                  :   
 GR  .GAPI   30 310 01 00:   GAMMA RAY
 CALS.IN     60 280 50 00:   CALIPER FROM SONIC LOG
 DT  .US/F   60 520 32 00:   INTERVAL TRANSIT TIME
 SPR .MV     05 010 01 00:   SPONTANEOUS POTENTIAL FROM RES.
 CILD.MMHO   05 110 46 00:   CONDUCTIVITY INDUCTION LOG DEEP
 ILD .OHMM   05 120 46 00:   INDUCTION LOG DEEP
 ASN .OHMM   05 040 16 00:   AMPLIFIED SHORT NORMAL 16"
~PARAMETER INFORMATION
#MNEM.UNIT          VALUE    DESCRIPTION
#----------   ------------   ------------------------------
 PD  .                 GL:   PERMANENT DATUM
 EPD .F              5142:   ELEVATION PERMANENT DATUM
 LMF .                 KB:   LOG MEASURED FROM
 DAPD.F                 8:   FEET ABOVE PERMANENT DATUM
 DMF .                 KB:   DRILLING MEASURED FROM
 EKB .F              5150:   KELLING BUSHING
 EGL .F              5142:   GROUND LEVEL
 DATE.          7-17-1964:   RUN DATE
 RUN .                  1:   RUN NUMBER
 DD  .F              1300:   DEPTH DRILLER
 DL  .F              1310:   DEPTH LOGGER
 BLI .F              1309:   BOTTOM LOG INTERVAL
 TLI .F               107:   TOP LOG INTERVAL
 CS  .IN            12.25:   CASING SIZE
 CBD .F                10:   CASING BOTTOM DRILLER
 BS  .IN               11:   BIT SIZE
 BSD .F              1300:   BIT SIZE AT DEPTH
 DFT .            GEL-OIL:   DRILLING FLUID TYPE
 DFD .                9.6:   DRILLING FLUID DENSITY
 DFV .                 63:   DRILLING FLUID VISCOSITY
 DFPH.                  8:   DRILLING FLUID PH
 DFL .                9.6:   DRILLING FLUID LOSS
 MSS .           FLOWLINE:   MUD SAMPLE SOURCE
 RMS .OHMM           2.07:   RESISTIVITY MUD SAMPLE
 MST .F                92:   MUD SAMPLE TEMPERATURE
 RMF .OHMM           1.42:   RESISTIVITY MUD FILTRATE SAMPLE
 MFST.F                92:   MUD FILTRATE SAMPLE TEMPERATURE
 RMC .OHMM           2.33:   RESISTIVITY MUD CAKE
 MCST.F                92:   MUD CAKE SAMPLE TEMPERATURE
 MFSS.                 FP:   MUD FILTRATE SAMPLE SOURCE
 MCSS.                 FP:   MUD CAKE SAMPLE SOURCE
 TCS .HRS               1:   TIME CURCULATED STOPPED
 LUN .               4507:   LOGGING UNIT NUMBER
 LUL .              CSPR.:   LOGGING UNIT LOCATION
 ENGI.             DANNER:   RECORDING ENGINEER
 WITN.          JORGENSEN:   WITNESSED BY
 CLNT.            A2DTECH:   CLIENT CODE
 ORIG.        2" 5" PRINT:   ORIGIN OF DATA
 UWI .       490250646400:   UNIQUE WELL ID
 DICO. A2D Technologies, Inc.:   DIGITIZING COMPANY
~OTHER INFORMATION
~A   DEPT       GR       CALS         DT        SPR        CILD         ILD        ASN 
# ...
  954.5000  -999.2500    11.1190  -999.2500   -34.5248   130.8130     7.8953     9.0162
  955.0000  -999.2500    11.1019  -999.2500   -34.5073   132.6326     7.8017     8.9029
  955.5000  -999.2500    11.0653  -999.2500   -34.4901   133.9306     7.7064     8.8056
  956.0000  -999.2500    11.0403  -999.2500   -34.4721   135.2619     7.6134     8.7249
  956.5000  -999.2500    11.0402  -999.2500   -34.4560   136.5933     7.5225     8.6593
  957.0000  -999.2500    11.0402  -999.2500   -34.4319   137.9246     7.4299     8.5904
  957.5000  -999.2500    11.0402  -999.2500   -34.3511   139.2559     7.3378     8.5233
  958.0000  -999.2500    11.0402  -999.2500   -34.2654   140.6406     7.2455     8.4551
  958.5000  -999.2500  -999.2500  -999.2500   -34.1806   142.2381     7.1530     8.3876
  959.0000  -999.2500  -999.2500  -999.2500   -34.0958   143.9022     7.0561     8.3190
  959.5000  -999.2500  -999.2500  -999.2500   -34.0103   145.6456     6.9191     8.2517
  960.0000  -999.2500  -999.2500  -999.2500   -33.9267   148.1815     6.7801     8.1824
  960.5000  -999.2500  -999.2500  -999.2500   -33.8392   150.8442     6.6262     8.1166
  961.0000  -999.2500  -999.2500  -999.2500   -33.7589   153.5068     6.5465     7.9956
  961.5000  -999.2500  -999.2500  -999.2500   -33.6650   156.1695     6.5664     7.7739
  962.0000  -999.2500  -999.2500  -999.2500   -33.6651   157.6577     6.6828     7.6690
  962.5000  -999.2500  -999.2500  -999.2500   -33.7461   154.8423     6.8269     7.7324
  963.0000  -999.2500  -999.2500  -999.2500   -33.8112   151.6517     6.9676     7.8209
  963.5000  -999.2500  -999.2500  -999.2500   -33.8841   146.9845     7.1013     8.0264
  964.0000  -999.2500  -999.2500  -999.2500   -33.9529   141.9920     7.2778     8.2540
  964.5000  -999.2500  -999.2500  -999.2500   -34.0238   136.9995     7.6871     8.4945
  965.0000  -999.2500  -999.2500  -999.2500   -34.0939   131.6316     8.2114     8.7927
  965.5000  -999.2500  -999.2500  -999.2500   -34.1639   127.4762     8.5265     9.1100
  966.0000  -999.2500  -999.2500  -999.2500   -34.2348   122.6226     8.6093     9.4447
  966.5000  -999.2500  -999.2500  -999.2500   -34.3036   120.7858     8.7334     9.6085
  967.0000  -999.2500  -999.2500  -999.2500   -34.3767   118.9549     8.8380     9.7940
  967.5000  -999.2500  -999.2500  -999.2500   -34.4293   117.3574     8.9510     9.8433
  968.0000  -999.2500  -999.2500  -999.2500   -34.3843   115.6156     8.9619    10.1768
  968.5000  -999.2500  -999.2500  -999.2500   -34.3330   115.6156     8.9602    10.3741
  969.0000  -999.2500  -999.2500  -999.2500   -34.2826   115.6156     8.9556    10.3563
  969.5000  -999.2500  -999.2500  -999.2500   -34.2323   116.3900     8.8885    10.2825
  970.0000  -999.2500  -999.2500  -999.2500   -34.1811   117.2458     8.8067     9.9724
  970.5000  -999.2500  -999.2500  -999.2500   -34.1319   118.1017     8.7274     9.8732
  971.0000  -999.2500  -999.2500  -999.2500   -34.0785   118.9575     8.6464     9.8231
  971.5000  -999.2500  -999.2500  -999.2500   -34.0444   119.8134     8.5669     9.7613
  972.0000  -999.2500  -999.2500  -999.2500   -34.0988   120.6692     8.5567     9.7040
  972.5000  -999.2500  -999.2500  -999.2500   -34.1573   121.6216     8.5590     9.6490
  973.0000  -999.2500  -999.2500  -999.2500   -34.2145   121.6216     8.5582     9.6748
  973.5000  -999.2500  -999.2500  -999.2500   -34.2729   121.6216     8.5590     9.6817
  974.0000  -999.2500  -999.2500  -999.2500   -34.3295   121.6216     8.5594     9.6662
  974.5000  -999.2500  -999.2500  -999.2500   -34.3899   121.6216     8.5597     9.6451
  975.0000  -999.2500  -999.2500  -999.2500   -34.4315   121.6216     8.5611     9.5836
  975.5000  -999.2500  -999.2500  -999.2500   -34.3878   121.6216     8.5606     9.4879
  976.0000  -999.2500  -999.2500  -999.2500   -34.3456   121.8068     8.5542     9.3553
  976.5000  -999.2500  -999.2500  -999.2500   -34.2955   122.3061     8.3886     9.2050
  977.0000  -999.2500  -999.2500  -999.2500   -34.2627   124.3972     8.1922     8.9955
  977.5000  -999.2500  -999.2500  -999.2500   -34.1446   129.0579     7.8437     8.7533
  978.0000  -999.2500  -999.2500  -999.2500   -33.9642   133.8568     7.2552     8.4918
  978.5000  -999.2500  -999.2500  -999.2500   -33.8055   139.3337     6.6699     8.1576
  979.0000  -999.2500  -999.2500  -999.2500   -33.6373   143.7975     6.0765     7.7734
  979.5000  -999.2500  -999.2500  -999.2500   -33.4741   158.4617     5.4896     7.3967
  980.0000  -999.2500  -999.2500  -999.2500   -33.3084   190.5253     4.8952     7.0139
  980.5000  -999.2500  -999.2500  -999.2500   -33.1432   222.5885     4.3127     6.5947
  981.0000  -999.2500  -999.2500  -999.2500   -32.9789   260.7608     3.7094     5.9431
  981.5000  -999.2500  -999.2500  -999.2500   -32.8117   297.7978     3.1439     5.1934
  982.0000  -999.2500  -999.2500  -999.2500   -32.6505   343.6837     2.4926     4.4451
  982.5000  -999.2500  -999.2500  -999.2500   -32.4810   398.1732     2.0789     3.8166
  983.0000  -999.2500  -999.2500  -999.2500   -32.4244   452.6627     2.0324     3.4869
  983.5000  -999.2500  -999.2500  -999.2500   -32.4245   491.6516     1.8933     3.2932
  984.0000  -999.2500  -999.2500  -999.2500   -32.4577   501.0010     1.8501     3.0653
  984.5000  -999.2500  -999.2500  -999.2500   -32.7294   501.0010     1.8333     3.1027
  985.0000  -999.2500  -999.2500  -999.2500   -32.9832   484.0841     1.9550     3.2106
  985.5000  -999.2500  -999.2500  -999.2500   -33.2442   432.1622     2.2983     3.3497
  986.0000  -999.2500  -999.2500  -999.2500   -33.4952   380.2402     2.6735     3.7090
  986.5000  -999.2500  -999.2500  -999.2500   -33.7575   328.3183     3.3027     4.3951
  987.0000  -999.2500  -999.2500  -999.2500   -33.8213   276.3964     4.3040     5.1016
  987.5000  -999.2500  -999.2500  -999.2500   -33.7639   224.4745     5.3352     5.8282
  988.0000  -999.2500  -999.2500  -999.2500   -33.7313   182.3273     6.4351     6.4315
  988.5000  -999.2500  -999.2500  -999.2500   -33.6866   161.8581     6.7714     6.7934
  989.0000  -999.2500  -999.2500  -999.2500   -33.6484   145.5095     6.9768     7.1272
  989.5000  -999.2500  -999.2500  -999.2500   -33.6067   142.8417     7.2322     7.3583
  990.0000  -999.2500  -999.2500  -999.2500   -33.5667   140.1049     7.4492     7.5945
  990.5000  -999.2500  -999.2500  -999.2500   -33.5260   137.2350     7.7198     7.8890
  991.0000  -999.2500  -999.2500  -999.2500   -33.4855   133.6007     7.8744     7.9785
  991.5000  -999.2500  -999.2500  -999.2500   -33.4454   133.6454     7.8512     8.0920
  992.0000  -999.2500  -999.2500  -999.2500   -33.4046   133.6303     7.7808     8.2365
  992.5000  -999.2500  -999.2500  -999.2500   -33.3652   135.2021     7.6628     8.2807
  993.0000  -999.2500  -999.2500  -999.2500   -33.3231   137.6263     7.5612     8.3384
  993.5000  -999.2500  -999.2500  -999.2500   -33.2858   139.2016     7.4481     8.4038
  994.0000  -999.2500  -999.2500  -999.2500   -33.2404   140.8491     7.3465     8.4526
  994.5000  -999.2500  -999.2500  -999.2500   -33.2696   141.5619     7.2246     8.4927
  995.0000  -999.2500  -999.2500  -999.2500   -33.3421   142.2683     7.1427     8.5245
  995.5000  -999.2500  -999.2500  -999.2500   -33.3996   142.9665     7.1254     8.5254
  996.0000  -999.2500  -999.2500  -999.2500   -33.4649   143.6649     7.0944     8.5367
  996.5000  -999.2500  -999.2500  -999.2500   -33.5240   144.3626     7.0700     8.5318
  997.0000  -999.2500  -999.2500  -999.2500   -33.5906   145.0674     7.0424     8.5114
  997.5000  -999.2500  -999.2500  -999.2500   -33.6284   145.7722     7.0158     8.4807
  998.0000  -999.2500  -999.2500  -999.2500   -33.5873   146.6467     6.9898     8.4184
  998.5000  -999.2500  -999.2500  -999.2500   -33.5494   146.6467     6.9623     8.3571
  999.0000  -999.2500  -999.2500  -999.2500   -33.5104   146.6467     7.0287     8.2827
  999.5000  -999.2500  -999.2500  -999.2500   -33.4721   146.2901     7.1347     8.2522
