~VERSION INFORMATION
 VERS.                2.0:   CWLS LOG ASCII STANDARD - VERSION 2.0
 WRAP.                 NO:   ONE LINE PER DEPTH STEP
~WELL INFORMATION
#MNEM.UNIT      DATA TYPE    INFORMATION
#----------   ------------   ------------------------------
 STRT.F           29.0000:   START DEPTH
 STOP.F          500.0000:   STOP DEPTH
 STEP.F            0.5000:   STEP LENGTH
 NULL.          -999.2500:   NO VALUE
 COMP.    FENIX & SCISSON:   COMPANY
 WELL.        NPR #48-S-3:   WELL
 FLD .             TEAPOT:   FIELD
 LOC .       S3 T38N R78W:   LOCATION
 CNTY.            NATRONA:   COUNTY
 STAT.            WYOMING:   STATE
 CTRY. UNITED STATES OF AMERICA:   COUNTRY
 SRVC.              Welex:   SERVICE COMPANY
 DATE.        24-APR-1977:   LOGDATE
 API .       490251034900:   API NUMBER
~CURVE INFORMATION
#MNEM.UNIT       API CODE    CURVE DESCRIPTION
#----------   ------------   ------------------------------
 DEPT.F                  :   
 SPR .MV     07 010 01 00:   SPONTANEOUS POTENTIAL
 ILD .OHMM   07 120 46 00:   INDUCTION LOG DEEP
 ILM .OHMM   07 120 44 00:   INDUCTION LOG MEDIUM
 SGRD.OHMM   07 221 05 00:   SHALLOW SHORT GUARD RESISTIVITY
 GRD .GAPI   45 310 01 00:   GAMMA RAY FROM DENSITY LOG
 CALD.IN     45 280 60 00:   CALIPER FROM DENSITY LOG
 CORR.G/C3   45 356 01 00:   DENSITY CORRECTION
 RHOB.G/C3   45 350 01 00:   BULK DENSITY
 DPHI.DEC    45 890 12 00:   DENSITY POROSITY SANDSTONE
~PARAMETER INFORMATION
#MNEM.UNIT          VALUE    DESCRIPTION
#----------   ------------   ------------------------------
 PD  .                 GL:   PERMANENT DATUM
 EPD .F              5199:   ELEVATION PERMANENT DATUM
 LMF .                 GL:   LOG MEASURED FROM
 DMF .                 GL:   DRILLING MEASURED FROM
 EGL .F              5199:   GROUND LEVEL
 DATE.        24-APR-1977:   RUN DATE
 RUN .                  1:   RUN NUMBER
 DD  .F               500:   DEPTH DRILLER
 DL  .F               499:   DEPTH LOGGER
 BLI .F               497:   BOTTOM LOG INTERVAL
 TLI .F                30:   TOP LOG INTERVAL
 CS  .IN            8.625:   CASING SIZE
 BS  .IN               12:   BIT SIZE
 BSD .F               500:   BIT SIZE AT DEPTH
 DFT .             KCLMUD:   DRILLING FLUID TYPE
 DFD .                8.9:   DRILLING FLUID DENSITY
 TCS .HRS               1:   TIME CURCULATED STOPPED
 MRT .F                70:   MAXIMUM RECORDED TEMPERATURE
 ENGI.          T. JOYNER:   RECORDING ENGINEER
 WITN.            R. LYON:   WITNESSED BY
 CLNT.            A2DTECH:   CLIENT CODE
 ORIG.           5" PRINT:   ORIGIN OF DATA
 UWI .       490251034900:   UNIQUE WELL ID
 DICO. A2D Technologies, Inc.:   DIGITIZING COMPANY
~OTHER INFORMATION
~A   DEPT      SPR        ILD        ILM       SGRD        GRD         CALD      CORR        RHOB     DPHI   
# ...
  102.0000   -49.3631    10.6972    12.3713    17.4737   119.1385     7.8511    -0.0007     2.4982     0.0910
  102.5000   -49.3527    10.7786    12.5549    17.7302   117.6453     7.8356    -0.0007     2.5012     0.0886
  103.0000   -49.3423    10.9377    12.6534    17.9904   117.1953     7.8350    -0.0007     2.5057     0.0850
  103.5000   -49.3319    11.0993    12.8411    18.6365   120.9174     7.8344     0.0001     2.5117     0.0814
  104.0000   -49.3215    11.1085    12.6761    19.3058   120.1694     7.8187     0.0001     2.5184     0.0788
  104.5000   -49.3111    11.1177    12.5105    19.8616   119.1233     7.8032     0.0001     2.5184     0.0779
  105.0000   -49.3007    11.1269    12.6115    20.0369   117.6301     7.8026     0.0002     2.5177     0.0779
  105.5000   -49.2903    11.1362    12.7986    19.3501   116.1369     7.7871     0.0002     2.5162     0.0794
  106.0000   -49.2799    11.1454    12.5471    18.7077   113.8985     7.7865     0.0002     2.5125     0.0815
  106.5000   -49.2694    11.1547    12.2158    18.2120   111.3621     7.7859     0.0002     2.5072     0.0839
  107.0000   -49.2611    11.0107    12.1398    17.8523   108.7987     7.7854     0.0002     2.5042     0.0863
  107.5000   -49.5480    10.8685    12.0670    17.7396   108.3757     7.7848    -0.0013     2.5005     0.0890
  108.0000   -49.6859    10.8025    11.9947    17.8795   110.4585     7.7840    -0.0020     2.4975     0.0914
  108.5000   -49.8239    10.6629    12.0082    17.7701   111.7969     7.7835    -0.0027     2.4953     0.0929
  109.0000   -49.8358    10.5983    12.0190    17.6613   113.1353     7.7829    -0.0027     2.4923     0.0935
  109.5000   -49.9514    10.4617    11.9442    17.4324   111.9402     7.7823    -0.0035     2.4915     0.0930
  110.0000   -50.0894    10.3979    11.7934    16.8537   111.1921     7.8116    -0.0027     2.4938     0.0924
  110.5000   -50.0787    10.3332    11.7201    16.7473   111.0402     7.8260    -0.0019     2.4975     0.0912
  111.0000   -50.0682    10.3440    11.6524    17.1141   111.1933     7.8404    -0.0019     2.4998     0.0900
  111.5000   -50.0581    10.3526    11.6629    17.1272   111.8048     7.8398    -0.0004     2.5013     0.0888
  112.0000   -50.1961    10.2877    11.6734    16.6733   112.8192     7.8390     0.0004     2.5036     0.0877
  112.5000   -50.3340    10.2985    11.6839    16.6861   114.0085     7.8536     0.0004     2.5036     0.0874
  113.0000   -50.3234    10.3071    11.6112    16.8145   115.4959     7.8829     0.0011     2.5027     0.0877
  113.5000   -50.3130    10.2424    11.5416    17.0613   116.5365     7.8822     0.0012     2.4983     0.0889
  114.0000   -50.3027    10.1804    11.4724    17.4317   109.3317     7.8816     0.0012     2.4953     0.0907
  114.5000   -50.2923    10.1910    11.4036    17.6841   102.9686     7.8810     0.0012     2.4894     0.0940
  115.0000   -50.4304    10.1271    11.3352    16.7498   106.8602     7.8954     0.0012     2.4834     0.0973
  115.5000   -50.4198    10.1377    11.1921    16.4158   109.8326     7.8948     0.0012     2.4774     0.1006
  116.0000   -50.4095    10.0047    11.1225    16.8916   114.2856     7.8792     0.0012     2.4744     0.1057
  116.5000   -50.3991     9.8756    11.0582    16.7882   117.1143     7.8785     0.0012     2.4707     0.1121
  117.0000   -50.3887     9.6829    10.9919    16.0083   119.6450     7.8779     0.0005     2.4617     0.1174
  117.5000   -50.3783     9.4267    10.9235    15.2647   121.4304     7.8774    -0.0010     2.4684     0.1153
  118.0000   -50.3679     9.2408    10.8580    15.0639   121.1295     7.8618    -0.0017     2.4744     0.1117
  118.5000   -50.3575     9.1829    10.7186    15.3939   118.8911     7.8463    -0.0017     2.4737     0.1106
  119.0000   -50.4955     9.1273    10.5809    15.8370   113.8035     7.8457    -0.0024     2.4535     0.1118
  119.5000   -50.6335     9.1368    10.4449    15.9589   109.9855     7.8451    -0.0024     2.4280     0.1276
  120.0000   -50.7715     9.0795    10.3131    15.7520   107.1083     7.8446    -0.0033     2.4160     0.1345
  120.5000   -51.0577     8.9642    10.3224    15.3347   105.3170     7.8438    -0.0039     2.4205     0.1308
  121.0000   -51.1958     8.9098    10.1897    14.9283   103.8238     7.8433    -0.0046     2.4266     0.1265
  121.5000   -51.3339     8.9158    10.1264    14.6307   104.2680     7.8427    -0.0046     2.4337     0.1238
  122.0000   -51.6199     8.9229    10.0656    14.6446   110.3754     7.8271    -0.0053     2.4415     0.1217
  122.5000   -51.7582     8.8077    10.0770    14.7573   114.2473     7.8266    -0.0053     2.4468     0.1214
  123.0000   -51.7474     8.7543    10.0143    14.8709   114.6915     7.8260    -0.0053     2.4468     0.1238
  123.5000   -51.8858     8.7618    10.0255    14.7771   113.7749     7.8254    -0.0053     2.4460     0.1236
  124.0000   -51.8750     8.7690     9.9632    14.5660   111.1083     7.8248    -0.0053     2.4535     0.1180
  124.5000   -51.8646     8.7763    10.0436    14.4962   108.5718     7.8241    -0.0053     2.4715     0.1101
  125.0000   -51.8542     8.7836    10.0526    14.6083   106.7806     7.8235    -0.0060     2.4798     0.1072
  125.5000   -51.9921     8.7909    10.0617    14.8226   107.5228     7.8229    -0.0060     2.4828     0.1093
  126.0000   -52.1306     8.7983    10.0707    14.9505   108.5632     7.8074    -0.0067     2.4641     0.1156
  126.5000   -52.1197     8.8056    10.0798    15.3790   108.4112     7.8068    -0.0067     2.4566     0.1201
  127.0000   -52.1093     8.8130    10.0171    16.2856   107.5142     7.8063    -0.0067     2.4506     0.1225
  127.5000   -51.9505     8.8204    10.0284    16.6040   106.4680     7.8057    -0.0067     2.4454     0.1243
  128.0000   -51.9401     8.8277     9.9660    15.9424   108.4018     7.8200    -0.0059     2.4416     0.1261
  128.5000   -52.2264     8.8351     9.9062    15.7305   108.6977     7.8195    -0.0051     2.4371     0.1276
  129.0000   -52.2160     8.7797     9.7812    14.8948   106.9057     7.8187    -0.0051     2.4326     0.1288
  129.5000   -52.3565     8.7265     9.6533    14.5067   105.2642     7.8332    -0.0044     2.4296     0.1279
  130.0000   -52.4919     8.4973     9.4006    14.5178   109.4335     7.8325    -0.0044     2.4304     0.1270
  130.5000   -52.6324     8.2154     9.2138    14.5288   111.8151     7.8319    -0.0036     2.4357     0.1262
  131.0000   -52.7704     7.8881     8.9107    14.1439   114.9419     7.8314    -0.0021     2.4402     0.1247
  131.5000   -52.9084     7.6794     8.6754    13.8645   114.1630     7.8308    -0.0021     2.4447     0.1220
  132.0000   -53.0463     7.4761     8.4463    13.2204   112.8489     7.8302    -0.0013     2.4507     0.1193
  132.5000   -53.1843     7.2767     8.2804    12.5195   112.2499     7.8296    -0.0013     2.4574     0.1170
  133.0000   -53.0229     7.1333     8.1740    12.1040   112.0980     7.8289    -0.0013     2.4634     0.1158
  133.5000   -52.8641     7.0901     8.0690    11.5417   112.3939     7.8434    -0.0012     2.4657     0.1152
  134.0000   -52.8537     7.0975     8.0188    11.6305   112.8373     7.8427    -0.0012     2.4592     0.1182
  134.5000   -52.6949     7.1034     8.0835    12.6448   113.5796     7.8421    -0.0021     2.4447     0.1209
  135.0000   -52.3878     7.1093     8.1470    13.0989   114.4709     7.8415    -0.0050     2.4380     0.1266
  135.5000   -52.2290     7.1646     8.2678    13.1089   115.8494     7.8260    -0.0072     2.4290     0.1316
  136.0000   -52.2186     7.1706     8.3327    13.0282   114.7625     7.8254    -0.0072     2.4028     0.1413
  136.5000   -52.2082     7.2264     8.4563    12.7689   114.0144     7.8262    -0.0072     2.4193     0.1332
  137.0000   -52.1978     7.2826     8.5818    12.6907   114.3096     7.8392    -0.0071     2.4328     0.1266
  137.5000   -52.1873     7.3393     8.6491    12.9686   114.7545     7.8385    -0.0041     2.4410     0.1207
  138.0000   -52.1769     7.3964     8.6569    13.3420   115.1980     7.8530    -0.0026     2.4558     0.1159
