~VERSION INFORMATION
 VERS.                2.0:   CWLS LOG ASCII STANDARD - VERSION 2.0
 WRAP.                 NO:   ONE LINE PER DEPTH STEP
~WELL INFORMATION
#MNEM.UNIT      DATA TYPE    INFORMATION
#----------   ------------   ------------------------------
 STRT.F           30.0000:   START DEPTH
 STOP.F          500.0000:   STOP DEPTH
 STEP.F            0.5000:   STEP LENGTH
 NULL.          -999.2500:   NO VALUE
 COMP. FENIX & SCISSON INC:   COMPANY
 WELL.     3-FI #55-45 SX:   WELL
 FLD .             TEAPOT:   FIELD
 LOC .       S3 T38N R78W:   LOCATION
 CNTY.            NATRONA:   COUNTY
 STAT.            WYOMING:   STATE
 CTRY. UNITED STATES OF AMERICA:   COUNTRY
 SRVC.              Welex:   SERVICE COMPANY
 DATE.        16-MAY-1980:   LOGDATE
 API .       490251082700:   API NUMBER
~CURVE INFORMATION
#MNEM.UNIT       API CODE    CURVE DESCRIPTION
#----------   ------------   ------------------------------
 DEPT.F                  :   
 SPR .MV     07 010 01 00:   SPONTANEOUS POTENTIAL
 GURD.OHMM   07 220 05 00:   GUARD RESISTIVITY
 CALD.IN     45 280 60 00:   CALIPER
 GRD .GAPI   45 310 01 00:   GAMMA RAY FROM DENSITY LOG
 RHOB.G/C3   45 350 01 00:   BULK DENSITY
 CORR.G/C3   45 356 01 00:   DENSITY CORRECTION
 NPHI.DEC    42 890 03 00:   NEUTRON POROSITY SANDSTONE
 DPHI.DEC    45 890 12 00:   DENSITY POROSITY SANDSTONE
 ILD .OHMM   07 120 46 00:   INDUCTION LOG DEEP
 ILM .OHMM   07 120 44 00:   INDUCTION LOG MEDIUM
~PARAMETER INFORMATION
#MNEM.UNIT          VALUE    DESCRIPTION
#----------   ------------   ------------------------------
 PD  .                 GL:   PERMANENT DATUM
 EPD .F              5167:   ELEVATION PERMANENT DATUM
 LMF .                 KB:   LOG MEASURED FROM
 DAPD.F                 5:   FEET ABOVE PERMANENT DATUM
 DMF .                 KB:   DRILLING MEASURED FROM
 EKB .F              5172:   KELLING BUSHING
 EGL .F              5167:   GROUND LEVEL
 DATE.            5-16-80:   RUN DATE
 RUN .                  1:   RUN NUMBER
 DD  .F               483:   DEPTH DRILLER
 DL  .F               496:   DEPTH LOGGER
 BLI .F               494:   BOTTOM LOG INTERVAL
 TLI .F                35:   TOP LOG INTERVAL
 BS  .IN             9.75:   BIT SIZE
 BSD .F               483:   BIT SIZE AT DEPTH
 DFT .            KCL MUD:   DRILLING FLUID TYPE
 DFD .                9.5:   DRILLING FLUID DENSITY
 DFV .                 45:   DRILLING FLUID VISCOSITY
 DFL .                7.5:   DRILLING FLUID LOSS
 MSS .            MUD PIT:   MUD SAMPLE SOURCE
 RMS .OHMM            .29:   RESISTIVITY MUD SAMPLE
 MST .F                75:   MUD SAMPLE TEMPERATURE
 RMF .OHMM            .23:   RESISTIVITY MUD FILTRATE SAMPLE
 MFST.F                75:   MUD FILTRATE SAMPLE TEMPERATURE
 RMC .OHMM            .35:   RESISTIVITY MUD CAKE
 MCST.F                75:   MUD CAKE SAMPLE TEMPERATURE
 MFSS.           MEASURED:   MUD FILTRATE SAMPLE SOURCE
 MCSS.           MEASURED:   MUD CAKE SAMPLE SOURCE
 TCS .HRS               2:   TIME CURCULATED STOPPED
 LUN .               9685:   LOGGING UNIT NUMBER
 LUL .             CASPER:   LOGGING UNIT LOCATION
 ENGI.            TOTHILL:   RECORDING ENGINEER
 WITN.              AMEND:   WITNESSED BY
 CLNT.            A2DTECH:   CLIENT CODE
 ORIG.           5" PRINT:   ORIGIN OF DATA
 UWI .       490251082700:   UNIQUE WELL ID
 DICO. A2D Technologies, Inc.:   DIGITIZING COMPANY
~OTHER INFORMATION
~A   DEPT      SPR         GURD     CALD        GRD       RHOB       CORR         NPHI       DPHI        ILD        ILM 
# ...
  197.5000   -57.2428     3.9868    10.2986   112.2657     2.4148     0.0389     0.3428     0.1471     2.6198     4.4311
  198.0000   -57.0143     3.2476    10.2987   111.6723     2.4309     0.0588     0.3405     0.1478     2.6944     4.5005
  198.5000   -57.0438     4.3763    10.2922   111.0815     2.4302     0.0541     0.3356     0.1505     2.6946     4.5992
  199.0000   -57.1579     4.2795    10.2829   110.7628     2.4279     0.0507     0.3307     0.1580     2.7942     4.7436
  199.5000   -57.2632     4.1229    10.2734   111.2513     2.4106     0.0364     0.3259     0.1618     2.8974     4.8926
  200.0000   -57.3859     4.0618    10.2640   111.9211     2.4034     0.0280     0.3205     0.1550     3.0042     5.0463
  200.5000   -57.2434     4.3975    10.2543   111.8359     2.4162     0.0402     0.3241     0.1598     3.1150     5.2048
  201.0000   -57.0474     5.1759    10.2454   110.9575     2.4147     0.0362     0.3293     0.1590     3.2298     5.2733
  201.5000   -56.8455     5.1420    10.2559   110.1848     2.4088     0.0367     0.3325     0.1487     3.3488     5.5767
  202.0000   -56.6495     5.0486    10.3291   110.6157     2.4251     0.0505     0.3280     0.1376     3.4722     5.6546
  202.5000   -56.4539     4.9865    10.3994   111.5353     2.4415     0.0678     0.3217     0.1540     3.6002     5.8005
  203.0000   -56.2546     5.1524    10.4695   112.4467     2.4226     0.0403     0.3153     0.1715     3.7329     5.9502
  203.5000   -56.1964     5.3725    10.5163   113.3685     2.3937    -0.0013     0.3089     0.1818     3.8705     6.1215
  204.0000   -56.1998     5.3263    10.4400   114.3043     2.3706    -0.0392     0.3070     0.1695     4.0622     6.0424
  204.5000   -56.2002     5.2312    10.3659   113.2786     2.3921    -0.0216     0.3142     0.1604     4.0508     5.9531
  205.0000   -56.1993     5.1378    10.2992   112.0255     2.4081    -0.0036     0.3095     0.1578     4.0041     5.8671
  205.5000   -56.1998     5.0460    10.2929   110.7886     2.4040     0.0048     0.3114     0.1594     3.9578     5.7821
  206.0000   -56.1992     4.9559    10.2821   110.0632     2.4118     0.0114     0.3097     0.1562     3.9121     5.6982
  206.5000   -56.2010     4.8674    10.2711   110.9232     2.4137     0.0087     0.3139     0.1603     3.8670     5.6152
  207.0000   -56.1975     4.7805    10.2599   111.9984     2.4054     0.0044     0.3236     0.1624     3.8395     5.5334
  207.5000   -56.2014     4.6951    10.2488   113.0904     2.3989     0.0000     0.3333     0.1579     3.6865     5.4528
  208.0000   -56.2137     4.6120    10.2377   114.1760     2.4052     0.0062     0.3431     0.1523     3.5362     5.3730
  208.5000   -56.4228     4.5301    10.2266   115.0082     2.4214     0.0141     0.3528     0.1468     3.3921     5.2947
  209.0000   -56.6365     4.4493    10.2178   114.3298     2.4266     0.0219     0.3618     0.1412     3.2539     5.1254
  209.5000   -56.8764     4.3776    10.2357   113.3756     2.4388     0.0339     0.3651     0.1351     3.1212     4.9278
  210.0000   -57.0117     4.2686    10.2556   112.4105     2.4520     0.0469     0.3660     0.1351     2.9939     4.7379
  210.5000   -56.9995     3.9942    10.2757   111.4435     2.4307     0.0352     0.3604     0.1638     2.8718     4.5552
  211.0000   -56.9619     3.5595    10.2958   110.4739     2.3968     0.0094     0.3523     0.1741     2.7545     4.3796
  211.5000   -56.8423     3.1714    10.3159   109.5879     2.3878    -0.0052     0.3442     0.1665     2.6439     4.2162
  212.0000   -56.7248     2.8975    10.3187   109.8258     2.3860    -0.0042     0.3361     0.1609     2.6455     4.2162
  212.5000   -56.6078     3.1201    10.3187   110.7596     2.4085     0.0071     0.3321     0.1570     2.6440     4.2665
  213.0000   -56.4895     3.7477    10.3185   111.6109     2.4120     0.0091     0.3357     0.1702     2.6882     4.3928
  213.5000   -56.3721     4.5301    10.3094   112.4577     2.3950    -0.0021     0.3281     0.1702     2.7885     4.5229
  214.0000   -56.2543     4.5742    10.2885   113.3027     2.3923    -0.0002     0.3302     0.1762     2.9133     4.6569
  214.5000   -56.1367     4.6536    10.2676   113.7802     2.3845    -0.0072     0.3331     0.1733     3.0437     4.7948
  215.0000   -56.0191     4.7345    10.2468   113.7833     2.3785    -0.0122     0.3345     0.1758     3.1799     4.9368
  215.5000   -55.9015     4.8164    10.2259   113.3527     2.3828    -0.0079     0.3323     0.1687     3.3221     5.0830
  216.0000   -55.7837     4.8943    10.2257   112.7024     2.3841    -0.0061     0.3289     0.1632     3.4713     5.2336
  216.5000   -55.6659     4.9929    10.2424   112.0460     2.4049     0.0054     0.3303     0.1548     3.6267     5.4736
  217.0000   -55.5490     5.1407    10.2590   111.3887     2.4045     0.0049     0.3317     0.1474     3.7890     5.4222
  217.5000   -55.4298     5.2930    10.2757   110.7295     2.4262     0.0140     0.3289     0.1389     3.9868     5.3128
  218.0000   -55.3138     5.4498    10.2925   110.0780     2.4347     0.0229     0.3259     0.1265     3.9868     5.2056
  218.5000   -55.1969     5.5810    10.2986   109.7254     2.4509     0.0337     0.3237     0.1169     3.9868     5.0803
  219.0000   -55.0679     5.6018    10.2960   110.6019     2.4671     0.0470     0.3278     0.1099     3.9868     5.1145
  219.5000   -55.0119     5.6227    10.2929   111.4494     2.4831     0.0605     0.3309     0.1036     3.9868     5.1573
  220.0000   -55.0803     5.6438    10.2898   112.2440     2.4947     0.0744     0.3345     0.1215     3.9868     5.2005
  220.5000   -55.1350     5.6648    10.2866   112.8974     2.5006     0.0668     0.3283     0.1223     3.9868     5.2441
  221.0000   -55.1938     5.6859    10.2835   112.6439     2.4748     0.0506     0.3273     0.1251     3.9868     5.3725
  221.5000   -55.2523     5.7071    10.2804   112.3523     2.4718     0.0441     0.3254     0.1307     3.9868     5.3535
  222.0000   -55.3087     5.7283    10.2785   112.0623     2.4647     0.0494     0.3223     0.1363     3.9868     5.3331
  222.5000   -55.3743     5.7497    10.2784   111.7742     2.4548     0.0370     0.3202     0.1391     3.9868     5.3128
  223.0000   -55.3682     5.7711    10.2793   111.4897     2.4453     0.0228     0.3280     0.1183     3.9868     5.2925
  223.5000   -55.2790     5.7925    10.3021   111.7428     2.4353     0.0332     0.3277     0.1214     3.9868     5.2722
  224.0000   -55.1982     5.8141    10.3256   112.6685     2.4833     0.0600     0.3209     0.1235     3.9868     5.2522
  224.5000   -55.1163     5.8357    10.3510   113.5875     2.4707     0.0526     0.3256     0.1179     3.9869     5.2322
  225.0000   -55.0331     5.8575    10.3366   114.5086     2.4772     0.0496     0.3281     0.1255     3.9868     5.2121
  225.5000   -54.9512     5.8793    10.3175   115.4290     2.4808     0.0518     0.3279     0.1306     3.9871     5.1922
  226.0000   -54.8687     5.8975    10.2959   116.3495     2.4605     0.0400     0.3257     0.1331     3.9867     5.1758
  226.5000   -54.7861     5.7605    10.2781   117.2711     2.4518     0.0345     0.3280     0.1231     3.9867     5.1677
  227.0000   -54.7040     5.6461    10.2785   118.1901     2.4711     0.0532     0.3305     0.1327     3.9887     5.1607
  227.5000   -54.6211     5.5339    10.2805   119.1098     2.4596     0.0536     0.3313     0.1311     3.9621     5.1538
  228.0000   -54.5387     5.4240    10.2829   119.0306     2.4495     0.0388     0.3277     0.1374     3.8871     5.1469
  228.5000   -54.4583     5.3162    10.2854   117.8393     2.4613     0.0448     0.3387     0.1451     3.8135     5.1399
  229.0000   -54.3701     5.2106    10.2878   116.6535     2.4361     0.0219     0.3460     0.1443     3.7413     5.1330
  229.5000   -54.2972     4.7222    10.2902   115.4648     2.4350     0.0240     0.3489     0.1498     3.6705     5.1263
  230.0000   -54.2165     3.8416    10.2927   114.2773     2.4275     0.0028     0.3453     0.1410     3.5881     5.1191
  230.5000   -54.4892     3.9258    10.2951   113.0898     2.4348     0.0217     0.3390     0.1423     3.4919     5.1129
