~VERSION INFORMATION
 VERS.                2.0:   CWLS LOG ASCII STANDARD - VERSION 2.0
 WRAP.                 NO:   ONE LINE PER DEPTH STEP
~WELL INFORMATION
#MNEM.UNIT      DATA TYPE    INFORMATION
#----------   ------------   ------------------------------
 STRT.F           25.0000:   START DEPTH
 STOP.F          867.0000:   STOP DEPTH
 STEP.F            0.5000:   STEP LENGTH
 NULL.          -999.2500:   NO VALUE
 COMP. LAWRENCE/ALLISON INC:   COMPANY
 WELL.    38-11 SX #35-35:   WELL
 FLD .             TEAPOT:   FIELD
 LOC .      S35 T39N R78W:   LOCATION
 CNTY.            NATRONA:   COUNTY
 STAT.            WYOMING:   STATE
 CTRY. UNITED STATES OF AMERICA:   COUNTRY
 SRVC.      Dresser Atlas:   SERVICE COMPANY
 DATE.        07-AUG-1985:   LOGDATE
 API .       490251104100:   API NUMBER
~CURVE INFORMATION
#MNEM.UNIT       API CODE    CURVE DESCRIPTION
#----------   ------------   ------------------------------
 DEPT.F                  :   
 SPR .MV     07 010 01 00:   SPONTANEOUS POTENTIAL
 RILD.OHMM   07 120 46 00:   INDUCTION LOG DEEP RESISTIVITY
 RILM.OHMM   07 120 44 00:   INDUCTION LOG MEDIUM RESISTIVITY
 RFOC.OHMM   07 220 04 00:   RESISTIVITY FOCUSED LOG
 PORD.DEC    45 890 12 00:   POROSITY DENSITY SANDSTONE
 CNC .DEC    42 890 03 00:   NEUTRON POROSITY SANDSTONE
 GRD .GAPI   45 310 01 00:   GAMMA RAY FROM DENSITY LOG
 CALD.IN     45 280 60 00:   CALIPER FROM DENSITY LOG
 CORR.G/C3   45 356 01 00:   DENSITY CORRECTION
 DEN .G/C3   45 350 01 00:   COMPENSATED BULK DENSTIY
~PARAMETER INFORMATION
#MNEM.UNIT          VALUE    DESCRIPTION
#----------   ------------   ------------------------------
 PD  .                 GL:   PERMANENT DATUM
 EPD .F              5110:   ELEVATION PERMANENT DATUM
 LMF .                 GL:   LOG MEASURED FROM
 DMF .                 GL:   DRILLING MEASURED FROM
 EGL .F              5110:   GROUND LEVEL
 DATE.             8-7-85:   RUN DATE
 RUN .                  1:   RUN NUMBER
 DD  .F               900:   DEPTH DRILLER
 DL  .F               869:   DEPTH LOGGER
 BLI .F               867:   BOTTOM LOG INTERVAL
 TLI .F                40:   TOP LOG INTERVAL
 CS  .IN            8.625:   CASING SIZE
 CBD .F                40:   CASING BOTTOM DRILLER
 CBL .F                40:   CASING BOTTOM LOGGER
 BS  .IN            7.875:   BIT SIZE
 BSD .F               900:   BIT SIZE AT DEPTH
 DFT .             4% KCL:   DRILLING FLUID TYPE
 MSS .           FLOWLINE:   MUD SAMPLE SOURCE
 RMS .OHMM           .222:   RESISTIVITY MUD SAMPLE
 MST .F                71:   MUD SAMPLE TEMPERATURE
 TCS .HRS               2:   TIME CURCULATED STOPPED
 MRT .F               100:   MAXIMUM RECORDED TEMPERATURE
 LUN .               6264:   LOGGING UNIT NUMBER
 LUL .               GLTE:   LOGGING UNIT LOCATION
 ENGI.           FAHLSING:   RECORDING ENGINEER
 WITN.              FIVAS:   WITNESSED BY
 CLNT.            A2DTECH:   CLIENT CODE
 ORIG.       2", 5" PRINT:   ORIGIN OF DATA
 UWI .       490251104100:   UNIQUE WELL ID
 DICO. A2D Technologies, Inc.:   DIGITIZING COMPANY
~OTHER INFORMATION
~A   DEPT      SPR       RILD       RILM       RFOC       PORD          CNC      GRD       CALD       CORR        DEN   
# ...
  192.5000   -84.4438     5.2379     5.2741     5.3976     0.1493     0.3176    97.0684     8.0733     0.0707     2.4285
  193.0000   -84.5986     5.1299     5.0596     5.5865     0.1505     0.3170    90.7950     8.0740     0.0963     2.4316
  193.5000   -84.9039     4.9896     4.9212     5.3590     0.1552     0.3104    88.8424     8.0748     0.1023     2.4286
  194.0000   -85.3595     4.8197     4.7801     5.1055     0.1531     0.3080    88.2640     8.0739     0.1057     2.4175
  194.5000   -85.9655     4.5603     4.4562     5.0002     0.1501     0.3176    91.7151     8.0611     0.0710     2.4265
  195.0000   -86.5714     4.1685     4.1020     4.9651     0.1615     0.3332    92.5289     8.0621     0.0442     2.4273
  195.5000   -87.3328     3.8632     3.8367     4.8963     0.1711     0.3616    90.4505     8.0175     0.0338     2.4176
  196.0000   -87.7935     3.7052     3.7317     4.7623     0.1651     0.3844    91.3781     7.9427     0.0518     2.3855
  196.5000   -88.1038     3.6549     3.7832     4.4134     0.1414     0.3697    95.0166     7.8375     0.1453     2.4327
  197.0000   -88.2637     3.6265     3.9153     3.7132     0.1279     0.3356    96.8479     7.9895     0.2990     2.4619
  197.5000   -88.3985     3.5790     4.0802     3.3940     0.1420     0.3155    91.4502     8.1262     0.3709     2.4537
  198.0000   -88.2524     3.5785     4.1365     3.6111     0.1312     0.3152    78.5224     8.2327     0.3515     2.4328
  198.5000   -87.9573     3.6027     4.1074     4.9262     0.0949     0.3132    68.6067     8.3392     0.2139     2.5197
  199.0000   -87.6610     3.6777     4.1068     5.6160     0.0851     0.2904    74.6548     8.3551     0.1421     2.5339
  199.5000   -87.2143     3.8857     4.2504     5.4247     0.0886     0.2949    82.2089     8.3709     0.1361     2.5295
  200.0000   -87.0673     4.0673     4.3388     4.9242     0.1001     0.3048    87.3133     8.3729     0.1330     2.5063
  200.5000   -86.7721     4.2792     4.3387     4.7875     0.1230     0.3206    91.5889     8.3814     0.1228     2.4882
  201.0000   -86.4759     4.3387     4.3687     4.7185     0.1296     0.3198    91.9111     8.3886     0.1153     2.4713
  201.5000   -86.1796     4.3990     4.3687     4.7550     0.1341     0.3140    93.1368     8.3593     0.1033     2.4646
  202.0000   -86.4601     4.4294     4.3990     4.8875     0.1395     0.3221    93.7549     8.3450     0.0763     2.4587
  202.5000   -86.3008     4.4601     4.4790     4.9548     0.1514     0.3272    89.8654     8.3308     0.0569     2.4453
  203.0000   -86.1564     4.6166     4.6187     4.9541     0.1598     0.3119    88.3795     8.3166     0.0584     2.4191
  203.5000   -86.0042     4.9124     4.9992     4.9534     0.1556     0.3068    90.5097     8.3181     0.0629     2.4147
  204.0000   -85.8524     5.5237     5.9592     4.9528     0.1548     0.3056    92.9403     8.3335     0.0689     2.4223
  204.5000   -85.7005     5.8371     6.0420     4.9180     0.1571     0.3203    95.3708     8.3344     0.0704     2.4237
  205.0000   -85.6990     5.0848     5.1200     4.8165     0.1580     0.3316    95.3917     8.3202     0.0584     2.4126
  205.5000   -85.6976     4.3687     4.6166     4.7498     0.1589     0.3439    94.5090     8.3213     0.0539     2.4149
  206.0000   -85.8468     3.8585     4.2792     4.7821     0.1616     0.3804    94.2288     8.3222     0.0524     2.4164
  206.5000   -86.4465     3.7795     4.0495     4.7814     0.1661     0.3978    93.9485     8.3231     0.0571     2.4097
  207.0000   -87.1969     3.7258     3.7277     4.7479     0.1693     0.4032    93.3412     8.3240     0.0539     2.4008
  207.5000   -87.9473     3.5269     3.2473     4.6806     0.1711     0.3902    89.1013     8.3249     0.0509     2.3986
  208.0000   -88.5473     2.9687     2.9079     4.5818     0.1833     0.3846    87.3848     8.3258     0.0689     2.3852
  208.5000   -88.6962     2.7328     2.7708     3.7789     0.2184     0.4181    97.2223     8.3267     0.0823     2.3538
  209.0000   -88.6947     2.8483     2.6768     3.0927     0.2426     0.4196   102.7933     8.3276     0.0763     2.3135
  209.5000   -88.7118     2.9892     2.6584     2.8074     0.2306     0.4046    97.9950     8.3285     0.0719     2.2724
  210.0000   -88.6914     2.9483     2.7708     3.2995     0.2004     0.3965    92.2930     8.3294     0.0749     2.3046
  210.5000   -88.5396     2.8879     3.3643     3.4527     0.1689     0.3884    88.3983     8.3303     0.0808     2.3585
  211.0000   -88.0870     3.0308     3.5586     4.1883     0.1584     0.3812    86.0095     8.3312     0.1018     2.3892
  211.5000   -87.7848     3.3612     3.8320     4.6447     0.1572     0.3731    88.4401     8.3320     0.1138     2.4131
  212.0000   -87.4825     3.7795     4.0495     4.7743     0.1647     0.3651    94.4851     8.3480     0.0983     2.4154
  212.5000   -87.6318     3.9940     4.2792     4.4550     0.1668     0.3623    96.6145     8.3489     0.0689     2.4011
  213.0000   -87.6300     4.1916     4.3990     4.3331     0.1608     0.3614    93.3222     8.3347     0.0719     2.4026
  213.5000   -87.3277     4.2792     4.3687     4.3325     0.1541     0.3531    90.0298     8.3356     0.0988     2.4178
  214.0000   -86.7247     4.3089     4.3387     4.5151     0.1491     0.3435    88.8407     8.3214     0.1362     2.4276
  214.5000   -86.1218     4.2792     4.3089     4.7380     0.1514     0.3426    90.6741     8.3527     0.1467     2.4314
  215.0000   -85.8195     4.2792     4.2792     4.8034     0.1637     0.3461    89.4902     8.3687     0.1003     2.4180
  215.5000   -85.8181     4.2206     4.2498     4.5760     0.1775     0.3482    86.1979     8.3998     0.0599     2.4001
  216.0000   -86.2857     4.1628     4.2206     4.4508     0.1763     0.3557    83.8092     8.4007     0.0284     2.3754
  216.5000   -87.1681     4.0775     4.1341     4.3289     0.1733     0.3632    85.0349     8.3563     0.0464     2.3867
  217.0000   -87.3174     3.9665     4.0216     4.2690     0.1726     0.3718    90.4775     8.3419     0.0539     2.3920
  217.5000   -87.4663     3.8057     3.8320     4.2099     0.1771     0.3811    94.7153     8.3430     0.0524     2.3868
  218.0000   -87.9156     3.5766     3.6480     4.1229     0.1849     0.3949    95.9411     8.3439     0.0524     2.3763
  218.5000   -88.0648     3.3381     3.3260     4.0658     0.1951     0.4030    94.7520     8.3448     0.0494     2.3637
  219.0000   -88.3641     3.0308     2.9687     4.0095     0.2058     0.4191    92.6697     8.3457     0.0525     2.3473
  219.5000   -88.5130     2.8680     2.8287     3.8997     0.2142     0.4474    88.7749     8.3466     0.0603     2.3249
  220.0000   -88.6619     2.7900     2.7517     3.4914     0.2199     0.4345    83.9759     8.3475     0.0689     2.3144
  220.5000   -88.2090     2.7900     2.7517     3.0830     0.2256     0.4020    88.5156     8.3484     0.0778     2.3033
  221.0000   -87.4556     2.8287     2.7900     2.8968     0.2220     0.4059    90.9462     8.3493     0.0883     2.2951
  221.5000   -87.0030     2.9280     2.8680     2.8568     0.2116     0.4092    87.6538     8.3502     0.0943     2.3280
  222.0000   -86.7008     3.0942     3.0729     3.2121     0.1876     0.3867    86.4657     8.3511     0.0853     2.3686
  222.5000   -86.3809     3.2697     3.5033     3.9507     0.1642     0.3571    90.7231     8.3519     0.0838     2.4059
  223.0000   -85.9456     3.5520     4.0216     4.5666     0.1566     0.3313    94.0703     8.3528     0.0928     2.4149
  223.5000   -85.7937     3.8585     4.3387     4.9603     0.1560     0.3235    92.4880     8.3538     0.0973     2.4172
  224.0000   -85.7922     4.2498     4.5849     4.9579     0.1521     0.3269    87.3296     8.3549     0.0928     2.4218
  224.5000   -85.6404     4.5221     4.7458     4.7250     0.1506     0.3426    89.0674     8.3558     0.0778     2.4263
  225.0000   -85.4885     4.7132     4.8786     4.8233     0.1512     0.3487    92.6707     8.3566     0.0629     2.4278
  225.5000   -85.1863     4.9124     4.9806     4.9234     0.1569     0.3436    95.9590     8.3575     0.0419     2.4204
