~VERSION INFORMATION
 VERS.                2.0:   CWLS LOG ASCII STANDARD - VERSION 2.0
 WRAP.                 NO:   ONE LINE PER DEPTH STEP
~WELL INFORMATION
#MNEM.UNIT      DATA TYPE    INFORMATION
#----------   ------------   ------------------------------
 STRT.F           29.0000:   START DEPTH
 STOP.F          720.0000:   STOP DEPTH
 STEP.F            0.5000:   STEP LENGTH
 NULL.          -999.2500:   NO VALUE
 COMP.    FENIX & SCISSON:   COMPANY
 WELL. RES 3 TEAPOT DOM #21-S-14:   WELL
 FLD .        TEAPOT DOME:   FIELD
 LOC .      S14 T38N R78W:   LOCATION
 CNTY.            NATRONA:   COUNTY
 STAT.            WYOMING:   STATE
 CTRY. UNITED STATES OF AMERICA:   COUNTRY
 SRVC.            Unknown:   SERVICE COMPANY
 DATE.        25-MAY-1978:   LOGDATE
 API .       490251063300:   API NUMBER
~CURVE INFORMATION
#MNEM.UNIT       API CODE    CURVE DESCRIPTION
#----------   ------------   ------------------------------
 DEPT.F                  :   
 CALD.IN     45 280 60 00:   CALIPER FROM DENSITY LOG
 CORR.G/C3   45 356 01 00:   DENSITY CORRECTION
 DPHI.DEC    45 890 12 00:   DENSITY POROSITY SANDSTONE
 GRD .GAPI   45 310 01 00:   GAMMA RAY FROM DENSITY LOG
 RHOB.G/C3   45 350 01 00:   BULK DENSITY
 ILD .OHMM   05 120 46 00:   INDUCTION LOG DEEP
 SN  .OHMM   05 040 16 00:   SHORT NORMAL 16"
 SPR .MV     05 010 01 00:   SPONTANEOUS POTENTIAL FROM RES.
~PARAMETER INFORMATION
#MNEM.UNIT          VALUE    DESCRIPTION
#----------   ------------   ------------------------------
 PD  .                 GL:   PERMANENT DATUM
 EPD .F              5232:   ELEVATION PERMANENT DATUM
 LMF .                 KB:   LOG MEASURED FROM
 DAPD.F                 4:   FEET ABOVE PERMANENT DATUM
 DMF .                 KB:   DRILLING MEASURED FROM
 EKB .F              5236:   KELLING BUSHING
 EGL .F              5232:   GROUND LEVEL
 DATE.        25-MAY-1978:   RUN DATE
 RUN .                  1:   RUN NUMBER
 DD  .F               716:   DEPTH DRILLER
 DL  .F               727:   DEPTH LOGGER
 BLI .F               720:   BOTTOM LOG INTERVAL
 TLI .F                44:   TOP LOG INTERVAL
 CS  .IN            8.625:   CASING SIZE
 CBD .F                40:   CASING BOTTOM DRILLER
 CBL .F                44:   CASING BOTTOM LOGGER
 BS  .IN            7.875:   BIT SIZE
 BSD .F               716:   BIT SIZE AT DEPTH
 DFT .                KCL:   DRILLING FLUID TYPE
 DFD .                8.6:   DRILLING FLUID DENSITY
 DFV .                 31:   DRILLING FLUID VISCOSITY
 DFPH.                9.5:   DRILLING FLUID PH
 DFL .               10.8:   DRILLING FLUID LOSS
 MSS .            MUD PIT:   MUD SAMPLE SOURCE
 RMS .OHMM           0.32:   RESISTIVITY MUD SAMPLE
 MST .F                82:   MUD SAMPLE TEMPERATURE
 RMF .OHMM           0.34:   RESISTIVITY MUD FILTRATE SAMPLE
 MFST.F                72:   MUD FILTRATE SAMPLE TEMPERATURE
 RMC .OHMM            0.8:   RESISTIVITY MUD CAKE
 MCST.F                72:   MUD CAKE SAMPLE TEMPERATURE
 MFSS.               MEAS:   MUD FILTRATE SAMPLE SOURCE
 RMB .OHMM           0.35:   RESISTIVITY MUD AT BHT
 BHT .F                74:   BOTTOM HOLE TEMPERATURE
 TCS .HRS               1:   TIME CURCULATED STOPPED
 MRT .F                74:   MAXIMUM RECORDED TEMPERATURE
 LUN .               2958:   LOGGING UNIT NUMBER
 LUL .               CASP:   LOGGING UNIT LOCATION
 ENGI.             MILLER:   RECORDING ENGINEER
 WITN.           MCGINLEY:   WITNESSED BY
 CLNT.            A2DTECH:   CLIENT CODE
 ORIG.           5" PRINT:   ORIGIN OF DATA
 UWI .       490251063300:   UNIQUE WELL ID
 DICO. A2D Technologies, Inc.:   DIGITIZING COMPANY
~OTHER INFORMATION
~A   DEPT     CALD       CORR       DPHI         GRD      RHOB        ILD         SN        SPR   
# ...
  677.0000     7.3679     0.0240     0.1223    67.8227     2.4626     9.7582     9.2869   -25.1002
  677.5000     7.3693     0.0242     0.1201    65.5983     2.4582     9.6989     9.2963   -25.2404
  678.0000     7.3857     0.0244     0.1288    64.2693     2.4538     9.6399     9.3037   -25.2259
  678.5000     7.4021     0.0246     0.1291    63.9851     2.4524     9.5813     9.3112   -25.2143
  679.0000     7.4335     0.0248     0.1305    65.2358     2.4525     9.4595     9.2527   -25.3516
  679.5000     7.4651     0.0234     0.1326    66.5547     2.4526     9.3374     9.1963   -25.4889
  680.0000     7.4965     0.0221     0.1286    67.3153     2.4527     9.2787     9.1422   -25.7721
  680.5000     7.5278     0.0239     0.1289    68.8222     2.4528     9.1589     9.0829   -25.7605
  681.0000     7.5442     0.0255     0.1268    72.7172     2.4543     8.9803     8.9691   -25.9007
  681.5000     7.5456     0.0287     0.1249    73.0429     2.4589     8.7995     8.8549   -25.8862
  682.0000     7.5321     0.0185     0.1240    72.7458     2.4725     8.6317     8.7404   -26.0238
  682.5000     7.5339     0.0187     0.1288    73.0623     2.4665     8.4616     8.6273   -26.3120
  683.0000     7.5353     0.0233     0.1296    74.8677     2.4592     8.3524     8.3989   -26.4468
  683.5000     7.5368     0.0265     0.1270    74.2850     2.4555     8.2429     8.2332   -26.4324
  684.0000     7.5382     0.0327     0.1170    71.6128     2.4646     8.1381     8.1267   -26.4208
  684.5000     7.5247     0.0329     0.1176    70.4328     2.4714     8.0330     8.0177   -26.4093
  685.0000     7.4484     0.0271     0.1202    71.7162     2.4723     7.8747     7.8634   -26.3978
  685.5000     7.3037     0.0183     0.1262    74.6444     2.4693     7.7057     7.7098   -26.5379
  686.0000     7.2749     0.0125     0.1348    74.8080     2.4582     7.4140     7.5562   -26.8214
  686.5000     7.3066     0.0142     0.1359    75.2701     2.4501     7.1684     7.2567   -26.9583
  687.0000     7.5472     0.0174     0.1368    75.4337     2.4449     6.9308     6.9676   -26.9464
  687.5000     7.6084     0.0296     0.1344    75.8958     2.4465     6.5639     6.5982   -27.0841
  688.0000     7.6099     0.0388     0.1346    76.5313     2.4474     6.1737     6.2484   -27.2184
  688.5000     7.6116     0.0435     0.1340    77.7191     2.4482     5.8067     5.8256   -27.3586
  689.0000     7.5978     0.0496     0.1253    81.9126     2.4483     5.4166     5.2666   -27.3441
  689.5000     7.4501     0.0648     0.1058    86.4045     2.4506     5.1368     5.0220   -27.0350
  690.0000     7.4362     0.0740     0.0989    88.5084     2.4949     5.0704     5.0960   -26.4282
  690.5000     7.4530     0.0711     0.0968    84.0452     2.5069     5.1460     5.2430   -26.1190
  691.0000     7.4544     0.0609     0.0971    75.7702     2.5033     5.2217     5.3943   -25.9583
  691.5000     7.5010     0.0446     0.1033    67.8088     2.5003     5.8358     5.7848   -25.7954
  692.0000     7.5623     0.0343     0.1039    67.2261     2.4989     6.5221     6.5562   -25.7839
  692.5000     7.5936     0.0300     0.1026    67.3897     2.4983     7.2391     7.3388   -25.7723
  693.0000     7.5950     0.0302     0.1026    68.5980     2.4976     7.7235     7.8065   -25.7608
  693.5000     7.5965     0.0319     0.1029    68.9109     2.4970     8.0428     8.0874   -25.7492
  694.0000     7.5680     0.0306     0.1034    69.0806     2.4971     8.2176     8.3207   -25.8869
  694.5000     7.5698     0.0278     0.1037    69.6894     2.4971     8.3962     8.5018   -25.5773
  695.0000     7.5413     0.0235     0.1042    71.3456     2.4957     8.5197     8.5676   -25.2530
  695.5000     7.5125     0.0192     0.1060    77.1808     2.4921     8.6450     8.6938   -24.9561
  696.0000     7.4841     0.0194     0.1101    83.0160     2.4899     8.7118     8.8219   -24.7957
  696.5000     7.4410     0.0151     0.1116    82.5826     2.4878     8.8400     8.9521   -24.6354
  697.0000     7.3973     0.0108     0.1116    82.7463     2.4856     9.0338     9.0855   -24.6238
  697.5000     7.3247     0.0065     0.1118    83.2119     2.4835     9.1667     9.0928   -24.6123
  698.0000     7.3410     0.0037     0.1130    83.6740     2.4798     9.2375     9.2268   -24.6007
  698.5000     7.3724     0.0024     0.1165    83.3898     2.4739     9.3089     9.3627   -24.4404
  699.0000     7.3738     0.0011     0.1228    81.6131     2.4710     9.4458     9.5006   -24.4286
  699.5000     7.3603    -0.0002     0.1189    79.8364     2.4704     9.6511     9.7074   -24.4144
  700.0000     7.3767     0.0030     0.1180    78.2090     2.4735     9.8608     9.8504   -24.4048
  700.5000     7.3875    -0.0013     0.1116    77.7274     2.4741    10.0847    10.0650   -24.3936
  701.0000     7.3948    -0.0071     0.1152    78.2413     2.4797    10.2253    10.1448   -24.3825
  701.5000     7.4261    -0.0085     0.1145    80.1959     2.4821    10.3044    10.2233   -24.3695
  702.0000     7.4873    -0.0022     0.1079    80.6580     2.4807    10.4559    10.3739   -24.5102
  702.5000     7.5641     0.0309     0.1048    76.4933     2.4905    10.4643    10.3822   -24.4966
  703.0000     7.5803     0.0236     0.1105    74.5673     2.4974    10.4727    10.4626   -24.4858
  703.5000     7.4920     0.0178     0.1185    72.0810     2.4930    10.4811    10.4710   -24.4750
  704.0000     7.4337     0.0180     0.1197    70.1184     2.4722    10.4896    10.4795   -24.4641
  704.5000     7.4351     0.0182     0.1200    70.1364     2.4686    10.5000    10.4882   -24.4531
  705.0000     7.4366     0.0183     0.1190    70.1507     2.4679    10.5070    10.4240   -24.2932
  705.5000     7.4380     0.0155     0.1175    70.1651     2.4711    10.5168    10.4345   -24.2801
  706.0000     7.4394     0.0082     0.1273    69.7317     2.4690    10.5253    10.4429   -24.2692
  706.5000     7.4259     0.0100     0.1231    68.1043     2.4638    10.4592    10.4513   -24.2584
  707.0000     7.4278     0.0161     0.1198    68.5700     2.4662    10.3974    10.4597   -24.2475
  707.5000     7.4292     0.0223     0.1179    69.3306     2.4731    10.4060    10.4681   -24.2367
  708.0000     7.4306     0.0285     0.1128    70.3897     2.4762    10.3428    10.4766   -24.0770
  708.5000     7.4321     0.0316     0.1095    71.4489     2.4793    10.3531    10.4853   -24.2150
  709.0000     7.4335     0.0378     0.1062    71.3140     2.4817    10.2881    10.4955   -24.2039
  709.5000     7.4350     0.0425     0.1040    70.4304     2.4886    10.2984    10.4295   -24.1906
  710.0000     7.4514     0.0379     0.1019    67.7857     2.4991    10.2338    10.4400   -24.3313
  710.5000     7.4831     0.0264     0.1087    70.0173     2.4910    10.1716    10.4484   -24.3177
  711.0000     7.5144     0.0176     0.1132    73.6138     2.4867    10.1817    10.4568   -24.3069
  711.5000     7.5457     0.0178     0.1146    70.3446     2.4845    10.1900    10.3930   -24.2960
  712.0000     7.5023     0.0210     0.1083    69.9112     2.4832    10.1280    10.3299   -24.2852
  712.5000     7.4141     0.0241     0.1059    69.7761     2.4825    10.1381    10.2670   -24.2743
  713.0000     7.3705     0.0213     0.1040    65.5422     2.4864    10.0745    10.1363   -24.2634
  713.5000     7.3572     0.0185     0.1046    66.6742     2.4880    10.0846    10.1444   -24.2522
  714.0000     7.3291     0.0187     0.1067    67.2856     2.4851    10.0670    10.0806   -24.3906
  714.5000     7.3152     0.0159     0.1093    67.4492     2.4898    10.0156    10.0193   -24.3770
  715.0000     7.3017     0.0146     0.1117    67.9113     2.4884     9.9642     9.9603   -24.3662
  715.5000     7.3035     0.0133     0.1131    68.0750     2.4870     9.9103     9.8995   -24.3554
  716.0000     7.3498     0.0180     0.1116    68.4880     2.4864     9.9183     9.8394   -24.3445
  716.5000     7.4261     0.0227     0.1059    74.6744     2.4866     9.8580     9.7141   -24.3337
  717.0000     7.4895     0.0275     0.1064    73.3455     2.4904     9.8679     9.5866   -24.3228
