~VERSION INFORMATION
 VERS.                2.0:   CWLS LOG ASCII STANDARD - VERSION 2.0
 WRAP.                 NO:   ONE LINE PER DEPTH STEP
~WELL INFORMATION
#MNEM.UNIT      DATA TYPE    INFORMATION
#----------   ------------   ------------------------------
 STRT.F            8.5000:   START DEPTH
 STOP.F          642.0000:   STOP DEPTH
 STEP.F            0.5000:   STEP LENGTH
 NULL.          -999.2500:   NO VALUE
 COMP. FENIX & SCISSON INC:   COMPANY
 WELL. 26-36 S11 W1 #26-36 SX11:   WELL
 FLD .             TEAPOT:   FIELD
 LOC .      S11 T38N R78W:   LOCATION
 CNTY.            NATRONA:   COUNTY
 STAT.            WYOMING:   STATE
 CTRY. UNITED STATES OF AMERICA:   COUNTRY
 SRVC.      Dresser Atlas:   SERVICE COMPANY
 DATE.        16-JUL-1980:   LOGDATE
 API .       490251083500:   API NUMBER
~CURVE INFORMATION
#MNEM.UNIT       API CODE    CURVE DESCRIPTION
#----------   ------------   ------------------------------
 DEPT.F                  :   
 NPHI.DEC    42 890 03 00:   NEUTRON POROSITY SANDSTONE
 RHOB.G/C3   45 350 01 00:   BULK DENSITY
 CORR.G/C3   45 356 01 00:   DENSITY CORRECTION
 GRD .GAPI   45 310 01 00:   GAMMA RAY FROM DENSITY LOG
 CALD.IN     45 280 60 00:   CALIPER
 SPR .MV     07 010 01 00:   SPONTANEOUS POTENTIAL
 SFL .OHMM   07 220 01 00:   SHALLOW FOCUSED LOG RESISTIVITY
 ILD .OHMM   07 120 46 00:   INDUCTION LOG DEEP
 ILM .OHMM   07 120 44 00:   INDUCTION LOG MEDIUM
 DPHI.DEC    45 890 12 00:   DENSITY POROSITY SANDSTONE
~PARAMETER INFORMATION
#MNEM.UNIT          VALUE    DESCRIPTION
#----------   ------------   ------------------------------
 PD  .                 GL:   PERMANENT DATUM
 EPD .F              5184:   ELEVATION PERMANENT DATUM
 LMF .                 KB:   LOG MEASURED FROM
 DAPD.F                 5:   FEET ABOVE PERMANENT DATUM
 DMF .                 KB:   DRILLING MEASURED FROM
 EKB .F              5189:   KELLING BUSHING
 EGL .F              5184:   GROUND LEVEL
 DATE.            7-16-80:   RUN DATE
 RUN .                  1:   RUN NUMBER
 DD  .F               630:   DEPTH DRILLER
 DL  .F               637:   DEPTH LOGGER
 BLI .F               635:   BOTTOM LOG INTERVAL
 TLI .F                 8:   TOP LOG INTERVAL
 BS  .IN            7.875:   BIT SIZE
 BSD .F               630:   BIT SIZE AT DEPTH
 DFT .           CHEM GEL:   DRILLING FLUID TYPE
 DFD .                9.2:   DRILLING FLUID DENSITY
 DFV .                 65:   DRILLING FLUID VISCOSITY
 DFPH.                 10:   DRILLING FLUID PH
 DFL .                  8:   DRILLING FLUID LOSS
 MSS .           FLOWLINE:   MUD SAMPLE SOURCE
 RMS .OHMM            .61:   RESISTIVITY MUD SAMPLE
 MST .F                60:   MUD SAMPLE TEMPERATURE
 RMC .OHMM            .62:   RESISTIVITY MUD CAKE
 MCST.F                58:   MUD CAKE SAMPLE TEMPERATURE
 MFSS.               MEAS:   MUD FILTRATE SAMPLE SOURCE
 MCSS.               MEAS:   MUD CAKE SAMPLE SOURCE
 RMB .OHMM            .41:   RESISTIVITY MUD AT BHT
 BHT .F                90:   BOTTOM HOLE TEMPERATURE
 TCS .HRS               5:   TIME CURCULATED STOPPED
 MRT .F                90:   MAXIMUM RECORDED TEMPERATURE
 LUN .               6109:   LOGGING UNIT NUMBER
 LUL .              GLTTE:   LOGGING UNIT LOCATION
 ENGI.            GARONER:   RECORDING ENGINEER
 WITN.              AMEND:   WITNESSED BY
 CLNT.            A2DTECH:   CLIENT CODE
 ORIG.           5" PRINT:   ORIGIN OF DATA
 UWI .       490251083500:   UNIQUE WELL ID
 DICO. A2D Technologies, Inc.:   DIGITIZING COMPANY
~OTHER INFORMATION
~A    DEPT    NPHI       RHOB       CORR        GRD       CALD        SPR        SFL          ILD      ILM       DPHI   
# ...
   75.5000     0.2599     2.3920     0.0302    70.2743     7.8501   -30.3303    14.9934    13.0862    13.2062     0.1678
   76.0000     0.2647     2.3876     0.0388    70.8266     7.8570   -30.3238    14.3463    12.8885    13.1457     0.1650
   76.5000     0.2695     2.3940     0.0429    71.4598     7.8640   -30.3228    14.7144    12.6938    13.0816     0.1817
   77.0000     0.2743     2.3993     0.0497    70.8885     7.8712   -30.4668    15.1631    12.5021    12.9144     0.1791
   77.5000     0.2791     2.3905     0.0450    70.2461     7.8782   -30.6190    14.7588    12.3132    12.7378     0.1746
   78.0000     0.2801     2.3819     0.0352    69.6748     7.8852   -30.7762    14.2596    12.1275    12.5637     0.1807
   78.5000     0.2776     2.3812     0.0319    70.1499     7.8889   -30.9307    13.8264    11.9444    12.3920     0.1885
   79.0000     0.2751     2.3868     0.0318    70.7587     7.8852   -31.0856    14.3146    11.7640    12.2226     0.1934
   79.5000     0.2731     2.3700     0.0315    71.3174     7.8816   -31.2425    15.0211    11.5864    12.0555     0.1854
   80.0000     0.2723     2.3586     0.0243    71.2915     7.8780   -31.3925    14.6677    11.4115    11.8907     0.1814
   80.5000     0.2742     2.3667     0.0199    71.9267     7.8744   -31.5532    14.0743    11.2858    11.7102     0.1752
   81.0000     0.2774     2.3787     0.0192    72.7980     7.8708   -31.7116    13.5736    11.2858    11.7102     0.1726
   81.5000     0.2807     2.3846     0.0164    72.5146     7.8672   -31.8306    13.6950    11.2858    11.7102     0.1692
   82.0000     0.2803     2.3907     0.0126    72.0849     7.8636   -32.3062    13.8609    11.2858    11.7102     0.1612
   82.5000     0.2734     2.3934     0.0087    72.6276     7.8600   -33.0397    14.0326    10.8467    11.4091     0.1533
   83.0000     0.2665     2.4051     0.0106    73.4108     7.8564   -33.7403    14.2006    10.3366    10.7541     0.1451
   83.5000     0.2607     2.4176     0.0179    74.2039     7.8528   -34.4453    14.3498     9.8504    10.1367     0.1506
   84.0000     0.2690     2.4297     0.0251    74.9947     7.8499   -35.1175    14.3449     9.1409     9.5548     0.1446
   84.5000     0.2838     2.4356     0.0300    75.8560     7.8481   -35.8980    14.3524     8.4111     9.0063     0.1389
   85.0000     0.2989     2.4294     0.0266    76.7585     7.8462   -35.8702    11.6215     7.7395     8.4892     0.1369
   85.5000     0.3001     2.4398     0.0223    77.9006     7.8444   -35.7415     9.7889     7.1216     8.0019     0.1379
   86.0000     0.3092     2.4489     0.0179    79.4606     7.8425   -35.5758     7.9475     6.7371     7.5425     0.1356
   86.5000     0.3110     2.4488     0.0136    80.0686     7.8406   -35.6694     8.5754     6.5257     7.1143     0.1333
   87.0000     0.3068     2.4503     0.0092    79.2296     7.8387   -35.8374     9.9179     6.3210     6.9431     0.1282
   87.5000     0.2998     2.4553     0.0060    78.3062     7.8369   -36.0027     9.5145     6.1413     6.7778     0.1243
   88.0000     0.2997     2.4614     0.0063    78.6234     7.8350   -36.1681     9.3837     6.0202     6.6080     0.1205
   88.5000     0.3066     2.4688     0.0126    80.2135     7.8331   -36.3322     9.6733     6.0292     6.6080     0.1160
   89.0000     0.3116     2.4730     0.0189    81.8283     7.8313   -36.4978     9.5015     6.0211     6.4871     0.1290
   89.5000     0.3165     2.4857     0.0250    82.6058     7.8340   -36.6712     9.2147     6.0224     6.4871     0.1297
   90.0000     0.3215     2.4765     0.0246    83.3550     7.8477   -36.7546     8.9365     6.0254     6.4871     0.1275
   90.5000     0.3257     2.4627     0.0186    84.1088     7.8612   -36.7468     8.6711     6.0625     6.4871     0.1364
   91.0000     0.3196     2.4661     0.0128    84.4412     7.8748   -36.7472     8.4043     6.1135     6.5099     0.1351
   91.5000     0.3122     2.4594     0.0119    84.1798     7.8883   -36.7484     8.6480     6.1649     6.5492     0.1343
   92.0000     0.3062     2.4526     0.0119    84.1010     7.8900   -36.7472     8.9557     6.2168     6.5888     0.1407
   92.5000     0.3002     2.4551     0.0120    84.1025     7.8900   -36.7473     9.2741     6.2691     6.6286     0.1339
   93.0000     0.2967     2.4562     0.0095    83.9143     7.8900   -36.7472     9.6041     6.3218     6.6686     0.1212
   93.5000     0.2988     2.4483     0.0066    83.6339     7.8900   -36.7468     9.7387     6.3750     6.7311     0.1128
   94.0000     0.2980     2.4457     0.0098    83.3481     7.8900   -36.7466     9.5907     6.4287     6.7183     0.1112
   94.5000     0.3036     2.4862     0.0198    83.3066     7.8900   -36.7467     9.4190     6.4871     6.6902     0.1072
   95.0000     0.3141     2.4908     0.0297    82.9993     7.8900   -36.7463     9.2504     6.3685     6.6623     0.1176
   95.5000     0.3238     2.4963     0.0397    82.6934     7.8899   -36.7460     9.2121     6.3527     6.6344     0.1309
   96.0000     0.3237     2.4906     0.0384    82.7009     7.8822   -36.7475     9.2385     6.3324     6.6067     0.1253
   96.5000     0.3198     2.4769     0.0291    82.6933     7.8611   -36.7457     9.3490     6.3121     6.5791     0.1143
   97.0000     0.3157     2.4648     0.0198    82.4062     7.8404   -36.8394     9.2649     6.2918     6.5516     0.1188
   97.5000     0.2994     2.4787     0.0102    82.1004     7.8194   -36.9776     9.0990     6.2717     6.5242     0.1219
   98.0000     0.2991     2.4890     0.0132    81.7955     7.8104   -37.1140     8.8782     6.2520     6.4871     0.1087
   98.5000     0.2989     2.4791     0.0196    81.4901     7.8121   -37.2496     9.0161     6.3685     6.6080     0.1002
   99.0000     0.2987     2.4899     0.0239    81.1725     7.8140   -37.3852     9.2359     6.3685     6.6080     0.0876
   99.5000     0.2984     2.4994     0.0371    81.0832     7.8158   -37.5210     9.3837     6.3685     6.6080     0.0958
  100.0000     0.2982     2.5192     0.0502    81.9763     7.8177   -37.6597     9.1721     6.3685     6.6080     0.1075
  100.5000     0.2856     2.5311     0.0611    83.2110     7.8196   -37.7890     9.0436     6.4016     6.6420     0.1148
  101.0000     0.2871     2.5062     0.0514    84.4455     7.8214   -37.9417     9.2121     6.4836     6.7264     0.1183
  101.5000     0.2878     2.4986     0.0416    85.5342     7.8233   -37.9505     9.6485     6.5667     6.8118     0.1298
  102.0000     0.2862     2.4844     0.0289    84.8742     7.8252   -37.9554    10.2909     6.6509     6.8983     0.1370
  102.5000     0.2899     2.4651     0.0160    83.7438     7.8270   -37.9511    10.0747     6.7361     6.9859     0.1294
  103.0000     0.2934     2.4493     0.0057    82.6112     7.8290   -37.9538     9.6151     6.8225     7.0747     0.1216
  103.5000     0.2963     2.4522     0.0060    81.5217     7.8358   -37.9539     9.0436     6.9099     7.1645     0.1185
  104.0000     0.2976     2.4693     0.0100    81.2378     7.8504   -37.9461     9.1889     6.9985     7.2555     0.1146
  104.5000     0.2979     2.4788     0.0189    80.9875     7.8650   -37.9646     9.7034     7.0882     7.3477     0.1087
  105.0000     0.2982     2.4859     0.0199    80.7340     7.8794   -37.9476    10.2909     7.1791     7.4410     0.1040
  105.5000     0.2985     2.4947     0.0229    80.5020     7.8900   -37.8797    10.2279     7.2720     7.5355     0.1009
  106.0000     0.2949     2.5032     0.0288    80.4940     7.8802   -37.5077    10.1092     7.3656     7.6312     0.1166
  106.5000     0.2886     2.5095     0.0331    80.6596     7.8598   -37.5694     9.9919     7.4602     7.7281     0.1091
  107.0000     0.2974     2.4896     0.0270    80.8386     7.8395   -37.4892     9.9179     7.5209     7.8263     0.1114
  107.5000     0.2961     2.4973     0.0258    81.0194     7.8302   -37.3156     9.9179     7.5184     7.9300     0.1056
  108.0000     0.3070     2.4929     0.0258    81.0987     7.8300   -37.1594    10.2346     7.5203     7.8992     0.1111
  108.5000     0.3001     2.4976     0.0258    81.1011     7.8300   -37.1500    10.6779     7.5102     7.8380     0.1207
