~VERSION INFORMATION
 VERS.                2.0:   CWLS LOG ASCII STANDARD - VERSION 2.0
 WRAP.                 NO:   ONE LINE PER DEPTH STEP
~WELL INFORMATION
#MNEM.UNIT      DATA TYPE    INFORMATION
#----------   ------------   ------------------------------
 STRT.F           28.0000:   START DEPTH
 STOP.F          693.0000:   STOP DEPTH
 STEP.F            0.5000:   STEP LENGTH
 NULL.          -999.2500:   NO VALUE
 COMP. FENIX & SCISSON INC:   COMPANY
 WELL.       NPR-3 #63-15:   WELL
 FLD .             TEAPOT:   FIELD
 LOC .      S15 T38N R78W:   LOCATION
 CNTY.            NATRONA:   COUNTY
 STAT.            WYOMING:   STATE
 CTRY. UNITED STATES OF AMERICA:   COUNTRY
 SRVC.            Unknown:   SERVICE COMPANY
 DATE.        10-JUN-1978:   LOGDATE
 API .       490251063800:   API NUMBER
~CURVE INFORMATION
#MNEM.UNIT       API CODE    CURVE DESCRIPTION
#----------   ------------   ------------------------------
 DEPT.F                  :   
 SPR .MV     05 010 01 00:   SPONTANEOUS POTENTIAL FROM RES.
 SN  .OHMM   05 040 16 00:   SHORT NORMAL 16"
 ILD .OHMM   05 120 46 00:   INDUCTION LOG DEEP
 CALD.IN     45 280 60 00:   CALIPER FROM DENSITY LOG
 GRD .GAPI   45 310 01 00:   GAMMA RAY FROM DENSITY LOG
 CORR.G/C3   45 356 01 00:   DENSITY CORRECTION
 DPHI.DEC    45 890 12 00:   DENSITY POROSITY SANDSTONE
 DEN .G/C3   45 350 01 00:   DENSITY
~PARAMETER INFORMATION
#MNEM.UNIT          VALUE    DESCRIPTION
#----------   ------------   ------------------------------
 PD  .                 GL:   PERMANENT DATUM
 EPD .F              5265:   ELEVATION PERMANENT DATUM
 LMF .                 KB:   LOG MEASURED FROM
 DAPD.F                 4:   FEET ABOVE PERMANENT DATUM
 DMF .                 KB:   DRILLING MEASURED FROM
 EKB .F              5269:   KELLING BUSHING
 EGL .F              5265:   GROUND LEVEL
 DATE.        10-JUN-1978:   RUN DATE
 RUN .                  1:   RUN NUMBER
 DD  .F               690:   DEPTH DRILLER
 DL  .F               697:   DEPTH LOGGER
 BLI .F               690:   BOTTOM LOG INTERVAL
 TLI .F                35:   TOP LOG INTERVAL
 CS  .IN            8.625:   CASING SIZE
 CBD .F                40:   CASING BOTTOM DRILLER
 CBL .F                35:   CASING BOTTOM LOGGER
 BS  .IN            7.875:   BIT SIZE
 BSD .F               690:   BIT SIZE AT DEPTH
 DFT .                KCL:   DRILLING FLUID TYPE
 DFD .                8.7:   DRILLING FLUID DENSITY
 DFV .                 34:   DRILLING FLUID VISCOSITY
 DFPH.                 10:   DRILLING FLUID PH
 DFL .               11.6:   DRILLING FLUID LOSS
 MSS .            MUD PIT:   MUD SAMPLE SOURCE
 RMS .OHMM            .32:   RESISTIVITY MUD SAMPLE
 MST .F                74:   MUD SAMPLE TEMPERATURE
 RMF .OHMM            .28:   RESISTIVITY MUD FILTRATE SAMPLE
 MFST.F                78:   MUD FILTRATE SAMPLE TEMPERATURE
 RMC .OHMM            .36:   RESISTIVITY MUD CAKE
 MCST.F                78:   MUD CAKE SAMPLE TEMPERATURE
 MFSS.               MEAS:   MUD FILTRATE SAMPLE SOURCE
 MCSS.               MEAS:   MUD CAKE SAMPLE SOURCE
 BHT .F                80:   BOTTOM HOLE TEMPERATURE
 TCS .HRS            0100:   TIME CURCULATED STOPPED
 MRT .F                80:   MAXIMUM RECORDED TEMPERATURE
 LUN .               2958:   LOGGING UNIT NUMBER
 LUL .               CASP:   LOGGING UNIT LOCATION
 ENGI.             MILLER:   RECORDING ENGINEER
 WITN.           MCGINLEY:   WITNESSED BY
 CLNT.            A2DTECH:   CLIENT CODE
 ORIG.           5" PRINT:   ORIGIN OF DATA
 UWI .       490251063800:   UNIQUE WELL ID
 DICO. A2D Technologies, Inc.:   DIGITIZING COMPANY
~OTHER INFORMATION
~A   DEPT      SPR         SN        ILD       CALD        GRD       CORR       DPHI        DEN   
# ...
  635.5000   -10.7621     9.5593     9.8569     7.7260    72.5110     0.0313     0.1178     2.4761
  636.0000   -10.7475     9.5664     9.8643     7.7278    73.1364     0.0314     0.1153     2.4769
  636.5000   -10.5831     9.5735     9.8017     7.7293    73.5866     0.0316     0.1129     2.4770
  637.0000   -10.5685     9.5806     9.7413     7.7005    73.3035     0.0317     0.1126     2.4778
  637.5000   -10.4042     9.4506     9.6813     7.6570    73.1703     0.0319     0.1122     2.4809
  638.0000   -10.9083     9.0155     9.1048     7.5986    75.8770     0.0336     0.1098     2.4839
  638.5000   -11.7222     8.9600     9.1115     7.6902    75.2961     0.0340     0.1071     2.4878
  639.0000   -11.5543     8.9683     9.1184     7.7516    76.0584     0.0369     0.1059     2.4886
  639.5000   -11.6930     8.8516     9.0622     7.8279    75.1790     0.0371     0.1077     2.4737
  640.0000   -11.6747     8.7954     9.0063     7.8144    70.4190     0.0358     0.1112     2.4700
  640.5000   -11.8134     8.8036     8.8294     7.5434    70.1325     0.0344     0.1130     2.4843
  641.0000   -12.3939     8.5105     8.6543     7.5179    74.4810     0.0316     0.1145     2.4754
  641.5000   -12.3793     8.3996     8.5994     7.5347    79.1240     0.0287     0.1159     2.4762
  642.0000   -12.5150     8.2898     8.4874     7.4912    78.4478     0.0349     0.1177     2.4755
  642.5000   -12.6495     8.1826     8.3211     7.5975    74.9378     0.0381     0.1198     2.4726
  643.0000   -12.6347     8.0776     8.2683     7.4942    74.0976     0.0427     0.1228     2.4650
  643.5000   -12.6198     7.9175     8.1622     7.3905    74.7148     0.0474     0.1257     2.4567
  644.0000   -12.6019     7.7071     7.9451     7.4971    77.1189     0.0521     0.1308     2.4511
  644.5000   -12.5873     7.5023     7.5225     7.6333    86.5380     0.0537     0.1377     2.4414
  645.0000   -12.7224     7.1528     6.5608     7.7246    93.2705     0.0599     0.1401     2.4392
  645.5000   -12.7077     6.8197     5.1482     7.8009   102.8389     0.0661     0.1383     2.4400
  646.0000   -12.6931     6.3245     5.0451     7.7428   101.8102     0.0723     0.1253     2.4431
  646.5000   -12.6785     5.7052     5.1917     7.7140    92.7218     0.0845     0.1124     2.4664
  647.0000   -12.3644     5.2183     5.3415     7.7005    81.9916     0.0966     0.0991     2.5018
  647.5000   -11.0025     5.2950     5.4577     7.6723    74.2465     0.0908     0.0946     2.5056
  648.0000   -11.1377     5.3737     5.5764     7.6585    75.4688     0.0399     0.0894     2.5102
  648.5000   -11.1228     5.5286     5.7771     7.6902    78.1875     0.0370     0.0921     2.5157
  649.0000   -11.1078     6.0535     6.2391     7.7216    80.0189     0.0432     0.0939     2.5202
  649.5000   -11.2434     7.3025     7.0238     7.7680    80.2811     0.0404     0.0906     2.5217
  650.0000   -11.2275     8.1635     8.2999     7.7994    76.1611     0.0345     0.0902     2.5218
  650.5000   -11.2141     8.6945     8.5380     7.8307    73.4532     0.0347     0.0911     2.5196
  651.0000   -11.2006     8.8835     8.7839     7.8769    75.8668     0.0349     0.0920     2.5167
  651.5000   -11.1849     8.8901     8.8503     7.8633    79.6185     0.0351     0.0913     2.5145
  652.0000   -11.1717     8.8353     8.8558     7.7448    81.4300     0.0353     0.0871     2.5154
  652.5000   -11.1586     8.9049     8.8613     7.7012    79.8086     0.0355     0.0798     2.5185
  653.0000   -11.2984     8.9734     8.9915     7.7624    78.3365     0.0386     0.0783     2.5238
  653.5000   -11.2820     9.1052     9.2496     7.7637    76.5658     0.0418     0.0797     2.5344
  654.0000   -11.2689     9.2390     9.4495     7.7353    73.7504     0.0420     0.0822     2.5336
  654.5000   -11.2558     9.4398     9.7209     7.7366    73.6216     0.0362     0.0881     2.5264
  655.0000   -11.0928     9.6449     9.9310     7.7379    73.1940     0.0303     0.0916     2.5189
  655.5000   -10.7595     9.8546    10.0061     7.7089    74.3071     0.0290     0.0943     2.5145
  656.0000   -10.3149     9.9993    10.1518     7.6802    76.7164     0.0292     0.0964     2.5109
  656.5000   -10.4547    10.0770    10.3712     7.6968    78.1859     0.0309     0.0975     2.5057
  657.0000   -10.5913    10.4555    10.7432     7.6981    79.9922     0.0311     0.0978     2.5027
  657.5000   -11.0240    10.6676    10.8246     7.7143    77.0327     0.0343     0.0957     2.5029
  658.0000   -11.7593    10.7496    10.8326     7.7456    76.0032     0.0374     0.0917     2.5120
  658.5000   -11.8992    10.8323    10.9145     7.7469    77.0735     0.0376     0.0878     2.5120
  659.0000   -11.8828    10.8403    10.9211     7.7032    77.0939     0.0378     0.0856     2.5114
  659.5000   -11.8696    10.9237    11.0037     7.7197    76.6665     0.0380     0.0853     2.5152
  660.0000   -11.8563    10.9318    11.0104     7.7682    74.7466     0.0381     0.0888     2.5206
  660.5000   -11.8428    10.9399    11.0171     7.8119    71.7819     0.0398     0.0924     2.5244
  661.0000   -11.8270    10.9481    11.1004     7.8285    73.3899     0.0385     0.0960     2.5133
  661.5000   -11.8138    10.8806    11.1072     7.8747    79.1413     0.0327     0.0986     2.5051
  662.0000   -11.8007    10.8136    11.1140     7.9355    80.2014     0.0329     0.0998     2.5014
  662.5000   -11.7876    10.8236    11.1210     7.8470    76.6448     0.0346     0.0995     2.5023
  663.0000   -11.7744    10.8317    11.1291     7.8183    74.8741     0.0362     0.0988     2.5053
  663.5000   -11.7613    10.8397    11.0574     7.8199    73.6954     0.0349     0.0982     2.5062
  664.0000   -11.7482    10.8478    10.9136     7.8512    77.3030     0.0306     0.0985     2.5040
  664.5000   -11.7350    10.7810    10.9202     7.9423    80.1592     0.0277     0.0991     2.5011
  665.0000   -11.8716    10.7890    10.8515     7.9136    77.9408     0.0279     0.0993     2.4997
  665.5000   -11.8552    10.7223    10.8581     7.8550    76.0209     0.0281     0.0995     2.4983
  666.0000   -11.9917    10.6564    10.7895     7.7964    74.1010     0.0283     0.0992     2.4984
  666.5000   -11.8289    10.5908    10.7962     7.7677    72.0370     0.0285     0.0989     2.4985
  667.0000   -11.8158    10.6007    10.8029     7.7391    71.9030     0.0287     0.0970     2.5008
  667.5000   -11.8026    10.6085    10.8097     7.7554    72.6748     0.0319     0.0931     2.5024
  668.0000   -11.9425    10.5413    10.7413     7.7417    74.1877     0.0350     0.0954     2.5047
  668.5000   -12.0763    10.4783    10.6737     7.7130    74.3523     0.0352     0.0958     2.5079
  669.0000   -12.2126    10.4137    10.6065     7.7596    72.7360     0.0354     0.0954     2.5118
  669.5000   -12.3489    10.2782    10.4685     7.7758    71.8609     0.0341     0.0953     2.5118
  670.0000   -12.3358    10.2130    10.3308     7.7621    71.5821     0.0357     0.0959     2.5089
  670.5000   -12.4723    10.0820    10.2642     7.7481    72.3494     0.0359     0.0955     2.5082
  671.0000   -12.6089    10.0199    10.1307     7.6899    74.0299     0.0392     0.0943     2.5083
  671.5000   -12.7422     9.9509    10.0669     7.6759    75.8940     0.0438     0.0913     2.5106
  672.0000   -12.7291     9.8286    10.0035     7.6924    77.6396     0.0470     0.0816     2.5205
  672.5000   -12.7159     9.7007     9.8719     7.7237    78.2570     0.0487     0.0771     2.5296
  673.0000   -12.7028     9.5102     9.7421     7.7848    78.2775     0.0489     0.0764     2.5357
  673.5000   -12.6896     9.3865     9.6154     7.8161    79.4919     0.0490     0.0794     2.5358
  674.0000   -12.6765     9.2626     9.4875     7.8174    81.4526     0.0492     0.0793     2.5313
  674.5000   -12.6632     9.1438     9.4277     7.8187    82.5178     0.0478     0.0803     2.5292
  675.0000   -12.6497     9.0248     9.3051     7.7753    81.4934     0.0451     0.0864     2.5285
  675.5000   -12.6338     8.9073     9.1193     7.7314    80.7675     0.0392     0.0876     2.5331
