~VERSION INFORMATION
 VERS.                2.0:   CWLS LOG ASCII STANDARD - VERSION 2.0
 WRAP.                 NO:   ONE LINE PER DEPTH STEP
~WELL INFORMATION
#MNEM.UNIT      DATA TYPE    INFORMATION
#----------   ------------   ------------------------------
 STRT.F            3.0000:   START DEPTH
 STOP.F          462.0000:   STOP DEPTH
 STEP.F            0.5000:   STEP LENGTH
 NULL.          -999.2500:   NO VALUE
 COMP. LAWRENCE/ALLISON INC:   COMPANY
 WELL.    67-15-1 SX #3-3:   WELL
 FLD .             TEAPOT:   FIELD
 LOC .       S3 T38N R78W:   LOCATION
 CNTY.            NATRONA:   COUNTY
 STAT.            WYOMING:   STATE
 CTRY. UNITED STATES OF AMERICA:   COUNTRY
 SRVC.           Gearhart:   SERVICE COMPANY
 DATE.        11-JUN-1988:   LOGDATE
 API .       490251121800:   API NUMBER
~CURVE INFORMATION
#MNEM.UNIT       API CODE    CURVE DESCRIPTION
#----------   ------------   ------------------------------
 DEPT.F                  :   
 GRR .GAPI   07 310 01 00:   GAMMA RAY
 RILD.OHMM   07 120 46 00:   INDUCTION LOG DEEP RESISTIVITY
 RILM.OHMM   07 120 44 00:   INDUCTION LOG MEDIUM RESISTIVITY
~PARAMETER INFORMATION
#MNEM.UNIT          VALUE    DESCRIPTION
#----------   ------------   ------------------------------
 PD  .                 GL:   PERMANENT DATUM
 EPD .F              5175:   ELEVATION PERMANENT DATUM
 LMF .                 KB:   LOG MEASURED FROM
 DAPD.F                 5:   FEET ABOVE PERMANENT DATUM
 DMF .                 KB:   DRILLING MEASURED FROM
 EKB .F              5180:   KELLING BUSHING
 EGL .F              5175:   GROUND LEVEL
 DATE.        11-JUN-1988:   RUN DATE
 RUN .                  1:   RUN NUMBER
 DD  .F               470:   DEPTH DRILLER
 DL  .F             470.5:   DEPTH LOGGER
 BLI .F             461.5:   BOTTOM LOG INTERVAL
 TLI .F                41:   TOP LOG INTERVAL
 CS  .IN            8.625:   CASING SIZE
 CBD .F                41:   CASING BOTTOM DRILLER
 CBL .F                41:   CASING BOTTOM LOGGER
 BS  .IN            7.875:   BIT SIZE
 BSD .F               470:   BIT SIZE AT DEPTH
 DFT .                AIR:   DRILLING FLUID TYPE
 TLAB.HRS            0318:   TIME LOGGER AT BOTTOM
 MRT .F                70:   MAXIMUM RECORDED TEMPERATURE
 LUN .               7597:   LOGGING UNIT NUMBER
 LUL .           GILLETTE:   LOGGING UNIT LOCATION
 ENGI.          HUCKFELDT:   RECORDING ENGINEER
 WITN.             STRONG:   WITNESSED BY
 CLNT.            A2DTECH:   CLIENT CODE
 ORIG.        2" 5" PRINT:   ORIGIN OF DATA
 UWI .       490251121800:   UNIQUE WELL ID
 DICO. A2D Technologies, Inc.:   DIGITIZING COMPANY
~OTHER INFORMATION
~A    DEPT      GRR      RILD       RILM   
# ...
  276.0000    60.9756    36.1814    35.9410
  276.5000    59.7561    35.6696    36.1707
  277.0000    60.0610    35.8979    36.6573
  277.5000    61.2805    36.6697    36.8915
  278.0000    62.8049    37.4306    37.3886
  278.5000    62.8658    38.2072    38.1566
  279.0000    60.3659    39.2102    38.9413
  279.5000    58.5366    39.7438    40.0210
  280.0000    56.7073    40.2721    40.8440
  280.5000    56.7274    40.8202    41.1050
  281.0000    59.8377    41.0810    40.7927
  281.5000    62.8658    41.0489    40.7676
  282.0000    65.0202    41.0232    41.0281
  282.5000    66.1585    40.9976    40.9538
  283.0000    65.8537    40.6864    40.6850
  283.5000    65.8537    40.0962    40.0949
  284.0000    65.8537    39.2392    39.5133
  284.5000    67.0732    38.1329    38.3993
  285.0000    69.2073    36.7996    37.3167
  285.5000    72.8659    35.7620    36.0119
  286.0000    73.4756    34.5116    34.7528
  286.5000    72.5610    33.7739    33.5376
  287.0000    72.8659    32.8217    32.5921
  287.5000    73.7805    32.1202    31.4525
  288.0000    75.3049    31.2146    30.1412
  288.5000    75.6098    29.9132    29.0873
  289.0000    75.6098    28.4663    27.8746
  289.5000    75.6098    26.9006    27.2831
  290.0000    75.0000    25.9600    26.6599
  290.5000    74.0854    25.0522    25.7235
  291.0000    73.4756    24.1763    25.1812
  291.5000    73.4756    23.3309    24.9743
  292.0000    74.6951    22.6731    24.6307
  292.5000    77.4390    22.3442    24.4454
  293.0000    79.8781    21.8666    24.4291
  293.5000    80.7927    21.8530    24.2453
  294.0000    80.4878    21.8393    24.0630
  294.5000    79.8781    21.9788    24.0497
  295.0000    79.8781    22.2745    24.0363
  295.5000    79.8781    22.5886    24.3648
  296.0000    80.1829    23.0383    24.6908
  296.5000    79.8781    23.6771    25.0282
  297.0000    79.5732    24.3922    25.7203
  297.5000    80.5387    25.3565    26.2511
  298.0000    81.4024    25.6975    26.4243
  298.5000    80.4878    25.6815    26.4060
  299.0000    79.2683    25.8456    26.2074
  299.5000    77.1341    25.8294    26.0103
  300.0000    76.2195    25.5475    25.8148
  300.5000    76.8262    25.4459    25.6206
  301.0000    76.8232    25.2581    25.4280
  301.5000    77.1525    24.8969    25.0609
  302.0000    77.7683    24.7131    24.8724
  302.5000    78.9939    24.3597    24.5133
  303.0000    80.5792    24.1799    24.3290
  303.5000    82.2951    23.8342    24.1461
  304.0000    82.9026    23.4933    23.9645
  304.5000    80.7647    23.3199    23.7843
  305.0000    78.0178    23.1424    23.4409
  305.5000    75.2708    22.8166    22.9360
  306.0000    74.3532    22.6481    22.5997
  306.5000    77.3989    22.1686    22.1129
  307.0000    79.5301    21.5480    21.5058
  307.5000    81.3563    21.0900    21.0475
  308.0000    81.6589    21.2292    21.1811
  308.5000    81.6551    21.5193    21.4705
  309.0000    81.0423    21.8133    21.7608
  309.5000    79.8198    22.1114    21.9014
  310.0000    78.5973    22.2596    22.1944
  310.5000    78.2894    22.2480    22.4946
  311.0000    77.9815    22.2388    22.3254
  311.5000    78.8931    22.0746    22.0031
  312.0000    79.8047    21.9117    21.6855
  312.5000    80.7163    21.4478    21.2235
  313.0000    81.6286    21.1433    21.0639
  313.5000    83.4541    21.4322    21.3517
  314.0000    84.9755    21.7228    21.6374
  314.5000    82.5334    22.0219    21.9330
  315.0000    78.8719    22.3228    22.2296
  315.5000    74.2957    22.3112    22.3732
  316.0000    72.4634    21.8389    21.8935
  316.5000    73.0701    21.2276    21.2777
  317.0000    74.5976    20.3469    20.6793
  317.5000    76.1432    19.5027    20.0977
  318.0000    77.3778    18.8247    19.5324
  318.5000    78.8841    18.1672    18.9831
  319.0000    80.4147    17.6615    18.4492
  319.5000    81.6402    17.5193    17.9303
  320.0000    82.8043    17.2804    17.4260
  320.5000    81.5817    17.1527    17.1743
  321.0000    79.7494    17.1441    17.0451
  321.5000    80.3562    17.1370    17.1554
  322.0000    82.4873    17.2519    17.1455
  322.5000    84.6184    17.2429    17.2566
  323.0000    85.5308    17.2357    17.2446
  323.5000    84.9172    17.2286    17.2351
  324.0000    83.9996    17.1014    17.2255
  324.5000    82.7770    16.9752    16.8585
  325.0000    81.8594    16.6158    16.6151
  325.5000    83.0759    16.2641    16.2612
  326.0000    84.2924    16.0315    16.0264
  326.5000    85.5088    15.6921    15.9059
  327.0000    86.7253    15.5763    15.8971
  327.5000    87.6377    15.4613    15.7775
  328.0000    87.6339    15.5650    15.7688
  328.5000    84.5821    15.5569    15.5411
  329.0000    81.8352    15.5504    15.4243
  329.5000    80.9175    15.4356    15.2016
  330.0000    82.7438    15.2149    15.0873
  330.5000    85.1798    15.1026    15.0789
  331.0000    86.0915    14.9911    15.0705
  331.5000    85.7835    14.8804    14.9572
  332.0000    83.9512    14.8743    14.9489
  332.5000    81.5091    14.8681    14.9406
  333.0000    81.8110    15.0712    15.0374
  333.5000    83.3355    15.2902    15.1345
  334.0000    83.6342    15.4859    15.3389
  334.5000    82.0640    15.5881    15.5463
  335.0000    80.2744    15.7994    15.7566
  335.5000    79.9665    15.9037    15.9696
  336.0000    80.3172    16.0103    16.1856
  336.5000    81.1800    16.0020    16.1764
  337.0000    81.1762    15.8839    16.1673
  337.5000    82.0878    15.6567    15.8044
  338.0000    84.8287    15.4329    15.3760
  338.5000    85.7411    15.1062    15.0484
  339.0000    84.8227    14.7864    14.7278
  339.5000    83.9050    14.5750    14.5152
  340.0000    83.9020    14.1670    14.3057
  340.5000    85.7282    13.7705    14.0009
  341.0000    87.2496    13.6688    13.7987
  341.5000    88.1620    13.5679    13.5995
  342.0000    88.4638    13.5623    13.2170
  342.5000    88.4600    13.6532    13.0262
  343.0000    88.4570    13.8383    13.1104
  343.5000    89.0637    14.2250    13.1031
  344.0000    89.9761    14.9324    13.2803
  344.5000    88.7528    15.8959    13.7453
  345.0000    87.2254    17.1599    14.5281
  345.5000    84.7833    19.1857    16.1260
  346.0000    82.6462    22.2403    19.8793
  346.5000    79.8992    24.8682    23.6642
  347.0000    75.3230    27.4581    26.8238
  347.5000    70.4420    31.2284    30.4053
  348.0000    67.3902    35.5636    34.4649
  348.5000    68.3018    38.2369    38.2555
  349.0000    69.2134    39.3053    41.5815
  349.5000    69.2194    40.1220    43.3393
  350.0000    68.5976    40.5806    43.3133
  350.5000    67.6724    41.5169    42.9995
  351.0000    68.2730    41.4918    41.5104
  351.5000    69.7884    41.7678    40.0729
  352.0000    70.6939    42.0355    38.6852
  352.5000    70.3800    41.7223    37.6076
  353.0000    69.1514    40.5517    36.8166
  353.5000    70.0570    38.8665    36.2952
  354.0000    71.5723    37.2514    35.7812
  354.5000    73.0877    36.2062    35.7712
  355.0000    73.3857    35.4373    35.7613
  355.5000    72.7646    35.1733    35.2549
  356.0000    71.5361    34.9113    34.7556
  356.5000    70.0026    34.4097    34.2633
  357.0000    69.0789    34.1534    33.7781
  357.5000    68.1552    33.4281    33.2997
  358.0000    67.8413    32.4841    32.5993
  358.5000    69.0517    31.7844    31.6912
  359.0000    71.4817    31.0756    30.5823
  359.5000    73.9480    30.2180    29.5148
  360.0000    76.9921    29.6057    28.8860
  360.5000    77.5521    28.9770    28.3047
  361.0000    77.5427    28.7611    27.9022
  361.5000    77.1748    27.9542    27.5070
  362.0000    75.9982    27.5526    27.3077
  362.5000    75.0745    27.3473    27.1099
  363.0000    75.0655    27.1436    27.1024
  363.5000    74.7515    27.1304    27.0949
  364.0000    73.8278    27.1173    27.2794
  364.5000    73.2090    27.1041    27.2700
  365.0000    74.4194    27.2845    27.2624
  365.5000    75.9348    27.4626    27.2549
  366.0000    77.7550    27.6420    27.4404
  366.5000    78.0531    28.0143    27.4309
