~VERSION INFORMATION
 VERS.                2.0:   CWLS LOG ASCII STANDARD - VERSION 2.0
 WRAP.                 NO:   ONE LINE PER DEPTH STEP
~WELL INFORMATION
#MNEM.UNIT      DATA TYPE    INFORMATION
#----------   ------------   ------------------------------
 STRT.F           26.0000:   START DEPTH
 STOP.F          535.5000:   STOP DEPTH
 STEP.F            0.5000:   STEP LENGTH
 NULL.          -999.2500:   NO VALUE
 COMP. BROWN JOHN E&C INC:   COMPANY
 WELL.       NPR 86 #11-3:   WELL
 FLD .             TEAPOT:   FIELD
 LOC .       S3 T38N R78W:   LOCATION
 CNTY.            NATRONA:   COUNTY
 STAT.            WYOMING:   STATE
 CTRY. UNITED STATES OF AMERICA:   COUNTRY
 SRVC.       Schlumberger:   SERVICE COMPANY
 DATE.        21-SEP-1990:   LOGDATE
 API .       490251130800:   API NUMBER
~CURVE INFORMATION
#MNEM.UNIT       API CODE    CURVE DESCRIPTION
#----------   ------------   ------------------------------
 DEPT.F                  :   
 ILD .OHMM   07 120 46 00:   INDUCTION LOG DEEP
 ILM .OHMM   07 120 44 00:   INDUCTION LOG MEDIUM
 GRD .GAPI   45 310 01 00:   GAMMA RAY FROM DENSITY LOG
 CALD.IN     45 280 60 00:   CALIPER
 DRHO.G/C3   45 356 01 00:   DENSITY CORRECTION
 DPHI.DEC    45 890 00 00:   DENSITY POROSITY
 RHOB.G/C3   45 350 01 00:   BULK DENSITY
~PARAMETER INFORMATION
#MNEM.UNIT          VALUE    DESCRIPTION
#----------   ------------   ------------------------------
 PD  .                 GL:   PERMANENT DATUM
 EPD .F              5144:   ELEVATION PERMANENT DATUM
 LMF .                 KB:   LOG MEASURED FROM
 DAPD.F                10:   FEET ABOVE PERMANENT DATUM
 DMF .                 KB:   DRILLING MEASURED FROM
 EKB .F              5154:   KELLING BUSHING
 EDF .F              5153:   DRILLING FLOOR
 EGL .F              5144:   GROUND LEVEL
 DATE.            9-21-90:   RUN DATE
 RUN .                  1:   RUN NUMBER
 DD  .F               540:   DEPTH DRILLER
 DL  .F               539:   DEPTH LOGGER
 BLI .F               533:   BOTTOM LOG INTERVAL
 TLI .F                49:   TOP LOG INTERVAL
 CS  .IN            8.625:   CASING SIZE
 CBD .F                50:   CASING BOTTOM DRILLER
 CBL .F                48:   CASING BOTTOM LOGGER
 BS  .IN            7.875:   BIT SIZE
 BSD .F               540:   BIT SIZE AT DEPTH
 DFT .                AIR:   DRILLING FLUID TYPE
 TCS .HRS            0315:   TIME CURCULATED STOPPED
 TLAB.HRS            0409:   TIME LOGGER AT BOTTOM
 LUN .               5882:   LOGGING UNIT NUMBER
 LUL .               CODY:   LOGGING UNIT LOCATION
 ENGI.          M. FISHER:   RECORDING ENGINEER
 WITN.          G. STRONG:   WITNESSED BY
 CLNT.            A2DTECH:   CLIENT CODE
 ORIG.   2" 2.5" 5" PRINT:   ORIGIN OF DATA
 UWI .       490251130800:   UNIQUE WELL ID
 DICO. A2D Technologies, Inc.:   DIGITIZING COMPANY
~OTHER INFORMATION
~A   DEPT      ILD        ILM         GRD      CALD       DRHO       DPHI       RHOB   
# ...
  299.0000     8.1486     8.0646   149.4254     7.8663    -0.0106     0.1013     2.4832
  299.5000     8.1486     8.0562   148.5088     7.8663    -0.0120     0.1032     2.4804
  300.0000     8.1485     8.0477   145.0439     7.8663    -0.0120     0.1038     2.4786
  300.5000     8.1482     8.0393   141.2397     7.8663    -0.0120     0.1032     2.4787
  301.0000     8.1070     8.0309   140.4311     7.8663    -0.0109     0.1010     2.4826
  301.5000     8.0620     8.0225   142.3004     7.8663    -0.0096     0.0988     2.4863
  302.0000     8.0174     8.0141   144.1899     7.8662    -0.0083     0.0966     2.4900
  302.5000     7.9991     8.0057   145.4648     7.8659    -0.0073     0.0945     2.4937
  303.0000     8.0650     7.9989   145.1503     7.8791    -0.0062     0.0938     2.4955
  303.5000     8.1136     7.9991   144.6987     7.8934    -0.0060     0.0938     2.4955
  304.0000     8.1500     7.9997   146.1525     7.9066    -0.0067     0.0938     2.4955
  304.5000     8.2258     8.0010   148.5346     7.9062    -0.0077     0.0940     2.4955
  305.0000     8.1500     8.0002   150.2155     7.9062    -0.0080     0.0964     2.4937
  305.5000     7.7119     7.5787   148.1457     7.9060    -0.0080     0.1052     2.4773
  306.0000     7.2638     6.8138   146.6598     7.9056    -0.0061     0.1243     2.4348
  306.5000     6.6104     6.1717   147.8480     7.9443    -0.0040     0.1435     2.3754
  307.0000     6.0037     5.8118   149.4172     7.9284    -0.0018     0.1516     2.3177
  307.5000     6.0675     5.4708   151.1042     7.9083     0.0008     0.1533     2.3496
  308.0000     6.1144     5.4714   150.6917     7.8880     0.0030     0.1325     2.4132
  308.5000     5.8395     5.7392   149.5978     7.8671     0.0020     0.1150     2.4578
  309.0000     6.0651     5.9366   148.4617     7.8755     0.0001     0.1084     2.4729
  309.5000     6.0667     6.0371   147.6377     7.8862    -0.0019     0.1050     2.4766
  310.0000     6.3212     6.1088   147.0708     7.8967    -0.0039     0.1058     2.4720
  310.5000     6.5860     6.1727   146.5168     7.9072    -0.0038     0.1166     2.4547
  311.0000     6.4056     5.9594   145.9647     7.9178    -0.0005     0.1324     2.4059
  311.5000     5.8392     5.7747   145.0138     7.9283     0.0026     0.1522     2.3185
  312.0000     5.7321     5.4516   144.0564     7.9385     0.0105     0.1667     2.2694
  312.5000     5.6270     4.7195   140.9521     7.9394     0.0189     0.1539     2.3214
  313.0000     5.6270     4.9476   137.6839     7.9115     0.0274     0.1282     2.4224
  313.5000     5.6270     5.1796   134.6182     7.8852     0.0237     0.0991     2.4862
  314.0000     5.6270     5.3982   136.0353     7.8664     0.0151     0.0924     2.4993
  314.5000     5.6270     5.6236   137.8655     7.8686     0.0074     0.0927     2.4973
  315.0000     6.0315     5.8427   139.5676     7.8703     0.0013     0.0934     2.4955
  315.5000     6.4389     6.3004   139.5231     7.8720     0.0010     0.0923     2.4980
  316.0000     6.7339     6.7569   139.5613     7.8738     0.0010     0.0892     2.5035
  316.5000     7.2919     7.2472   140.3231     7.8755     0.0010     0.0862     2.5091
  317.0000     7.4937     7.5770   141.0984     7.8773     0.0006     0.0846     2.5084
  317.5000     7.5669     7.6252   140.3189     7.8790    -0.0008     0.0897     2.5030
  318.0000     7.4972     7.6378   139.4650     7.8808    -0.0020     0.0958     2.4934
  318.5000     7.1980     6.9642   140.7816     7.8825     0.0012     0.1092     2.4666
  319.0000     6.5495     6.3617   142.1986     7.8843     0.0076     0.1241     2.4327
  319.5000     6.0037     5.9941   143.5614     7.8862     0.0118     0.1405     2.3873
  320.0000     5.9483     5.7355   143.5032     7.8830     0.0187     0.1405     2.3661
  320.5000     5.5634     5.4856   144.3308     7.8795     0.0268     0.1234     2.4488
  321.0000     5.3725     5.3218   145.5455     7.8759     0.0252     0.1064     2.4736
  321.5000     5.4919     5.5136   142.0832     7.8723     0.0177     0.0982     2.4867
  322.0000     5.6270     5.7801   138.2205     7.8688     0.0103     0.0893     2.5005
  322.5000     5.9405     6.0595   135.4008     7.8652     0.0090     0.0820     2.5157
  323.0000     6.2910     6.3524   136.9378     7.8616     0.0051     0.0801     2.5166
  323.5000     6.6472     6.7090   139.0363     7.8581     0.0014     0.0824     2.5143
  324.0000     7.1548     7.0968   137.7249     7.8545    -0.0021     0.0830     2.5127
  324.5000     7.5634     7.5061   135.2887     7.8509    -0.0020     0.0816     2.5162
  325.0000     7.8591     7.9461   136.0466     7.8472    -0.0031     0.0799     2.5193
  325.5000     8.1693     8.1454   137.9212     7.8463    -0.0046     0.0794     2.5196
  326.0000     8.3914     8.2528   139.8760     7.8463    -0.0062     0.0821     2.5168
  326.5000     8.5075     8.3494   138.1830     7.8463    -0.0070     0.0845     2.5109
  327.0000     8.6230     8.4885   133.4210     7.8463    -0.0070     0.0866     2.5057
  327.5000     8.7401     8.6299   128.3331     7.8463    -0.0054     0.0860     2.5083
  328.0000     8.8590     8.7737   126.1385     7.8463    -0.0031     0.0827     2.5116
  328.5000     8.9792     8.8893   129.3103     7.8463    -0.0049     0.0816     2.5145
  329.0000     9.0338     9.0303   133.4000     7.8462    -0.0076     0.0838     2.5113
  329.5000     9.0513     9.1735   137.2333     7.8493    -0.0100     0.0878     2.5051
  330.0000     9.0691     9.2760   137.1442     7.8526    -0.0100     0.0922     2.4961
  330.5000     9.0869     9.2008   137.1344     7.8559    -0.0100     0.0970     2.4910
  331.0000     9.1059     9.1430   137.5870     7.8593    -0.0092     0.0970     2.4903
  331.5000     9.0422     9.0857   138.5249     7.8626    -0.0081     0.0893     2.5026
  332.0000     8.9751     9.0287   139.5109     7.8659    -0.0069     0.0823     2.5156
  332.5000     8.9084     8.9746   138.1015     7.8693    -0.0058     0.0746     2.5259
  333.0000     8.8565     8.8555   135.3229     7.8726    -0.0047     0.0730     2.5294
  333.5000     9.0969     8.9437   132.4306     7.8759    -0.0036     0.0740     2.5277
  334.0000     9.3008     9.0190   129.5109     7.8792    -0.0030     0.0758     2.5247
  334.5000     9.5174     9.2885   126.4634     7.8825    -0.0030     0.0778     2.5207
  335.0000     9.9007     9.6096   125.9432     7.8854    -0.0031     0.0778     2.5205
  335.5000     9.6975    10.0819   126.3615     7.9073    -0.0006     0.0778     2.5210
  336.0000     8.8237    10.1757   128.0543     7.9307     0.0020     0.0898     2.5126
  336.5000     8.0288     8.5345   135.0409     7.9545     0.0047     0.1218     2.4471
  337.0000     7.4577     7.4301   142.6231     7.9708     0.0059     0.1609     2.3337
  337.5000     7.0922     6.0666   145.8952     7.9806     0.0057     0.1678     2.2535
  338.0000     6.9913     6.1027   143.4782     7.9612     0.0170     0.1717     2.3012
  338.5000     6.9333     5.7768   136.2076     7.9110     0.0298     0.1179     2.4285
  339.0000     6.8777     6.3917   132.1073     7.8853     0.0334     0.0835     2.5307
  339.5000     6.8349     6.8548   132.1012     7.8818     0.0230     0.0683     2.5365
  340.0000     7.6665     7.3527   132.9664     7.8788     0.0127     0.0684     2.5361
  340.5000     8.2440     7.9211   133.6053     7.8759     0.0050     0.0747     2.5272
  341.0000     8.4514     8.5085   131.5017     7.8730    -0.0030     0.0796     2.5186
  341.5000     9.7188     9.1838   129.2286     7.8701    -0.0068     0.0846     2.5099
  342.0000    10.2520    10.0883   126.8302     7.8670    -0.0093     0.0888     2.5010
  342.5000    11.0597    10.0806   126.3162     7.8663    -0.0118     0.0926     2.4973
  343.0000    11.0069    10.0354   127.2267     7.8663    -0.0120     0.0926     2.4977
  343.5000    10.9205     9.9890   127.9644     7.8663    -0.0121     0.0908     2.5011
  344.0000    10.8321    10.0400   128.0143     7.8663    -0.0108     0.0881     2.5048
