~VERSION INFORMATION
 VERS.                2.0:   CWLS LOG ASCII STANDARD - VERSION 2.0
 WRAP.                 NO:   ONE LINE PER DEPTH STEP
~WELL INFORMATION
#MNEM.UNIT      DATA TYPE    INFORMATION
#----------   ------------   ------------------------------
 STRT.F          160.0000:   START DEPTH
 STOP.F         1181.5000:   STOP DEPTH
 STEP.F            0.5000:   STEP LENGTH
 NULL.          -999.2500:   NO VALUE
 COMP.            US NAVY:   COMPANY
 WELL. RES 3 TEAPOT DOM #71-SX-14:   WELL
 FLD .             TEAPOT:   FIELD
 LOC .      S14 T38N R78W:   LOCATION
 CNTY.            NATRONA:   COUNTY
 STAT.            WYOMING:   STATE
 CTRY. UNITED STATES OF AMERICA:   COUNTRY
 SRVC.       Schlumberger:   SERVICE COMPANY
 DATE.        23-AUG-1959:   LOGDATE
 API .       490250632200:   API NUMBER
~CURVE INFORMATION
#MNEM.UNIT       API CODE    CURVE DESCRIPTION
#----------   ------------   ------------------------------
 DEPT.F                  :   
 SPR .MV     05 010 01 00:   SPONTANEOUS POTENTIAL FROM RES.
 IL  .OHMM   05 120 00 00:   INDUCTION LOG
 ASN .OHMM   05 041 16 00:   AMPLIFIED SHORT NORMAL 16"
 CIL .MMHO   05 110 00 00:   CONDUCTIVITY INDUCTION LOG
~PARAMETER INFORMATION
#MNEM.UNIT          VALUE    DESCRIPTION
#----------   ------------   ------------------------------
 PD  .                 GL:   PERMANENT DATUM
 EPD .F              5259:   ELEVATION PERMANENT DATUM
 LMF .                 KB:   LOG MEASURED FROM
 DAPD.F                 4:   FEET ABOVE PERMANENT DATUM
 DMF .                 KB:   DRILLING MEASURED FROM
 EKB .F              5263:   KELLING BUSHING
 EGL .F              5259:   GROUND LEVEL
 DATE.            8-23-59:   RUN DATE
 RUN .                  1:   RUN NUMBER
 DD  .F              1190:   DEPTH DRILLER
 DL  .F              1186:   DEPTH LOGGER
 BLI .F              1180:   BOTTOM LOG INTERVAL
 TLI .F               150:   TOP LOG INTERVAL
 CBD .F                17:   CASING BOTTOM DRILLER
 BS  .IN             6.75:   BIT SIZE
 BSD .F              1190:   BIT SIZE AT DEPTH
 DFT .                GEL:   DRILLING FLUID TYPE
 DFD .                9.5:   DRILLING FLUID DENSITY
 DFV .                 52:   DRILLING FLUID VISCOSITY
 MSS .           FLOWLINE:   MUD SAMPLE SOURCE
 RMS .OHMM            2.6:   RESISTIVITY MUD SAMPLE
 MST .F                62:   MUD SAMPLE TEMPERATURE
 MFSS.                  M:   MUD FILTRATE SAMPLE SOURCE
 MCSS.                  M:   MUD CAKE SAMPLE SOURCE
 RMB .OHMM            2.2:   RESISTIVITY MUD AT BHT
 BHT .F                80:   BOTTOM HOLE TEMPERATURE
 TCS .HRS               1:   TIME CURCULATED STOPPED
 MRT .F                80:   MAXIMUM RECORDED TEMPERATURE
 LUN .               2523:   LOGGING UNIT NUMBER
 LUL .               CSPR:   LOGGING UNIT LOCATION
 ENGI.             ATWOOD:   RECORDING ENGINEER
 WITN.             MARTIN:   WITNESSED BY
 CLNT.            A2DTECH:   CLIENT CODE
 ORIG.     1", 2.5" PRINT:   ORIGIN OF DATA
 UWI .       490250632200:   UNIQUE WELL ID
 DICO. A2D Technologies, Inc.:   DIGITIZING COMPANY
~OTHER INFORMATION
~A   DEPT      SPR           IL        ASN      CIL   
# ...
  452.0000   -51.3993     5.7143     5.8019   212.4771
  452.5000   -51.2960     5.6252     5.7616   217.1194
  453.0000   -51.1928     5.5352     5.7108   221.7617
  453.5000   -51.0896     5.4456     5.6889   226.4039
  454.0000   -50.9866     5.3570     5.6916   231.0462
  454.5000   -50.8834     5.2645     5.6913   232.9767
  455.0000   -50.7799     5.2274     5.6908   232.0069
  455.5000   -50.6782     5.2308     5.6914   230.3744
  456.0000   -50.5729     5.2302     5.6921   228.7420
  456.5000   -50.5299     5.2299     5.6884   227.1095
  457.0000   -50.5614     5.2311     5.7220   225.4771
  457.5000   -50.6097     5.2279     5.7795   223.8447
  458.0000   -50.6541     5.2544     5.8334   222.2122
  458.5000   -50.6992     5.2991     5.8865   220.5788
  459.0000   -50.7447     5.3403     5.9393   218.9460
  459.5000   -50.7900     5.3811     5.9969   217.3133
  460.0000   -50.8345     5.4229     5.9895   215.6808
  460.5000   -50.8802     5.4641     5.9745   214.0479
  461.0000   -50.8942     5.5054     5.9749   212.4144
  461.5000   -50.8925     5.5469     6.0010   210.6824
  462.0000   -50.8927     5.5882     6.0366   210.2140
  462.5000   -50.8529     5.6295     6.0729   210.2140
  463.0000   -50.7964     5.6711     6.1087   210.2140
  463.5000   -50.7407     5.7118     6.1440   209.0905
  464.0000   -50.6854     5.7530     6.1800   207.6167
  464.5000   -50.6297     5.7631     6.1881   206.1430
  465.0000   -50.5742     5.7627     6.1877   204.6693
  465.5000   -50.5187     5.7624     6.1590   203.1955
  466.0000   -50.4630     5.7632     6.1248   201.4591
  466.5000   -50.4072     5.7621     6.0843   203.1547
  467.0000   -50.3523     5.7614     6.0834   205.2179
  467.5000   -50.2944     5.7128     6.0808   207.2811
  468.0000   -50.2412     5.6533     6.1161   209.3444
  468.5000   -50.1835     5.5865     6.1150   211.4076
  469.0000   -50.1733     5.4871     6.1129   213.7159
  469.5000   -50.1823     5.3719     5.9674   213.7159
  470.0000   -50.2000     5.2580     5.7986   213.7159
  470.5000   -50.7001     5.1441     5.6262   225.1883
  471.0000   -51.2663     5.0299     5.4570   237.9214
  471.5000   -51.8713     4.9158     5.2872   250.6545
  472.0000   -52.4150     4.8014     5.1143   263.3875
  472.5000   -52.9723     4.6880     4.9477   276.7510
  473.0000   -52.4098     4.5730     4.7771   278.9922
  473.5000   -51.7876     4.4587     4.7372   281.3502
  474.0000   -51.1067     4.3517     4.6933   283.7549
  474.5000   -50.4795     4.3542     4.6663   293.5778
  475.0000   -49.8565     4.5336     4.6412   303.5992
  475.5000   -49.8264     4.7236     4.8685   313.5214
  476.0000   -49.8123     4.9179     5.1017   293.5183
  476.5000   -49.8248     5.1088     5.3446   273.7113
  477.0000   -49.8148     5.3010     5.5829   253.9043
  477.5000   -49.8226     5.4932     5.8215   234.0591
  478.0000   -49.8406     5.6852     6.0440   215.4607
  478.5000   -50.1531     5.8772     6.1722   205.1637
  479.0000   -50.4535     6.0692     6.2931   196.1961
  479.5000   -50.7698     6.2614     6.4115   190.9324
  480.0000   -51.0751     6.4524     6.5312   186.0634
  480.5000   -51.3880     6.6462     6.6512   181.1983
  481.0000   -51.6972     6.8377     6.7696   176.9150
  481.5000   -51.9549     6.9991     6.8897   174.4526
  482.0000   -51.9651     7.0013     7.0113   172.2583
  482.5000   -51.9661     7.0082     7.1028   170.0676
  483.0000   -51.9495     7.0023     7.0612   168.2296
  483.5000   -51.7515     6.9933     6.8967   168.2498
  484.0000   -51.5794     6.8435     6.7486   170.0110
  484.5000   -51.3939     6.7158     6.5933   170.0070
  485.0000   -51.2148     6.5788     6.4424   175.2470
  485.5000   -51.0345     6.4224     6.2896   180.0138
  486.0000   -50.8535     6.1901     6.1375   186.1810
  486.5000   -50.6734     5.9585     5.9865   192.3528
  487.0000   -50.4929     5.7248     5.8109   198.5317
  487.5000   -50.3124     5.4917     5.5699   206.5423
  488.0000   -50.1317     5.2600     5.3317   220.1043
  488.5000   -49.9520     5.0241     5.0880   233.6856
  489.0000   -49.7697     4.7942     4.8499   247.2753
  489.5000   -49.5909     4.5623     4.6111   260.8851
  490.0000   -49.4119     4.3082     4.3493   274.5179
  490.5000   -49.2161     4.1519     4.1822   288.1658
  491.0000   -49.0913     4.1701     4.2647   301.8015
  491.5000   -49.1670     4.1598     4.4540   323.8611
  492.0000   -49.3469     4.2428     4.6432   317.5538
  492.5000   -49.5261     4.4876     4.8354   297.2603
  493.0000   -49.7071     4.7245     5.0249   276.9191
  493.5000   -49.8857     4.9623     5.2286   256.7584
  494.0000   -50.0805     5.2008     5.3651   236.5977
  494.5000   -50.1886     5.4555     5.4006   218.7587
  495.0000   -50.1756     5.5990     5.4524   210.2140
  495.5000   -50.1880     5.5825     5.4998   210.2140
  496.0000   -50.0796     5.5849     5.4963   210.2140
  496.5000   -49.8112     5.5933     5.4380   210.2140
  497.0000   -49.5576     5.5125     5.3832   210.0393
  497.5000   -49.2979     5.3278     5.3410   211.8011
  498.0000   -49.0406     5.1505     5.1520   215.7488
  498.5000   -48.7848     4.9719     4.7865   219.7049
  499.0000   -48.5135     4.7922     4.4401   223.6859
  499.5000   -48.3820     4.6136     4.0951   240.9072
  500.0000   -48.3899     4.4349     3.7155   272.1772
  500.5000   -48.4431     4.2555     3.6221   303.4473
  501.0000   -48.5580     4.0763     3.8140   323.8346
  501.5000   -48.6694     3.8998     3.8733   333.8064
  502.0000   -48.7785     3.7143     3.8158   343.7782
  502.5000   -48.8900     3.6201     3.6559   360.9509
  503.0000   -49.0004     3.7104     3.7663   395.8171
  503.5000   -49.1112     3.8739     4.0734   385.5127
  504.0000   -49.2223     4.0280     4.3539   366.1556
  504.5000   -49.3308     4.1838     4.6478   333.4387
  505.0000   -49.4451     4.3412     4.7810   289.4455
  505.5000   -49.5525     4.4967     4.7674   261.9727
  506.0000   -49.6580     4.6515     4.7691   247.8949
  506.5000   -49.7972     4.8131     4.7712   233.8171
  507.0000   -49.6344     4.8822     4.7703   230.7179
  507.5000   -49.4175     4.8754     4.7670   235.9971
  508.0000   -49.3710     4.8751     4.8017   241.2763
  508.5000   -49.3129     4.8814     4.8635   241.3391
  509.0000   -49.2484     4.8289     4.9226   237.8183
  509.5000   -49.1917     4.7342     4.9566   234.2650
  510.0000   -49.1292     4.6454     4.8657   237.2174
  510.5000   -49.1057     4.5570     4.7038   244.5685
  511.0000   -49.1037     4.4670     4.5532   251.9125
  511.5000   -49.1428     4.3782     4.4029   259.2690
  512.0000   -49.2124     4.2889     4.2500   266.6499
  512.5000   -49.2777     4.1997     4.0981   283.2442
  513.0000   -49.3423     4.1100     3.9481   304.9475
  513.5000   -49.4082     4.0216     3.7948   326.6508
  514.0000   -49.4734     3.9319     3.7309   337.0545
  514.5000   -49.5387     3.8416     3.7818   341.0139
  515.0000   -49.6044     3.8122     3.8621   344.9732
  515.5000   -49.6693     3.8001     3.9135   348.9326
  516.0000   -49.7347     3.9291     4.1165   349.1362
  516.5000   -49.8008     4.1452     4.4145   331.5406
  517.0000   -49.8216     4.3457     4.6875   305.8486
  517.5000   -49.8283     4.5437     4.9598   280.1566
  518.0000   -49.7552     4.7465     5.1123   254.4646
  518.5000   -49.6359     4.9473     5.1977   228.7726
  519.0000   -49.5255     5.1461     5.2835   217.0953
  519.5000   -49.4165     5.3469     5.3672   211.8161
  520.0000   -49.3047     5.4137     5.4558   206.5370
  520.5000   -49.1946     5.2737     5.4067   211.6189
  521.0000   -49.0841     5.0711     5.2975   221.3049
  521.5000   -48.9732     4.8737     5.0519   235.8855
  522.0000   -48.8630     4.6756     4.7421   252.4531
  522.5000   -48.7525     4.4770     4.4328   269.0296
  523.0000   -48.6409     4.2793     4.1311   285.6054
  523.5000   -48.5333     4.0790     3.8222   302.1724
  524.0000   -48.4217     3.8842     3.7101   318.7325
  524.5000   -48.4484     3.6864     3.7036   335.2850
