~VERSION INFORMATION
 VERS.                2.0:   CWLS LOG ASCII STANDARD - VERSION 2.0
 WRAP.                 NO:   ONE LINE PER DEPTH STEP
~WELL INFORMATION
#MNEM.UNIT      DATA TYPE    INFORMATION
#----------   ------------   ------------------------------
 STRT.F           16.0000:   START DEPTH
 STOP.F         1254.0000:   STOP DEPTH
 STEP.F            0.5000:   STEP LENGTH
 NULL.          -999.2500:   NO VALUE
 COMP. FENIX & SCISSON INC:   COMPANY
 WELL. NAVAL PET RESERVE 3   75-S-14 #75-14:   WELL
 FLD .             TEAPOT:   FIELD
 LOC .      S14 T38N R78W:   LOCATION
 CNTY.            NATRONA:   COUNTY
 STAT.            WYOMING:   STATE
 CTRY. UNITED STATES OF AMERICA:   COUNTRY
 SRVC.              Welex:   SERVICE COMPANY
 DATE.        17-FEB-1977:   LOGDATE
 API .       490251027400:   API NUMBER
~CURVE INFORMATION
#MNEM.UNIT       API CODE    CURVE DESCRIPTION
#----------   ------------   ------------------------------
 DEPT.F                  :   
 SGRD.OHMM   07 220 05 00:   SHALLOW RESISTIVITY
 ILM .OHMM   07 120 44 00:   INDUCTION LOG MEDIUM
 SPR .MV     07 010 01 00:   SPONTANEOUS POTENTIAL
 ILD .OHMM   07 120 46 00:   INDUCTION LOG DEEP
 CALD.IN     45 280 60 00:   CALIPER
 GRD .GAPI   45 310 01 00:   GAMMA RAY FROM DENSITY LOG
 DPHI.DEC    45 890 12 00:   DENSITY POROSITY SANDSTONE
 RHOB.G/C3   45 350 01 00:   BULK DENSITY
 CORR.G/C3   45 356 01 00:   DENSITY CORRECTION
~PARAMETER INFORMATION
#MNEM.UNIT          VALUE    DESCRIPTION
#----------   ------------   ------------------------------
 PD  .                 GL:   PERMANENT DATUM
 EPD .F              5336:   ELEVATION PERMANENT DATUM
 LMF .                 GL:   LOG MEASURED FROM
 DMF .                 GL:   DRILLING MEASURED FROM
 EKB .F              5341:   KELLING BUSHING
 EGL .F              5336:   GROUND LEVEL
 DATE.          2-17-1977:   RUN DATE
 RUN .                  1:   RUN NUMBER
 DD  .F              1260:   DEPTH DRILLER
 DL  .F              1258:   DEPTH LOGGER
 BLI .F              1256:   BOTTOM LOG INTERVAL
 TLI .F                30:   TOP LOG INTERVAL
 CS  .IN            8.625:   CASING SIZE
 CBD .F                42:   CASING BOTTOM DRILLER
 CBL .F                42:   CASING BOTTOM LOGGER
 BS  .IN            7.875:   BIT SIZE
 BSD .F              1260:   BIT SIZE AT DEPTH
 DFT .          KCL WATER:   DRILLING FLUID TYPE
 DFD .                9.5:   DRILLING FLUID DENSITY
 DFV .                 34:   DRILLING FLUID VISCOSITY
 MSS .          FLOW LINE:   MUD SAMPLE SOURCE
 RMS .OHMM            .30:   RESISTIVITY MUD SAMPLE
 MST .F                43:   MUD SAMPLE TEMPERATURE
 RMF .OHMM            .28:   RESISTIVITY MUD FILTRATE SAMPLE
 MFST.F                43:   MUD FILTRATE SAMPLE TEMPERATURE
 RMC .OHMM            .40:   RESISTIVITY MUD CAKE
 MCST.F                43:   MUD CAKE SAMPLE TEMPERATURE
 MFSS.           MEASURED:   MUD FILTRATE SAMPLE SOURCE
 MCSS.           MEASURED:   MUD CAKE SAMPLE SOURCE
 RMB .OHMM            .13:   RESISTIVITY MUD AT BHT
 BHT .F               101:   BOTTOM HOLE TEMPERATURE
 TCS .HRS               5:   TIME CURCULATED STOPPED
 MRT .F               101:   MAXIMUM RECORDED TEMPERATURE
 LUN .               8611:   LOGGING UNIT NUMBER
 LUL .           GILLETTE:   LOGGING UNIT LOCATION
 ENGI.             LAWSON:   RECORDING ENGINEER
 WITN.         STUEBINGER:   WITNESSED BY
 CLNT.            A2DTECH:   CLIENT CODE
 ORIG.       2", 5" PRINT:   ORIGIN OF DATA
 UWI .       490251027400:   UNIQUE WELL ID
 DICO. A2D Technologies, Inc.:   DIGITIZING COMPANY
~OTHER INFORMATION
~A   DEPT     SGRD        ILM        SPR        ILD       CALD         GRD      DPHI       RHOB       CORR   
# ...
   52.5000  -999.2500     5.4222  -999.2500     3.8512     8.2316   135.6200     0.1452     2.4028     0.0990
   53.0000  -999.2500     5.3654  -999.2500     3.8172     8.2214   136.2335     0.1530     2.3878     0.0939
   53.5000  -999.2500     5.3162  -999.2500     3.9642     8.2219   134.8981     0.1574     2.3834     0.0891
   54.0000  -999.2500     5.4359  -999.2500     4.0712     8.2424   133.5308     0.1544     2.3890     0.0856
   54.5000  -999.2500     5.5237  -999.2500     3.8971     8.2364   132.1626     0.1547     2.3936     0.0842
   55.0000  -999.2500     5.6180  -999.2500     3.7382     8.2244   130.7814     0.1579     2.3860     0.0827
   55.5000  -999.2500     5.5133  -999.2500     3.5791     8.2225   130.8573     0.1612     2.3776     0.0813
   56.0000  -999.2500     5.3768  -999.2500     3.5745     8.2338   131.8055     0.1644     2.3692     0.0798
   56.5000  -999.2500     5.2438  -999.2500     3.5634     8.2411   132.7643     0.1676     2.3607     0.0784
   57.0000  -999.2500     5.1140  -999.2500     3.5522     8.2390   133.7208     0.1708     2.3522     0.0777
   57.5000  -999.2500     5.0307  -999.2500     3.5411     8.2284   134.6556     0.1732     2.3572     0.0771
   58.0000  -999.2500     5.0600  -999.2500     3.5300     8.2181   134.3515     0.1717     2.3664     0.0765
   58.5000  -999.2500     5.1365  -999.2500     3.5190     8.2079   132.6879     0.1703     2.3643     0.0759
   59.0000  -999.2500     5.2142  -999.2500     3.5080     8.2005   131.9481     0.1722     2.3591     0.0754
   59.5000  -999.2500     5.2676  -999.2500     3.4970     8.1748   131.8664     0.1742     2.3539     0.0748
   60.0000  -999.2500     5.3162  -999.2500     3.4861     8.1477   131.8170     0.1739     2.3484     0.0742
   60.5000  -999.2500     5.1312  -999.2500     3.4817     8.1207   132.4340     0.1678     2.3589     0.0750
   61.0000  -999.2500     5.0024  -999.2500     3.5071     8.0937   133.8150     0.1587     2.3815     0.0763
   61.5000  -999.2500     4.9364  -999.2500     3.5378     8.0822   135.1898     0.1471     2.4041     0.0830
   62.0000  -999.2500     5.1142  -999.2500     3.5688     8.1054   136.5697     0.1355     2.4249     0.0865
   62.5000  -999.2500     5.2533  -999.2500     3.6002     8.1710   137.9501     0.1299     2.4295     0.0895
   63.0000  -999.2500     5.3962  -999.2500     3.6317     8.2146   139.3266     0.1334     2.4283     0.0875
   63.5000  -999.2500     5.5431  -999.2500     3.6636     8.1818   140.7045     0.1372     2.4197     0.0837
   64.0000  -999.2500     5.6946  -999.2500     3.6957     8.1610   141.0258     0.1411     2.4111     0.0816
   64.5000  -999.2500     5.8454  -999.2500     3.7281     8.1618   140.1552     0.1450     2.4025     0.0806
   65.0000  -999.2500     5.9917  -999.2500     3.7851     8.1761   139.2795     0.1488     2.3942     0.0796
   65.5000  -999.2500     5.9917  -999.2500     3.8569     8.1814   138.3991     0.1493     2.3899     0.0786
   66.0000  -999.2500     6.0600  -999.2500     3.9082     8.1677   137.5224     0.1464     2.3992     0.0795
   66.5000  -999.2500     6.1250  -999.2500     3.9589     8.1486   136.9856     0.1435     2.4063     0.0820
   67.0000  -999.2500     6.1908    -0.2994     4.0102     8.1291   139.3498     0.1405     2.4136     0.0844
   67.5000  -999.2500     6.2164    -0.2994     4.0622     8.1216   141.8835     0.1379     2.4182     0.0857
   68.0000  -999.2500     6.3318    -1.4624     4.1149     8.1181   144.4102     0.1408     2.4126     0.0835
   68.5000  -999.2500     6.4531    -2.7460     4.1681     8.1030   144.0926     0.1440     2.4044     0.0814
   69.0000  -999.2500     6.5924    -4.3756     4.2238     8.0874   143.6785     0.1472     2.3964     0.0781
   69.5000  -999.2500     6.7345    -4.5696     4.3575     8.1180   146.4672     0.1505     2.3931     0.0728
   70.0000  -999.2500     6.8799    -4.1185     4.4993     8.1203   149.3261     0.1487     2.4080     0.0742
   70.5000  -999.2500     7.0283    -3.6462     4.6457     8.1165   147.9534     0.1447     2.4059     0.0756
   71.0000  -999.2500     7.1800    -3.0250     4.8045     8.1128   145.8213     0.1508     2.3984     0.0714
   71.5000  -999.2500     7.3349    -1.7936     4.8489     8.1092   143.6515     0.1571     2.3909     0.0680
   72.0000  -999.2500     7.4932    -0.5986     4.9390     8.1055   140.8958     0.1505     2.3897     0.0681
   72.5000  -999.2500     7.6548     0.3181     4.9697     8.1019   137.8978     0.1439     2.4113     0.0693
   73.0000  -999.2500     7.8200     0.2902     4.9997     8.0983   134.8838     0.1374     2.4323     0.0741
   73.5000  -999.2500     7.9887     0.2808     5.0298     8.0947   132.0107     0.1308     2.4411     0.0751
   74.0000  -999.2500     8.1611     0.2717     5.0601     8.0910   133.2765     0.1288     2.4355     0.0733
   74.5000  -999.2500     8.2683     0.2632     5.0905     8.0874   135.2270     0.1315     2.4294     0.0715
   75.0000  -999.2500     8.2683     0.2546     5.1212     8.0837   137.1828     0.1341     2.4232     0.0708
   75.5000  -999.2500     8.2683     0.2461     5.1523     8.0817   139.1171     0.1368     2.4202     0.0740
   76.0000  -999.2500     8.2683     0.2376     5.1715     8.0824   140.5479     0.1347     2.4265     0.0769
   76.5000  -999.2500     8.2683     0.2290     5.1561     8.1031   139.3923     0.1310     2.4347     0.0799
   77.0000  -999.2500     8.2683     0.2205     5.1308     8.1018   137.0695     0.1275     2.4411     0.0830
   77.5000  -999.2500     8.2683     0.2120     5.1056     8.1019   134.7617     0.1293     2.4363     0.0860
   78.0000  -999.2500     8.2683     0.2035     5.0805     8.1166   133.1393     0.1320     2.4303     0.0833
   78.5000  -999.2500     8.1660     0.1949     5.0555     8.1318   135.1086     0.1343     2.4365     0.0801
   79.0000  -999.2500     8.0615     0.1864     5.0307     8.1471   137.0438     0.1295     2.4431     0.0780
   79.5000  -999.2500     7.9583     0.1779     5.0059     8.1623   135.7101     0.1255     2.4416     0.0843
   80.0000  -999.2500     7.8564     0.1694     4.9813     8.1775   134.3340     0.1311     2.4292     0.0879
   80.5000  -999.2500     7.7557     0.1608     4.9569     8.1926   134.5741     0.1364     2.4172     0.0821
   81.0000  -999.2500     7.6562     0.1523     4.9325     8.2013   135.1233     0.1419     2.4116     0.0764
   81.5000  -999.2500     7.5585     0.1438     4.9083     8.2012   135.6671     0.1400     2.4184     0.0742
   82.0000  -999.2500     7.4724     0.1353     4.8842     8.2012   136.1960     0.1381     2.4217     0.0741
   82.5000  -999.2500     7.5692     0.1267     4.8601     8.2012   136.1158     0.1383     2.4133     0.0741
   83.0000  -999.2500     7.7532     0.1188     4.8363     8.2012   134.8212     0.1408     2.4054     0.0742
   83.5000  -999.2500     7.9695     0.1157     4.8125     8.2012   133.5178     0.1433     2.4015     0.0741
   84.0000  -999.2500     7.8502     0.1641     4.8044     8.2012   134.5492     0.1423     2.4099     0.0772
   84.5000  -999.2500     7.6736    -2.0971     4.8044     8.2012   135.1461     0.1388     2.4181     0.0821
   85.0000  -999.2500     7.5010    -4.7196     4.8043     8.1956   133.7156     0.1383     2.4202     0.0871
   85.5000  -999.2500     7.3361    -7.3470     4.8183     8.1853   132.3253     0.1409     2.4128     0.0921
   86.0000  -999.2500     7.4767    -9.9710     4.8416     8.1686   132.9959     0.1435     2.4060     0.0972
   86.5000  -999.2500     7.6418   -12.6018     4.8648     8.1476   133.4368     0.1452     2.3996     0.0987
   87.0000  -999.2500     7.8104   -15.0322     4.8883     8.1597   132.6724     0.1435     2.4019     0.0993
   87.5000  -999.2500     7.9828   -15.0862     4.9118     8.1757   131.8840     0.1402     2.4102     0.0998
   88.0000  -999.2500     8.1175   -15.0658     4.9354     8.1307   131.0896     0.1370     2.4184     0.0989
   88.5000  -999.2500     7.8805   -14.6680     4.9592     8.0862   130.2995     0.1337     2.4266     0.0946
