~VERSION INFORMATION
 VERS.                2.0:   CWLS LOG ASCII STANDARD - VERSION 2.0
 WRAP.                 NO:   ONE LINE PER DEPTH STEP
~WELL INFORMATION
#MNEM.UNIT      DATA TYPE    INFORMATION
#----------   ------------   ------------------------------
 STRT.F           15.0000:   START DEPTH
 STOP.F          557.0000:   STOP DEPTH
 STEP.F            0.5000:   STEP LENGTH
 NULL.          -999.2500:   NO VALUE
 COMP. FENIX & SICISSOR INC.:   COMPANY
 WELL.       NPR #85-S-10:   WELL
 FLD .             TEAPOT:   FIELD
 LOC .      S10 T38N R78W:   LOCATION
 CNTY.            NATRONA:   COUNTY
 STAT.            WYOMING:   STATE
 CTRY. UNITED STATES OF AMERICA:   COUNTRY
 SRVC.           BIRDWELL:   SERVICE COMPANY
 DATE.        27-NOV-1978:   LOGDATE
 API .       490251075300:   API NUMBER
~CURVE INFORMATION
#MNEM.UNIT       API CODE    CURVE DESCRIPTION
#----------   ------------   ------------------------------
 DEPT.F                  :   
 CALD.IN     45 280 60 00:   CALIPER FROM DENSITY LOG
 DPHI.DEC    45 890 12 00:   DENSITY POROSITY SANDSTONE
 GRD .GAPI   45 310 01 00:   GAMMA RAY FROM DENSITY LOG
 RHOB.G/C3   45 350 01 00:   BULK DENSITY
 CORR.G/C3   45 356 01 00:   DENSITY CORRECTION
 ILD .OHMM   05 120 46 00:   INDUCTION LOG DEEP
 SN  .OHMM   05 040 00 00:   SHORT NORMAL
 SPR .MV     05 010 01 00:   SPONTANEOUS POTENTIAL
~PARAMETER INFORMATION
#MNEM.UNIT          VALUE    DESCRIPTION
#----------   ------------   ------------------------------
 PD  .                 GL:   PERMANENT DATUM
 EPD .F              5196:   ELEVATION PERMANENT DATUM
 LMF .                 KB:   LOG MEASURED FROM
 DAPD.F                 4:   FEET ABOVE PERMANENT DATUM
 DMF .                 KB:   DRILLING MEASURED FROM
 EKB .F              5200:   KELLING BUSHING
 EGL .F              5196:   GROUND LEVEL
 DATE.        27-NOV-1978:   RUN DATE
 RUN .                  1:   RUN NUMBER
 DD  .F               557:   DEPTH DRILLER
 DL  .F               551:   DEPTH LOGGER
 BLI .F               545:   BOTTOM LOG INTERVAL
 TLI .F                48:   TOP LOG INTERVAL
 CS  .IN            8.625:   CASING SIZE
 CBD .F                40:   CASING BOTTOM DRILLER
 CBL .F                35:   CASING BOTTOM LOGGER
 BS  .IN            7.875:   BIT SIZE
 BSD .F               557:   BIT SIZE AT DEPTH
 DFT .                KCL:   DRILLING FLUID TYPE
 DFD .                8.8:   DRILLING FLUID DENSITY
 DFV .                 38:   DRILLING FLUID VISCOSITY
 DFPH.               11.1:   DRILLING FLUID PH
 DFL .                 14:   DRILLING FLUID LOSS
 MSS .           FLOWLINE:   MUD SAMPLE SOURCE
 RMS .OHMM           0.32:   RESISTIVITY MUD SAMPLE
 MST .F                58:   MUD SAMPLE TEMPERATURE
 RMF .OHMM           0.31:   RESISTIVITY MUD FILTRATE SAMPLE
 MFST.F                74:   MUD FILTRATE SAMPLE TEMPERATURE
 RMC .OHMM           0.53:   RESISTIVITY MUD CAKE
 MCST.F                75:   MUD CAKE SAMPLE TEMPERATURE
 MFSS.               MEAS:   MUD FILTRATE SAMPLE SOURCE
 MCSS.               MEAS:   MUD CAKE SAMPLE SOURCE
 RMB .OHMM           0.31:   RESISTIVITY MUD AT BHT
 BHT .F                59:   BOTTOM HOLE TEMPERATURE
 TCS .HRS               2:   TIME CURCULATED STOPPED
 MRT .F                59:   MAXIMUM RECORDED TEMPERATURE
 LUN .               2958:   LOGGING UNIT NUMBER
 LUL .             CASPER:   LOGGING UNIT LOCATION
 ENGI.             MILLER:   RECORDING ENGINEER
 WITN.           DINSMORE:   WITNESSED BY
 CLNT.            A2DTECH:   CLIENT CODE
 ORIG.         2.5" PRINT:   ORIGIN OF DATA
 UWI .       490251075300:   UNIQUE WELL ID
 DICO. A2D Technologies, Inc.:   DIGITIZING COMPANY
~OTHER INFORMATION
~A   DEPT     CALD       DPHI         GRD      RHOB       CORR        ILD         SN        SPR   
# ...
  258.0000     8.2687     0.1420   106.7654     2.4420     0.0078     6.8186     7.7451    -6.9631
  258.5000     8.2674     0.1410   107.2166     2.4450     0.0048     6.9269     7.9110    -6.9602
  259.0000     8.2386     0.1445   107.3951     2.4435     0.0048     7.0154     7.9136    -6.9572
  259.5000     8.2390     0.1507   109.5629     2.4315     0.0048     7.0169     8.0274    -6.9543
  260.0000     8.2393     0.1547   112.3467     2.4223     0.0048     7.0184     8.0296    -6.6463
  260.5000     8.2396     0.1512   113.5872     2.4209     0.0078     7.0198     8.1452    -6.6433
  261.0000     8.2399     0.1488   113.5931     2.4318     0.0079     7.0213     8.1474    -6.5772
  261.5000     8.2402     0.1482   111.7472     2.4330     0.0079     7.0228     8.1496    -6.3323
  262.0000     8.2712     0.1482   109.2840     2.4325     0.0076     7.0245     8.1519    -6.3293
  262.5000     8.2715     0.1488   106.7953     2.4315     0.0049     7.0259     8.1542    -6.3262
  263.0000     8.2718     0.1500   106.2095     2.4300     0.0049     7.0274     8.1565    -6.3232
  263.5000     8.2414     0.1519   108.1862     2.4285     0.0040     7.0288     8.1588    -6.3201
  264.0000     8.1804     0.1539   109.4733     2.4255    -0.0011     7.0302     8.1610    -6.3165
  264.5000     8.1193     0.1572   109.6224     2.4225    -0.0011     7.0317     8.1633    -6.3136
  265.0000     8.0583     0.1616   108.8838     2.4195    -0.0011     6.9352     8.0519    -6.6159
  265.5000     7.9649     0.1701   108.7099     2.4105    -0.0010     6.9214     7.9421    -6.9177
  266.0000     7.9323     0.1747   108.7160     2.3999    -0.0010     6.8414     7.7250    -6.9145
  266.5000     7.9426     0.1772   108.7233     2.3923    -0.0010     6.6536     7.7271    -6.9116
  267.0000     8.0454     0.1759   108.4206     2.3892    -0.0010     6.4026     7.5155    -6.9085
  267.5000     8.1421     0.1680   104.1056     2.3878    -0.0010     6.0420     7.4129    -6.9055
  268.0000     8.2262     0.1584   101.3337     2.4086     0.0051     5.7871     7.1095    -6.9024
  268.5000     8.2445     0.1536   100.7222     2.4166     0.0052     5.6283     6.8141    -6.8994
  269.0000     8.2448     0.1565   100.7284     2.4126     0.0081     5.4738     6.5179    -6.8963
  269.5000     8.2451     0.1609   100.7346     2.4069    -0.0015     5.4751     6.3435    -6.8933
  270.0000     8.2454     0.1632   101.3580     2.4082    -0.0047     5.4762     6.1862    -6.8902
  270.5000     8.2457     0.1564   108.5272     2.4191    -0.0069     5.4773     6.1882    -6.8872
  271.0000     8.2460     0.1523   107.7696     2.4288    -0.0069     5.5558     6.1899    -6.8836
  271.5000     8.2463     0.1501   105.4557     2.4303    -0.0069     5.8052     6.2773    -6.8806
  272.0000     8.2466     0.1505   104.4691     2.4303    -0.0069     6.0688     6.7622    -6.8777
  272.5000     8.2469     0.1553   107.5489     2.4258    -0.0068     6.4147     7.3305    -6.8747
  273.0000     8.2472     0.1583   112.2296     2.4182    -0.0068     6.6054     7.5409    -6.8718
  273.5000     8.2475     0.1613   116.8343     2.4107    -0.0068     6.8019     7.7574    -7.1738
  274.0000     8.2479     0.1625   116.8402     2.4168    -0.0068     6.9066     7.7595    -7.1707
  274.5000     8.2482     0.1601   116.8462     2.4104    -0.0068     7.0613     7.9823    -6.8628
  275.0000     8.2485     0.1557   115.9262     2.4175    -0.0068     7.2215     8.2115    -6.8598
  275.5000     8.2488     0.1495   113.7716     2.4364    -0.0068     7.2654     8.2138    -6.4797
  276.0000     8.2491     0.1408   109.2920     2.4430    -0.0067     7.4735     8.2161    -6.2439
  276.5000     8.2494     0.1439   105.3195     2.4414    -0.0067     7.4750     8.3345    -6.1260
  277.0000     8.2497     0.1481   103.9129     2.4330    -0.0067     7.4765     8.4545    -5.9329
  277.5000     8.2500     0.1513   105.7331     2.4252    -0.0067     7.4780     8.6657    -5.6250
  278.0000     8.2503     0.1483   106.9300     2.4275    -0.0067     7.5852     9.0027    -5.6213
  278.5000     8.2506     0.1403   107.9084     2.4351    -0.0067     7.5868     9.2041    -5.6184
  279.0000     8.2509     0.1359   109.6636     2.4441    -0.0067     7.6955     9.2072    -5.6155
  279.5000     8.2512     0.1347   115.6741     2.4502    -0.0097     7.6971     9.2097    -5.6125
  280.0000     8.2515     0.1353   118.5597     2.4533    -0.0127     7.7349     9.2122    -5.6096
  280.5000     8.2456     0.1377   117.2292     2.4533    -0.0132     7.8090     9.2147    -5.9115
  281.0000     8.2214     0.1419   117.2351     2.4472    -0.0066     7.8107     9.2172    -5.9085
  281.5000     8.1911     0.1492   117.2411     2.4378    -0.0006     7.8123     9.2197    -6.2105
  282.0000     8.1785     0.1570   116.9384     2.4252     0.0025     7.8143     9.2222    -6.2073
  282.5000     8.1304     0.1504   116.9444     2.4216     0.0058     7.8158     9.2248    -6.2043
  283.0000     8.1307     0.1404   116.7706     2.4369     0.0085     7.8174     9.2274    -6.1138
  283.5000     8.1310     0.1395   112.5302     2.4443     0.0078     7.8190     9.2300    -5.8933
  284.0000     8.1620     0.1456   110.0906     2.4380     0.0046     7.8206     9.2326    -5.8902
  284.5000     8.1930     0.1512   109.7649     2.4269     0.0056     7.8222     9.2352    -5.8872
  285.0000     8.1933     0.1555   111.1626     2.4231     0.0070     7.8238     9.2377    -5.8841
  285.5000     8.1322     0.1540   116.6574     2.4262     0.0102     7.8255     9.2403    -5.8806
  286.0000     8.1018     0.1527   118.5720     2.4262     0.0116     7.7180     9.1147    -6.1825
  286.5000     8.0715     0.1527   117.6122     2.4262     0.0147     7.7198     8.9903    -6.1795
  287.0000     8.0369     0.1539   113.2971     2.4262     0.0147     7.7214     8.9927    -6.1766
  287.5000     8.0107     0.1600   107.7475     2.4232     0.0147     7.6155     8.7464    -6.1737
  288.0000     8.0110     0.1672   106.8272     2.4021     0.0147     7.5111     8.6270    -6.1707
  288.5000     8.0221     0.1720   111.4631     2.3958     0.0238     7.4084     8.5092    -6.1677
  289.0000     8.0730     0.1703   112.7037     2.3930     0.0361     7.3065     8.3869    -6.1646
  289.5000     8.0885     0.1520   112.7099     2.4199     0.0490     7.1061     8.2640    -6.2215
  290.0000     8.1350     0.1453   112.7160     2.4324     0.0678     6.9111     8.1429    -6.4638
  290.5000     8.1660     0.1506   112.7222     2.4253     0.0840     6.7214     8.0539    -6.7657
  291.0000     8.1970     0.1731   112.8261     2.4015     0.0678     6.5369     8.0176    -6.8862
  291.5000     8.1973     0.1889   113.4727     2.3843     0.0454     6.3523     7.9001    -7.5142
  292.0000     8.1976     0.1871   113.9753     2.3646     0.0374     6.1715     7.7312    -7.9756
  292.5000     8.2285     0.1889   114.1229     2.3387     0.0389     5.9787     7.4581    -8.5818
  293.0000     8.2288     0.2143   111.2110     2.3326     0.0420     5.7217     7.0108    -9.1890
  293.5000     8.2291     0.2739   109.3651     2.3205     0.0420     5.4757     6.7239    -9.7954
  294.0000     8.2601     0.2789   108.7538     2.2994     0.0480     5.0652     6.3590   -10.4022
  294.5000     8.2604     0.2723   108.4506     2.2479     0.0601     4.5782     5.9301   -10.7041
  295.0000     8.2607     0.2767   108.7657     2.2132     0.0752     4.1965     5.6082   -11.0061
  295.5000     8.2610     0.2807   106.6111     2.2086     0.0842     3.5344     4.8738   -10.9919
  296.0000     8.2613     0.2793   101.3294     2.2120     0.0777     2.9878     4.3409   -10.6951
  296.5000     8.2617     0.2747    94.1028     2.2242     0.0692     2.8254     3.9204   -10.2795
  297.0000     8.2445     0.2674    93.0487     2.2623     0.0729     2.7866     3.5021    -9.0894
  297.5000     8.2009     0.2130    93.9043     2.3316     0.0761     2.7484     3.2693    -8.1504
  298.0000     8.1399     0.1526    97.9486     2.4009     0.0783     2.8119     3.1454    -7.9390
