~VERSION INFORMATION
 VERS.                2.0:   CWLS LOG ASCII STANDARD - VERSION 2.0
 WRAP.                 NO:   ONE LINE PER DEPTH STEP
~WELL INFORMATION
#MNEM.UNIT      DATA TYPE    INFORMATION
#----------   ------------   ------------------------------
 STRT.F           70.0000:   START DEPTH
 STOP.F          990.0000:   STOP DEPTH
 STEP.F            0.5000:   STEP LENGTH
 NULL.          -999.2500:   NO VALUE
 COMP. U S NAVY/INTEX OIL CO:   COMPANY
 WELL.      NPR 3 #55 S-2:   WELL
 FLD .            WILDCAT:   FIELD
 LOC .       S2 T38N R78W:   LOCATION
 CNTY.            NATRONA:   COUNTY
 STAT.            WYOMING:   STATE
 CTRY. UNITED STATES OF AMERICA:   COUNTRY
 SRVC.         Lane Wells:   SERVICE COMPANY
 DATE.        23-MAR-1960:   LOGDATE
 API .       490250968000:   API NUMBER
~CURVE INFORMATION
#MNEM.UNIT       API CODE    CURVE DESCRIPTION
#----------   ------------   ------------------------------
 DEPT.F                  :   
 SPR .MV     05 010 01 00:   SPONTANEOUS POTENTIAL FROM RES.
 ASN .OHMM   05 041 16 00:   AMPLIFIED SHORT NORMAL 16"
 ILD .OHMM   05 120 46 00:   INDUCTION LOG DEEP
 CILD.MMHO   05 110 46 00:   CONDUCTIVITY INDUCTION LOG DEEP
~PARAMETER INFORMATION
#MNEM.UNIT          VALUE    DESCRIPTION
#----------   ------------   ------------------------------
 PD  .                 GL:   PERMANENT DATUM
 EPD .F              5163:   ELEVATION PERMANENT DATUM
 LMF .                 KB:   LOG MEASURED FROM
 DAPD.F                 5:   FEET ABOVE PERMANENT DATUM
 DMF .                 KB:   DRILLING MEASURED FROM
 EKB .F              5168:   KELLING BUSHING
 EGL .F              5163:   GROUND LEVEL
 DATE.        23-MAR-1960:   RUN DATE
 RUN .                  1:   RUN NUMBER
 DD  .F              1010:   DEPTH DRILLER
 DL  .F               992:   DEPTH LOGGER
 BLI .F               990:   BOTTOM LOG INTERVAL
 TLI .F                70:   TOP LOG INTERVAL
 CS  .IN            8.625:   CASING SIZE
 CBD .F                12:   CASING BOTTOM DRILLER
 BS  .IN            7.875:   BIT SIZE
 BSD .F              1010:   BIT SIZE AT DEPTH
 DFT .   GEL-OIL EMULSION:   DRILLING FLUID TYPE
 DFD .                9.5:   DRILLING FLUID DENSITY
 DFV .                 40:   DRILLING FLUID VISCOSITY
 MSS .           FLOWLINE:   MUD SAMPLE SOURCE
 RMS .OHMM            2.8:   RESISTIVITY MUD SAMPLE
 MST .F                74:   MUD SAMPLE TEMPERATURE
 RMF .OHMM            2.0:   RESISTIVITY MUD FILTRATE SAMPLE
 MFST.F                74:   MUD FILTRATE SAMPLE TEMPERATURE
 RMC .OHMM            3.9:   RESISTIVITY MUD CAKE
 MCST.F                74:   MUD CAKE SAMPLE TEMPERATURE
 MFSS.          MUD PRESS:   MUD FILTRATE SAMPLE SOURCE
 MCSS.          MUD PRESS:   MUD CAKE SAMPLE SOURCE
 RMB .OHMM            2.8:   RESISTIVITY MUD AT BHT
 BHT .F                74:   BOTTOM HOLE TEMPERATURE
 MRT .F                74:   MAXIMUM RECORDED TEMPERATURE
 LUN .             L-4474:   LOGGING UNIT NUMBER
 LUL .             CASPER:   LOGGING UNIT LOCATION
 ENGI.             NELSON:   RECORDING ENGINEER
 WITN.          JORGENSEN:   WITNESSED BY
 CLNT.            A2DTECH:   CLIENT CODE
 ORIG.       2", 5" PRINT:   ORIGIN OF DATA
 UWI .       490250968000:   UNIQUE WELL ID
 DICO. A2D Technologies, Inc.:   DIGITIZING COMPANY
~OTHER INFORMATION
~A   DEPT      SPR          ASN        ILD      CILD  
# ...
  362.0000   -42.2131     2.7827     2.6368   483.4089
  362.5000   -42.2700     2.9439     2.7040   459.3050
  363.0000   -42.6321     3.1243     2.7714   438.6305
  363.5000   -43.0738     3.3371     2.9078   409.3406
  364.0000   -43.6885     3.7872     3.0168   384.8915
  364.5000   -44.2623     4.3779     3.2100   360.8808
  365.0000   -44.7404     4.6850     3.5169   329.6704
  365.5000   -45.0820     4.7629     3.7152   311.7936
  366.0000   -45.0820     4.7937     3.8558   293.9560
  366.5000   -44.4809     4.8073     3.8550   286.8908
  367.0000   -43.7158     4.8072     3.8544   284.3406
  367.5000   -43.3060     4.8069     3.8537   284.3406
  368.0000   -43.1421     4.7764     3.6816   286.8865
  368.5000   -43.1694     4.7261     3.5713   291.3940
  369.0000   -43.2286     4.5348     3.3754   301.7076
  369.5000   -43.3060     4.2325     3.2344   322.7242
  370.0000   -43.2149     3.8236     3.0340   355.7692
  370.5000   -42.6435     3.4257     2.7899   400.7385
  371.0000   -42.0765     3.0903     2.7605   419.5191
  371.5000   -41.6667     2.9957     2.7598   425.8242
  372.0000   -41.7213     3.0177     2.7592   425.8242
  372.5000   -42.4863     3.0729     2.7602   421.7034
  373.0000   -43.2331     3.2145     2.8691   412.0191
  373.5000   -43.9891     3.3372     2.9781   397.2173
  374.0000   -43.7705     3.5546     3.0965   373.6264
  374.5000   -43.5792     3.7723     3.2641   352.2246
  375.0000   -43.5792     4.0238     3.4410   328.8680
  375.5000   -43.7773     4.2346     3.5706   313.1868
  376.0000   -43.8707     4.3289     3.6382   309.1206
  376.5000   -44.2623     4.4250     3.6374   303.5714
  377.0000   -44.3033     4.4739     3.6007   300.6686
  377.5000   -44.3989     4.4793     3.5680   299.4506
  378.0000   -44.2623     4.4656     3.4992   299.4506
  378.5000   -44.1052     4.4264     3.4738   303.3287
  379.0000   -43.8525     4.3677     3.3619   307.7751
  379.5000   -43.6110     4.2621     3.3212   314.0021
  380.0000   -43.3060     4.0409     3.2925   322.8938
  380.5000   -43.1694     3.7850     3.2237   336.5384
  381.0000   -43.0328     3.6632     3.1551   350.3208
  381.5000   -43.1694     3.5742     3.0864   371.1768
  382.0000   -43.1694     3.4582     3.0857   390.1098
  382.5000   -42.8848     3.3909     3.0170   395.2152
  383.0000   -42.3497     3.3220     3.0163   398.3516
  383.5000   -41.9035     3.2592     3.0156   402.7330
  384.0000   -41.1202     3.1935     3.0150   404.4322
  384.5000   -41.2705     3.1314     3.0142   407.9670
  385.0000   -41.7350     3.0941     3.0136   409.9585
  385.5000   -42.3497     3.0768     3.0129   413.5554
  386.0000   -42.9235     3.0552     2.9442   417.5824
  386.5000   -43.4472     3.0116     2.8652   422.0047
  387.0000   -43.8024     2.8861     2.8067   435.4396
  387.5000   -43.7158     2.7647     2.7381   462.3409
  388.0000   -43.4426     2.5970     2.6694   491.6475
  388.5000   -43.3060     2.4258     2.5600   519.2308
  389.0000   -43.1421     2.3282     2.4639   533.4896
  389.5000   -42.7596     2.2599     2.3952   546.8264
  390.0000   -42.7141     2.2327     2.3945   560.1647
  390.5000   -42.3497     2.2535     2.3939   564.5604
  391.0000   -42.2723     2.4366     2.3932   539.8352
  391.5000   -42.2131     2.5248     2.4607   504.3769
  392.0000   -42.2131     2.6678     2.4598   475.0352
  392.5000   -42.2131     2.9017     2.5606   447.8022
  393.0000   -42.2131     3.1578     2.6696   433.4702
  393.5000   -42.2131     3.5655     2.7978   403.8462
  394.0000   -42.2131     3.6926     2.9097   383.9565
  394.5000   -42.2131     3.7014     3.0007   371.9803
  395.0000   -42.4180     3.6936     3.1055   370.8792
  395.5000   -42.6389     3.6557     3.1463   372.8503
  396.0000   -43.0328     3.6060     3.2027   376.5938
  396.5000   -43.3538     3.5571     3.2020   384.1852
  397.0000   -43.7158     3.4692     3.2014   395.2471
  397.5000   -44.2281     3.3462     3.1593   409.3406
  398.0000   -44.3989     3.2502     3.1170   423.2968
  398.5000   -44.1257     3.1158     2.9952   436.4354
  399.0000   -43.5383     2.9916     2.9644   449.1758
  399.5000   -42.7322     2.8669     2.8540   456.7673
  400.0000   -42.2124     2.7788     2.7891   465.6594
  400.5000   -42.2107     2.7212     2.7885   465.6456
  401.0000   -42.2090     2.7299     2.7877   465.6319
  401.5000   -42.2067     2.8295     2.8899   458.3847
  402.0000   -42.5191     3.0065     2.9905   435.3826
  402.5000   -43.0340     3.1653     3.1257   411.3317
  403.0000   -43.5601     3.4648     3.2174   383.1592
  403.5000   -44.1819     4.0017     3.3966   358.7874
  404.0000   -44.6556     4.3799     3.6118   336.7026
  404.5000   -44.8552     4.4890     3.8445   314.4352
  405.0000   -44.9250     4.6052     4.0748   302.7476
  405.5000   -44.9224     4.7468     4.2689   289.5459
  406.0000   -44.7841     4.8242     4.4848   278.9564
  406.5000   -44.5088     4.9370     4.5940   266.3508
  407.0000   -44.2291     5.0994     4.7220   256.6746
  407.5000   -43.7875     5.2415     4.8877   250.0229
  408.0000   -43.2729     5.4944     4.9216   242.6378
  408.5000   -43.1346     5.7498     5.0307   235.9958
  409.0000   -43.1325     6.0123     5.0898   229.7435
  409.5000   -43.1305     6.2044     5.1572   222.2656
  410.0000   -43.1512     6.3973     5.1564   216.0709
  410.5000   -43.2630     6.5550     5.2238   209.5787
  411.0000   -43.4499     6.5549     5.3045   204.3658
  411.5000   -43.6687     6.5111     5.3585   201.1608
  412.0000   -43.8852     6.4185     5.3868   198.8456
  412.5000   -44.2395     6.3464     5.4252   198.0883
  413.0000   -44.4820     6.3230     5.4245   196.0715
  413.5000   -44.6749     6.3299     5.4238   194.6820
  414.0000   -44.8880     6.3772     5.4911   194.6703
  414.5000   -44.8859     6.3906     5.4905   194.6564
  415.0000   -44.8839     6.3905     5.4898   194.6428
  415.5000   -44.8816     6.3903     5.4890   194.6292
  416.0000   -44.8798     6.3824     5.4204   194.6136
  416.5000   -44.8777     6.3604     5.4197   194.6017
  417.0000   -44.8753     6.3219     5.4191   194.5879
  417.5000   -44.8338     6.2835     5.4183   194.5742
  418.0000   -44.7348     6.2397     5.4176   194.5604
  418.5000   -44.5269     6.2176     5.4170   194.5454
  419.0000   -44.3051     6.1989     5.4163   194.5329
  419.5000   -44.1820     6.2668     5.4156   194.4393
  420.0000   -44.5446     6.4054     5.4150   192.2161
  420.5000   -45.1345     6.5765     5.4823   189.9931
  421.0000   -45.8429     6.7970     5.5154   186.2352
  421.5000   -46.4968     6.9031     5.6247   182.7997
  422.0000   -46.0844     7.0280     5.6843   180.5769
  422.5000   -45.5704     7.1245     5.7069   177.9508
  423.0000   -44.9877     7.1966     5.7510   177.9395
  423.5000   -44.5508     7.2589     5.7892   177.9252
  424.0000   -44.3005     7.3045     5.8178   178.6446
  424.5000   -44.1616     7.2995     5.7489   179.4664
  425.0000   -44.1029     7.2619     5.6802   182.0034
  425.5000   -44.1578     7.0795     5.6774   183.8575
  426.0000   -44.1557     6.8092     5.5669   187.4722
  426.5000   -44.1537     6.6162     5.4564   192.5759
  427.0000   -44.1514     6.3131     5.3374   201.5707
  427.5000   -44.2122     5.9753     5.1672   217.6494
  428.0000   -44.2842     5.6787     4.9206   231.6497
  428.5000   -44.2821     5.2439     4.5870   256.2570
  429.0000   -44.3188     4.8018     4.3137   294.4626
  429.5000   -44.4146     4.1452     3.9734   331.3636
  430.0000   -44.5491     3.2979     3.6145   383.7898
  430.5000   -44.5472     3.0293     3.1744   433.8895
  431.0000   -44.5447     2.8487     2.6788   476.4135
  431.5000   -44.4064     2.8005     2.4862   493.5721
  432.0000   -44.2677     2.7804     2.4055   501.8704
  432.5000   -43.8445     2.9435     2.4484   463.3918
  433.0000   -43.5806     3.2179     2.7286   434.2335
  433.5000   -43.7149     3.5147     3.0836   394.5349
  434.0000   -43.9499     4.1019     3.4526   343.8436
  434.5000   -44.3941     5.1358     3.9943   312.5337
