~VERSION INFORMATION
 VERS.                2.0:   CWLS LOG ASCII STANDARD - VERSION 2.0
 WRAP.                 NO:   ONE LINE PER DEPTH STEP
~WELL INFORMATION
#MNEM.UNIT      DATA TYPE    INFORMATION
#----------   ------------   ------------------------------
 STRT.F           30.0000:   START DEPTH
 STOP.F          481.0000:   STOP DEPTH
 STEP.F            0.5000:   STEP LENGTH
 NULL.          -999.2500:   NO VALUE
 COMP. FENIX & SCISSON INC:   COMPANY
 WELL.       NPR-3 #47-10:   WELL
 FLD .             TEAPOT:   FIELD
 LOC .      S10 T38N R78W:   LOCATION
 CNTY.            NATRONA:   COUNTY
 STAT.            WYOMING:   STATE
 CTRY. UNITED STATES OF AMERICA:   COUNTRY
 SRVC.           BIRDWELL:   SERVICE COMPANY
 DATE.        16-JUN-1978:   LOGDATE
 API .       490251064800:   API NUMBER
~CURVE INFORMATION
#MNEM.UNIT       API CODE    CURVE DESCRIPTION
#----------   ------------   ------------------------------
 DEPT.F                  :   
 SPR .MV     05 010 01 00:   SPONTANEOUS POTENTIAL FROM RES.
 SN  .OHMM   05 040 16 00:   SHORT NORMAL 16"
 ILD .OHMM   05 120 46 00:   INDUCTION LOG DEEP
 CALD.IN     45 280 60 00:   CALIPER FROM DENSITY LOG
 GRD .GAPI   45 310 01 00:   GAMMA RAY FROM DENSITY LOG
 CORR.G/C3   45 356 01 00:   DENSITY CORRECTION
 DPHI.DEC    45 890 12 00:   DENSITY POROSITY SANDSTONE
 DEN .G/C3   45 350 01 00:   COMPENSATED BULK DENSITY
~PARAMETER INFORMATION
#MNEM.UNIT          VALUE    DESCRIPTION
#----------   ------------   ------------------------------
 PD  .                 GL:   PERMANENT DATUM
 EPD .F              5200:   ELEVATION PERMANENT DATUM
 LMF .                 KB:   LOG MEASURED FROM
 DAPD.F                 4:   FEET ABOVE PERMANENT DATUM
 DMF .                 KB:   DRILLING MEASURED FROM
 EKB .F              5204:   KELLING BUSHING
 EGL .F              5200:   GROUND LEVEL
 DATE.        16-JUN-1978:   RUN DATE
 RUN .                  1:   RUN NUMBER
 DD  .F               513:   DEPTH DRILLER
 DL  .F               481:   DEPTH LOGGER
 BLI .F               475:   BOTTOM LOG INTERVAL
 TLI .F                40:   TOP LOG INTERVAL
 CS  .IN            8.625:   CASING SIZE
 CBD .F                40:   CASING BOTTOM DRILLER
 CBL .F                40:   CASING BOTTOM LOGGER
 BS  .IN            7.875:   BIT SIZE
 BSD .F               513:   BIT SIZE AT DEPTH
 DFT .                KCL:   DRILLING FLUID TYPE
 DFD .                8.6:   DRILLING FLUID DENSITY
 DFV .                 30:   DRILLING FLUID VISCOSITY
 DFPH.                 10:   DRILLING FLUID PH
 DFL .                 16:   DRILLING FLUID LOSS
 MSS .           FLOWLINE:   MUD SAMPLE SOURCE
 RMS .OHMM            .36:   RESISTIVITY MUD SAMPLE
 MST .F                72:   MUD SAMPLE TEMPERATURE
 RMF .OHMM            .34:   RESISTIVITY MUD FILTRATE SAMPLE
 MFST.F                70:   MUD FILTRATE SAMPLE TEMPERATURE
 RMC .OHMM            .52:   RESISTIVITY MUD CAKE
 MCST.F                72:   MUD CAKE SAMPLE TEMPERATURE
 MFSS.               MEAS:   MUD FILTRATE SAMPLE SOURCE
 MCSS.               MEAS:   MUD CAKE SAMPLE SOURCE
 RMB .OHMM            .32:   RESISTIVITY MUD AT BHT
 BHT .F                82:   BOTTOM HOLE TEMPERATURE
 TCS .HRS            0400:   TIME CURCULATED STOPPED
 MRT .F                82:   MAXIMUM RECORDED TEMPERATURE
 LUN .               2958:   LOGGING UNIT NUMBER
 LUL .               CASP:   LOGGING UNIT LOCATION
 ENGI.           REYNOLDS:   RECORDING ENGINEER
 WITN.           MCGINLEY:   WITNESSED BY
 CLNT.            A2DTECH:   CLIENT CODE
 ORIG.           5" PRINT:   ORIGIN OF DATA
 UWI .       490251064800:   UNIQUE WELL ID
 DICO. A2D Technologies, Inc.:   DIGITIZING COMPANY
~OTHER INFORMATION
~A   DEPT      SPR         SN        ILD       CALD         GRD      CORR       DPHI        DEN   
# ...
  313.5000   -54.3267     6.5038     5.0810     7.0303   116.8895     0.0089     0.1395     2.4336
  314.0000   -54.4813     6.1916     4.9758     7.0465   119.3375     0.0060     0.1394     2.4157
  314.5000   -54.4858     5.7302     5.0811     7.0776   121.0924     0.0046     0.1568     2.4053
  315.0000   -54.0399     5.2710     5.1878     7.0790   120.0199     0.0063     0.1601     2.4480
  315.5000   -52.9933     5.0612     5.1072     7.1101   118.2447     0.0064     0.1415     2.4480
  316.0000   -52.5473     5.1058     4.9315     7.1263   116.0260     0.0095     0.1343     2.4496
  316.5000   -52.2504     5.4251     4.8016     7.0830   119.4130     0.0111     0.1346     2.4497
  317.0000   -52.2560     5.6923     4.9012     6.9652   121.1702     0.0202     0.1390     2.4340
  317.5000   -52.2605     5.9317     5.0724     6.9367   120.9552     0.0740     0.1456     2.4333
  318.0000   -52.2649     5.7287     5.2138     6.9530   119.7890     0.0234     0.1490     2.4349
  318.5000   -52.1182     5.3448     5.2488     6.9692   116.2689     0.0370     0.1506     2.4663
  319.0000   -52.1238     5.1618     5.1398     7.0003   114.2826     0.0416     0.1309     2.4881
  319.5000   -52.1282     5.1249     5.1034     7.0761   112.4054     0.0418     0.1183     2.4919
  320.0000   -52.1327     5.1235     5.0672     7.1816   113.9128     0.0434     0.1128     2.4942
  320.5000   -52.1372     5.2294     5.2081     7.0490   117.0591     0.0450     0.1107     2.4935
  321.0000   -52.1412     5.4117     5.4651     7.0057   118.2620     0.0436     0.1071     2.4928
  321.5000   -52.1462     5.7177     5.7348     6.9772   114.3963     0.0438     0.1066     2.4929
  322.0000   -52.1507     6.0829     6.0594     6.9790   116.3485     0.0380     0.1077     2.4922
  322.5000   -52.1555     6.3826     6.2711     7.0402   114.8679     0.0247     0.1092     2.4907
  323.0000   -52.1596     6.5145     6.3136     7.1322   113.0857     0.0159     0.1101     2.4900
  323.5000   -52.4644     6.5127     6.1400     7.2058   115.3394     0.0160     0.1155     2.4834
  324.0000   -52.7692     6.5109     5.8086     7.1922   115.6498     0.0146     0.1253     2.4558
  324.5000   -52.9238     6.5091     5.3824     7.1340   115.6617     0.0118     0.1322     2.4529
  325.0000   -53.2286     6.4625     5.0568     7.1950   115.8229     0.0101     0.1322     2.4514
  325.5000   -53.3832     6.1133     4.8841     7.1729   116.4318     0.0285     0.1393     2.4448
  326.0000   -53.5379     5.4720     4.7829     7.0640   117.9362     0.0569     0.1653     2.4097
  326.5000   -53.6925     5.0352     4.7819     7.0653   119.5899     0.0575     0.1716     2.4015
  327.0000   -53.0964     4.8294     4.7480     7.0815   120.6466     0.0140     0.1620     2.4150
  327.5000   -51.8997     4.7949     4.7471     7.0676   118.8675     0.0081     0.1416     2.4442
  328.0000   -51.9041     4.8268     4.7461     7.0246   116.0406     0.0083     0.1422     2.4593
  328.5000   -51.9086     4.8987     4.8505     6.9664   119.0405     0.0084     0.1347     2.4683
  329.0000   -52.0633     5.1518     5.1278     6.9678   118.3061     0.0070     0.1272     2.4691
  329.5000   -52.0677     5.7121     5.5406     6.9691   116.5270     0.0042     0.1284     2.4751
  330.0000   -52.0722     6.0979     5.9564     6.9703   110.7180     0.0058     0.1203     2.4797
  330.5000   -51.9258     6.3542     6.1648     6.9717   106.1030     0.0059     0.1215     2.4790
  331.0000   -51.9310     6.3525     6.2062     6.9730   106.5627     0.0076     0.1185     2.4845
  331.5000   -51.9355     6.5287     6.2047     6.9442   107.7686     0.0107     0.1155     2.4956
  332.0000   -51.9400     7.0423     6.2464     6.9161   108.3775     0.0153     0.1116     2.4993
  332.5000   -51.7943     7.1884     6.4201     6.8877   111.3745     0.0094     0.1068     2.5002
  333.0000   -51.7988     7.1859     6.6444     6.8741   115.4163     0.0081     0.1008     2.5010
  333.5000   -51.8033     7.4183     6.8296     6.8755   115.5774     0.0082     0.0995     2.5019
  334.0000   -51.8082     7.7494     6.8755     6.8917   114.9923     0.0084     0.1019     2.5009
  334.5000   -51.8124     7.8551     6.9218     6.8930   112.1684     0.0085     0.1073     2.4981
  335.0000   -51.8168     7.9074     6.9683     6.8944   109.4937     0.0086     0.1046     2.4982
  335.5000   -51.9715     7.9051     6.9665     6.8957   108.3086     0.0073     0.1087     2.4975
  336.0000   -51.9921     7.9577     6.9651     6.8970   108.6220     0.0074     0.1093     2.4953
  336.5000   -52.2808     7.9008     6.9637     6.9132   107.1414     0.0091     0.1102     2.4924
  337.0000   -52.4355     7.8986     6.9622     6.9146   109.0936     0.0107     0.1033     2.4925
  337.5000   -52.4400     8.0618     6.9129     6.9159   110.1502     0.0123     0.1000     2.4963
  338.0000   -52.2941     8.1155     6.9115     6.9172   107.1771     0.0095     0.1122     2.5031
  338.5000   -52.2997     8.1132     6.9100     6.9037   104.3502     0.0036     0.1101     2.5046
  339.0000   -52.1529     8.1105     6.9086     6.9050   104.6636    -0.0007     0.1080     2.4987
  339.5000   -52.0072     8.0525     6.9072     6.9213   108.7053    -0.0021     0.1059     2.4905
  340.0000   -51.7114     8.0503     6.9058     6.9229   111.5530    -0.0019     0.1113     2.4809
  340.5000   -51.7170     7.9926     6.9522     6.9093   114.6993    -0.0018     0.1172     2.4794
  341.0000   -51.4212     7.9354     6.9508     6.8955   116.5022    -0.0047     0.1181     2.4795
  341.5000   -51.2744     7.8786     7.0504     6.9120   114.4246    -0.0075     0.1181     2.4796
  342.0000   -51.1287     7.8222     7.3468     7.0469   110.4066    -0.0073     0.1181     2.4774
  342.5000   -51.1343     7.9289     7.5994     6.9593   107.4334    -0.0057     0.1184     2.4737
  343.0000   -51.5893     7.9822     7.8107     6.8416   105.9528     0.0004     0.1185     2.4655
  343.5000   -52.3445     8.0905     7.9178     6.7685   105.7890     0.0050     0.1262     2.4559
  344.0000   -52.7994     8.0883     7.4901     6.7249   107.4691     0.0066     0.1310     2.4530
  344.5000   -52.9541     8.0861     6.7981     6.7265   108.3766     0.0082     0.1343     2.4485
  345.0000   -52.9586     7.8635     6.0063     6.7279   104.2094     0.0128     0.1458     2.4314
  345.5000   -52.9630     7.2359     5.4099     6.7441   103.3257     0.0294     0.1555     2.4008
  346.0000   -52.9675     6.1710     5.1534     6.7454   104.5317     0.0668     0.1831     2.3501
  346.5000   -52.5215     5.1193     5.0467     6.7467   119.4689     0.2055     0.2118     2.2985
  347.0000   -51.9254     5.3346     5.1513     6.7778   126.7943     0.1505     0.2361     2.2926
  347.5000   -51.3293     5.4449     5.3313     6.8685   125.0151     0.0135     0.2385     2.3136
  348.0000   -50.8833     5.4433     5.4418     7.6287   110.4002     0.0047     0.1636     2.3892
  348.5000   -50.5864     5.5176     5.5932     7.0199   107.7254     0.0048     0.1241     2.4400
  349.0000   -50.2906     5.9516     5.9098     7.0213   107.7374     0.0065     0.0996     2.5036
  349.5000   -50.4463     7.9533     6.9744     7.0226   104.6150     0.0096     0.0981     2.5059
  350.0000   -50.6006     9.0666     8.4613     7.0441   102.8358     0.0097     0.0984     2.5060
  350.5000   -50.6051     9.7120     9.0013     7.0777   102.7677     0.0089     0.0993     2.5060
  351.0000   -50.6096     9.7758     8.9975     7.0565   102.8610     0.0084     0.1022     2.5054
  351.5000   -50.6141     9.7724     8.7490     7.0277   103.0218     0.0071     0.1022     2.5054
  352.0000   -50.0141     9.7691     8.6266     6.9215   103.6305     0.0072     0.1024     2.5055
  352.5000   -49.4169     9.9702     8.6236     6.8519   103.6568     0.0073     0.1036     2.5055
  353.0000   -49.4264    10.1055     8.8036     6.9279   103.9542     0.0074     0.1060     2.5056
  353.5000   -49.5810    10.3152     9.1103     7.0036   104.5801     0.0105     0.1080     2.4855
