~VERSION INFORMATION
 VERS.                2.0:   CWLS LOG ASCII STANDARD - VERSION 2.0
 WRAP.                 NO:   ONE LINE PER DEPTH STEP
~WELL INFORMATION
#MNEM.UNIT      DATA TYPE    INFORMATION
#----------   ------------   ------------------------------
 STRT.F          664.0000:   START DEPTH
 STOP.F         1880.0000:   STOP DEPTH
 STEP.F            0.5000:   STEP LENGTH
 NULL.          -999.2500:   NO VALUE
 COMP. LAWRENCE/ALLISON INC:   COMPANY
 WELL.     NPR 3 TX #42-3:   WELL
 FLD .             TEAPOT:   FIELD
 LOC .       S3 T38N R78W:   LOCATION
 CNTY.            NATRONA:   COUNTY
 STAT.            WYOMING:   STATE
 CTRY. UNITED STATES OF AMERICA:   COUNTRY
 SRVC.            Unknown:   SERVICE COMPANY
 DATE.        23-JUN-1984:   LOGDATE
 API .       490251096800:   API NUMBER
~CURVE INFORMATION
#MNEM.UNIT       API CODE    CURVE DESCRIPTION
#----------   ------------   ------------------------------
 DEPT.F                  :   
 ROP .MIN/FT 91 810 01 00:   RAT OF DRILLING PENETRATION
 TGAS.UNITS  91 830 01 00:   TOTAL GAS FROM HOTWIRE
~PARAMETER INFORMATION
#MNEM.UNIT          VALUE    DESCRIPTION
#----------   ------------   ------------------------------
 EKB .F              5142:   KELLING BUSHING
 EGL .F              5132:   GROUND LEVEL
 DATE.            6-23-84:   RUN DATE
 BLI .F              1180:   BOTTOM LOG INTERVAL
 TLI .F               660:   TOP LOG INTERVAL
 CS  .IN            8.625:   CASING SIZE
 CBD .F               653:   CASING BOTTOM DRILLER
 LUN .               T-63:   LOGGING UNIT NUMBER
 ENGI.            JOHNSON:   RECORDING ENGINEER
 WITN.           SCHERGER:   WITNESSED BY
 CLNT.            A2DTECH:   CLIENT CODE
 ORIG.           5" PRINT:   ORIGIN OF DATA
 UWI .       490251096800:   UNIQUE WELL ID
 DICO. A2D Technologies, Inc.:   DIGITIZING COMPANY
~OTHER INFORMATION
~A   DEPT        ROP       TGAS 
  664.0000     0.8099     4.3760
  664.5000     0.8104     4.2392
  665.0000     0.8110     4.1025
  665.5000     0.8115     3.9657
  666.0000     0.8120     3.8290
  666.5000     0.8125     3.6922
  667.0000     0.8130     3.5555
  667.5000     0.8135     3.4187
  668.0000     0.8140     3.2820
  668.5000     0.8146     3.1452
  669.0000     0.8151     3.0085
  669.5000     0.8156     2.8717
  670.0000     0.8161     2.7350
  670.5000     0.8166     2.5982
  671.0000     0.8171     2.4615
  671.5000     0.8177     2.3247
  672.0000     0.8182     2.1880
  672.5000     0.8187     2.0512
  673.0000     0.8192     1.9145
  673.5000     0.8197     1.7777
  674.0000     0.8244     1.6410
  674.5000     0.9058     1.5042
  675.0000     1.0486     1.3675
  675.5000     1.1112     1.2307
  676.0000     1.1530     1.0940
  676.5000     1.1948     0.9572
  677.0000     1.1953     0.8205
  677.5000     1.1958     0.6837
  678.0000     1.1963     0.5470
  678.5000     1.1969     0.4102
  679.0000     1.2180     0.2735
  679.5000     1.1978     0.1367
  680.0000     1.0950     0.0000
  680.5000     1.1177     0.0526
  681.0000     1.0303     0.1051
  681.5000     0.8124     0.1577
  682.0000     0.7521     0.2103
  682.5000     0.7541     0.2628
  683.0000     0.7562     0.3154
  683.5000     0.7583     0.3680
  684.0000     0.7603     0.4206
  684.5000     0.7624     0.4731
  685.0000     0.7645     0.5257
  685.5000     0.7665     0.5783
  686.0000     0.7686     0.6308
  686.5000     0.7707     0.6834
  687.0000     0.7727     0.7360
  687.5000     0.7748     0.7885
  688.0000     0.8595     0.8411
  688.5000     0.9236     0.8937
  689.0000     0.9532     0.9463
  689.5000     1.0314     0.9988
  690.0000     1.0541     1.0514
  690.5000     1.0349     1.1040
  691.0000     0.9548     1.1565
  691.5000     0.8948     1.2091
  692.0000     0.8142     1.2617
  692.5000     0.7336     1.3142
  693.0000     0.6530     1.3668
  693.5000     0.6136     1.4194
  694.0000     0.5537     1.4720
  694.5000     0.5127     1.5245
  695.0000     0.4958     1.5771
  695.5000     0.4983     1.6297
  696.0000     0.4797     1.6822
  696.5000     0.4817     1.7348
  697.0000     0.5044     1.7874
  697.5000     0.5064     1.8399
  698.0000     0.5084     1.8925
  698.5000     0.5518     1.9451
  699.0000     0.6778     1.9977
  699.5000     0.7624     2.0561
  700.0000     0.8472     1.9100
  700.5000     0.9308     1.7458
  701.0000     0.9938     1.5815
  701.5000     1.0568     1.4172
  702.0000     1.0579     1.2529
  702.5000     1.0589     1.0886
  703.0000     1.0601     0.9244
  703.5000     1.0402     0.7601
  704.0000     0.9588     0.5958
  704.5000     0.7532     0.0000
  705.0000     0.6302     0.0000
  705.5000     0.5690     0.0000
  706.0000     0.6736     0.0000
  706.5000     0.7986     0.0000
  707.0000     0.9056     0.0000
  707.5000     1.0072     0.0000
  708.0000     1.0074     0.0000
  708.5000     1.0076     0.0000
  709.0000     1.0079     0.0000
  709.5000     1.0081     0.0000
  710.0000     1.0083     0.0000
  710.5000     1.0085     0.0000
  711.0000     1.0088     0.0000
  711.5000     1.0090     0.0000
  712.0000     1.0092     0.0000
  712.5000     1.0094     0.0000
  713.0000     1.0097     0.0000
  713.5000     1.0099     0.0000
  714.0000     1.0101     0.0000
  714.5000     1.0103     0.0000
  715.0000     1.0106     0.0000
  715.5000     1.0108     2.6869
  716.0000     1.0110     3.7893
  716.5000     1.0112     3.8403
  717.0000     1.0114     2.8388
  717.5000     1.0117     1.8394
  718.0000     1.0119     1.8925
  718.5000     1.0121     1.9541
  719.0000     1.0123     0.9409
  719.5000     1.0126     1.0047
  720.0000     1.0128     1.0557
  720.5000     1.0734     0.0757
  721.0000     1.1755     0.1703
  721.5000     1.2365     0.2460
  722.0000     1.3181     0.3217
  722.5000     1.3171     0.3974
  723.0000     1.2521     0.4731
  723.5000     1.0876     0.5520
  724.0000     1.0040     0.6435
  724.5000     1.0239     0.7191
  725.0000     1.0227     0.7949
  725.5000     1.0217     1.9219
  726.0000     1.0205     1.9977
  726.5000     1.0404     2.0765
  727.0000     1.0601     2.1680
  727.5000     1.0588     2.2437
  728.0000     1.0578     2.3194
  728.5000     1.0568     2.3951
  729.0000     1.0558     2.4708
  729.5000     1.0548     2.5496
  730.0000     0.9709     2.6411
  730.5000     0.8666     2.7168
  731.0000     0.7830     1.7411
  731.5000     0.7407     1.8168
  732.0000     0.7810     1.8925
  732.5000     0.8004     0.9168
  733.0000     0.7994     1.0115
  733.5000     0.7778     1.0872
  734.0000     0.7148     1.1629
  734.5000     0.6312     2.2899
  735.0000     0.5267    10.7769
  735.5000     0.4844    11.9040
  736.0000     0.4628     7.7741
  736.5000     0.4618     7.8687
  737.0000     0.4606     7.9444
  737.5000     0.4596     6.9655
  738.0000     0.4792     4.9416
  738.5000     0.5198     2.9145
  739.0000     0.6219     3.0091
  739.5000     0.6860     3.0848
  740.0000     0.7645     0.0000
  740.5000     0.8276     0.0526
  741.0000     0.8702     9.4055
  741.5000     0.9282     9.3792
  742.0000     0.9069     9.3529
  742.5000     0.7618     9.3265
  743.0000     0.6373     9.3002
  743.5000     0.5335     9.2738
  744.0000     0.6571     8.1961
  744.5000     0.6978     8.1698
  745.0000     0.7593     7.0920
  745.5000     0.8827     4.9629
  746.0000     0.9855     4.9366
  746.5000     1.0057     4.9102
  747.0000     1.0052     4.8839
  747.5000     1.0046     4.8575
  748.0000     1.0867     4.8364
  748.5000     1.1482     4.8102
  749.0000     1.2096     3.7325
  749.5000     1.2919     3.7062
  750.0000     1.2086     3.6799
  750.5000     1.0842     2.6022
  751.0000     0.9184     2.5759
  751.5000     0.7939     2.5496
  752.0000     0.8347     2.6632
  752.5000     0.9805     2.4971
  753.0000     1.0885     2.4708
  753.5000     1.2463     2.4445
  754.0000     1.3079     1.3668
  754.5000     1.2453     1.3406
  755.0000     1.1415     0.2628
  755.5000     1.0790     0.2366
  756.0000     1.0785     0.2103
  756.5000     1.0573     0.1840
  757.0000     1.0568     0.1577
  757.5000     1.0356     0.1314
  758.0000     1.0351     0.1051
  758.5000     1.0570     0.0788
  759.0000     1.1030     0.0526
  759.5000     1.1988     0.0263
  760.0000     1.2807     0.0000
  760.5000     1.0559     0.1051
  761.0000     0.9340     0.2289
  761.5000     0.8121     0.3307
  762.0000     0.8141     0.4324
  762.5000     0.8781     0.5342
  763.0000     0.9215     0.6359
  763.5000     0.9652     0.7377
  764.0000     1.0289     0.8411
  764.5000     1.1343     0.9666
  765.0000     1.1605     1.0684
  765.5000     1.2421     1.1701
  766.0000     1.3056     1.2719
  766.5000     1.1636     1.3736
  767.0000     1.0830     1.4754
  767.5000     1.0225    18.3995
  768.0000     1.0039    73.5993
  768.5000     0.9853    76.4301
  769.0000     1.0085    46.0667
  769.5000     0.9894    28.2946
  770.0000     0.9707    14.7281
  770.5000     0.9526    12.7016
  771.0000     0.9547    10.7243
  771.5000     0.9567     5.5707
  772.0000     0.9794     5.6979
  772.5000     1.0434     5.7997
  773.0000     1.1488     5.9014
  773.5000     1.2748     7.0546
  774.0000     1.2328     7.1563
  774.5000     1.0699     7.2581
  775.0000     0.9676     7.3598
  775.5000     0.7876     7.4649
  776.0000     0.9136     7.5887
  776.5000     1.0603     7.6905
  777.0000     1.2276     7.7922
  777.5000     1.4362     7.8940
  778.0000     1.5416     7.9957
  778.5000     1.5643     8.0975
  779.0000     1.5531     8.2009
  779.5000     1.5404     8.3264
  780.0000     1.4876     7.3555
  780.5000     1.4468     7.4199
  781.0000     1.3234     7.4714
  781.5000     1.1793     7.5229
  782.0000     1.0558     7.5744
  782.5000     1.1390     7.6259
  783.0000     1.2221     7.6774
  783.5000     1.2640     7.7289
  784.0000     1.3058     7.7804
  784.5000     1.2856     7.8329
  785.0000     1.2862     7.8855
