~VERSION INFORMATION
 VERS.                2.0:   CWLS LOG ASCII STANDARD - VERSION 2.0
 WRAP.                 NO:   ONE LINE PER DEPTH STEP
~WELL INFORMATION
#MNEM.UNIT      DATA TYPE    INFORMATION
#----------   ------------   ------------------------------
 STRT.F           20.0000:   START DEPTH
 STOP.F          744.0000:   STOP DEPTH
 STEP.F            0.5000:   STEP LENGTH
 NULL.          -999.2500:   NO VALUE
 COMP. FENIX & SCISSON INCORP.:   COMPANY
 WELL.          SX #53-15:   WELL
 FLD .             TEAPOT:   FIELD
 LOC .      S15 T38N R78W:   LOCATION
 CNTY.            NATRONA:   COUNTY
 STAT.            WYOMING:   STATE
 CTRY. UNITED STATES OF AMERICA:   COUNTRY
 SRVC.              Welex:   SERVICE COMPANY
 DATE.        02-MAR-1977:   LOGDATE
 API .       490251030000:   API NUMBER
~CURVE INFORMATION
#MNEM.UNIT       API CODE    CURVE DESCRIPTION
#----------   ------------   ------------------------------
 DEPT.F                  :   
 SGRD.OHMM   07 220 05 00:   SHALLOW RESISTIVITY
 ILD .OHMM   07 120 46 00:   INDUCTION LOG DEEP
 ILM .OHMM   07 120 44 00:   INDUCTION LOG MEDIUM
 SPR .MV     07 010 01 00:   SPONTANEOUS POTENTIAL
 GRD .GAPI   45 310 01 00:   GAMMA RAY FROM DENSITY LOG
 CALD.IN     45 280 60 00:   CALIPER
 RHOB.G/C3   45 350 01 00:   BULK DENSITY
 DPHI.DEC    45 890 10 00:   DENSITY POROSITY SANDSTONE
 CORR.G/C3   45 356 01 00:   DENSITY CORRECTION
~PARAMETER INFORMATION
#MNEM.UNIT          VALUE    DESCRIPTION
#----------   ------------   ------------------------------
 PD  .                 GL:   PERMANENT DATUM
 EPD .F              5253:   ELEVATION PERMANENT DATUM
 LMF .                 GL:   LOG MEASURED FROM
 DMF .                 GL:   DRILLING MEASURED FROM
 EGL .F              5253:   GROUND LEVEL
 DATE.             3-2-77:   RUN DATE
 RUN .                  1:   RUN NUMBER
 DD  .F               750:   DEPTH DRILLER
 DL  .F               747:   DEPTH LOGGER
 BLI .F               745:   BOTTOM LOG INTERVAL
 TLI .F                44:   TOP LOG INTERVAL
 CS  .IN            8.625:   CASING SIZE
 CBD .F                40:   CASING BOTTOM DRILLER
 CBL .F                44:   CASING BOTTOM LOGGER
 BS  .IN            7.875:   BIT SIZE
 BSD .F               750:   BIT SIZE AT DEPTH
 DFT .           CHEM-GEL:   DRILLING FLUID TYPE
 MSS .          FLOW LINE:   MUD SAMPLE SOURCE
 RMS .OHMM           .425:   RESISTIVITY MUD SAMPLE
 MST .F                56:   MUD SAMPLE TEMPERATURE
 RMF .OHMM           .436:   RESISTIVITY MUD FILTRATE SAMPLE
 MFST.F                56:   MUD FILTRATE SAMPLE TEMPERATURE
 RMC .OHMM           .712:   RESISTIVITY MUD CAKE
 MCST.F                56:   MUD CAKE SAMPLE TEMPERATURE
 MFSS.           MEASURED:   MUD FILTRATE SAMPLE SOURCE
 MCSS.           MEASURED:   MUD CAKE SAMPLE SOURCE
 RMB .OHMM            .35:   RESISTIVITY MUD AT BHT
 BHT .F                68:   BOTTOM HOLE TEMPERATURE
 TCS .HRS               2:   TIME CURCULATED STOPPED
 MRT .F                68:   MAXIMUM RECORDED TEMPERATURE
 LUN .               8611:   LOGGING UNIT NUMBER
 LUL .           GILLETTE:   LOGGING UNIT LOCATION
 ENGI.          D. LAWSON:   RECORDING ENGINEER
 WITN.           S. BURKE:   WITNESSED BY
 CLNT.            A2DTECH:   CLIENT CODE
 ORIG.        2" 5" PRINT:   ORIGIN OF DATA
 UWI .       490251030000:   UNIQUE WELL ID
 DICO. A2D Technologies, Inc.:   DIGITIZING COMPANY
~OTHER INFORMATION
~A   DEPT     SGRD        ILD        ILM        SPR         GRD      CALD         RHOB       DPHI      CORR  
# ...
  531.0000     7.6192     6.2972     6.1427   -29.7053   129.4783     8.5300     2.4081     0.1356     0.0551
  531.5000    13.2051     6.7849     6.6475   -29.7007   125.2231     8.5300     2.4543     0.1143     0.0577
  532.0000    13.3947     7.1397     7.1931   -29.6961   121.9258     8.5300     2.5023     0.0905     0.0632
  532.5000    13.5870     7.5129     7.7835   -29.6915   121.4830     8.5300     2.5200     0.0759     0.0687
  533.0000    13.7820     7.9057     8.4250   -29.6868   120.9236     8.5300     2.5226     0.0749     0.0718
  533.5000    13.9799     8.3191     9.1820   -29.6822   120.3641     8.5301     2.5223     0.0753     0.0718
  534.0000    14.1589     8.7540     9.4796   -29.6776   119.8090     8.5261     2.5229     0.0742     0.0719
  534.5000    13.9923     9.2085     9.7842   -29.6730   119.2524     8.5215     2.5279     0.0712     0.0719
  535.0000    13.8435     9.5361    10.1005   -29.6684   118.6964     8.5164     2.5329     0.0683     0.0719
  535.5000    13.6963     9.7104    10.4468   -29.6638   118.1445     8.5114     2.5378     0.0653     0.0719
  536.0000    13.5506     9.8920    10.4149   -29.6592   117.5872     8.4600     2.5434     0.0612     0.0727
  536.5000    13.4065    10.0771    10.3764   -29.6546   117.0114     8.3793     2.5541     0.0573     0.0748
  537.0000    13.2640    10.2655    10.3494   -29.6500   115.8707     8.3242     2.5544     0.0562     0.0770
  537.5000    13.1229    10.6591    10.9252   -29.6454   109.2284     8.4325     2.5513     0.0587     0.0791
  538.0000    13.0326    11.2444    11.5142   -29.6408    98.6753     8.5385     2.5392     0.0723     0.0813
  538.5000    15.4375    11.8619    12.1349   -29.6362    87.9052     8.6283     2.5095     0.0930     0.0797
  539.0000    17.4945    12.5132    12.7890   -29.6316    81.3398     8.6172     2.4741     0.1091     0.0759
  539.5000    19.8256    13.2003    13.4785   -29.6270    76.0244     8.6052     2.4367     0.1262     0.0720
  540.0000    21.4304    13.9251    14.2051   -29.6224    72.2477     8.5944     2.3997     0.1458     0.0681
  540.5000    19.4048    14.6898    14.9708   -29.6178    70.1706     8.5345     2.3801     0.1605     0.0643
  541.0000    18.0556    15.4964    15.7779   -29.6132    70.6961     8.4558     2.3866     0.1589     0.0651
  541.5000    16.5588    15.9266    16.6284   -29.6086    71.1191     8.3766     2.3993     0.1482     0.0664
  542.0000    17.0146    16.2579    17.3763   -29.6040    70.6411     8.2941     2.4119     0.1399     0.0678
  542.5000    17.6026    16.5962    17.5602   -29.5994    73.0105     8.2706     2.4257     0.1333     0.0691
  543.0000    18.2109    16.9414    17.7469   -29.5948    73.6737     8.2697     2.4147     0.1382     0.0697
  543.5000    18.8402    17.2939    17.9338   -29.5902    74.8366     8.2699     2.4013     0.1444     0.0688
  544.0000    19.4913    17.4982    18.1548   -29.5856    77.3677     8.2700     2.3885     0.1525     0.0680
  544.5000    20.2782    17.1313    17.8620   -29.5810    79.9154     8.2701     2.3802     0.1598     0.0672
  545.0000    18.4803    16.8753    17.5160   -29.5764    79.8588     8.2702     2.3717     0.1642     0.0664
  545.5000    16.5387    16.6239    17.1744   -29.5718    79.5703     8.2694     2.3632     0.1685     0.0659
  546.0000    14.5669    16.3769    16.8402   -29.5672    80.7953     8.2529     2.3603     0.1721     0.0649
  546.5000    16.2264    16.1341    16.5124   -29.5625    81.3128     8.2122     2.3649     0.1678     0.0638
  547.0000    19.1759    15.8929    16.1910   -29.5580    80.5779     8.1748     2.3686     0.1633     0.0626
  547.5000    17.9843    15.4757    15.7382   -29.5535    79.8627     8.1613     2.3668     0.1653     0.0615
  548.0000    16.2664    14.9819    14.6903   -29.5486    79.1214     8.2379     2.3653     0.1675     0.0603
  548.5000    14.2899    14.5038    15.3535   -29.5326    79.2547     8.2787     2.3637     0.1697     0.0591
  549.0000    15.9658    13.9005    16.4168   -29.4780    79.6626     8.2342     2.3622     0.1721     0.0579
  549.5000    18.7763    14.0776    17.6624   -29.4256    79.4981     8.1922     2.3644     0.1683     0.0593
  550.0000    21.0392    14.3384    17.5310   -29.3731    77.6129     8.2428     2.3741     0.1630     0.0612
  550.5000    17.0783    14.6041    17.3861   -29.3207    75.1991     8.3016     2.3825     0.1589     0.0631
  551.0000    14.1270    14.8746    17.2404   -29.2683    76.4902     8.3602     2.3799     0.1593     0.0650
  551.5000    12.3319    15.1502    17.0969   -29.2159    78.2156     8.3896     2.3797     0.1597     0.0670
  552.0000    19.7329    15.4311    16.8469   -29.1635    79.9291     8.3833     2.4038     0.1500     0.0689
  552.5000    25.7650    15.7173    16.4856   -29.1110    81.0557     8.3576     2.4207     0.1393     0.0695
  553.0000    21.1576    16.1076    16.1320   -29.0586    80.1925     8.3323     2.4195     0.1370     0.0687
  553.5000    17.1803    16.0980    15.7859   -29.0062    79.7674     8.3125     2.4161     0.1385     0.0679
  554.0000    17.9575    16.0806    15.3361   -28.9538    80.6667     8.3665     2.4128     0.1383     0.0679
  554.5000    19.2107    16.0639    14.8428   -28.9013    81.5063     8.4197     2.4087     0.1385     0.0679
  555.0000    20.5514    16.0477    14.3653   -28.8489    81.3939     8.4718     2.4021     0.1431     0.0679
  555.5000    22.2346    16.0314    13.9032   -28.7965    79.0106     8.5044     2.3956     0.1478     0.0679
  556.0000    20.1927    16.0151    13.6468   -28.7441    74.8673     8.4767     2.3889     0.1524     0.0679
  556.5000    17.9875    15.9990    18.5799   -28.6916    71.1761     8.4507     2.3863     0.1561     0.0679
  557.0000    16.0231    15.9820    22.0134   -28.6392    71.0817     8.4247     2.3940     0.1530     0.0679
  557.5000    14.2899    15.9698    19.8573   -28.5869    74.4448     8.3970     2.4084     0.1422     0.0694
  558.0000    18.6916    15.6667    18.2340   -28.5540    77.8618     8.4238     2.4234     0.1281     0.0710
  558.5000    20.8173    15.1958    16.7429   -28.5471    81.2925     8.4733     2.4385     0.1207     0.0727
  559.0000    20.3256    14.7391    15.1018   -28.5399    84.7040     8.5231     2.4470     0.1202     0.0739
  559.5000    20.0005    14.2929    16.0112   -28.5328    85.1717     8.5247     2.4372     0.1226     0.0740
  560.0000    19.6846    14.0312    17.2400   -28.5257    85.1743     8.5185     2.4279     0.1323     0.0696
  560.5000    19.3656    14.0724    18.3244   -28.5185    85.9001     8.5120     2.4216     0.1339     0.0635
  561.0000    19.3106    14.1058    18.2665   -28.5114    86.3683     8.5059     2.4216     0.1347     0.0619
  561.5000    19.2544    14.1381    18.2174   -28.5043    86.3725     8.4996     2.4077     0.1405     0.0619
  562.0000    19.1984    14.1589    18.1684   -28.4971    86.7742     8.4934     2.4092     0.1457     0.0619
  562.5000    19.1425    13.9767    18.1196   -28.4900    87.6909     8.4816     2.4107     0.1411     0.0619
  563.0000    19.0868    13.8441    18.0708   -28.4829    88.6235     8.4629     2.4161     0.1374     0.0620
  563.5000    19.0312    13.7127    18.0222   -28.4757    89.6299     8.4441     2.4128     0.1429     0.0653
  564.0000    18.9758    13.5222    17.9738   -28.4686    90.6174     8.4209     2.4087     0.1453     0.0684
  564.5000    18.9205    13.6411    17.9254   -28.4615    91.2414     8.3817     2.4156     0.1371     0.0715
  565.0000    18.8654    13.8747    17.8772   -28.4543    89.2860     8.3430     2.4237     0.1307     0.0747
  565.5000    18.8105    14.1109    17.8250   -28.4472    87.2702     8.3030     2.4313     0.1250     0.0778
  566.0000    18.7558    14.4221    17.7365   -28.4401    87.6780     8.3448     2.4243     0.1305     0.0810
  566.5000    18.7012    14.3272    17.6401   -28.4329    88.7541     8.4173     2.4149     0.1361     0.0808
  567.0000    18.6467    14.1589    17.5443   -28.4258    89.0083     8.4410     2.4117     0.1382     0.0794
