~VERSION INFORMATION
 VERS.                2.0:   CWLS LOG ASCII STANDARD - VERSION 2.0
 WRAP.                 NO:   ONE LINE PER DEPTH STEP
~WELL INFORMATION
#MNEM.UNIT      DATA TYPE    INFORMATION
#----------   ------------   ------------------------------
 STRT.F           30.0000:   START DEPTH
 STOP.F          732.0000:   STOP DEPTH
 STEP.F            0.5000:   STEP LENGTH
 NULL.          -999.2500:   NO VALUE
 COMP. FENIX & SCISSON INC:   COMPANY
 WELL.        31-S #31-14:   WELL
 FLD .             TEAPOT:   FIELD
 LOC .      S14 T38N R78W:   LOCATION
 CNTY.            NATRONA:   COUNTY
 STAT.            WYOMING:   STATE
 CTRY. UNITED STATES OF AMERICA:   COUNTRY
 SRVC.              Welex:   SERVICE COMPANY
 DATE.        16-FEB-1977:   LOGDATE
 API .       490251027300:   API NUMBER
~CURVE INFORMATION
#MNEM.UNIT       API CODE    CURVE DESCRIPTION
#----------   ------------   ------------------------------
 DEPT.F                  :   
 CALD.IN     45 280 60 00:   CALIPER FROM DENSITY LOG
 CORR.G/C3   45 356 01 00:   DENSITY CORRECTION
 DPHI.DEC    45 890 12 00:   DENSITY POROSITY SANDSTONE
 GRD .GAPI   45 310 01 00:   GAMMA RAY FROM DENSITY LOG
 RHOB.G/C3   45 350 01 00:   BULK DENSITY
 GURD.OHMM   07 270 05 00:   SHALLOW SHORT GUARD RESISTIVITY
 ILM .OHMM   07 120 44 00:   INDUCTION LOG MEDIUM
 ILD .OHMM   07 120 46 00:   INDUCTION LOG DEEP
 SPR .MV     07 010 01 00:   SPONTANEOUS POTENTIAL
~PARAMETER INFORMATION
#MNEM.UNIT          VALUE    DESCRIPTION
#----------   ------------   ------------------------------
 PD  .                 GL:   PERMANENT DATUM
 EPD .F              5186:   ELEVATION PERMANENT DATUM
 LMF .                 GL:   LOG MEASURED FROM
 DMF .                 GL:   DRILLING MEASURED FROM
 EKB .F              5195:   KELLING BUSHING
 EGL .F              5186:   GROUND LEVEL
 DATE.        16-FEB-1977:   RUN DATE
 RUN .                  1:   RUN NUMBER
 DD  .F               740:   DEPTH DRILLER
 DL  .F               736:   DEPTH LOGGER
 BLI .F               734:   BOTTOM LOG INTERVAL
 TLI .F                30:   TOP LOG INTERVAL
 CS  .IN            8.625:   CASING SIZE
 CBD .F                40:   CASING BOTTOM DRILLER
 CBL .F                44:   CASING BOTTOM LOGGER
 BS  .IN            7.875:   BIT SIZE
 BSD .F               740:   BIT SIZE AT DEPTH
 DFT .   OIL EMULSION MUD:   DRILLING FLUID TYPE
 DFD .                8.3:   DRILLING FLUID DENSITY
 DFV .                 48:   DRILLING FLUID VISCOSITY
 DFPH.               10.5:   DRILLING FLUID PH
 DFL .                7.5:   DRILLING FLUID LOSS
 MSS .           FLOWLINE:   MUD SAMPLE SOURCE
 RMS .OHMM           0.80:   RESISTIVITY MUD SAMPLE
 MST .F                64:   MUD SAMPLE TEMPERATURE
 RMF .OHMM           0.68:   RESISTIVITY MUD FILTRATE SAMPLE
 MFST.F                64:   MUD FILTRATE SAMPLE TEMPERATURE
 RMC .OHMM           1.01:   RESISTIVITY MUD CAKE
 MCST.F                63:   MUD CAKE SAMPLE TEMPERATURE
 MFSS.               MEAS:   MUD FILTRATE SAMPLE SOURCE
 MCSS.               MEAS:   MUD CAKE SAMPLE SOURCE
 RMB .OHMM           0.74:   RESISTIVITY MUD AT BHT
 BHT .F                69:   BOTTOM HOLE TEMPERATURE
 TCS .HRS               5:   TIME CURCULATED STOPPED
 MRT .F                69:   MAXIMUM RECORDED TEMPERATURE
 LUN .               8611:   LOGGING UNIT NUMBER
 LUL .           GILLETTE:   LOGGING UNIT LOCATION
 ENGI.           D.LAWSON:   RECORDING ENGINEER
 WITN.             K.JAPP:   WITNESSED BY
 CLNT.            A2DTECH:   CLIENT CODE
 ORIG.         2.5" PRINT:   ORIGIN OF DATA
 UWI .       490251027300:   UNIQUE WELL ID
 DICO. A2D Technologies, Inc.:   DIGITIZING COMPANY
~OTHER INFORMATION
~A   DEPT       CALD      CORR      DPHI         GRD        RHOB     GURD        ILM        ILD        SPR   
# ...
  176.0000     8.1282     0.1596     0.1178   118.5223     2.4684   948.6595    16.5625    13.0723   -43.0978
  176.5000     8.1277     0.1564     0.1144   120.8501     2.4669   951.6254    16.7925    13.0740   -42.7997
  177.0000     8.1273     0.1531     0.1133   119.7003     2.4604   951.6100    17.0257    13.0761   -42.5015
  177.5000     8.0971     0.1475     0.1158   115.4624     2.4529   952.4148    17.5128    13.0778   -42.4468
  178.0000     8.0967     0.1444     0.1214   109.4362     2.4462   954.5633    17.7439    13.0795   -42.2018
  178.5000     8.0666     0.1430     0.1273   107.2003     2.4357   954.5457    17.7451    13.0812   -42.2003
  179.0000     8.0662     0.1413     0.1350   107.8015     2.4231   954.5279    17.7463    13.2638   -41.9021
  179.5000     8.0657     0.1383     0.1404   111.3637     2.4138   957.4941    17.7475    13.2657   -41.6036
  180.0000     8.0613     0.1352     0.1445   113.1455     2.4045   957.4799    17.5070    13.2675   -41.6022
  180.5000     8.0352     0.1352     0.1470   110.1796     2.4000   960.4467    17.2694    13.3503   -41.6008
  181.0000     8.0347     0.1321     0.1494   107.8071     2.4000   963.4122    17.2706    13.4545   -41.3026
  181.5000     8.0343     0.1321     0.1499   105.3279     2.4029   966.7203    17.2717    13.4567   -41.0045
  182.0000     8.0184     0.1320     0.1442   103.2483     2.4136   969.3445    17.0373    13.6445   -41.0030
  182.5000     8.0036     0.1319     0.1322   102.4701     2.4325   972.3107    17.2740    13.8348   -40.7047
  183.0000     8.0032     0.1328     0.1232   105.5638     2.4514   975.2739    17.4002    13.8366   -40.7033
  183.5000     8.0028     0.1378     0.1178   108.9876     2.4564   976.8535    17.9401    14.2237   -40.7018
  184.0000     7.9727     0.1423     0.1172   109.1296     2.4528   981.2021    18.6278    14.4222   -40.4033
  184.5000     7.9723     0.1466     0.1208   107.8177     2.4468   984.1683    19.5510    14.5546   -40.4019
  185.0000     7.9421     0.1525     0.1261   106.6322     2.4326   984.1542    20.0965    14.8277   -40.4005
  185.5000     7.9417     0.1555     0.1291   106.3368     2.4267   984.1400    20.6572    15.0347   -40.1023
  186.0000     7.9412     0.1614     0.1271   106.9318     2.4341   990.2649    20.9441    15.2450   -40.1009
  186.5000     7.9408     0.1643     0.1227   106.2893     2.4400   994.0349    21.2437    15.6713   -40.0994
  187.0000     7.9700     0.1702     0.1174   105.1542     2.4504  1008.1766    21.5299    15.8900   -40.0979
  187.5000     7.9992     0.1731     0.1071   107.0104     2.4658  1040.7076    21.4580    16.1117   -39.7997
  188.0000     7.9987     0.1761     0.1009   112.9990     2.4771  1064.6539    21.2391    16.3516   -39.7982
  188.5000     8.0280     0.1790     0.1037   115.8412     2.4702  1046.6349    21.2408    16.5646   -39.7965
  189.0000     8.0276     0.1789     0.1119   115.8427     2.4609  1025.7584    20.9529    16.7959   -39.4983
  189.5000     8.0271     0.1789     0.1202   115.2510     2.4515  1013.8230    20.6686    16.7982   -39.4969
  190.0000     8.0267     0.1788     0.1255   114.6589     2.4415  1007.8481    20.3882    16.8005   -39.4955
  190.5000     8.0263     0.1758     0.1267   113.4734     2.4340  1010.8292    20.1116    16.8032   -39.4941
  191.0000     8.0258     0.1727     0.1273   111.6944     2.4310  1020.0682    19.8333    16.3503   -39.4926
  191.5000     8.0254     0.1697     0.1293   110.1983     2.4266  1022.7073    19.5349    16.3525   -39.7880
  192.0000     8.0115     0.1636     0.1338   109.3234     2.4221  1014.8229    18.9787    16.1316   -39.7864
  192.5000     7.9948     0.1630     0.1414   111.5307     2.4102  1002.2607    18.4382    15.9048   -39.7849
  193.0000     7.9943     0.1597     0.1471   111.2354     2.3998   989.6987    17.5589    15.6670   -40.0798
  193.5000     7.9939     0.1575     0.1449   108.1944     2.4049   974.9584    17.0643    15.4869   -40.0784
  194.0000     7.9638     0.1574     0.1381   108.4471     2.4146   968.9835    17.0656    15.2778   -40.0770
  194.5000     7.9633     0.1574     0.1309   112.5952     2.4250   974.9301    17.0667    15.0719   -40.0756
  195.0000     7.9332     0.1573     0.1255   114.6738     2.4352   992.7979    17.0679    14.8689   -40.0742
  195.5000     7.8993     0.1572     0.1220   114.9720     2.4429   995.7640    16.8363    14.6681   -40.0727
  196.0000     7.8663     0.1572     0.1196   114.6766     2.4518   982.3967    16.5807    14.4700   -40.3682
  196.5000     7.8333     0.1601     0.1178   114.6780     2.4547   963.5612    15.9389    14.0800   -40.3665
  197.0000     7.8128     0.1601     0.1165   115.0277     2.4636   953.9943    15.6499    13.6974   -40.3650
  197.5000     7.7826     0.1630     0.1147   116.3279     2.4711   964.1871    14.9969    13.1051   -40.6602
  198.0000     7.7821     0.1637     0.1135   118.7893     2.4711   983.7648    14.5698    12.2015   -40.6586
  198.5000     7.8114     0.1670     0.1122   120.7690     2.4665   992.6917    13.7092    11.3082   -40.6572
  199.0000     7.8526     0.1688     0.1113   123.8368     2.4621   969.7659    12.8007    10.3694   -40.9525
  199.5000     7.9005     0.1687     0.1097   128.0371     2.4632   924.5813    12.0028     9.3788   -40.9559
  200.0000     7.9483     0.1657     0.1083   131.2067     2.4770   879.3967    10.9321     8.5985   -41.1377
  200.5000     7.9962     0.1688     0.1059   127.9882     2.4882   860.5911     9.8614     8.4077   -41.3196
  201.0000     8.0222     0.1725     0.1024   124.3962     2.4836   846.0170     8.7122     8.1811   -41.5014
  201.5000     8.0458     0.1762     0.0982   122.6217     2.4784   839.7584     8.5912     7.9544   -41.6833
  202.0000     8.0451     0.1798     0.1006   121.8158     2.4769   834.7485     8.5857     7.7278   -41.8651
  202.5000     8.0010     0.1835     0.1019   122.0945     2.4769   834.7664     8.4695     7.4877   -42.0469
  203.0000     7.9383     0.1867     0.1030   124.4302     2.4814   837.7642     8.4671     7.3842   -42.1277
  203.5000     8.0136     0.1868     0.1008   128.3489     2.4873   840.7587     8.4306     7.1828   -42.1261
  204.0000     8.1020     0.1868     0.0986   127.7569     2.4949   840.7728     8.3471     7.0834   -42.1246
  204.5000     8.1608     0.1839     0.0938   125.6811     2.4999   834.8264     8.3448     7.0819   -41.9755
  205.0000     8.1305     0.1779     0.0822   124.4956     2.5022   828.7312     8.3425     6.9839   -41.8246
  205.5000     8.0698     0.1720     0.0864   124.5208     2.4912   822.4725     8.3399     6.9825   -41.5265
  206.0000     8.0107     0.1630     0.0956   127.0149     2.4697   819.9672     8.3377     7.0775   -41.5251
  206.5000     7.9804     0.1571     0.1048   128.6541     2.4592   824.0519     8.3355     7.0759   -41.2270
  207.0000     7.9798     0.1509     0.1119   126.6024     2.4540   839.1030     8.3333     7.1723   -40.9288
  207.5000     7.9496     0.1476     0.1125   125.0371     2.4598   853.2443     8.3311     7.1709   -40.9273
  208.0000     7.9786     0.1423     0.1077   124.0613     2.4828   858.7751     8.3167     7.1695   -40.9258
  208.5000     8.0077     0.1393     0.0999   125.9899     2.4917   858.7892     8.1910     7.1680   -40.9243
  209.0000     8.0367     0.1364     0.0963   130.1456     2.4917   852.8428     8.0672     7.1665   -40.9229
  209.5000     8.0658     0.1364     0.0945   129.2568     2.4917   846.8962     7.9452     7.1650   -40.9211
  210.0000     8.1246     0.1364     0.0933   127.4778     2.4932   840.6524     7.7678     7.1636   -40.9197
  210.5000     8.1537     0.1335     0.0923   125.6988     2.4946   833.7828     7.7068     7.1618   -40.9183
  211.0000     8.2125     0.1335     0.0923   124.4817     2.4943   825.1548     7.5530     7.1604   -41.2136
  211.5000     8.2416     0.1305     0.0947   123.6245     2.4908   818.8960     7.5510     7.1590   -41.2122
  212.0000     8.2707     0.1302     0.0994   124.2908     2.4833   817.1674     7.5490     7.1576   -41.2107
