~VERSION INFORMATION
 VERS.                2.0:   CWLS LOG ASCII STANDARD - VERSION 2.0
 WRAP.                 NO:   ONE LINE PER DEPTH STEP
~WELL INFORMATION
#MNEM.UNIT      DATA TYPE    INFORMATION
#----------   ------------   ------------------------------
 STRT.F           83.0000:   START DEPTH
 STOP.F         3044.0000:   STOP DEPTH
 STEP.F            0.5000:   STEP LENGTH
 NULL.          -999.2500:   NO VALUE
 COMP.   TESORO PETROLEUM:   COMPANY
 WELL.  NPR # 3  AX #81-4:   WELL
 FLD .        TEAPOT DOME:   FIELD
 LOC .       S4 T38N R78W:   LOCATION
 CNTY.            NATRONA:   COUNTY
 STAT.            WYOMING:   STATE
 CTRY. UNITED STATES OF AMERICA:   COUNTRY
 SRVC.       Schlumberger:   SERVICE COMPANY
 DATE.        31-JUL-1969:   LOGDATE
 API .       490251002700:   API NUMBER
~CURVE INFORMATION
#MNEM.UNIT       API CODE    CURVE DESCRIPTION
#----------   ------------   ------------------------------
 DEPT.F                  :   
 CILD.MMHO   05 110 46 00:   CONDUCTIVITY INDUCTION LOG DEEP
 ILD .OHMM   05 120 46 00:   INDUCTION LOG DEEP
 SN  .OHMM   05 040 16 00:   SHORT NORMAL 16"
 SPR .MV     05 010 01 00:   SPONTANEOUS POTENTIAL FROM RES.
 CALD.IN     45 280 60 00:   CALIPER FROM DENSITY
 DPHI.DEC    45 890 12 00:   DENSITY POROSITY SANDSTONE
 GRD .GAPI   45 310 01 00:   GAMMA RAY FROM DENSITY LOG
 RHOB.G/C3   45 350 01 00:   BULK DENSITY
 DRHO.G/C3   45 356 01 00:   DENSITY CORRECTION
~PARAMETER INFORMATION
#MNEM.UNIT          VALUE    DESCRIPTION
#----------   ------------   ------------------------------
 PD  .                 GL:   PERMANENT DATUM
 EPD .F              5170:   ELEVATION PERMANENT DATUM
 LMF .                 KB:   LOG MEASURED FROM
 DAPD.F                13:   FEET ABOVE PERMANENT DATUM
 DMF .                 KB:   DRILLING MEASURED FROM
 EKB .F              5183:   KELLING BUSHING
 EGL .F              5170:   GROUND LEVEL
 DATE.            7-31-69:   RUN DATE
 RUN .                  2:   RUN NUMBER
 DD  .F              3047:   DEPTH DRILLER
 DL  .F              3044:   DEPTH LOGGER
 BLI .F              3043:   BOTTOM LOG INTERVAL
 TLI .F               626:   TOP LOG INTERVAL
 CS  .IN            10.75:   CASING SIZE
 CBD .F               625:   CASING BOTTOM DRILLER
 CBL .F               626:   CASING BOTTOM LOGGER
 BS  .IN             6.25:   BIT SIZE
 BSD .F              3047:   BIT SIZE AT DEPTH
 DFT .      FRESH GEL MUD:   DRILLING FLUID TYPE
 DFD .                9.7:   DRILLING FLUID DENSITY
 DFV .                 50:   DRILLING FLUID VISCOSITY
 DFPH.                9.5:   DRILLING FLUID PH
 DFL .                  8:   DRILLING FLUID LOSS
 MSS .          FLOW LINE:   MUD SAMPLE SOURCE
 RMS .OHMM           1.35:   RESISTIVITY MUD SAMPLE
 MST .F                74:   MUD SAMPLE TEMPERATURE
 RMF .OHMM            .81:   RESISTIVITY MUD FILTRATE SAMPLE
 MFST.F                74:   MUD FILTRATE SAMPLE TEMPERATURE
 MFSS.                  M:   MUD FILTRATE SAMPLE SOURCE
 RMB .OHMM            .83:   RESISTIVITY MUD AT BHT
 BHT .F               121:   BOTTOM HOLE TEMPERATURE
 TCS .HRS               4:   TIME CURCULATED STOPPED
 MRT .F               121:   MAXIMUM RECORDED TEMPERATURE
 LUN .               4507:   LOGGING UNIT NUMBER
 LUL .               CSPR:   LOGGING UNIT LOCATION
 ENGI.               MIXA:   RECORDING ENGINEER
 WITN.                MAY:   WITNESSED BY
 CLNT.            A2DTECH:   CLIENT CODE
 ORIG.     1", 2.5" PRINT:   ORIGIN OF DATA
 UWI .       490251002700:   UNIQUE WELL ID
 DICO. A2D Technologies, Inc.:   DIGITIZING COMPANY
~OTHER INFORMATION
~A   DEPT      CILD       ILD         SN        SPR       CALD       DPHI        GRD       RHOB       DRHO   
# ...
 1762.0000   143.5185     6.5201     8.9193   -21.2963     9.4735     0.0468   112.7960     2.5766    -0.0006
 1762.5000   142.4253     6.5209     8.9953   -21.2963     9.4478     0.0502   114.6090     2.5645     0.0006
 1763.0000   141.9753     6.5519     9.2274   -21.2963     9.4478     0.0459   116.4220     2.5665     0.0068
 1763.5000   138.8889     6.6772     9.2804   -21.2397     9.4478     0.0359   116.4277     2.5804     0.0262
 1764.0000   137.3457     6.7688     9.4424   -20.9877     9.4478     0.0290   113.8731     2.5956     0.0292
 1764.5000   135.8025     7.0414     9.5343   -20.9877     9.4478     0.0359   110.7820     2.5809     0.0254
 1765.0000   132.7160     7.2046     9.5327   -20.9877     9.4478     0.0474   107.9996     2.5634     0.0177
 1765.5000   132.7160     7.4360     9.6168   -20.9877     9.4478     0.0534   104.4025     2.5559     0.0112
 1766.0000   129.6296     7.6858     9.7788   -20.9877     9.4478     0.0583   106.9450     2.5560     0.0037
 1766.5000   129.3365     7.8489     9.8396   -20.9877     9.4300     0.0612   108.5370     2.5500     0.0052
 1767.0000   126.5432     8.0121     9.9470   -20.9877     9.4179     0.0554   105.8145     2.5380     0.0092
 1767.5000   125.9515     8.0766    10.1090   -20.9877     9.4179     0.0439   104.7539     2.5520     0.0134
 1768.0000   123.4568     8.0774    10.1464   -20.9877     9.4179     0.0368   107.5463     2.5738     0.0122
 1768.5000   122.5671     7.9643    10.1449   -20.9877     9.4179     0.0367   110.1289     2.5815     0.0042
 1769.0000   120.3704     7.9241    10.1433   -20.9877     9.3881     0.0410   112.3477     2.5715    -0.0008
 1769.5000   121.5585     7.9250    10.1417   -20.9877     9.4179     0.0460   114.5310     2.5613     0.0111
 1770.0000   124.7942     7.9258     9.9844   -20.9877     9.4478     0.0512   114.1717     2.5545     0.0151
 1770.5000   128.0299     7.6169     9.6558   -20.9877     9.4478     0.0536   113.5000     2.5540     0.0186
 1771.0000   130.4474     7.6177     9.5140   -21.2963     9.4478     0.0488   115.2431     2.5624     0.0191
 1771.5000   132.0653     7.6089     9.3099   -21.2963     9.4478     0.0440   117.7741     2.5651     0.0156
 1772.0000   134.6502     7.3095     9.0903   -21.2963     9.4478     0.0449   117.1336     2.5529     0.0081
 1772.5000   135.8025     7.3104     8.9252   -21.2963     9.4478     0.0564   106.2960     2.5438     0.0021
 1773.0000   135.8025     7.2559     8.8844   -21.2963     9.4478     0.0619   103.8921     2.5477     0.0021
 1773.5000   136.9933     7.0023     8.8830   -21.2963     9.4478     0.0607   103.8978     2.5556     0.0051
 1774.0000   137.3457     6.9174     8.8815   -21.2963     9.4478     0.0545   106.3379     2.5658     0.0115
 1774.5000   137.3457     6.6943     9.0358   -21.2963     9.4478     0.0414   109.3991     2.5742     0.0197
 1775.0000   135.8025     6.6950     9.0343   -21.2963     9.4478     0.0403   110.5422     2.5697     0.0259
 1775.5000   135.8025     6.6958     9.0327   -21.2963     9.4478     0.0472   110.3648     2.5562     0.0289
 1776.0000   135.8025     6.7699     9.0312   -21.2963     9.4478     0.0580   109.3482     2.5488     0.0269
 1776.5000   135.8025     6.9331     9.0296   -21.2963     9.4478     0.0582   113.7165     2.5458     0.0229
 1777.0000   135.8025     7.0077     9.0280   -21.2963     9.4478     0.0551   116.1661     2.5563     0.0179
 1777.5000   135.8025     7.0085     9.0265   -21.2963     9.4478     0.0554   116.1821     2.5518     0.0134
 1778.0000   135.4834     7.2167     9.0249   -21.2963     9.4478     0.0563   112.8022     2.5530     0.0109
 1778.5000   134.6527     7.3197     9.0779   -21.2963     9.4478     0.0543   104.8057     2.5575     0.0064
 1779.0000   135.8025     7.3204     9.0529   -21.2963     9.4478     0.0538    97.3978     2.5532     0.0035
 1779.5000   138.5160     6.7021     8.7243   -21.0545     9.4478     0.0563    93.9661     2.5474     0.0005
 1780.0000   152.1616     6.0837     8.3957   -20.9877     9.4478     0.0593    95.5927     2.5498    -0.0010
 1780.5000   173.4255     5.3104     8.0670   -20.6790     9.4478     0.0557   101.5381     2.5448    -0.0011
 1781.0000   187.4743     5.0016     7.7383   -20.3704     9.4478     0.0628   108.8972     2.5361    -0.0011
 1781.5000   193.0402     4.8432     7.2071   -20.3704     9.4478     0.0742   112.5368     2.5124     0.0019
 1782.0000   196.2756     4.5387     6.5515   -20.3601     9.4478     0.0874   112.1023     2.4864     0.0069
 1782.5000   197.5309     4.5395     6.1293   -20.0617     9.4544     0.1069   108.8263     2.4681     0.0138
 1783.0000   196.4660     4.5402     6.3611   -20.0617     9.4776     0.1190   106.4224     2.4234     0.0238
 1783.5000   194.8484     4.6063     6.9826   -20.0617     9.4776     0.1304   106.4282     2.4391     0.0407
 1784.0000   189.5880     5.0124     7.6042   -20.0617     9.4776     0.0906   107.0363     2.5130     0.0705
 1784.5000   183.6420     5.6149     8.2258   -20.0617     9.4649     0.0667   108.8757     2.5640     0.1033
 1785.0000   172.8395     6.1584     8.8474   -20.1646     9.4478     0.0541   110.7003     2.5925     0.1013
 1785.5000   151.2346     6.9981     9.1574   -20.3704     9.4478     0.0382   111.2705     2.6030     0.0914
 1786.0000   131.1728     7.7823     9.1558   -20.3704     9.4478     0.0268   110.4839     2.5879     0.0789
 1786.5000   124.9562     7.9512     9.1542   -20.5196     9.4478     0.0305   108.9789     2.5821     0.0702
 1787.0000   123.4568     7.7802     9.1526   -20.8437     9.4478     0.0307   106.3066     2.5896     0.0615
 1787.5000   124.2292     7.4562     9.1511   -21.1677     9.4478     0.0301   102.4292     2.5735     0.0503
 1788.0000   130.6992     7.1321     9.0561   -21.4918     9.4478     0.0442    98.0181     2.5661     0.0331
 1788.5000   137.1707     6.8081     8.7819   -21.6049     9.4478     0.0529    97.8082     2.5572     0.0189
 1789.0000   145.7257     6.3676     8.6168   -21.6049     9.4478     0.0519   100.3395     2.5557     0.0097
 1789.5000   157.8291     5.7888     8.3816   -21.6049     9.4478     0.0526   103.4653     2.5620     0.0040
 1790.0000   162.6028     5.4800     8.2087   -21.5535     9.4478     0.0482   106.6062     2.5803     0.0002
 1790.5000   164.2207     5.4807     8.0358   -21.1626     9.4478     0.0338   108.4272     2.5904     0.0002
 1791.0000   165.8384     5.4815     7.7072   -20.5966     9.4478     0.0416   107.3916     2.5774     0.0559
 1791.5000   166.6667     5.6370     7.4798   -20.3704     9.4478     0.0553   105.2855     2.5587     0.0927
 1792.0000   165.8024     5.8070     7.5327   -20.3704     9.4478     0.0626   104.7229     2.5433     0.0997
 1792.5000   163.2457     6.1178     7.9284   -20.3704     9.4407     0.0661   105.6701     2.5516     0.0897
 1793.0000   156.9707     6.3034     8.5106   -20.3704     9.4179     0.0394   107.1456     2.5751     0.0599
 1793.5000   144.5284     6.5989     8.8207   -20.3704     9.4078     0.0373   107.1513     2.5688     0.0350
 1794.0000   134.6194     6.7998     9.1307   -20.5452     9.3764     0.0443   105.9522     2.5688     0.0290
 1794.5000   129.6296     7.1254     9.2850   -20.8693     9.3582     0.0425   104.7532     2.5868     0.0330
 1795.0000   128.0864     7.3981     9.2835   -20.9877     9.3582     0.0303   107.2561     2.5943     0.0404
 1795.5000   126.5432     7.5008     9.2819   -21.2089     9.3582     0.0202   111.7232     2.6050     0.0466
 1796.0000   126.5432     7.5015     9.2648   -21.2963     9.3582     0.0182   116.6385     2.6108     0.0479
 1796.5000   126.5432     7.5023     9.1231   -21.6049     9.3582     0.0248   119.8364     2.5910     0.0441
 1797.0000   126.6767     7.5864     9.1215   -21.9136     9.3582     0.0383   116.1916     2.5689     0.0314
 1797.5000   129.7710     7.6587     9.1199   -22.2222     9.3582     0.0414   112.8840     2.5772     0.0239
 1798.0000   131.3889     7.6594     9.1651   -22.2222     9.3284     0.0297   109.8455     2.5993     0.0254
