~VERSION INFORMATION
 VERS.                2.0:   CWLS LOG ASCII STANDARD - VERSION 2.0
 WRAP.                 NO:   ONE LINE PER DEPTH STEP
~WELL INFORMATION
#MNEM.UNIT      DATA TYPE    INFORMATION
#----------   ------------   ------------------------------
 STRT.F           34.5000:   START DEPTH
 STOP.F          756.0000:   STOP DEPTH
 STEP.F            0.5000:   STEP LENGTH
 NULL.          -999.2500:   NO VALUE
 COMP. FENIX & SCISSON INC:   COMPANY
 WELL.    36 SX 11 #36-11:   WELL
 FLD .        TEAPOT DOME:   FIELD
 LOC .      S11 T38N R78W:   LOCATION
 CNTY.            NATRONA:   COUNTY
 STAT.            WYOMING:   STATE
 CTRY. UNITED STATES OF AMERICA:   COUNTRY
 SRVC.           BIRDWELL:   SERVICE COMPANY
 DATE.        21-FEB-1978:   LOGDATE
 API .       490251059700:   API NUMBER
~CURVE INFORMATION
#MNEM.UNIT       API CODE    CURVE DESCRIPTION
#----------   ------------   ------------------------------
 DEPT.F                  :   
 SPR .MV     05 010 01 00:   SPONTANEOUS POTENTIAL FROM RES.
 SN  .OHMM   05 040 16 00:   SHORT NORMAL 16"
 ILD .OHMM   05 120 46 00:   INDUCTION LOG DEEP
 RHOB.G/C3   45 350 01 00:   BULK DENSITY
 DPHI.DEC    45 890 12 00:   DENSITY POROSITY SANDSTONE
 GRD .GAPI   45 310 01 00:   GAMMA RAY FROM DENSITY LOG
 CALD.IN     45 280 60 00:   CALIPER
 CORR.G/C3   45 356 01 00:   DENSITY CORRECTION
~PARAMETER INFORMATION
#MNEM.UNIT          VALUE    DESCRIPTION
#----------   ------------   ------------------------------
 PD  .                 GL:   PERMANENT DATUM
 EPD .F              5175:   ELEVATION PERMANENT DATUM
 LMF .                 KB:   LOG MEASURED FROM
 DAPD.F                 4:   FEET ABOVE PERMANENT DATUM
 DMF .                 KB:   DRILLING MEASURED FROM
 EKB .F              5179:   KELLING BUSHING
 EGL .F              5175:   GROUND LEVEL
 DATE.          2-21-1978:   RUN DATE
 RUN .                  1:   RUN NUMBER
 DD  .F               765:   DEPTH DRILLER
 DL  .F               760:   DEPTH LOGGER
 BLI .F               754:   BOTTOM LOG INTERVAL
 TLI .F                40:   TOP LOG INTERVAL
 CS  .IN            8.625:   CASING SIZE
 CBD .F                39:   CASING BOTTOM DRILLER
 CBL .F                40:   CASING BOTTOM LOGGER
 BS  .IN            7.875:   BIT SIZE
 BSD .F               765:   BIT SIZE AT DEPTH
 DFT .         LIGNO/SULF:   DRILLING FLUID TYPE
 DFD .                8.6:   DRILLING FLUID DENSITY
 DFV .                 33:   DRILLING FLUID VISCOSITY
 DFPH.               10.5:   DRILLING FLUID PH
 DFL .                 84:   DRILLING FLUID LOSS
 MSS .          FLOW LINE:   MUD SAMPLE SOURCE
 RMS .OHMM            1.8:   RESISTIVITY MUD SAMPLE
 MST .F                56:   MUD SAMPLE TEMPERATURE
 RMF .OHMM            1.8:   RESISTIVITY MUD FILTRATE SAMPLE
 MFST.F                58:   MUD FILTRATE SAMPLE TEMPERATURE
 RMC .OHMM              4:   RESISTIVITY MUD CAKE
 MCST.F                62:   MUD CAKE SAMPLE TEMPERATURE
 MFSS.               MEAS:   MUD FILTRATE SAMPLE SOURCE
 RMB .OHMM           1.48:   RESISTIVITY MUD AT BHT
 BHT .F                68:   BOTTOM HOLE TEMPERATURE
 TCS .HRS               5:   TIME CURCULATED STOPPED
 MRT .F                68:   MAXIMUM RECORDED TEMPERATURE
 LUN .               2958:   LOGGING UNIT NUMBER
 LUL .               CASP:   LOGGING UNIT LOCATION
 ENGI.            POINTER:   RECORDING ENGINEER
 WITN.           MCGINLEY:   WITNESSED BY
 CLNT.            A2DTECH:   CLIENT CODE
 ORIG.       2", 5" PRINT:   ORIGIN OF DATA
 UWI .       490251059700:   UNIQUE WELL ID
 DICO. A2D Technologies, Inc.:   DIGITIZING COMPANY
~OTHER INFORMATION
~A   DEPT      SPR         SN        ILD       RHOB       DPHI         GRD      CALD       CORR   
# ...
  115.5000   -23.7370    15.1977    13.9635     2.3589     0.1857    72.0746     7.8730     0.0410
  116.0000   -24.0424    15.2708    13.9833     2.3584     0.1852    69.5722     7.8730     0.0411
  116.5000   -23.9740    15.3440    14.0032     2.3565     0.1836    69.0265     7.8730     0.0438
  117.0000   -23.6789    15.4965    14.1682     2.3589     0.1822    68.2823     7.8731     0.0485
  117.5000   -23.3836    15.6849    14.3986     2.3615     0.1847    67.3093     7.8727     0.0532
  118.0000   -23.3213    15.8756    14.6328     2.3636     0.1877    66.5138     7.8487     0.0571
  118.5000   -23.3701    16.0684    14.8709     2.3595     0.1933    71.4235     7.7688     0.0570
  119.0000   -23.4209    16.2636    15.1133     2.3496     0.1958    74.1543     7.7513     0.0662
  119.5000   -23.4754    16.4608    15.3664     2.3417     0.1961    71.2685     7.7487     0.0836
  120.0000   -23.3689    16.7135    15.5575     2.3417     0.1983    69.9333     7.7465     0.0931
  120.5000   -23.1970    17.0092    15.7573     2.3323     0.2090    69.2065     7.7442     0.0905
  121.0000   -22.9307    17.3104    15.9597     2.3217     0.2032    66.4993     7.7419     0.0890
  121.5000   -22.9910    17.6170    16.2431     2.3213     0.1943    64.1581     7.7396     0.0887
  122.0000   -23.2053    17.9288    16.1960     2.3485     0.1837    64.3122     7.7373     0.0875
  122.5000   -23.4185    18.2461    16.1200     2.3641     0.1790    70.6989     7.7350     0.0832
  123.0000   -23.6315    18.4881    16.0431     2.3766     0.1835    73.0023     7.7326     0.0728
  123.5000   -23.8520    18.8710    15.9492     2.3671     0.1815    70.9752     7.7303     0.0402
  124.0000   -23.7521    19.2426    16.3833     2.3588     0.1794    69.7226     7.7280     0.0164
  124.5000   -23.5735    19.7519    17.0613     2.3803     0.1604    68.6737     7.7257     0.0004
  125.0000   -23.3944    20.2794    17.7674     2.4068     0.1311    66.8176     7.7234    -0.0108
  125.5000   -23.2847    22.9599    18.8643     2.4460     0.1022    63.6385     7.7211    -0.0009
  126.0000   -23.3766    25.7399    20.1929     2.5030     0.0525    56.9687     7.7187     0.0426
  126.5000   -23.4577    28.8423    21.6151     2.5605     0.0486    50.3623     7.7164     0.0690
  127.0000   -23.2884    32.3217    23.1375     2.5923     0.0538    44.4471     7.7140     0.0778
  127.5000   -23.1250    36.1834    24.4015     2.5716     0.0531    44.3036     7.7112     0.0866
  128.0000   -22.9614    38.0830    24.4133     2.5779     0.0659    46.8857     7.7311     0.0954
  128.5000   -22.7978    36.6983    22.7627     2.5667     0.0921    53.6914     7.7669     0.1042
  129.0000   -22.6894    33.7179    21.1797     2.5317     0.1183    60.4410     7.8538     0.1006
  129.5000   -22.9109    29.2472    19.7245     2.4915     0.1445    67.1918     7.9410     0.0933
  130.0000   -23.1273    25.3692    17.5998     2.4433     0.1707    73.9226     7.9733     0.0676
  130.5000   -23.3394    22.0026    15.7236     2.3945     0.1915    76.5378     7.9739     0.0313
  131.0000   -23.4900    19.0853    14.8476     2.3438     0.2018    75.0699     7.9738    -0.0001
  131.5000   -23.4326    17.2199    14.3528     2.3348     0.1938    74.9829     7.9740    -0.0015
  132.0000   -23.3731    16.3064    13.8650     2.3437     0.1868    76.8181     7.9785    -0.0028
  132.5000   -23.3130    15.4403    13.3938     2.3560     0.1766    79.1401     7.9831    -0.0071
  133.0000   -23.2531    14.5334    12.9341     2.3727     0.1788    82.7872     7.9876    -0.0071
  133.5000   -23.1931    14.5370    12.1947     2.3683     0.1806    88.3150     7.9922     0.0033
  134.0000   -23.1337    13.9029    11.3699     2.3797     0.1683   108.4469     7.9967     0.0195
  134.5000   -23.0868    13.0198    10.2984     2.4075     0.1492   110.5780     8.0013     0.0270
  135.0000   -22.9501    11.3146     9.3279     2.4321     0.1359   112.9077     8.0059     0.0254
  135.5000   -22.7805     9.7675     8.4488     2.4406     0.1376   115.5290     8.0104     0.0237
  136.0000   -22.6102     8.5450     7.6526     2.4364     0.1378   123.4735     8.0089     0.0229
  136.5000   -22.4706     7.5705     7.1637     2.4364     0.1360   122.0611     7.9730     0.0283
  137.0000   -22.7000     7.4039     6.9373     2.4386     0.1339   120.3434     7.9374     0.0456
  137.5000   -22.9657     7.2315     6.8102     2.4533     0.1319   119.0920     7.9019     0.0681
  138.0000   -23.2324     7.0648     6.6238     2.4692     0.1313   114.4947     7.8660     0.0728
  138.5000   -23.4985     6.9015     6.6136     2.4465     0.1334    98.2910     7.8530     0.0813
  139.0000   -23.7030     6.8705     6.6011     2.4564     0.1362    88.7851     7.8626     0.0890
  139.5000   -23.3697     6.8657     6.5886     2.4409     0.1402    88.9558     7.9119     0.0952
  140.0000   -23.0060     6.8610     6.5761     2.4322     0.1383    89.9668     7.9602     0.0949
  140.5000   -22.6551     6.8563     6.5636     2.4393     0.1391    91.7063     8.0082     0.0732
  141.0000   -22.5133     6.8516     6.5512     2.4336     0.1482    93.2188     8.0138     0.0451
  141.5000   -22.3634     6.8469     6.5388     2.4215     0.1518    92.7253     8.0129     0.0170
  142.0000   -22.2125     6.8422     6.5264     2.4146     0.1522    92.5901     8.0119     0.0049
  142.5000   -22.0612     6.8375     6.5140     2.4113     0.1467    95.6255     8.0110     0.0033
  143.0000   -21.9066     6.8328     6.5017     2.4173     0.1386    98.5076     8.0101     0.0052
  143.5000   -21.8734     6.8281     6.4893     2.4308     0.1353    98.4772     8.0092     0.0070
  144.0000   -22.0620     6.8234     6.4770     2.4429     0.1338    95.1670     8.0083     0.0088
  144.5000   -22.3849     6.8188     6.4648     2.4433     0.1326    93.7403     8.0074     0.0106
  145.0000   -22.7098     6.8140     6.4525     2.4465     0.1303    90.9348     8.0065     0.0101
  145.5000   -23.0329     6.7991     6.4355     2.4507     0.1298    90.2428     8.0056     0.0073
  146.0000   -23.2719     6.7348     6.3965     2.4493     0.1329    87.5986     8.0047     0.0047
  146.5000   -23.1567     6.6720     6.3580     2.4457     0.1354    84.6219     8.0038     0.0029
  147.0000   -23.0487     6.6099     6.3197     2.4425     0.1372    85.5126     8.0029     0.0026
  147.5000   -22.9421     6.5483     6.2817     2.4415     0.1390    86.8657     8.0020     0.0023
  148.0000   -22.8802     6.5025     6.2439     2.4428     0.1394    87.1825     8.0011     0.0020
  148.5000   -22.8236     6.5567     6.2087     2.4492     0.1318    86.5253     8.0002     0.0017
  149.0000   -22.7665     6.6401     6.2641     2.4555     0.1250    85.7558     7.9993     0.0014
  149.5000   -22.7099     6.7246     6.3174     2.4592     0.1216    85.1233     7.9984     0.0011
  150.0000   -22.6533     6.8102     6.3709     2.4617     0.1184    78.6628     7.9975     0.0018
  150.5000   -22.5965     6.8969     6.4248     2.4724     0.1105    75.0456     7.9966     0.0145
  151.0000   -22.5391     6.9846     6.4791     2.4885     0.0942    77.6288     7.9957     0.0309
  151.5000   -22.4771     7.0735     6.5340     2.5046     0.1055    81.3411     7.9948     0.0338
  152.0000   -22.7319     7.1325     6.5892     2.5051     0.1214    85.0429     7.9939     0.0169
  152.5000   -23.0688     7.1325     6.6449     2.4591     0.1386    86.1346     7.9936    -0.0001
  153.0000   -23.2850     7.1325     6.7012     2.4337     0.1400    87.1623     7.9933     0.0008
  153.5000   -23.1009     7.1638     6.7535     2.4309     0.1422    88.0658     7.9930     0.0031
  154.0000   -22.9089     7.2183     6.7869     2.4277     0.1415    88.4397     7.9926     0.0052
  154.5000   -22.7146     7.2733     6.8204     2.4278     0.1361    89.0663     7.9923     0.0074
  155.0000   -22.6609     7.3287     6.8541     2.4379     0.1310    92.2464     7.9920     0.0095
  155.5000   -22.6280     7.3845     6.8879     2.4476     0.1293    97.9324     7.9916     0.0116
