~VERSION INFORMATION
 VERS.                2.0:   CWLS LOG ASCII STANDARD - VERSION 2.0
 WRAP.                 NO:   ONE LINE PER DEPTH STEP
~WELL INFORMATION
#MNEM.UNIT      DATA TYPE    INFORMATION
#----------   ------------   ------------------------------
 STRT.F            6.0000:   START DEPTH
 STOP.F          640.0000:   STOP DEPTH
 STEP.F            0.5000:   STEP LENGTH
 NULL.          -999.2500:   NO VALUE
 COMP. LAWRENCE/ALLISON INC:   COMPANY
 WELL. NPR 3 #81-11-SX-15:   WELL
 FLD .             TEAPOT:   FIELD
 LOC .      S15 T38N R78W:   LOCATION
 CNTY.            NATRONA:   COUNTY
 STAT.            WYOMING:   STATE
 CTRY. UNITED STATES OF AMERICA:   COUNTRY
 SRVC.           Gearhart:   SERVICE COMPANY
 DATE.        15-JUL-1987:   LOGDATE
 API .       490251115100:   API NUMBER
~CURVE INFORMATION
#MNEM.UNIT       API CODE    CURVE DESCRIPTION
#----------   ------------   ------------------------------
 DEPT.F                  :   
 GRR .GAPI   07 310 01 00:   GAMMA RAY
 RILD.OHMM   07 120 46 00:   INDUCTION LOG DEEP RESISTIVITY
 RILM.OHMM   07 120 44 00:   INDUCTION LOG MEDIUM RESISTIVITY
~PARAMETER INFORMATION
#MNEM.UNIT          VALUE    DESCRIPTION
#----------   ------------   ------------------------------
 PD  .                 GL:   PERMANENT DATUM
 EPD .F            5265.4:   ELEVATION PERMANENT DATUM
 LMF .                 KB:   LOG MEASURED FROM
 DAPD.F                 8:   FEET ABOVE PERMANENT DATUM
 DMF .                 KB:   DRILLING MEASURED FROM
 EKB .F            5273.4:   KELLING BUSHING
 EDF .F            5271.4:   DRILLING FLOOR
 EGL .F            5265.4:   GROUND LEVEL
 DATE.        15-JUL-1987:   RUN DATE
 RUN .                  1:   RUN NUMBER
 DD  .F               646:   DEPTH DRILLER
 DL  .F               648:   DEPTH LOGGER
 BLI .F               640:   BOTTOM LOG INTERVAL
 TLI .F                 6:   TOP LOG INTERVAL
 CS  .IN            8.625:   CASING SIZE
 CBD .F                50:   CASING BOTTOM DRILLER
 CBL .F                50:   CASING BOTTOM LOGGER
 BS  .IN             7.87:   BIT SIZE
 BSD .F               646:   BIT SIZE AT DEPTH
 DFT .                AIR:   DRILLING FLUID TYPE
 TCS .HRS            2400:   TIME CURCULATED STOPPED
 TLAB.HRS            0112:   TIME LOGGER AT BOTTOM
 LUN .               7597:   LOGGING UNIT NUMBER
 LUL .           GILLETTE:   LOGGING UNIT LOCATION
 ENGI.           JOHNSTON:   RECORDING ENGINEER
 WITN.         MR. STRONG:   WITNESSED BY
 CLNT.            A2DTECH:   CLIENT CODE
 ORIG.      2" , 5" PRINT:   ORIGIN OF DATA
 UWI .       490251115100:   UNIQUE WELL ID
 DICO. A2D Technologies, Inc.:   DIGITIZING COMPANY
~OTHER INFORMATION
~A    DEPT     GRR       RILD       RILM   
# ...
  552.0000    99.5826    14.1573    14.3420
  552.5000    97.1255    13.9988    14.2906
  553.0000    94.7608    13.9040    14.1949
  553.5000    93.5569    13.9059    14.1986
  554.0000   100.5268    13.9082    14.1021
  554.5000   104.1875    13.8781    14.1056
  555.0000   105.9924    13.8155    14.0106
  555.5000   101.7650    13.7219    13.9165
  556.0000   100.5611    13.7238    13.8630
  556.5000   101.1770    13.6304    13.8256
  557.0000   102.0955    13.6329    13.7330
  557.5000   100.8938    13.6345    13.7217
  558.0000    99.6921    13.5419    13.6437
  558.5000    98.4904    13.5440    13.6465
  559.0000    97.5492    13.4460    13.6428
  559.5000    97.1651    13.3610    13.4635
  560.0000    99.1831    13.2194    13.3735
  560.5000   101.0459    12.9988    13.2835
  561.0000   102.2352    12.7209    13.0973
  561.5000   104.0624    12.3860    12.7465
  562.0000   106.7973    12.1323    12.4859
  562.5000   107.4142    11.8017    11.9783
  563.0000   108.0311    11.4748    11.4912
  563.5000   105.9249    11.0903    10.7970
  564.0000   104.7262    10.6393    10.3580
  564.5000   105.9486    10.2778     9.5974
  565.0000   106.5658     9.9285     9.0801
  565.5000   106.8826     9.3938     8.5159
  566.0000   106.8943     8.9495     8.1279
  566.5000   107.8138     8.4087     7.9062
  567.0000   109.9436     8.0109     7.6909
  567.5000   114.4939     7.8469     7.5341
  568.0000   120.8597     8.3541     7.4833
  568.5000   123.2920     8.6252     7.6962
  569.0000   125.4221     8.5618     8.1379
  569.5000   121.5031     8.9583     8.6650
  570.0000   117.8840     9.4055     9.4211
  570.5000   114.8700     9.7390    10.1718
  571.0000   112.4612    10.0741    10.3669
  571.5000   110.9601    10.4418    10.5042
  572.0000   108.5513    10.8120    10.8019
  572.5000   108.5630    11.1178    11.0361
  573.0000   108.8775    11.4324    11.3439
  573.5000   108.5866    11.6806    11.6653
  574.0000   108.6012    12.0052    11.9127
  574.5000   108.6130    12.3448    12.1654
  575.0000   108.3193    12.5190    12.4235
  575.5000   108.3340    12.7842    12.6870
  576.0000   108.6483    13.0549    12.8582
  576.5000   108.3570    13.2392    13.0044
  577.0000   107.7640    13.3631    13.2327
  577.5000   107.1707    13.5214    13.3351
  578.0000   106.2777    13.6179    13.5156
  578.5000   105.9839    13.6197    13.6533
  579.0000   106.6038    13.6215    13.7085
  579.5000   105.1027    13.7443    13.7104
  580.0000   102.6939    13.9117    13.8079
  580.5000    99.0748    13.9138    13.9060
  581.0000    98.4206    13.9156    13.9080
  581.5000   102.1241    13.9175    13.9103
  582.0000   101.8332    13.9195    13.9122
  582.5000   100.6376    14.1163    13.9140
  583.0000    99.1365    14.0201    13.8190
  583.5000    98.8428    13.9250    13.7255
  584.0000    98.5519    13.6404    13.7275
  584.5000   100.0795    13.5474    13.8251
  585.0000   102.2093    13.2705    13.7059
  585.5000   104.6416    13.0893    13.5439
  586.0000   107.6993    12.9106    13.3587
  586.5000   109.8118    12.7343    13.0848
  587.0000   109.5210    12.5476    12.8165
  587.5000   108.6250    12.3713    12.6852
  588.0000   106.8213    12.2203    12.5549
  588.5000   106.5276    12.0534    12.3837
  589.0000   106.8449    11.9398    12.2144
  589.5000   109.5798    11.7266    12.0352
  590.0000   111.7095    11.5265    11.6378
  590.5000   112.0242    11.3994    11.3992
  591.0000   111.1308    11.1753    11.0881
  591.5000   110.2319    11.0228    10.8890
  592.0000   109.9411    10.8719    10.6380
  592.5000   110.2584    10.6497    10.4198
  593.0000   111.7830    10.5433    10.1355
  593.5000   114.2154    10.2892     9.8517
  594.0000   115.4374    10.1286     9.5898
  594.5000   113.6188    10.0102     9.3284
  595.0000   113.0404     9.8679     9.3948
  595.5000   114.2653     9.7388     9.3959
  596.0000   116.6977     9.6061     9.3973
  596.5000   116.1043     9.5237     9.4641
  597.0000   113.9981     9.4107     9.3998
  597.5000   112.7995     9.2823     9.3968
  598.0000   112.5083     9.1916     9.2729
  598.5000   112.8230     9.0698     9.1461
  599.0000   113.7731     8.9672     9.0211
  599.5000   115.8752     8.9084     8.8358
  600.0000   116.7947     8.8481     8.7150
  600.5000   118.0167     8.7879     8.5365
  601.0000   118.3311     8.7285     8.4198
  601.5000   117.4351     8.6095     8.3047
  602.0000   115.6314     8.4916     8.1911
  602.5000   115.0378     8.3760     8.2497
  603.0000   117.1780     8.3173     8.2683
  603.5000   119.0863     8.2299     8.0816
  604.0000   122.0354     8.0379     7.8611
  604.5000   122.9549     7.8188     7.4368
  605.0000   122.0590     7.5532     7.2339
  605.5000   119.0450     7.3473     6.8913
  606.0000   116.3336     7.1471     6.5552
  606.5000   115.1346     7.1979     6.0405
  607.0000   115.1468     7.2995     6.3868
  607.5000   115.1589     7.5104     6.8952
  608.0000   115.7785     7.8810     7.2905
  608.5000   116.0928     8.1604     7.6550
  609.0000   116.4071     8.4497     7.9268
  609.5000   117.0240     8.7493     8.3759
  610.0000   116.4306     9.0176     8.8045
  610.5000   114.9295     9.2513     9.1767
  611.0000   113.1259     9.5130     9.3714
  611.5000   112.2251     9.7145     9.5701
  612.0000   113.1619     9.7926     9.7054
  612.5000   114.3722     9.7848     9.7744
  613.0000   115.2799     9.7864     9.8439
  613.5000   116.1876     9.8559     9.9139
  614.0000   116.4902     9.8571     9.9457
  614.5000   115.8850     9.7901     9.9858
  615.0000   115.2799     9.7917     9.9875
  615.5000   115.2799     9.7930     9.9196
  616.0000   115.5825     9.7266     9.9208
  616.5000   116.1876     9.7218     9.9222
  617.0000   116.5285     9.6236     9.9236
  617.5000   117.3979     9.5304     9.9249
  618.0000   117.3979     9.4481     9.8576
  618.5000   117.7005     9.2719     9.7870
  619.0000   117.7005     9.2090     9.6567
  619.5000   116.1876     9.1186     9.6356
  620.0000   114.9773     9.0217     9.5263
  620.5000   113.7670     8.8299     9.2663
  621.0000   113.1619     8.5965     9.0763
  621.5000   111.9516     8.4791     8.8902
  622.0000   111.6410     8.2480     8.5877
  622.5000   112.8593     8.0233     8.4039
  623.0000   114.9773     7.6971     7.9579
  623.5000   115.2799     7.2823     7.4763
  624.0000   115.2799     6.7949     6.9752
  624.5000   117.7005     6.1135     6.4179
  625.0000   119.2638     5.3066     5.6638
  625.5000  -999.2500     4.6086     5.0332
  626.0000  -999.2500     4.0398     4.5041
  626.5000  -999.2500     3.5412     4.0261
  627.0000  -999.2500     3.1475     3.3180
  627.5000  -999.2500     3.0405     2.6753
  628.0000  -999.2500     3.1265     2.4616
  628.5000  -999.2500     3.1053     2.4791
  629.0000  -999.2500     3.1492     2.6395
  629.5000  -999.2500     3.2609     2.9097
  630.0000  -999.2500     3.4957     3.5353
  630.5000  -999.2500     3.9614     4.2069
  631.0000  -999.2500     4.5205     4.7826
  631.5000  -999.2500     5.4561     5.5186
  632.0000  -999.2500     6.1967     6.0834
  632.5000  -999.2500     6.8586     6.8000
  633.0000  -999.2500     7.4037     7.2400
  633.5000  -999.2500     7.7196     7.5494
  634.0000  -999.2500     7.9380     7.8719
  634.5000  -999.2500     8.1061     8.2656
  635.0000  -999.2500     8.2205     8.7476
  635.5000  -999.2500     8.2216     8.9873
  636.0000  -999.2500     8.1094     8.6815
  636.5000  -999.2500  -999.2500     8.3280
  637.0000  -999.2500  -999.2500     8.1007
  637.5000  -999.2500  -999.2500     7.8251
  638.0000  -999.2500  -999.2500     7.6646
  638.5000  -999.2500  -999.2500     7.4038
  639.0000  -999.2500  -999.2500     7.1492
  639.5000  -999.2500  -999.2500     7.0052
  640.0000  -999.2500  -999.2500     7.8595
