~VERSION INFORMATION
 VERS.                2.0:   CWLS LOG ASCII STANDARD - VERSION 2.0
 WRAP.                 NO:   ONE LINE PER DEPTH STEP
~WELL INFORMATION
#MNEM.UNIT      DATA TYPE    INFORMATION
#----------   ------------   ------------------------------
 STRT.F           38.0000:   START DEPTH
 STOP.F         1202.0000:   STOP DEPTH
 STEP.F            0.5000:   STEP LENGTH
 NULL.          -999.2500:   NO VALUE
 COMP.       INTEX OIL CO:   COMPANY
 WELL.     72 S 14 #72-14:   WELL
 FLD .            WILDCAT:   FIELD
 LOC .      S14 T38N R78W:   LOCATION
 CNTY.            NATRONA:   COUNTY
 STAT.            WYOMING:   STATE
 CTRY. UNITED STATES OF AMERICA:   COUNTRY
 SRVC.       Schlumberger:   SERVICE COMPANY
 DATE.        26-AUG-1966:   LOGDATE
 API .       490250970800:   API NUMBER
~CURVE INFORMATION
#MNEM.UNIT       API CODE    CURVE DESCRIPTION
#----------   ------------   ------------------------------
 DEPT.F                  :   
 SPR .MV     05 010 01 00:   SPONTANEOUS POTENTIAL FROM RES.
 ASN .OHMM   05 041 16 00:   AMPLIFIED SHORT NORMAL 16"
 ILD .OHMM   05 120 46 00:   INDUCTION LOG DEEP
 CILD.MMHO   05 110 46 00:   CONDUCTIVITY INDUCTION LOG DEEP
 CORR.G/C3   45 356 01 00:   DENSITY CORRECTION
 GRD .GAPI   45 310 01 00:   GAMMA RAY FROM DENSITY LOG
 CALD.IN     45 280 60 00:   CALIPER FROM DENSITY LOG
 DPHI.DEC    45 890 12 00:   DENSITY POROSITY SANDSTONE
 RHOB.G/C3   45 350 01 00:   BULK DENSITY
~PARAMETER INFORMATION
#MNEM.UNIT          VALUE    DESCRIPTION
#----------   ------------   ------------------------------
 PD  .                 GL:   PERMANENT DATUM
 EPD .F              5265:   ELEVATION PERMANENT DATUM
 LMF .                 KB:   LOG MEASURED FROM
 DAPD.F                 5:   FEET ABOVE PERMANENT DATUM
 DMF .                 KB:   DRILLING MEASURED FROM
 EKB .F              5270:   KELLING BUSHING
 DATE.        26-AUG-1966:   RUN DATE
 RUN .                  1:   RUN NUMBER
 DD  .F              1201:   DEPTH DRILLER
 DL  .F              1203:   DEPTH LOGGER
 BLI .F              1202:   BOTTOM LOG INTERVAL
 TLI .F                46:   TOP LOG INTERVAL
 CS  .IN            8.625:   CASING SIZE
 BS  .IN             6.75:   BIT SIZE
 BSD .F              1201:   BIT SIZE AT DEPTH
 DFT .     CHEM- GEL- OIL:   DRILLING FLUID TYPE
 DFD .                9.4:   DRILLING FLUID DENSITY
 MRT .F                94:   MAXIMUM RECORDED TEMPERATURE
 LUN .               3527:   LOGGING UNIT NUMBER
 LUL .             CASPER:   LOGGING UNIT LOCATION
 ENGI.             KNOBEL:   RECORDING ENGINEER
 WITN.                MAY:   WITNESSED BY
 CLNT.            A2DTECH:   CLIENT CODE
 ORIG.       2", 5" PRINT:   ORIGIN OF DATA
 UWI .       490250970800:   UNIQUE WELL ID
 DICO. A2D Technologies, Inc.:   DIGITIZING COMPANY
~OTHER INFORMATION
~A   DEPT      SPR        ASN        ILD       CILD       CORR        GRD       CALD       DPHI       RHOB   
# ...
  257.0000   -25.4730     6.0189     5.8452   204.9550     0.0586   102.2966     7.0003     0.1338     2.4464
  257.5000   -25.3235     5.8686     5.7694   207.2072     0.0636   101.8814     6.9717     0.1265     2.4486
  258.0000   -25.1744     5.7483     5.6185   208.7087     0.0563   102.7867     6.9282     0.1299     2.4430
  258.5000   -25.0256     5.6254     5.5427   209.4595     0.0552   101.6677     6.9294     0.1347     2.4382
  259.0000   -24.8765     5.5228     5.4669   209.5899     0.0653   101.4678     6.9306     0.1278     2.4459
  259.5000   -24.7274     5.5377     5.4662   207.2072     0.0663   104.2185     6.9317     0.1146     2.4626
  260.0000   -24.7292     5.7477     5.6156   204.1042     0.0370   105.0669     6.9925     0.1212     2.4579
  260.5000   -24.5797     5.9278     5.8401   198.9489     0.0220   104.4074     7.0981     0.1382     2.4307
  261.0000   -24.5815     6.0627     5.9895   195.1952     0.0145   106.4963     7.1142     0.1445     2.4150
  261.5000   -24.4320     6.1677     6.1389   190.6907     0.0138   108.2300     7.1154     0.1462     2.4130
  262.0000   -24.2832     6.2426     6.2883   186.1862     0.0326   105.2816     7.1314     0.1208     2.4396
  262.5000   -24.2847     6.3025     6.3627   183.1832     0.0358   103.0924     7.1326     0.1100     2.4706
  263.0000   -24.2862     6.3174     6.3617   181.6817     0.0378   102.6749     7.1338     0.1230     2.4481
  263.5000   -24.2876     6.3173     6.3610   183.1832     0.0398   104.7384     7.1201     0.1226     2.4445
  264.0000   -24.2892     6.2871     6.2852   186.2259     0.0483   104.6468     7.1213     0.1103     2.4743
  264.5000   -24.4415     6.2569     6.1343   189.4093     0.0581   102.2183     7.1076     0.0993     2.5008
  265.0000   -24.5936     6.2718     5.9834   193.6937     0.0611   101.1547     7.1088     0.1003     2.4998
  265.5000   -24.7457     6.1815     5.8325   196.6967     0.0601   103.2474     7.1100     0.1080     2.4850
  266.0000   -24.8977     6.0462     5.7567   198.9489     0.0536   102.8225     7.0963     0.1087     2.4799
  266.5000   -24.8992     5.9260     5.6059   201.2012     0.0409   100.2940     7.0975     0.1072     2.4792
  267.0000   -25.0513     5.8357     5.5300   202.7027     0.0386   101.3011     7.0987     0.1171     2.4628
  267.5000   -25.0527     5.8056     5.5293   203.4535     0.0379   103.9716     7.1148     0.1189     2.4568
  268.0000   -25.0542     5.8204     5.6036   199.6997     0.0375   104.7985     7.1159     0.1096     2.4740
  268.5000   -24.9054     5.8677     5.7529   195.1153     0.0371   102.9940     7.1171     0.1111     2.4674
  269.0000   -24.9069     6.0303     5.9774   190.6907     0.0328    99.2579     7.1183     0.1212     2.4502
  269.5000   -24.9083     6.2404     6.1270   186.1862     0.0214    95.5797     7.1344     0.1314     2.4442
  270.0000   -24.9098     6.4354     6.2764   180.9309     0.0469    94.7835     7.1356     0.1179     2.4503
  270.5000   -24.7603     6.6455     6.4258   175.6757     0.0375    97.4773     7.1368     0.1191     2.4535
  271.0000   -24.7621     6.8105     6.5752   171.9219     0.0237    95.7001     7.1380     0.1293     2.4481
  271.5000   -24.6129     6.8554     6.5743   168.1682     0.0308    97.0535     7.1541     0.1155     2.4414
  272.0000   -24.6145     6.8553     6.6486   166.6667     0.0365    99.0756     7.1553     0.1089     2.4766
  272.5000   -24.6159     6.8101     6.7230   172.7727     0.0297    97.7124     7.1565     0.1119     2.4729
  273.0000   -24.6178     6.7322     6.5721   180.9309     0.0252    96.1580     7.1577     0.1289     2.4423
  273.5000   -24.4683     6.5545     6.4210   188.4384     0.0249    94.8617     7.1440     0.1361     2.4341
  274.0000   -24.6207     6.3892     6.2701   194.4444     0.0264   100.1935     7.1452     0.1403     2.4296
  274.5000   -24.6222     6.1938     6.0442   199.6997     0.0260   101.5909     7.1314     0.1397     2.4282
  275.0000   -24.6236     5.9534     5.8182   205.7057     0.0221   102.0487     7.1326     0.1417     2.4260
  275.5000   -24.6251     5.7731     5.6673   210.9610     0.0186   101.2757     7.1040     0.1444     2.4200
  276.0000   -24.6265     5.6078     5.5165   215.4655     0.0238    97.3295     7.0903     0.1477     2.4148
  276.5000   -24.4774     5.4425     5.3656   218.4883     0.0299    97.8748     7.0915     0.1492     2.4148
  277.0000   -24.4789     5.3522     5.3648   220.7207     0.0366    98.7809     7.0778     0.1444     2.4239
  277.5000   -24.4807     5.3823     5.2890   221.4715     0.0388    99.4225     7.0790     0.1273     2.4359
  278.0000   -24.4822     5.5057     5.2883   216.9670     0.0404   105.8599     7.0951     0.1189     2.4539
  278.5000   -24.4836     5.6821     5.3626   212.4625     0.0381   105.3956     7.0963     0.1171     2.4599
  279.0000   -24.4851     5.8321     5.4368   206.4565     0.0291   104.3735     7.1273     0.1297     2.4322
  279.5000   -24.4866     5.9821     5.5862   200.4505     0.0344   106.9762     7.1285     0.1216     2.4577
  280.0000   -24.4880     6.1021     5.7356   194.4444     0.0379   103.2809     7.1446     0.1186     2.4660
  280.5000   -24.6401     6.1770     5.8852   189.9399     0.0404    99.0419     7.1308     0.1290     2.4391
  281.0000   -24.6416     6.2670     6.0346   184.6048     0.0430   101.5149     7.1022     0.1260     2.4429
  281.5000   -24.6641     6.3419     6.1839   180.1802     0.0497   103.0909     7.0885     0.1188     2.4631
  282.0000   -24.9461     6.4318     6.3333   177.1772     0.0571   105.1140     7.0599     0.1179     2.4661
  282.5000   -24.9475     6.5075     6.4076   174.1742     0.0612   104.9016     6.9866     0.1092     2.4781
  283.0000   -24.9490     6.5840     6.5570   171.1712     0.0645   102.4537     6.9431     0.1068     2.4804
  283.5000   -24.9505     6.6716     6.5586   169.6697     0.0660   104.7004     6.9294     0.1083     2.4775
  284.0000   -24.8009     6.7465     6.6307   168.1682     0.0630   106.4999     6.9306     0.1095     2.4745
  284.5000   -24.6518     6.7915     6.6299   168.1682     0.0438   105.1698     6.9466     0.1149     2.4596
  285.0000   -24.5030     6.8364     6.6290   169.7697     0.0305   103.3926     7.0075     0.1247     2.4394
  285.5000   -24.3539     6.8212     6.5532   176.4264     0.0190   104.5215     7.0534     0.1439     2.4193
  286.0000   -24.3554     6.7009     6.4023   182.4324     0.0197   105.2033     7.0844     0.1454     2.4208
  286.5000   -24.2062     6.5656     6.2514   187.6877     0.0256   105.2145     7.1004     0.1415     2.4238
  287.0000   -24.0571     6.4303     6.1005   192.1922     0.0343   105.4492     7.1016     0.1238     2.4441
  287.5000   -24.2095     6.2925     5.9497   196.6967     0.0488   106.1310     7.1028     0.1178     2.4606
  288.0000   -24.3616     6.1447     5.7988   201.2012     0.0591   105.2480     7.1040     0.1139     2.4688
  288.5000   -24.3631     6.0395     5.6479   204.2042     0.0623    98.1057     7.1201     0.1103     2.4778
  289.0000   -24.3645     5.9943     5.6457   207.2072     0.0522    95.2107     7.1064     0.1139     2.4689
  289.5000   -24.3660     5.9641     5.5713   208.8187     0.0455    92.5393     7.1076     0.1273     2.4435
  290.0000   -24.3674     5.9039     5.6455   210.2102     0.0571    90.7593     7.1088     0.1273     2.4360
  290.5000   -24.3693     5.8287     5.6448   210.2102     0.0782    97.4797     7.0951     0.1138     2.4668
  291.0000   -24.3707     5.9787     5.7942   204.2042     0.0819   101.9618     7.0516     0.1181     2.4758
  291.5000   -24.3722     6.1587     5.8687   195.1952     0.0726   104.4320     6.9335     0.1173     2.4571
  292.0000   -24.3737     6.2186     6.0181   190.6907     0.0545   105.1138     7.0838     0.1138     2.4661
  292.5000   -24.3751     6.1884     6.1674   188.4384     0.0347   106.2427     7.1148     0.1177     2.4549
  293.0000   -24.5272     6.4135     6.3168   186.1862     0.0287   105.3597     7.1159     0.1269     2.4453
