~VERSION INFORMATION
 VERS.                2.0:   CWLS LOG ASCII STANDARD - VERSION 2.0
 WRAP.                 NO:   ONE LINE PER DEPTH STEP
~WELL INFORMATION
#MNEM.UNIT      DATA TYPE    INFORMATION
#----------   ------------   ------------------------------
 STRT.F            4.0000:   START DEPTH
 STOP.F         1997.5000:   STOP DEPTH
 STEP.F            0.5000:   STEP LENGTH
 NULL.          -999.2500:   NO VALUE
 COMP. LAWRENCE/ALLISON INC:   COMPANY
 WELL. NPR 3 66 SX #32-11:   WELL
 FLD .             TEAPOT:   FIELD
 LOC .      S11 T38N R78W:   LOCATION
 CNTY.            NATRONA:   COUNTY
 STAT.            WYOMING:   STATE
 CTRY. UNITED STATES OF AMERICA:   COUNTRY
 SRVC.      NL McCullough:   SERVICE COMPANY
 DATE.        16-SEP-1988:   LOGDATE
 API .       490251108600:   API NUMBER
~CURVE INFORMATION
#MNEM.UNIT       API CODE    CURVE DESCRIPTION
#----------   ------------   ------------------------------
 DEPT.F                  :   
 ROP .MIN/FT 91 810 01 00:   RATE OF DRILLING PENETRATION
 GR  .GAPI   81 310 01 00:   GAMMA RAY FROM CEMENT BOND LOG
 TGAS.UNITS  91 830 01 00:   TOTAL GAS FROM HOTWIRE
~PARAMETER INFORMATION
#MNEM.UNIT          VALUE    DESCRIPTION
#----------   ------------   ------------------------------
 PD  .                 GL:   PERMANENT DATUM
 EPD .F              5170:   ELEVATION PERMANENT DATUM
 LMF .                 KB:   LOG MEASURED FROM
 DMF .                 KB:   DRILLING MEASURED FROM
 EKB .F              5170:   KELLING BUSHING
 EGL .F              5170:   GROUND LEVEL
 DATE.        16-SEP-1988:   RUN DATE
 RUN .                  1:   RUN NUMBER
 DD  .F               837:   DEPTH DRILLER
 DL  .F               737:   DEPTH LOGGER
 BLI .F               733:   BOTTOM LOG INTERVAL
 CS  .IN              5.5:   CASING SIZE
 CBD .F               836:   CASING BOTTOM DRILLER
 BSD .F               837:   BIT SIZE AT DEPTH
 DFT .              WATER:   DRILLING FLUID TYPE
 TCS .HRS             1.5:   TIME CURCULATED STOPPED
 ENGI.          BANGERTER:   RECORDING ENGINEER
 WITN.               LOWE:   WITNESSED BY
 CLNT.            A2DTECH:   CLIENT CODE
 ORIG.           5" PRINT:   ORIGIN OF DATA
 UWI .       490251108600:   UNIQUE WELL ID
 DICO. A2D Technologies, Inc.:   DIGITIZING COMPANY
~OTHER INFORMATION
~A    DEPT     ROP          GR      TGAS   
# ...
 1460.0000     0.2854  -999.2500     9.8502
 1460.5000     0.2855  -999.2500     8.4263
 1461.0000     0.2856  -999.2500     6.6533
 1461.5000     0.2857  -999.2500     5.9827
 1462.0000     0.2858  -999.2500     5.9724
 1462.5000     0.2859  -999.2500     6.4372
 1463.0000     0.2860  -999.2500     6.9885
 1463.5000     0.2861  -999.2500     6.4371
 1464.0000     0.2862  -999.2500     5.9309
 1464.5000     0.2863  -999.2500     5.9205
 1465.0000     0.2864  -999.2500     5.9101
 1465.5000     0.2865  -999.2500     5.8998
 1466.0000     0.2866  -999.2500     4.4794
 1466.5000     0.2867  -999.2500     4.5433
 1467.0000     0.2868  -999.2500     4.0610
 1467.5000     0.2869  -999.2500     3.7846
 1468.0000     0.2870  -999.2500     3.7723
 1468.5000     0.2871  -999.2500     4.7991
 1469.0000     0.2872  -999.2500     4.7890
 1469.5000     0.2873  -999.2500     5.8158
 1470.0000     0.2874  -999.2500     5.8058
 1470.5000     0.2876  -999.2500     5.7957
 1471.0000     0.2877  -999.2500     5.7857
 1471.5000     0.2878  -999.2500     5.7753
 1472.0000     0.2879  -999.2500     5.7650
 1472.5000     0.2880  -999.2500     5.7546
 1473.0000     0.2881  -999.2500     5.7442
 1473.5000     0.2882  -999.2500     5.8947
 1474.0000     0.2883  -999.2500     6.7622
 1474.5000     0.2884  -999.2500     6.7500
 1475.0000     0.2885  -999.2500     6.7396
 1475.5000     0.2886  -999.2500     7.0213
 1476.0000     0.2887  -999.2500     7.7558
 1476.5000     0.2888  -999.2500     7.7454
 1477.0000     0.2889  -999.2500     7.7350
 1477.5000     0.2890  -999.2500     7.3013
 1478.0000     0.2891  -999.2500     6.6774
 1478.5000     0.2892  -999.2500     6.6671
 1479.0000     0.2893  -999.2500     6.6567
 1479.5000     0.2894  -999.2500     6.6463
 1480.0000     0.2895  -999.2500     6.6359
 1480.5000     0.2896  -999.2500     7.2459
 1481.0000     0.2897  -999.2500     8.3053
 1481.5000     0.2898  -999.2500     8.6786
 1482.0000     0.2899  -999.2500     8.6682
 1482.5000     0.2900  -999.2500     8.6578
 1483.0000     0.2901  -999.2500     8.6475
 1483.5000     0.2902  -999.2500     7.8198
 1484.0000     0.2903  -999.2500     7.5881
 1484.5000     0.2904  -999.2500     7.5780
 1485.0000     0.2905  -999.2500     6.5311
 1485.5000     0.2906  -999.2500     6.5210
 1486.0000     0.2907  -999.2500     5.4741
 1486.5000     0.2908  -999.2500     5.4641
 1487.0000     0.2909  -999.2500     5.4539
 1487.5000     0.2910  -999.2500     5.4435
 1488.0000     0.2911  -999.2500     5.4332
 1488.5000     0.2912  -999.2500     5.4228
 1489.0000     0.2913  -999.2500     5.4062
 1489.5000     0.2914  -999.2500     5.3490
 1490.0000     0.2915  -999.2500     5.2918
 1490.5000     0.2916  -999.2500     5.2346
 1491.0000     0.2917  -999.2500     5.1774
 1491.5000     0.2918  -999.2500     5.1201
 1492.0000     0.2919  -999.2500     5.0629
 1492.5000     0.2920  -999.2500     5.0057
 1493.0000     0.2921  -999.2500     4.9485
 1493.5000     0.2922  -999.2500     4.8913
 1494.0000     0.2923  -999.2500     4.8341
 1494.5000     0.2924  -999.2500     4.7768
 1495.0000     0.2925  -999.2500     4.7196
 1495.5000     0.2926  -999.2500     4.6624
 1496.0000     0.2927  -999.2500     4.6052
 1496.5000     0.2928  -999.2500     4.5480
 1497.0000     0.2929  -999.2500     4.4908
 1497.5000     0.2930  -999.2500     4.4335
 1498.0000     0.2931  -999.2500     4.3763
 1498.5000     0.2932  -999.2500     4.3191
 1499.0000     0.2933  -999.2500     4.2619
 1499.5000     0.2934  -999.2500     4.2047
 1500.0000     0.2935  -999.2500     4.1475
 1500.5000     0.2932  -999.2500     4.1786
 1501.0000     0.2929  -999.2500     4.2097
 1501.5000     0.2926  -999.2500     4.2408
 1502.0000     0.2923  -999.2500     4.2719
 1502.5000     0.2920  -999.2500     4.3030
 1503.0000     0.2917  -999.2500     4.3341
 1503.5000     0.2914  -999.2500     4.3652
 1504.0000     0.2911  -999.2500     4.3963
 1504.5000     0.2908  -999.2500     4.4274
 1505.0000     0.2905  -999.2500     4.4585
 1505.5000     0.2902  -999.2500     4.4896
 1506.0000     0.2899  -999.2500     4.5207
 1506.5000     0.2896  -999.2500     4.5518
 1507.0000     0.2893  -999.2500     4.5829
 1507.5000     0.2890  -999.2500     4.6141
 1508.0000     0.2887  -999.2500     4.6452
 1508.5000     0.2884  -999.2500     4.6763
 1509.0000     0.2881  -999.2500     4.7074
 1509.5000     0.2878  -999.2500     4.7385
 1510.0000     0.2874  -999.2500     4.7696
 1510.5000     0.2871  -999.2500     4.8007
 1511.0000     0.2868  -999.2500     4.8318
 1511.5000     0.2865  -999.2500     4.8629
 1512.0000     0.2862  -999.2500     4.8940
 1512.5000     0.2859  -999.2500     4.9251
 1513.0000     0.2856  -999.2500     4.9562
 1513.5000     0.2853  -999.2500     4.9873
 1514.0000     0.2850  -999.2500     5.0184
 1514.5000     0.2847  -999.2500     5.0495
 1515.0000     0.2844  -999.2500     5.0806
 1515.5000     0.2841  -999.2500     5.1117
 1516.0000     0.2838  -999.2500     5.1429
 1516.5000     0.2835  -999.2500     5.2603
 1517.0000     0.2832  -999.2500    10.6484
 1517.5000     0.2829  -999.2500    15.7775
 1518.0000     0.2826  -999.2500    17.7062
 1518.5000     0.2823  -999.2500    13.1265
 1519.0000     0.2820  -999.2500    10.3239
 1519.5000     0.2817  -999.2500     9.5081
 1520.0000     0.2814  -999.2500     9.5392
 1520.5000     0.2811  -999.2500     9.5703
 1521.0000     0.2808  -999.2500     9.6177
 1521.5000     0.2805  -999.2500     9.7019
 1522.0000     0.2802  -999.2500     9.7861
 1522.5000     0.2799  -999.2500     9.8704
 1523.0000     0.2796  -999.2500     9.9546
 1523.5000     0.2793  -999.2500    10.0388
 1524.0000     0.2789  -999.2500    10.1231
 1524.5000     0.2786  -999.2500    10.2073
 1525.0000     0.2783  -999.2500    10.2915
 1525.5000     0.2780  -999.2500    10.3758
 1526.0000     0.2777  -999.2500    10.4600
 1526.5000     0.2774  -999.2500    10.5442
 1527.0000     0.2771  -999.2500    10.6285
 1527.5000     0.2768  -999.2500    10.7127
 1528.0000     0.2765  -999.2500    10.7969
 1528.5000     0.2762  -999.2500    10.8812
 1529.0000     0.2759  -999.2500    10.9654
 1529.5000     0.2756  -999.2500    11.0497
 1530.0000     0.2753  -999.2500    11.1339
 1530.5000     0.2750  -999.2500    11.2181
 1531.0000     0.2747  -999.2500    10.2290
 1531.5000     0.2744  -999.2500    10.2591
 1532.0000     0.2741  -999.2500    10.2892
 1532.5000     0.2738  -999.2500    10.3193
 1533.0000     0.2735  -999.2500    10.3494
 1533.5000     0.2732  -999.2500    10.3795
 1534.0000     0.2729  -999.2500     9.3728
 1534.5000     0.2726  -999.2500     9.4044
 1535.0000     0.2723  -999.2500     9.4355
 1535.5000     0.2720  -999.2500     9.4666
 1536.0000     0.2717  -999.2500     9.4977
 1536.5000     0.2714  -999.2500     9.9087
 1537.0000     0.2711  -999.2500    12.3077
 1537.5000     0.2707  -999.2500    15.5530
 1538.0000     0.2704  -999.2500    17.0356
 1538.5000     0.2701  -999.2500    13.5238
 1539.0000     0.2698  -999.2500    10.3584
 1539.5000     0.2695  -999.2500     9.3180
 1540.0000     0.2692  -999.2500     8.2776
 1540.5000     0.2689  -999.2500     7.7039
 1541.0000     0.2686  -999.2500     7.7350
 1541.5000     0.2683  -999.2500     7.7661
 1542.0000     0.2680  -999.2500     7.7972
 1542.5000     0.2677  -999.2500     8.4331
 1543.0000     0.2674  -999.2500    10.1752
 1543.5000     0.2671  -999.2500    11.0012
 1544.0000     0.2668  -999.2500    11.7409
 1544.5000     0.2665  -999.2500    12.1002
 1545.0000     0.2662  -999.2500    12.1313
 1545.5000     0.2659  -999.2500    12.1624
 1546.0000     0.2656  -999.2500    12.1991
 1546.5000     0.2653  -999.2500    12.2292
 1547.0000     0.2650  -999.2500    12.2593
 1547.5000     0.2647  -999.2500    12.2894
 1548.0000     0.2644  -999.2500    11.2826
 1548.5000     0.2641  -999.2500    10.8128
 1549.0000     0.2638  -999.2500    10.3191
 1549.5000     0.2635  -999.2500     9.8255
 1550.0000     0.2632  -999.2500     9.3318
 1550.5000     0.2634  -999.2500     9.4215
