~VERSION INFORMATION
 VERS.                2.0:   CWLS LOG ASCII STANDARD - VERSION 2.0
 WRAP.                 NO:   ONE LINE PER DEPTH STEP
~WELL INFORMATION
#MNEM.UNIT      DATA TYPE    INFORMATION
#----------   ------------   ------------------------------
 STRT.F           30.0000:   START DEPTH
 STOP.F          637.0000:   STOP DEPTH
 STEP.F            0.5000:   STEP LENGTH
 NULL.          -999.2500:   NO VALUE
 COMP.    FENIX & SCISSON:   COMPANY
 WELL.        NPR #82-S-3:   WELL
 FLD .             TEAPOT:   FIELD
 LOC .       S3 T38N R78W:   LOCATION
 CNTY.            NATRONA:   COUNTY
 STAT.            WYOMING:   STATE
 CTRY. UNITED STATES OF AMERICA:   COUNTRY
 SRVC.              Welex:   SERVICE COMPANY
 DATE.        08-MAY-1977:   LOGDATE
 API .       490251035100:   API NUMBER
~CURVE INFORMATION
#MNEM.UNIT       API CODE    CURVE DESCRIPTION
#----------   ------------   ------------------------------
 DEPT.F                  :   
 SPR .MV     07 010 01 00:   SPONTANEOUS POTENTIAL FROM RES.
 ILD .OHMM   07 120 46 00:   INDUCTION LOG DEEP
 ILM .OHMM   07 120 44 00:   INDUCTION LOG MEDIUM
 SGRD.OHMM   07 220 05 00:   SHALLOW GUARD RESISTIVITY
 GRD .GAPI   45 310 01 00:   GAMMA RAY FROM DENSITY LOG
 CALD.IN     45 280 60 00:   CALIPER FROM DENSITY LOG
 CORR.G/C3   45 356 01 00:   DENSITY CORRECTION
 RHOB.G/C3   45 350 01 00:   BULK DENSITY
 DPHI.DEC    45 890 12 00:   DENSITY POROSITY SANDSTONE
~PARAMETER INFORMATION
#MNEM.UNIT          VALUE    DESCRIPTION
#----------   ------------   ------------------------------
 PD  .                 GL:   PERMANENT DATUM
 EPD .F              5100:   ELEVATION PERMANENT DATUM
 LMF .                 GL:   LOG MEASURED FROM
 DMF .                 GL:   DRILLING MEASURED FROM
 EGL .F              5100:   GROUND LEVEL
 DATE.        08-MAY-1977:   RUN DATE
 RUN .                  1:   RUN NUMBER
 DD  .F               635:   DEPTH DRILLER
 DL  .F               640:   DEPTH LOGGER
 BLI .F               638:   BOTTOM LOG INTERVAL
 TLI .F                30:   TOP LOG INTERVAL
 CS  .IN            8.625:   CASING SIZE
 CBD .F                40:   CASING BOTTOM DRILLER
 CBL .F                38:   CASING BOTTOM LOGGER
 BS  .IN            7.875:   BIT SIZE
 BSD .F               635:   BIT SIZE AT DEPTH
 DFT .            KCL MUD:   DRILLING FLUID TYPE
 DFD .                8.8:   DRILLING FLUID DENSITY
 DFV .                 32:   DRILLING FLUID VISCOSITY
 DFPH.                7.5:   DRILLING FLUID PH
 MSS .           FLOWLINE:   MUD SAMPLE SOURCE
 RMS .OHMM            .25:   RESISTIVITY MUD SAMPLE
 MST .F                80:   MUD SAMPLE TEMPERATURE
 RMF .OHMM            .22:   RESISTIVITY MUD FILTRATE SAMPLE
 MFST.F                80:   MUD FILTRATE SAMPLE TEMPERATURE
 RMC .OHMM            .31:   RESISTIVITY MUD CAKE
 MCST.F                80:   MUD CAKE SAMPLE TEMPERATURE
 MFSS.               MEAS:   MUD FILTRATE SAMPLE SOURCE
 MCSS.               MEAS:   MUD CAKE SAMPLE SOURCE
 RMB .OHMM            .23:   RESISTIVITY MUD AT BHT
 BHT .F                87:   BOTTOM HOLE TEMPERATURE
 TCS .HRS            0130:   TIME CURCULATED STOPPED
 MRT .F                87:   MAXIMUM RECORDED TEMPERATURE
 LUN .               8611:   LOGGING UNIT NUMBER
 LUL .             CASPER:   LOGGING UNIT LOCATION
 ENGI.            C. DOAK:   RECORDING ENGINEER
 WITN.            R. LYON:   WITNESSED BY
 CLNT.            A2DTECH:   CLIENT CODE
 ORIG.           5" PRINT:   ORIGIN OF DATA
 UWI .       490251035100:   UNIQUE WELL ID
 DICO. A2D Technologies, Inc.:   DIGITIZING COMPANY
~OTHER INFORMATION
~A   DEPT      SPR        ILD        ILM       SGRD         GRD      CALD        CORR        RHOB     DPHI   
# ...
  176.0000   -48.9428     8.6595     9.5127    11.7326   130.6851     7.9710     0.0459     2.4909     0.1110
  176.5000   -49.0789     8.4868     9.5184    11.7397   126.2356     7.9720     0.0430     2.4849     0.1155
  177.0000   -49.2150     8.2705     9.5888    11.7453   123.2743     7.9730     0.0401     2.4777     0.1193
  177.5000   -49.2002     8.1619     9.8614    11.8323   121.2058     7.9590     0.0372     2.4740     0.1211
  178.0000   -49.3363     8.2799    10.0031    11.9199   121.1408     7.9603     0.0343     2.4679     0.1253
  178.5000   -49.3245     8.4685    10.1467    12.5153   122.1271     7.9613     0.0344     2.4629     0.1273
  179.0000   -49.3126     8.7586    10.3636    13.7900   120.9552     7.9623     0.0345     2.4632     0.1249
  179.5000   -49.3008     8.8971    10.5851    14.3793   118.7379     7.9634     0.0346     2.4678     0.1222
  180.0000   -49.2890     9.0766    10.7371    14.0918   115.3301     7.9644     0.0347     2.4744     0.1198
  180.5000   -49.2771     9.2076    10.9666    13.3421   114.0057     7.9654     0.0348     2.4812     0.1162
  181.0000   -49.1174     9.2763    11.0477    13.2552   114.3181     7.9665     0.0349     2.4864     0.1135
  181.5000   -49.1055     9.3456    10.6055    14.4071   112.9937     7.9524     0.0366     2.4887     0.1125
  182.0000   -48.9458     9.3499    10.9070    14.1190   113.3061     7.9537     0.0367     2.4948     0.1080
  182.5000   -48.9339     9.3550    11.4514    13.7415   114.6566     7.9547     0.0368     2.5008     0.1053
  183.0000   -48.9221     9.3602    11.3783    13.6521   111.8477     7.9558     0.0354     2.4956     0.1083
  183.5000   -48.9103     9.3009    11.1509    13.5648   113.2019     7.9568     0.0324     2.4830     0.1163
  184.0000   -49.0463     9.3062    10.7785    13.4781   114.4072     7.9579     0.0311     2.4771     0.1184
  184.5000   -49.0345     9.2473    10.7837    13.7681   115.7613     7.9589     0.0342     2.4801     0.1166
  185.0000   -49.0227     9.2524    11.0903    13.5861   117.8595     7.9599     0.0358     2.4831     0.1154
  185.5000   -49.0108     9.2575    11.3274    13.4976   119.5112     7.9461     0.0359     2.4869     0.1129
  186.0000   -48.9990     9.3267    11.2548    13.8834   120.8654     7.9472     0.0375     2.4900     0.1108
  186.5000   -48.9872     9.3963    11.4167    14.0829   123.5588     7.9482     0.0376     2.4937     0.1090
  187.0000   -48.9753     9.5319    11.6607    13.7996   123.4248     7.9641     0.0377     2.4983     0.1069
  187.5000   -48.9635     9.6695    11.6663    14.0965   122.9895     7.9651     0.0378     2.5013     0.1039
  188.0000   -48.9517     9.8768    11.6719    15.0060   123.7521     7.9662     0.0379     2.5066     0.1006
  188.5000   -48.9398    10.0194    12.0038    16.5345   123.1717     7.9672     0.0380     2.5044     0.1032
  189.0000   -48.9280    10.1640    12.0215    17.3582   122.5913     7.9682     0.0366     2.4948     0.1065
  189.5000   -48.9162    10.2399    11.3711    14.8219   122.9038     7.9693     0.0367     2.4903     0.1134
  190.0000   -48.9043    10.1751    11.0674    14.4257   125.0020     7.9703     0.0368     2.4851     0.1157
  190.5000   -48.7446    10.1108    11.0727    14.3335   125.0168     7.9714     0.0369     2.4807     0.1169
  191.0000   -48.7327     9.9095    11.0780    14.0469   123.2460     7.9724     0.0370     2.4853     0.1127
  191.5000   -48.7209     9.6455    11.1600    13.6714   122.2154     7.9734     0.0372     2.4898     0.1115
  192.0000   -48.5611     9.4534    10.8619    13.2146   124.4661     7.9745     0.0373     2.4854     0.1135
  192.5000   -48.5493     9.2651    10.7924    13.0383   125.8203     7.9755     0.0358     2.4787     0.1174
  193.0000   -48.5375     9.2702    11.0232    13.4109   125.6826     7.9765     0.0330     2.4780     0.1195
  193.5000   -48.5256     9.4040    10.9528    13.7926   123.4690     7.9776     0.0316     2.4818     0.1173
  194.0000   -48.5138     9.4092    10.2993    13.9908   122.4384     7.9786     0.0332     2.4856     0.1152
  194.5000   -48.6529     9.4144    10.4472    13.9975   122.0106     7.9797     0.0348     2.4901     0.1113
  195.0000   -48.7890     9.2907    10.5972    14.0043   120.5373     7.9807     0.0349     2.4939     0.1092
  195.5000   -48.9250     9.2320    10.6756    13.9131   121.4450     7.9817     0.0335     2.4820     0.1173
  196.0000   -48.9103     9.2371    10.6074    13.5428   124.2872     7.9828     0.0306     2.4716     0.1220
  196.5000   -48.8984     9.2422    10.4673    13.4546   124.7485     7.9838     0.0292     2.4649     0.1268
  197.0000   -49.0375     9.2472    10.3290    14.0313   124.9122     7.9849     0.0263     2.4568     0.1300
  197.5000   -49.0227     9.1888    10.2631    13.9416   124.9270     7.9859     0.0279     2.4560     0.1291
  198.0000   -49.0108     9.1939    10.2680    13.7573   125.0907     7.9869     0.0310     2.4651     0.1204
  198.5000   -48.9990     9.1358    10.2730    13.2976   126.4448     7.9880     0.0311     2.4816     0.1162
  199.0000   -48.9872     9.1408    10.2779    13.0301   128.2454     7.9741     0.0327     2.4831     0.1144
  199.5000   -48.9753     9.2091    10.2123    13.2190   130.6412     7.9752     0.0328     2.4876     0.1117
  200.0000   -48.9665     9.2142    10.1471    13.7204   131.3963     7.9614     0.0321     2.4907     0.1111
  200.5000   -49.0055     9.2186    10.0865    13.2337   129.7809     7.9455     0.0271     2.4795     0.1179
  201.0000   -49.0389     9.2231    10.0258    13.0585   129.1978     7.9340     0.0241     2.4661     0.1246
  201.5000   -49.0723     9.2282     9.9606    13.0686   131.5991     7.9352     0.0214     2.4505     0.1331
  202.0000   -49.1057     9.2326     9.9674    13.1672   133.4011     7.9364     0.0246     2.4506     0.1337
  202.5000   -49.1392     9.2371     9.9743    13.3562   132.0781     7.9376     0.0276     2.4514     0.1328
  203.0000   -49.1719     9.2415     9.9811    12.9116   130.4574     7.9387     0.0278     2.4514     0.1340
  203.5000   -49.1569     9.1814     9.9177    13.1917   128.2415     7.9400     0.0279     2.4545     0.1317
  204.0000   -48.9941     9.0612     9.8564    13.6627   127.0673     7.9414     0.0295     2.4650     0.1265
  204.5000   -48.9793     8.9415     9.7955    13.2994   126.0419     7.9426     0.0299     2.4695     0.1223
  205.0000   -49.1129     8.8234     9.8039    12.9436   125.4629     7.9438     0.0328     2.4793     0.1170
  205.5000   -49.0977     8.7660     9.8106    12.9537   124.8799     7.9449     0.0359     2.4876     0.1124
  206.0000   -49.0828     8.7713     9.8174    12.9617   128.3228     7.9310     0.0376     2.4906     0.1110
  206.5000   -49.0681     8.7755     9.8241    13.2407   129.3808     7.9324     0.0377     2.4891     0.1122
  207.0000   -49.0532     8.7797     9.8309    12.8000   128.6530     7.9336     0.0363     2.4878     0.1128
  207.5000   -49.0355     8.7226     9.8376    12.5454   127.4747     7.9348     0.0350     2.4877     0.1154
  208.0000   -49.1724     8.7278     9.8444    13.2653   127.3421     7.9360     0.0306     2.4735     0.1211
  208.5000   -49.1540     8.7924     9.9193    13.0018   128.1065     7.9372     0.0292     2.4730     0.1211
  209.0000   -49.1392     8.8574    10.1334    13.0099   125.7418     7.9383     0.0294     2.4753     0.1204
  209.5000   -49.1245     8.9846    10.2810    13.1987   123.2283     7.9395     0.0295     2.4754     0.1201
  210.0000   -49.1097     9.1137    10.4308    13.5761   121.9053     7.9407     0.0281     2.4695     0.1228
  210.5000   -49.2466     9.3084    10.4380    14.0609   124.0049     7.9419     0.0253     2.4613     0.1284
  211.0000   -49.3798     9.4421    10.6633    14.4630   125.5093     7.9579     0.0224     2.4546     0.1323
  211.5000   -49.5130     9.5777    10.8934    14.4720   124.7815     7.9591     0.0210     2.4517     0.1302
  212.0000   -49.4945     9.6486    10.7515    14.3813   123.7561     7.9603     0.0212     2.4637     0.1239
