~VERSION INFORMATION
 VERS.                2.0:   CWLS LOG ASCII STANDARD - VERSION 2.0
 WRAP.                 NO:   ONE LINE PER DEPTH STEP
~WELL INFORMATION
#MNEM.UNIT      DATA TYPE    INFORMATION
#----------   ------------   ------------------------------
 STRT.F          283.5000:   START DEPTH
 STOP.F         3026.0000:   STOP DEPTH
 STEP.F            0.5000:   STEP LENGTH
 NULL.          -999.2500:   NO VALUE
 COMP. DEPARTMENT OF ENERGY:   COMPANY
 WELL. RES 3 TEAPOT DOM "AX" #62-29:   WELL
 FLD .        TEAPOT DOME:   FIELD
 LOC .      S29 T39N R78W:   LOCATION
 CNTY.            NATRONA:   COUNTY
 STAT.            WYOMING:   STATE
 CTRY. UNITED STATES OF AMERICA:   COUNTRY
 SRVC.       Schlumberger:   SERVICE COMPANY
 DATE.        27-JUL-1971:   LOGDATE
 API .       490250659800:   API NUMBER
~CURVE INFORMATION
#MNEM.UNIT       API CODE    CURVE DESCRIPTION
#----------   ------------   ------------------------------
 DEPT.F                  :   
 GRD .GAPI   45 310 01 00:   GAMMA RAY FROM DENSITY LOG
 CALD.IN     45 280 60 00:   CALIPER FROM DENSITY LOG
 RHOB.G/C3   45 350 01 00:   BULK DENSITY
 DPHI.DEC    45 890 12 00:   DENSITY POROSITY SANDSTONE
 CORR.G/C3   45 356 01 00:   DENSITY CORRECTION
 SPR .MV     05 010 01 00:   SPONTANEOUS POTENTIAL FROM RES.
 ASN .OHMM   05 041 16 00:   AMPLIFIED SHORT NORMAL 16"
 ILD .OHMM   05 120 46 00:   INDUCTION LOG DEEP
 CILD.MMHO   05 110 46 00:   CONDUCTIVITY INDUCTION LOG DEEP
~PARAMETER INFORMATION
#MNEM.UNIT          VALUE    DESCRIPTION
#----------   ------------   ------------------------------
 PD  .                 GL:   PERMANENT DATUM
 EPD .F              4998:   ELEVATION PERMANENT DATUM
 LMF .                 KB:   LOG MEASURED FROM
 DAPD.F                11:   FEET ABOVE PERMANENT DATUM
 DMF .                 KB:   DRILLING MEASURED FROM
 EKB .F              5009:   KELLING BUSHING
 EGL .F              4998:   GROUND LEVEL
 DATE.            7-27-71:   RUN DATE
 RUN .                  1:   RUN NUMBER
 DD  .F              3023:   DEPTH DRILLER
 DL  .F              3024:   DEPTH LOGGER
 BLI .F              3023:   BOTTOM LOG INTERVAL
 TLI .F               286:   TOP LOG INTERVAL
 CS  .IN            10.75:   CASING SIZE
 CBD .F               287:   CASING BOTTOM DRILLER
 CBL .F               286:   CASING BOTTOM LOGGER
 BS  .IN                9:   BIT SIZE
 BSD .F              3023:   BIT SIZE AT DEPTH
 DFT .      FRESH GEL MUD:   DRILLING FLUID TYPE
 DFD .                 10:   DRILLING FLUID DENSITY
 DFV .                 90:   DRILLING FLUID VISCOSITY
 DFPH.                7.6:   DRILLING FLUID PH
 DFL .                5.8:   DRILLING FLUID LOSS
 MSS .          FLOW LINE:   MUD SAMPLE SOURCE
 RMS .OHMM           1.74:   RESISTIVITY MUD SAMPLE
 MST .F                75:   MUD SAMPLE TEMPERATURE
 RMF .OHMM            1.5:   RESISTIVITY MUD FILTRATE SAMPLE
 MFST.F                75:   MUD FILTRATE SAMPLE TEMPERATURE
 MFSS.                  C:   MUD FILTRATE SAMPLE SOURCE
 RMB .OHMM           1.12:   RESISTIVITY MUD AT BHT
 BHT .F               116:   BOTTOM HOLE TEMPERATURE
 TCS .HRS               5:   TIME CURCULATED STOPPED
 MRT .F               116:   MAXIMUM RECORDED TEMPERATURE
 LUN .               7041:   LOGGING UNIT NUMBER
 LUL .               CSPR:   LOGGING UNIT LOCATION
 ENGI.             KNOBEL:   RECORDING ENGINEER
 WITN.                MAY:   WITNESSED BY
 CLNT.            A2DTECH:   CLIENT CODE
 ORIG.     1", 2.5" PRINT:   ORIGIN OF DATA
 UWI .       490250659800:   UNIQUE WELL ID
 DICO. A2D Technologies, Inc.:   DIGITIZING COMPANY
~OTHER INFORMATION
~A   DEPT      GRD       CALD       RHOB       DPHI       CORR        SPR        ASN        ILD       CILD   
# ...
 2473.5000   101.5822     9.5596     2.4810     0.1036     0.0370   -33.4845    18.2845    14.6333    60.3960
 2474.0000   104.3726     9.5689     2.5011     0.0890     0.0432   -33.5002    18.0161    14.7668    60.3960
 2474.5000   102.8032     9.5782     2.5302     0.0715     0.0554   -33.5468    17.8607    15.1098    59.3927
 2475.0000    96.8878     9.5870     2.5211     0.0838     0.0543   -33.5571    17.7492    15.3645    58.5809
 2475.5000    90.7088     9.5974     2.5048     0.0997     0.0476   -33.5414    17.6679    15.2482    57.7690
 2476.0000    89.3825     9.6039     2.4997     0.0950     0.0406   -33.4654    17.4529    14.7002    56.9571
 2476.5000    92.8539     9.6235     2.5117     0.0850     0.0357   -33.2803    16.9377    13.9161    56.4356
 2477.0000    95.4236     9.6447     2.5058     0.0882     0.0412   -33.0239    16.2918    13.1282    64.5758
 2477.5000    95.4950     9.6670     2.5015     0.0937     0.0435   -32.7820    15.7085    12.4147    70.5712
 2478.0000    97.3878     9.6880     2.5024     0.0847     0.0472   -32.5806    14.8934    11.7287    76.5666
 2478.5000   100.7988     9.7096     2.5249     0.0769     0.0543   -32.3860    13.6246    11.0002    82.5621
 2479.0000   105.2334     9.7330     2.5377     0.0691     0.0657   -32.1660    12.5146    10.2080    88.1188
 2479.5000   106.2031     9.7491     2.5481     0.0620     0.0604   -31.9294    12.0831     9.4497    93.9274
 2480.0000   107.0803     9.7928     2.5347     0.0714     0.0448   -31.7170    11.8799     8.9256    99.3399
 2480.5000   107.7679     9.8018     2.5198     0.0794     0.0297   -31.5798    11.5639     8.7448   104.7525
 2481.0000   109.9885     9.8048     2.5297     0.0758     0.0293   -31.5262    11.5764     8.7848   107.9208
 2481.5000   109.9925     9.8052     2.5336     0.0707     0.0404   -31.5029    11.5145     8.8413   107.9208
 2482.0000   107.9475     9.8082     2.5380     0.0699     0.0515   -31.4501    11.4147     8.8489   107.9208
 2482.5000   107.4056     9.8099     2.5422     0.0663     0.0574   -31.3664    11.3885     8.8675   105.6766
 2483.0000   106.5969     9.8119     2.5454     0.0620     0.0560   -31.2885    11.3081     8.9238   104.0528
 2483.5000   106.5968     9.8140     2.5400     0.0708     0.0543   -31.2278    11.2498     8.9806   102.4290
 2484.0000   106.4245     9.8160     2.5404     0.0624     0.0526   -31.1589    11.1931     9.0174   100.8053
 2484.5000   103.4879     9.8180     2.5564     0.0641     0.0562   -31.0611    11.1792     9.0527    99.1815
 2485.0000   100.3712     9.8201     2.5689     0.0456     0.0626   -30.9395    11.1919     9.0985    97.5578
 2485.5000    99.4814     9.8221     2.5603     0.0513     0.0690   -30.8017    11.1845     9.1481    96.0396
 2486.0000   100.7227     9.8241     2.5447     0.0665     0.0500   -30.6471    11.1876     9.1924    96.0396
 2486.5000   100.1029     9.8261     2.5531     0.0610     0.0503   -30.4931    11.1887     9.2297    96.0396
 2487.0000    99.2165     9.8282     2.5444     0.0635     0.0439   -30.3835    11.1872     9.2691    96.0396
 2487.5000    98.0605     9.8302     2.5521     0.0605     0.0445   -30.3450    11.1883     9.3228    96.0396
 2488.0000    98.3904     9.8322     2.5578     0.0580     0.0493   -30.3514    11.1857     9.3758    96.0396
 2488.5000   101.0535     9.8343     2.5465     0.0637     0.0455   -30.3587    11.1892     9.3844    96.0396
 2489.0000   103.5192     9.8362     2.5374     0.0707     0.0447   -30.3579    11.1946     9.3222    96.0396
 2489.5000   105.9938     9.8385     2.5505     0.0659     0.0496   -30.3596    11.1797     9.2181    96.0396
 2490.0000   108.1023     9.8375     2.5641     0.0586     0.0537   -30.3562    11.1333     9.1152    96.0396
 2490.5000   107.7675     9.8347     2.5696     0.0509     0.0586   -30.3450    11.0714     9.0191    96.0396
 2491.0000   107.8547     9.8320     2.5613     0.0529     0.0578   -30.3694    11.0114     8.9180    99.2277
 2491.5000   109.9134     9.8293     2.5520     0.0576     0.0568   -30.4755    10.9490     8.8219   101.6634
 2492.0000   107.8020     9.8266     2.5494     0.0624     0.0523   -30.6295    10.8803     8.7371   104.0990
 2492.5000   104.9251     9.8239     2.5463     0.0644     0.0463   -30.7347    10.8276     8.6339   106.5347
 2493.0000   101.9016     9.8212     2.5443     0.0596     0.0471   -30.7389    10.8053     8.5046   107.9208
 2493.5000    99.6304     9.8185     2.5503     0.0659     0.0538   -30.6815    10.7761     8.4210   108.5545
 2494.0000    99.4987     9.8158     2.5557     0.0549     0.0603   -30.6257    10.6842     8.4558   108.9973
 2494.5000   101.4903     9.8131     2.5495     0.0622     0.0605   -30.5870    10.5367     8.5633   109.4401
 2495.0000   104.2086     9.8104     2.5249     0.0701     0.0479   -30.5466    10.4111     8.6277   109.9010
 2495.5000   106.3359     9.8076     2.5234     0.0762     0.0353   -30.4975    10.3724     8.6193   109.5116
 2496.0000   104.7180     9.8049     2.5266     0.0739     0.0393   -30.4490    10.4124     8.6232   109.1056
 2496.5000   103.6668     9.8024     2.5289     0.0739     0.0490   -30.4053    10.4829     8.7085   108.6997
 2497.0000   101.9691     9.7992     2.5389     0.0672     0.0582   -30.3614    10.5557     8.8487   108.2937
 2497.5000   101.3025     9.8017     2.5564     0.0610     0.0680   -30.3151    10.6306     8.9834   107.9208
 2498.0000   102.6038     9.8078     2.5640     0.0574     0.0674   -30.2687    10.7063     9.0942   105.9485
 2498.5000   103.7923     9.8136     2.5498     0.0613     0.0577   -30.2234    10.7702     9.2038   103.0257
 2499.0000   104.0127     9.8194     2.5477     0.0628     0.0589   -30.1781    10.8150     9.3352   100.1030
 2499.5000   102.8688     9.8253     2.5643     0.0562     0.0846   -30.1325    10.8542     9.4795    96.0396
 2500.0000   101.7684     9.8311     2.5785     0.0517     0.0783   -30.0869    10.9167     9.5897    96.0396
 2500.5000   100.8224     9.8369     2.5430     0.0621     0.0600   -30.0410    11.0140     9.6191    96.0396
 2501.0000   100.2880     9.8428     2.5187     0.0742     0.0444   -29.9951    11.1112     9.5706    96.0396
 2501.5000   100.6607     9.8486     2.5152     0.0818     0.0314   -29.9503    11.1499     9.4775    97.0297
 2502.0000   100.0812     9.8544     2.5278     0.0782     0.0403   -29.9054    11.0981     9.3435    98.0198
 2502.5000   104.3443     9.8603     2.5315     0.0715     0.0446   -29.8586    10.9578     9.1449    98.0198
 2503.0000   110.7157     9.8661     2.5223     0.0775     0.0351   -29.8118    10.7527     8.8910   101.8702
 2503.5000   114.6983     9.8719     2.5193     0.0818     0.0310   -29.7685    10.5493     8.6336   104.6205
 2504.0000   113.4867     9.8778     2.5270     0.0776     0.0362   -29.7256    10.4393     8.4012   107.9208
 2504.5000   112.0371     9.8836     2.5366     0.0730     0.0414   -29.6756    10.4226     8.1710   111.5765
 2505.0000   110.8187     9.8894     2.5346     0.0707     0.0469   -29.6218    10.3491     7.9231   116.1462
 2505.5000   109.7665     9.8953     2.5443     0.0656     0.0523   -29.5794    10.0784     7.6786   120.7159
 2506.0000   108.6949     9.9011     2.5586     0.0586     0.0576   -29.5541     9.6634     7.4544   125.2856
 2506.5000   108.9201     9.9068     2.5728     0.0504     0.0630   -29.5320     9.2712     7.2185   129.8553
 2507.0000   111.3214     9.9131     2.5773     0.0438     0.0685   -29.4980     8.9567     6.9380   134.4250
 2507.5000   113.1371     9.9177     2.5792     0.0424     0.0743   -29.4534     8.6424     6.6521   138.9947
 2508.0000   112.8101     9.9372     2.5860     0.0400     0.0753   -29.4089     8.2989     6.4399   143.5644
 2508.5000   115.6191     9.9567     2.5708     0.0505     0.0601   -29.3689     8.0102     6.3191   148.1340
 2509.0000   120.7500     9.9632     2.5378     0.0691     0.0470   -29.3309     7.8428     6.2329   152.7037
 2509.5000   122.0296     9.9686     2.5460     0.0631     0.0536   -29.2905     7.7586     6.1404   155.4455
