~VERSION INFORMATION
 VERS.                2.0:   CWLS LOG ASCII STANDARD - VERSION 2.0
 WRAP.                 NO:   ONE LINE PER DEPTH STEP
~WELL INFORMATION
#MNEM.UNIT      DATA TYPE    INFORMATION
#----------   ------------   ------------------------------
 STRT.F           11.5000:   START DEPTH
 STOP.F          697.0000:   STOP DEPTH
 STEP.F            0.5000:   STEP LENGTH
 NULL.          -999.2500:   NO VALUE
 COMP. FENIX & SCISSON INC:   COMPANY
 WELL.    NPR3 SX-2 #12-2:   WELL
 FLD .             TEAPOT:   FIELD
 LOC .       S2 T38N R78W:   LOCATION
 CNTY.            NATRONA:   COUNTY
 STAT.            WYOMING:   STATE
 CTRY. UNITED STATES OF AMERICA:   COUNTRY
 SRVC.           BIRDWELL:   SERVICE COMPANY
 DATE.        13-JAN-1978:   LOGDATE
 API .       490251055000:   API NUMBER
~CURVE INFORMATION
#MNEM.UNIT       API CODE    CURVE DESCRIPTION
#----------   ------------   ------------------------------
 DEPT.F                  :   
 CALD.IN     45 280 60 00:   CALIPER FROM DENSITY LOG
 CORR.G/C3   45 356 01 00:   DENSITY CORRECTION
 RHOB.G/C3   45 350 01 00:   BULK DENSITY
 GRD .GAPI   45 310 01 00:   GAMMA RAY FROM DENSITY LOG
 DPHI.DEC    45 890 12 00:   DENSITY POROSITY SANDSTONE
 ILD .OHMM   05 120 46 00:   INDUCTION LOG DEEP
 SN  .OHMM   05 040 16 00:   SHORT NORMAL 16"
 SPR .MV     05 010 01 00:   SPONTANEOUS POTENTIAL FROM RES.
~PARAMETER INFORMATION
#MNEM.UNIT          VALUE    DESCRIPTION
#----------   ------------   ------------------------------
 PD  .                 GL:   PERMANENT DATUM
 EPD .F              5094:   ELEVATION PERMANENT DATUM
 LMF .                 KB:   LOG MEASURED FROM
 DAPD.F                 4:   FEET ABOVE PERMANENT DATUM
 DMF .                 KB:   DRILLING MEASURED FROM
 EKB .F              5098:   KELLING BUSHING
 EGL .F              5094:   GROUND LEVEL
 DATE.        13-JAN-1978:   RUN DATE
 RUN .                  1:   RUN NUMBER
 DD  .F               695:   DEPTH DRILLER
 DL  .F               697:   DEPTH LOGGER
 BLI .F               692:   BOTTOM LOG INTERVAL
 TLI .F                30:   TOP LOG INTERVAL
 CS  .IN            8.625:   CASING SIZE
 CBD .F                35:   CASING BOTTOM DRILLER
 CBL .F                35:   CASING BOTTOM LOGGER
 BS  .IN            7.875:   BIT SIZE
 BSD .F               695:   BIT SIZE AT DEPTH
 DFT .                KCL:   DRILLING FLUID TYPE
 DFD .                8.6:   DRILLING FLUID DENSITY
 DFV .                 32:   DRILLING FLUID VISCOSITY
 DFPH.                9.5:   DRILLING FLUID PH
 DFL .                 12:   DRILLING FLUID LOSS
 MSS .           FLOWLINE:   MUD SAMPLE SOURCE
 RMS .OHMM            0.3:   RESISTIVITY MUD SAMPLE
 MST .F                59:   MUD SAMPLE TEMPERATURE
 RMF .OHMM           0.24:   RESISTIVITY MUD FILTRATE SAMPLE
 MFST.F                70:   MUD FILTRATE SAMPLE TEMPERATURE
 RMC .OHMM           0.56:   RESISTIVITY MUD CAKE
 MCST.F                63:   MUD CAKE SAMPLE TEMPERATURE
 MFSS.               MEAS:   MUD FILTRATE SAMPLE SOURCE
 MCSS.               MEAS:   MUD CAKE SAMPLE SOURCE
 RMB .OHMM           0.26:   RESISTIVITY MUD AT BHT
 BHT .F                72:   BOTTOM HOLE TEMPERATURE
 TCS .HRS               2:   TIME CURCULATED STOPPED
 MRT .F                72:   MAXIMUM RECORDED TEMPERATURE
 LUN .               2958:   LOGGING UNIT NUMBER
 LUL .             CASPER:   LOGGING UNIT LOCATION
 ENGI.           MARTINEZ:   RECORDING ENGINEER
 WITN.       MR. MCGINLEY:   WITNESSED BY
 CLNT.            A2DTECH:   CLIENT CODE
 ORIG.           5" PRINT:   ORIGIN OF DATA
 UWI .       490251055000:   UNIQUE WELL ID
 DICO. A2D Technologies, Inc.:   DIGITIZING COMPANY
~OTHER INFORMATION
~A   DEPT     CALD       CORR       RHOB         GRD      DPHI        ILD         SN        SPR   
# ...
  173.5000     8.4896     0.2523     2.4235    88.7132     0.1291    10.7381    10.5076   -17.4517
  174.0000     8.4893     0.2613     2.4183    87.0810     0.1309    10.7367    10.5062   -17.6234
  174.5000     8.4890     0.2673     2.4213    87.8904     0.1312    10.7352    10.4323   -17.9019
  175.0000     8.5037     0.2695     2.4423    89.7147     0.1264    10.7338    10.4309   -18.0515
  175.5000     8.5636     0.2432     2.4670    90.6943     0.1168    10.7323    10.3575   -18.0496
  176.0000     8.6686     0.1891     2.4618    90.5471     0.1114    10.7310    10.2827   -18.0483
  176.5000     8.7735     0.1380     2.4625    89.1987     0.1090    10.6555    10.1417   -18.0467
  177.0000     8.7431     0.1110     2.4760    87.5500     0.1084    10.6541    10.0701   -18.0452
  177.5000     8.7428     0.0974     2.4835    86.9524     0.1096    10.6526     9.9992   -17.8927
  178.0000     8.7511     0.0854     2.4787    86.5049     0.1144    10.5778     9.9289   -17.7401
  178.5000     8.7626     0.0869     2.4676    86.9584     0.1159    10.4974     9.9276   -17.7387
  179.0000     8.7721     0.1079     2.4687    88.1625     0.1108    10.4176     9.9262   -17.5861
  179.5000     8.9672     0.1214     2.4873    89.3667     0.1051    10.2847     9.9249   -17.4335
  180.0000     9.3880     0.1228     2.4880    89.5198     0.1033    10.1420     9.9235   -17.4318
  180.5000     9.4629     0.1350     2.4828    89.2225     0.1049    10.1407     9.8537   -17.2792
  181.0000     9.3723     0.1517     2.4820    88.9244     0.1066    10.0694     9.8524   -17.2777
  181.5000     8.9961     0.1717     2.4843    88.3275     0.1015    10.0681     9.8572   -17.4273
  182.0000     8.7702     0.1993     2.5052    87.1293     0.0958    10.0667     9.9182   -17.4258
  182.5000     8.7243     0.1962     2.5180    84.5797     0.0940    10.0653    10.0548   -17.5758
  183.0000     8.7095     0.1812     2.5255    83.2313     0.0904    10.1339    10.1936   -17.5740
  183.5000     8.7261     0.1662     2.5525    83.2343     0.0826    10.2736    10.3344   -17.7236
  184.0000     8.7390     0.1556     2.5247    84.1382     0.0802    10.4874    10.4771   -17.7221
  184.5000     8.7386     0.1466     2.4948    85.9429     0.0902    10.6382    10.5489   -17.7205
  185.0000     8.7233     0.1375     2.4850    87.9129     0.1001    10.8534    10.6945   -17.7187
  185.5000     8.7079     0.1435     2.4903    88.9635     0.1013    11.0031    10.8418   -17.8687
  186.0000     8.7076     0.1630     2.5030    88.7507     0.0995    11.1548    10.8404   -17.8668
  186.5000     8.6923     0.1720     2.5142    86.2062     0.0959    11.3082    10.9142   -17.8654
  187.0000     8.6770     0.1719     2.5285    85.3572     0.0917    11.3851    10.9127   -17.8639
  187.5000     8.6767     0.1659     2.5412    85.2100     0.0845    11.3836    10.8356   -18.0138
  188.0000     8.6613     0.1584     2.5502    85.6642     0.0796    11.3036    10.7594   -18.0121
  188.5000     8.6460     0.1478     2.5284    86.5681     0.0872    11.1469    10.6837   -18.0105
  189.0000     8.6457     0.1313     2.4710    87.9012     0.1058    10.9923    10.6085   -17.8580
  189.5000     8.6454     0.1087     2.4385    90.8790     0.1241    10.8398    10.5339   -17.7779
  190.0000     8.6602     0.0727     2.4553    93.8568     0.1265    10.7266    10.4598   -17.5428
  190.5000     8.6749     0.1226     2.4588    96.3397     0.1160    10.6144    10.4584   -17.3832
  191.0000     8.6595     0.1605     2.4618    97.8442     0.1121    10.5398    10.3848   -17.0725
  191.5000     8.6292     0.1988     2.4790    98.7480     0.1109    10.3933    10.3834   -16.7928
  192.0000     8.5988     0.2482     2.5255    98.0003     0.1013    10.3919    10.4541   -16.6403
  192.5000     8.5534     0.2677     2.5600    95.3005     0.0779    10.3189    10.5253   -16.7903
  193.0000     8.5228     0.2331     2.5255    92.0002     0.0884    10.3175    10.6703   -17.0909
  193.5000     8.4767     0.1896     2.4925    89.0002     0.0989    10.3881    10.8177   -17.1893
  194.0000     8.4322     0.1490     2.4693    87.6518     0.1115    10.4587    10.9671   -17.3351
  194.5000     8.4145     0.1235     2.5262    89.3064     0.0971    10.6302    11.1185   -17.4808
  195.0000     8.4166     0.1655     2.5135    90.8109     0.0905    10.8984    11.1946   -17.6265
  195.5000     8.4313     0.1760     2.4918    91.1142     0.1106    11.2026    11.1927   -17.7722
  196.0000     8.4611     0.1399     2.4805    90.9670     0.1022    11.3570    11.1140   -17.8370
  196.5000     8.5058     0.1354     2.4940    88.9955     0.1004    11.5136    11.0358   -17.8351
  197.0000     8.5356     0.1428     2.4865    84.8058     0.1061    11.4327    10.9581   -17.8336
  197.5000     8.5504     0.1233     2.4573    86.4265     0.1193    11.1190    10.8807   -17.6811
  198.0000     8.5500     0.1022     2.4333    89.8199     0.1361    10.8892    10.7296   -17.6796
  198.5000     8.5347     0.1292     2.4603    92.9345     0.1220    10.6642    10.5806   -17.6781
  199.0000     8.5495     0.1532     2.4648    92.1867     0.1109    10.5163    10.4336   -17.3746
  199.5000     8.5643     0.1787     2.5300    90.5381     0.1007    10.3705    10.2177   -17.2220
  200.0000     8.5790     0.2342     2.5682    90.0898     0.0689    10.2267    10.1955   -16.7674
  200.5000     8.6237     0.1963     2.5360    93.0966     0.0816    10.2966    10.3160   -16.4637
  201.0000     8.6535     0.1723     2.5487    94.1506     0.0870    10.4382    10.4364   -16.1598
  201.5000     8.6683     0.1618     2.5510    92.6520     0.0882    10.5821    10.5569   -16.1583
  202.0000     8.6529     0.1515     2.5486    89.2016     0.0888    10.8025    10.6962   -16.1569
  202.5000     8.5474     0.1349     2.5435    79.4448     0.0888    11.0669    10.8404   -16.3068
  203.0000     8.4568     0.1111     2.5375    79.7480     0.0888    11.2145    10.9849   -16.6071
  203.5000     8.3964     0.0991     2.5263    86.8081     0.0900    11.3621    11.1313   -16.7570
  204.0000     8.4111     0.0826     2.5106    95.0231     0.0933    11.5097    11.2018   -17.0577
  204.5000     8.5965     0.0706     2.4858    97.4337     0.1026    11.6411    11.1933   -17.2069
  205.0000     8.7434     0.0691     2.4993    96.2310     0.1062    11.7195    11.2644   -17.0544
  205.5000     8.7561     0.1066     2.4896    91.4247     0.1002    11.7984    11.2573   -16.9018
  206.0000     8.7106     0.1081     2.4701    88.1199     0.1102    11.7954    11.2503   -16.9003
  206.5000     8.7254     0.1081     2.4551    86.9173     0.1310    11.6311    11.2433   -17.0499
  207.0000     8.8905     0.1246     2.4392    87.5164     0.1337    11.4690    11.2351   -17.1991
  207.5000     8.9804     0.1562     2.4364    88.8663     0.1370    11.1539    11.1507   -17.1977
  208.0000     8.9500     0.2027     2.4379    89.4654     0.1370    10.9226    11.2223   -17.3476
  208.5000     8.7242     0.2477     2.4409    89.0085     0.1274    10.7600    11.2145   -17.6479
  209.0000     8.5885     0.2748     2.4499    87.7708     0.1097    10.5467    11.1303   -17.9485
  209.5000     8.5431     0.3213     2.4687    87.0586     0.0983    10.5445    11.1236   -18.2495
  210.0000     8.5428     0.3624     2.5151    88.2580     0.0881    10.4697    11.1168   -18.7009
  210.5000     8.5275     0.3814     2.5826    89.4577     0.0542    10.4676    11.1100   -19.1526
  211.0000     8.5272     0.3709     2.6036    89.7570     0.0398    10.4655    11.1032   -19.4532
  211.5000     8.5119     0.3363     2.5989    88.4038     0.0644    10.5365    11.1736   -19.4517
  212.0000     8.5116     0.2297     2.5608    87.2011     0.0764    10.6075    11.1665   -19.4499
  212.5000     8.5084     0.1321     2.5099    86.2987     0.0916    10.7524    11.2375   -19.4484
  213.0000     8.5016     0.0991     2.4800    86.7477     0.1052    10.8249    11.2290   -19.1448
  213.5000     8.4949     0.1186     2.4935    87.2017     0.1064    10.9734    11.3018   -19.1556
