~VERSION INFORMATION
 VERS.                2.0:   CWLS LOG ASCII STANDARD - VERSION 2.0
 WRAP.                 NO:   ONE LINE PER DEPTH STEP
~WELL INFORMATION
#MNEM.UNIT      DATA TYPE    INFORMATION
#----------   ------------   ------------------------------
 STRT.F           30.0000:   START DEPTH
 STOP.F          547.0000:   STOP DEPTH
 STEP.F            0.5000:   STEP LENGTH
 NULL.          -999.2500:   NO VALUE
 COMP.   FINIX & SCISSION:   COMPANY
 WELL. SX-11 NPR #3 #11-11:   WELL
 FLD .             TEAPOT:   FIELD
 LOC .      S11 T38N R78W:   LOCATION
 CNTY.            NATRONA:   COUNTY
 STAT.            WYOMING:   STATE
 CTRY. UNITED STATES OF AMERICA:   COUNTRY
 SRVC.       Schlumberger:   SERVICE COMPANY
 DATE.        01-MAR-1977:   LOGDATE
 API .       490251058500:   API NUMBER
~CURVE INFORMATION
#MNEM.UNIT       API CODE    CURVE DESCRIPTION
#----------   ------------   ------------------------------
 DEPT.F                  :   
 ILD .OHMM               :   INDUCTION LOG DEEP
 ILM .OHMM   07 120 44 00:   INDUCTION LOG MEDIUM
 LL8 .OHMM   07 220 08 00:   
 SPR .MV     07 010 01 00:   SPONTANEOUS POTENTIAL
 CALD.IN     45 280 60 00:   CALIPER FROM DENSITY LOG
 CORR.G/C3   45 356 01 00:   DENSITY CORRECTION
 DPHI.DEC    45 890 12 00:   DENSITY POROSITY SANDSTONE
 GRD .GAPI   45 310 01 00:   GAMMA RAY FROM DENSITY LOG
 RHOB.G/C3   45 350 01 00:   BULK DENSITY
~PARAMETER INFORMATION
#MNEM.UNIT          VALUE    DESCRIPTION
#----------   ------------   ------------------------------
 PD  .                 GL:   PERMANENT DATUM
 EPD .F              5158:   ELEVATION PERMANENT DATUM
 LMF .                 GL:   LOG MEASURED FROM
 DMF .                 GL:   DRILLING MEASURED FROM
 EKB .F              5161:   KELLING BUSHING
 EGL .F              5158:   GROUND LEVEL
 DATE.        01-MAR-1977:   RUN DATE
 RUN .                  1:   RUN NUMBER
 DD  .F               575:   DEPTH DRILLER
 DL  .F               548:   DEPTH LOGGER
 BLI .F               547:   BOTTOM LOG INTERVAL
 TLI .F                45:   TOP LOG INTERVAL
 CS  .IN            8.625:   CASING SIZE
 CBD .F                40:   CASING BOTTOM DRILLER
 CBL .F                45:   CASING BOTTOM LOGGER
 BS  .IN            7.875:   BIT SIZE
 BSD .F               575:   BIT SIZE AT DEPTH
 DFT .                PIT:   DRILLING FLUID TYPE
 DFD .                8.7:   DRILLING FLUID DENSITY
 DFV .                 46:   DRILLING FLUID VISCOSITY
 DFPH.                  8:   DRILLING FLUID PH
 DFL .                6.8:   DRILLING FLUID LOSS
 MSS .                PIT:   MUD SAMPLE SOURCE
 RMS .OHMM          0.632:   RESISTIVITY MUD SAMPLE
 MST .F                65:   MUD SAMPLE TEMPERATURE
 RMF .OHMM          0.465:   RESISTIVITY MUD FILTRATE SAMPLE
 MFST.F                65:   MUD FILTRATE SAMPLE TEMPERATURE
 MFSS.               MEAS:   MUD FILTRATE SAMPLE SOURCE
 RMB .OHMM          0.635:   RESISTIVITY MUD AT BHT
 BHT .F                68:   BOTTOM HOLE TEMPERATURE
 TCS .HRS              12:   TIME CURCULATED STOPPED
 MRT .F                68:   MAXIMUM RECORDED TEMPERATURE
 LUN .               5642:   LOGGING UNIT NUMBER
 LUL .               CSPR:   LOGGING UNIT LOCATION
 ENGI.         JIM MARTIN:   RECORDING ENGINEER
 WITN.         STUEBINGER:   WITNESSED BY
 CLNT.            A2DTECH:   CLIENT CODE
 ORIG.           5" PRINT:   ORIGIN OF DATA
 UWI .       490251058500:   UNIQUE WELL ID
 DICO. A2D Technologies, Inc.:   DIGITIZING COMPANY
~OTHER INFORMATION
~A   DEPT      ILD        ILM        LL8        SPR       CALD       CORR       DPHI         GRD      RHOB   
# ...
   66.5000     5.3303     5.2770    53.0447  -120.6102    12.0576     0.1472     0.5053    50.0000     1.8692
   67.0000     5.7123     5.6152    11.1287  -119.5520    11.9835     0.1322     0.4431    50.0000     1.9435
   67.5000     6.4263     6.0165     8.9205  -118.1943    12.9558     0.1143     0.3546    50.0000     2.0515
   68.0000     6.9928     6.4912     8.2101  -119.3816    13.2497     0.1172     0.3144    50.0000     2.0178
   68.5000     7.5880     7.1500     7.8220  -120.7186    13.4229     0.1719     0.3741    50.0000     2.0583
   69.0000     5.9930     6.1839     7.4521  -121.3071    12.6004     0.1277     0.3397    53.6984     2.0883
   69.5000     5.2889     5.5363     7.0509  -122.1949    12.0473     0.1135     0.3261    55.9550     2.0103
   70.0000     4.8659     5.1663     6.7641  -123.8313    11.9283     0.1405     0.3789    53.5691     1.9601
   70.5000     5.1428     4.8545     6.9539  -125.1683    11.4649     0.1659     0.4197    51.4804     1.9038
   71.0000     5.5114     4.8878     7.2510  -125.3102    11.1663     0.1846     0.3971    50.4387     1.8904
   71.5000     5.6265     5.3100     7.3983  -124.9979    10.9424     0.2040     0.3158    52.7005     1.9706
   72.0000     5.6258     5.6114     7.2459  -124.8379    10.8234     0.2145     0.2734    53.1606     2.1920
   72.5000     5.5861     5.5315     7.0968  -124.6778    10.7641     0.1838     0.2744    55.4198     2.1995
   73.0000     5.2474     5.3828     6.8553  -126.0148    11.0792     0.1928     0.2852    60.1579     2.1867
   73.5000     4.8613     5.3066     6.6680  -127.3518    10.0322     0.1329     0.2762    65.3658     2.1793
   74.0000     4.8226     4.7855     6.8072  -128.0900     9.0300     0.1074     0.2861    68.9466     2.1988
   74.5000     5.2452     4.7523     6.2220  -128.0793     9.0457     0.1179     0.2227    71.5056     2.2716
   75.0000     5.2810     5.0919     6.1788  -127.9192     9.0913     0.1291     0.2248    74.8143     2.2866
   75.5000     5.1692     5.1269     6.3516  -127.9067     8.4924     0.1710     0.2095    78.2729     2.3059
   76.0000     4.9854     5.0213     6.1354  -128.0486     8.6341     0.1935     0.1750    80.9819     2.3459
   76.5000     4.8236     4.9520     5.8858  -127.8860     8.7343     0.2114     0.1585    82.7913     2.2807
   77.0000     4.7896     4.8167     5.6075  -127.8757     8.7651     0.1332     0.1726    84.4508     2.2265
   77.5000     4.9924     4.8164     5.4530  -127.8653     8.7359     0.0975     0.1786    85.5106     2.2214
   78.0000     5.2400     5.0898     5.3791  -127.7053     8.6768     0.0669     0.1771    86.7203     2.2342
   78.5000     5.3956     5.3049     5.4581  -127.2459     8.5727     0.0595     0.1708    83.4323     2.2394
   79.0000     5.5375     5.4910     5.6059  -127.0858     8.4986     0.0841     0.1611    82.0330     2.3565
   79.5000     5.6143     5.6056     5.6967  -127.0755     8.4544     0.0879     0.1664    84.2026     2.3617
   80.0000     5.6917     5.6052     5.8424  -126.7658     8.4400     0.0781     0.1728    85.4123     2.3662
   80.5000     5.6909     5.6048     6.0057  -126.4560     8.4559     0.0834     0.1632    86.1722     2.3940
   81.0000     5.6508     5.6044     6.1312  -126.2960     8.4716     0.1028     0.1668    82.2049     2.3430
   81.5000     5.5337     5.6040     6.1733  -125.9863     8.5173     0.0774     0.1758    80.4983     2.3250
   82.0000     5.5715     5.6459     6.1303  -125.5268     8.6228     0.1125     0.1536    79.4592     2.3723
   82.5000     5.6878     5.7602     6.1299  -123.6902     8.7583     0.1417     0.1290    79.0171     2.4211
   83.0000     5.8524     5.8805     6.2147  -116.0928     8.9237     0.1312     0.1503    79.1800     2.3836
   83.5000     6.0581     6.0448     6.3884  -109.3219     8.8639     0.1004     0.1605    80.3897     2.3566
   84.0000     6.2219     6.2569     6.5670  -105.3134     8.7431     0.0861     0.1512    81.8993     2.3896
   84.5000     6.3080     6.4318     6.7534  -103.6163     8.6394     0.0841     0.1463    83.7087     2.4057
   85.0000     6.3069     6.4761     6.8441  -101.6599     8.5525     0.1028     0.1394    85.2183     2.3940
   85.5000     6.3941     6.3866     6.6569  -100.3022     8.5232     0.1110     0.1286    86.8778     2.4272
   86.0000     6.5277     6.4751     6.7026   -97.1490     8.5540     0.1020     0.1388    86.4383     2.4039
   86.5000     6.7104     6.6102     6.9378   -93.8453     8.6296     0.1080     0.1319    85.5491     2.4166
   87.0000     6.8505     6.7484     7.1317   -90.2422     8.7052     0.0878     0.1400    86.3090     2.4047
   87.5000     6.7552     6.6552     7.2306   -87.3875     8.7507     0.0810     0.1329    87.0690     2.4082
   88.0000     6.5241     6.5634     7.0816   -85.1317     8.6019     0.1506     0.1173    85.5303     2.4678
   88.5000     6.4333     6.5629     6.8881   -83.0120     8.5427     0.2098     0.0971    82.6422     2.5023
   89.0000     6.4325     6.6999     6.9835   -81.6417     8.5283     0.2180     0.1274    78.7067     2.4543
   89.5000     6.7049     6.8872     7.6393   -80.4167     8.6939     0.1521     0.1526    77.3677     2.3755
   90.0000     7.0864     7.0375     8.3567   -78.3512     8.4102     0.0391     0.1666    76.6284     2.3268
   90.5000     7.3389     7.2777     9.5284   -76.5445     8.2163     0.0218     0.1384    77.5383     2.4161
   91.0000     7.4887     7.4296     9.3961   -75.1869     8.1572     0.0181     0.1198    81.7465     2.4461
   91.5000     7.0833     7.2264     9.0040   -74.1286     8.1579     0.0263     0.1324    85.0552     2.4131
   92.0000     6.7467     7.0777     8.6298   -72.7710     8.1886     0.0256     0.1558    87.1645     2.3749
   92.5000     6.5612     6.9801     8.2830   -70.8145     8.2043     0.0248     0.1612    87.0248     2.3711
   93.0000     6.5603     6.8838     7.9039   -68.5587     8.2051     0.0645     0.1483    86.7327     2.3959
   93.5000     6.6053     6.7422     7.5825   -66.3028     8.2210     0.0937     0.1396    85.6962     2.4124
   94.0000     6.6042     6.6492     7.3524   -64.3464     8.2367     0.0862     0.1609    84.6570     2.3952
   94.5000     6.6034     6.6029     7.0986   -63.7373     8.2524     0.0510     0.1750    83.6179     2.3697
   95.0000     6.6024     6.6025     6.9297   -63.2778     8.2531     0.0555     0.1532    82.7286     2.3952
   95.5000     6.6015     6.6021     6.8341   -62.9681     8.2387     0.0592     0.1393    81.9695     2.4230
   96.0000     6.5549     6.6935     6.7398   -62.3590     8.2396     0.0682     0.1301    81.2500     2.4427
   96.5000     6.5088     6.7394     6.6930   -61.7498     8.2403     0.0659     0.1374    83.3619     2.4177
   97.0000     6.5532     6.8327     6.7389   -60.9910     8.2411     0.0487     0.1509    85.1713     2.3868
   97.5000     6.5979     6.8796     6.8322   -60.2245     8.2267     0.0375     0.1356    86.5284     2.4164
   98.0000     6.6429     6.9400     7.0252   -59.6228     8.2124     0.0383     0.1173    86.0915     2.4572
   98.5000     6.7347     7.0023     7.2252   -59.3129     8.1984     0.0445     0.1053    85.9493     2.5018
   99.0000     6.7807     7.0492     7.4315   -58.8513     8.1841     0.0547     0.0954    87.0117     2.5236
   99.5000     6.8267     7.0705     7.6816   -58.5415     8.1699     0.0412     0.1044    88.6712     2.4891
  100.0000     6.9211     7.0523     7.7344   -58.3836     8.1707     0.0331     0.1170    89.7897     2.4531
  100.5000     7.1148     7.0696     7.7339   -58.3744     8.1865     0.0240     0.1299    90.6447     2.4231
  101.0000     7.3142     7.0690     7.7333   -58.0646     8.1725     0.0432     0.1073    91.5892     2.4636
  101.5000     7.4154     7.1176     7.7865   -57.7563     8.1735     0.0592     0.0986    93.2459     2.5087
  102.0000     7.4657     7.1663     7.8399   -57.4480     8.1744     0.0763     0.1136    90.2114     2.5123
  102.5000     7.4647     7.2656     7.8938   -56.8404     8.1900     0.0509     0.1208    88.2698     2.4674
