~VERSION INFORMATION
 VERS.                2.0:   CWLS LOG ASCII STANDARD - VERSION 2.0
 WRAP.                 NO:   ONE LINE PER DEPTH STEP
~WELL INFORMATION
#MNEM.UNIT      DATA TYPE    INFORMATION
#----------   ------------   ------------------------------
 STRT.F          283.5000:   START DEPTH
 STOP.F         3026.0000:   STOP DEPTH
 STEP.F            0.5000:   STEP LENGTH
 NULL.          -999.2500:   NO VALUE
 COMP. DEPARTMENT OF ENERGY:   COMPANY
 WELL. RES 3 TEAPOT DOM "AX" #62-29:   WELL
 FLD .        TEAPOT DOME:   FIELD
 LOC .      S29 T39N R78W:   LOCATION
 CNTY.            NATRONA:   COUNTY
 STAT.            WYOMING:   STATE
 CTRY. UNITED STATES OF AMERICA:   COUNTRY
 SRVC.       Schlumberger:   SERVICE COMPANY
 DATE.        27-JUL-1971:   LOGDATE
 API .       490250659800:   API NUMBER
~CURVE INFORMATION
#MNEM.UNIT       API CODE    CURVE DESCRIPTION
#----------   ------------   ------------------------------
 DEPT.F                  :   
 GRD .GAPI   45 310 01 00:   GAMMA RAY FROM DENSITY LOG
 CALD.IN     45 280 60 00:   CALIPER FROM DENSITY LOG
 RHOB.G/C3   45 350 01 00:   BULK DENSITY
 DPHI.DEC    45 890 12 00:   DENSITY POROSITY SANDSTONE
 CORR.G/C3   45 356 01 00:   DENSITY CORRECTION
 SPR .MV     05 010 01 00:   SPONTANEOUS POTENTIAL FROM RES.
 ASN .OHMM   05 041 16 00:   AMPLIFIED SHORT NORMAL 16"
 ILD .OHMM   05 120 46 00:   INDUCTION LOG DEEP
 CILD.MMHO   05 110 46 00:   CONDUCTIVITY INDUCTION LOG DEEP
~PARAMETER INFORMATION
#MNEM.UNIT          VALUE    DESCRIPTION
#----------   ------------   ------------------------------
 PD  .                 GL:   PERMANENT DATUM
 EPD .F              4998:   ELEVATION PERMANENT DATUM
 LMF .                 KB:   LOG MEASURED FROM
 DAPD.F                11:   FEET ABOVE PERMANENT DATUM
 DMF .                 KB:   DRILLING MEASURED FROM
 EKB .F              5009:   KELLING BUSHING
 EGL .F              4998:   GROUND LEVEL
 DATE.            7-27-71:   RUN DATE
 RUN .                  1:   RUN NUMBER
 DD  .F              3023:   DEPTH DRILLER
 DL  .F              3024:   DEPTH LOGGER
 BLI .F              3023:   BOTTOM LOG INTERVAL
 TLI .F               286:   TOP LOG INTERVAL
 CS  .IN            10.75:   CASING SIZE
 CBD .F               287:   CASING BOTTOM DRILLER
 CBL .F               286:   CASING BOTTOM LOGGER
 BS  .IN                9:   BIT SIZE
 BSD .F              3023:   BIT SIZE AT DEPTH
 DFT .      FRESH GEL MUD:   DRILLING FLUID TYPE
 DFD .                 10:   DRILLING FLUID DENSITY
 DFV .                 90:   DRILLING FLUID VISCOSITY
 DFPH.                7.6:   DRILLING FLUID PH
 DFL .                5.8:   DRILLING FLUID LOSS
 MSS .          FLOW LINE:   MUD SAMPLE SOURCE
 RMS .OHMM           1.74:   RESISTIVITY MUD SAMPLE
 MST .F                75:   MUD SAMPLE TEMPERATURE
 RMF .OHMM            1.5:   RESISTIVITY MUD FILTRATE SAMPLE
 MFST.F                75:   MUD FILTRATE SAMPLE TEMPERATURE
 MFSS.                  C:   MUD FILTRATE SAMPLE SOURCE
 RMB .OHMM           1.12:   RESISTIVITY MUD AT BHT
 BHT .F               116:   BOTTOM HOLE TEMPERATURE
 TCS .HRS               5:   TIME CURCULATED STOPPED
 MRT .F               116:   MAXIMUM RECORDED TEMPERATURE
 LUN .               7041:   LOGGING UNIT NUMBER
 LUL .               CSPR:   LOGGING UNIT LOCATION
 ENGI.             KNOBEL:   RECORDING ENGINEER
 WITN.                MAY:   WITNESSED BY
 CLNT.            A2DTECH:   CLIENT CODE
 ORIG.     1", 2.5" PRINT:   ORIGIN OF DATA
 UWI .       490250659800:   UNIQUE WELL ID
 DICO. A2D Technologies, Inc.:   DIGITIZING COMPANY
~OTHER INFORMATION
~A   DEPT      GRD       CALD       RHOB       DPHI       CORR        SPR        ASN        ILD       CILD   
# ...
 1743.5000   132.8827     9.5248     2.5245     0.0786     0.0686   -47.8180    11.8431     8.8397   105.9406
 1744.0000   135.5005     9.5278     2.5300     0.0738     0.0714   -47.8146    11.8979     8.9734   105.9406
 1744.5000   138.0795     9.5307     2.5366     0.0694     0.0800   -47.8214    12.0249     9.1181   105.9406
 1745.0000   139.1590     9.5336     2.5430     0.0651     0.0672   -47.8100    12.1683     9.2303   105.9406
 1745.5000   138.9240     9.5365     2.5476     0.0628     0.0689   -47.7617    12.3087     9.3316   105.9406
 1746.0000   136.7388     9.5393     2.5333     0.0716     0.0570   -47.6976    12.4472     9.4467   102.9557
 1746.5000   134.9091     9.5422     2.5129     0.0842     0.0367   -47.6467    12.5844     9.5694   100.8796
 1747.0000   132.9586     9.5451     2.5209     0.0755     0.0462   -47.6029    12.7218     9.6858    98.8035
 1747.5000   132.0752     9.5480     2.5213     0.0772     0.0502   -47.5444    12.8594     9.7968    96.7275
 1748.0000   135.0239     9.5509     2.5078     0.0828     0.0409   -47.4781    12.9915     9.9095    94.6514
 1748.5000   137.9499     9.5538     2.5012     0.0881     0.0330   -47.4423    13.1219    10.0272    92.5753
 1749.0000   139.0588     9.5567     2.4978     0.0945     0.0247   -47.4605    13.2676    10.1472    90.0990
 1749.5000   138.5029     9.5594     2.4936     0.0944     0.0256   -47.5280    13.4205    10.2648    89.4883
 1750.0000   138.5185     9.5627     2.4906     0.0974     0.0338   -47.6252    13.5347    10.3767    88.7317
 1750.5000   139.9588     9.5609     2.4884     0.0996     0.0295   -47.7161    13.5778    10.4788    87.9751
 1751.0000   141.3950     9.5583     2.4849     0.1014     0.0230   -47.7638    13.5728    10.5527    87.2186
 1751.5000   141.5566     9.5555     2.4769     0.1036     0.0162   -47.7552    13.5620    10.5698    86.1386
 1752.0000   141.9476     9.5529     2.4739     0.1079     0.0247   -47.6686    13.5598    10.5234    86.9822
 1752.5000   141.5308     9.5503     2.5215     0.0830     0.0427   -47.4533    13.5637    10.4447    88.4555
 1753.0000   140.8670     9.5476     2.5375     0.0691     0.0613   -47.1571    13.5740    10.3719    89.9287
 1753.5000   140.1918     9.5450     2.5273     0.0721     0.0547   -47.0169    13.5592    10.3129    92.0792
 1754.0000   139.7018     9.5423     2.5190     0.0808     0.0404   -47.2213    13.4621    10.2535    92.0792
 1754.5000   139.6628     9.5397     2.5101     0.0873     0.0253   -47.5982    13.2955    10.1870    92.0792
 1755.0000   139.5287     9.5370     2.5020     0.0907     0.0189   -47.7674    13.1786    10.1189    91.5099
 1755.5000   138.0621     9.5344     2.4951     0.0944     0.0182   -47.6200    13.2133    10.0557    90.8960
 1756.0000   136.8528     9.5317     2.4872     0.0992     0.0185   -47.4166    13.3707    10.0071    90.0990
 1756.5000   135.4367     9.5290     2.5011     0.0899     0.0286   -47.3844    13.5554     9.9894    92.0792
 1757.0000   135.4536     9.5265     2.5214     0.0778     0.0411   -47.4659    13.7058    10.0118    93.1419
 1757.5000   136.8062     9.5238     2.5199     0.0783     0.0492   -47.5160    13.7744    10.0642    94.0594
 1758.0000   138.1504     9.5236     2.5220     0.0786     0.0532   -47.5238    13.7086    10.1241    94.0594
 1758.5000   139.0738     9.5236     2.5275     0.0723     0.0526   -47.5452    13.5378    10.1749    92.7005
 1759.0000   137.3778     9.5236     2.5287     0.0759     0.0437   -47.5851    13.4072    10.2180    91.7797
 1759.5000   135.6216     9.5236     2.5078     0.0838     0.0338   -47.6249    13.4352    10.2659    90.8589
 1760.0000   133.6986     9.5236     2.4973     0.0913     0.0352   -47.6615    13.5955    10.3225    89.9381
 1760.5000   132.3862     9.5236     2.5096     0.0859     0.0410   -47.6857    13.7874    10.3708    89.0173
 1761.0000   133.2864     9.5236     2.5187     0.0812     0.0462   -47.6993    13.9442    10.3848    88.1188
 1761.5000   135.1211     9.5236     2.5301     0.0734     0.0525   -47.7410    14.0242    10.3552    88.1188
 1762.0000   139.3521     9.5236     2.5419     0.0641     0.0537   -47.8142    13.9875    10.2976    88.3855
 1762.5000   144.5235     9.5236     2.5551     0.0604     0.0639   -47.8300    13.8512    10.2401    88.7129
 1763.0000   143.9398     9.5236     2.5598     0.0572     0.0738   -47.7134    13.7012    10.1980    89.0403
 1763.5000   143.4046     9.5236     2.5513     0.0620     0.0713   -47.5433    13.5964    10.1590    89.3677
 1764.0000   142.5683     9.5236     2.5522     0.0572     0.0659   -47.4738    13.5133    10.1002    89.6951
 1764.5000   142.5576     9.5236     2.5447     0.0775     0.0577   -47.5498    13.4220    10.0331    90.0990
 1765.0000   140.0302     9.5236     2.5303     0.0938     0.0499   -47.6812    13.3610    10.0145    90.0990
 1765.5000   137.0252     9.5236     2.5289     0.0984     0.0432   -47.7705    13.3834    10.0838    89.8388
 1766.0000   134.9098     9.5236     2.5273     0.0844     0.0449   -47.7787    13.4764    10.2119    89.3710
 1766.5000   134.9872     9.5236     2.5267     0.0766     0.0507   -47.6958    13.5872    10.3510    88.9034
 1767.0000   134.7758     9.5236     2.5260     0.0760     0.0559   -47.5476    13.7003    10.5000    88.4356
 1767.5000   134.3549     9.5236     2.5321     0.0706     0.0597   -47.4417    13.8265    10.6639    87.9679
 1768.0000   134.4053     9.5236     2.5229     0.0673     0.0459   -47.5055    13.9352    10.7786    87.5002
 1768.5000   133.8196     9.5236     2.5060     0.0834     0.0333   -47.7177    13.9653    10.7640    87.0325
 1769.0000   132.8848     9.5236     2.4872     0.1030     0.0263   -47.8596    13.9090    10.6395    86.5648
 1769.5000   132.5770     9.5236     2.4800     0.1034     0.0248   -47.7256    13.8249    10.5091    86.1386
 1770.0000   133.9428     9.5236     2.4834     0.1015     0.0235   -47.3715    13.7534    10.4323    86.1386
 1770.5000   135.5116     9.5236     2.4979     0.0931     0.0322   -47.0638    13.6741    10.3751    86.9257
 1771.0000   137.1320     9.5236     2.5098     0.0834     0.0375   -46.9736    13.5652    10.2947    87.5396
 1771.5000   138.8538     9.5236     2.5034     0.0921     0.0370   -47.0205    13.4530    10.2029    88.1535
 1772.0000   139.6384     9.5236     2.4900     0.1022     0.0347   -47.0479    13.3612    10.1276    88.7673
 1772.5000   141.1884     9.5237     2.4775     0.1119     0.0263   -47.0243    13.2616    10.0595    89.3812
 1773.0000   146.2460     9.5236     2.4931     0.1032     0.0363   -47.0098    13.1277     9.9737    89.9950
 1773.5000   147.5622     9.5236     2.5093     0.0864     0.0460   -47.0223    13.0052     9.8799    90.6089
 1774.0000   144.1010     9.5204     2.5322     0.0715     0.0574   -47.0306    12.9698     9.8220    91.2228
 1774.5000   142.4140     9.5162     2.5288     0.0731     0.0631   -47.0243    13.0287     9.8272    92.0792
 1775.0000   141.3754     9.5121     2.5190     0.0774     0.0540   -47.0200    13.1167     9.8756    92.0792
 1775.5000   139.8101     9.5081     2.5084     0.0833     0.0422   -47.0226    13.1842     9.9279    92.0636
 1776.0000   141.1036     9.5040     2.5100     0.0857     0.0340   -47.0246    13.2385     9.9686    92.1012
 1776.5000   140.7022     9.4999     2.5159     0.0826     0.0394   -47.0238    13.2993    10.0077    91.9428
 1777.0000   137.1994     9.4958     2.5197     0.0800     0.0445   -47.0233    13.3670    10.0523    91.8553
 1777.5000   136.2272     9.4917     2.5169     0.0842     0.0409   -47.0227    13.4358    10.0982    91.7325
 1778.0000   138.2754     9.4875     2.5113     0.0826     0.0337   -47.0219    13.5028    10.1415    91.6285
 1778.5000   139.5812     9.4844     2.5277     0.0741     0.0494   -47.0266    13.5533    10.1843    91.5162
 1779.0000   139.7039     9.4846     2.5331     0.0707     0.0601   -47.0407    13.5689    10.2272    91.4015
 1779.5000   139.2929     9.4906     2.5206     0.0803     0.0506   -47.0613    13.5514    10.2705    91.2950
