~VERSION INFORMATION
 VERS.                2.0:   CWLS LOG ASCII STANDARD - VERSION 2.0
 WRAP.                 NO:   ONE LINE PER DEPTH STEP
~WELL INFORMATION
#MNEM.UNIT      DATA TYPE    INFORMATION
#----------   ------------   ------------------------------
 STRT.F            4.0000:   START DEPTH
 STOP.F          564.0000:   STOP DEPTH
 STEP.F            0.1000:   STEP LENGTH
 NULL.          -999.2500:   NO VALUE
 COMP.       F D SERV INC:   COMPANY
 WELL. NAVAL PETROLEUM RESERVE 3 SX-3 #88-4-3:   WELL
 FLD .             TEAPOT:   FIELD
 LOC .       S3 T38N R78W:   LOCATION
 CNTY.            NATRONA:   COUNTY
 STAT.            WYOMING:   STATE
 CTRY. UNITED STATES OF AMERICA:   COUNTRY
 SRVC.      Western Atlas:   SERVICE COMPANY
 DATE.        15-OCT-1992:   LOGDATE
 API .       490252255000:   API NUMBER
~CURVE INFORMATION
#MNEM.UNIT       API CODE    CURVE DESCRIPTION
#----------   ------------   ------------------------------
 DEPT.F                  :   
 GRR .GAPI   07 310 01 00:   GAMMA RAY
 RILD.OHMM   07 120 46 00:   INDUCTION LOG DEEP RESISTIVITY
 RILM.OHMM   07 120 44 00:   INDUCTION LOG MEDIUM RESISTIVITY
~PARAMETER INFORMATION
#MNEM.UNIT          VALUE    DESCRIPTION
#----------   ------------   ------------------------------
 PD  .                 GL:   PERMANENT DATUM
 EPD .F              5129:   ELEVATION PERMANENT DATUM
 LMF .                 KB:   LOG MEASURED FROM
 DAPD.F                10:   FEET ABOVE PERMANENT DATUM
 DMF .                 KB:   DRILLING MEASURED FROM
 EKB .F              5139:   KELLING BUSHING
 EGL .F              5129:   GROUND LEVEL
 DATE.        15-OCT-1992:   RUN DATE
 RUN .                  1:   RUN NUMBER
 DD  .F               570:   DEPTH DRILLER
 DL  .F               570:   DEPTH LOGGER
 BLI .F               564:   BOTTOM LOG INTERVAL
 TLI .F               564:   TOP LOG INTERVAL
 CS  .IN            8.625:   CASING SIZE
 CBL .F                94:   CASING BOTTOM LOGGER
 BS  .IN            7.875:   BIT SIZE
 BSD .F               570:   BIT SIZE AT DEPTH
 DFT .           AIR FOAM:   DRILLING FLUID TYPE
 TCS .HRS               4:   TIME CURCULATED STOPPED
 MRT .F                72:   MAXIMUM RECORDED TEMPERATURE
 LUN .            HL-6345:   LOGGING UNIT NUMBER
 LUL .          FT.MORGAN:   LOGGING UNIT LOCATION
 ENGI.             BURLEY:   RECORDING ENGINEER
 WITN.        DARY STRONG:   WITNESSED BY
 CLNT.            A2DTECH:   CLIENT CODE
 ORIG.           5" PRINT:   ORIGIN OF DATA
 UWI .       490252255000:   UNIQUE WELL ID
 DICO. A2D Technologies, Inc.:   DIGITIZING COMPANY
~OTHER INFORMATION
~A    DEPT      GRR      RILD       RILM   
# ...
  240.6000   130.8271     4.5688     4.6725
  240.7000   131.5789     4.5267     4.6439
  240.8000   132.3308     4.5002     4.6439
  240.9000   133.0827     4.4743     4.6237
  241.0000   133.9348     4.4742     4.6114
  241.1000   134.8371     4.4529     4.6114
  241.2000   135.3383     4.4268     4.6076
  241.3000   135.3383     4.4009     4.5792
  241.4000   135.1378     4.3804     4.5541
  241.5000   134.7368     4.3803     4.5471
  241.6000   134.3358     4.3801     4.5471
  241.7000   134.0852     4.3800     4.5471
  241.8000   133.8345     4.3953     4.5471
  241.9000   133.5338     4.4107     4.5471
  242.0000   133.3333     4.4155     4.5471
  242.1000   133.0827     4.4415     4.5471
  242.2000   132.8321     4.4414     4.5471
  242.3000   132.5313     4.4618     4.5558
  242.4000   132.0301     4.4725     4.5824
  242.5000   131.7794     4.4823     4.6114
  242.6000   131.3283     4.5038     4.6114
  242.7000   130.6767     4.5036     4.6308
  242.8000   129.9249     4.5035     4.6439
  242.9000   129.1228     4.5443     4.6697
  243.0000   128.1203     4.5822     4.7459
  243.1000   125.7143     4.6089     4.7762
  243.2000   123.9098     4.6358     4.7762
  243.3000   121.8046     4.6638     4.7960
  243.4000   119.8998     4.7430     4.8529
  243.5000   118.1956     4.8268     4.9209
  243.6000   116.6917     4.8800     4.9558
  243.7000   115.9398     4.9289     5.0521
  243.8000   115.1880     5.0069     5.1326
  243.9000   114.7368     5.0377     5.1807
  244.0000   114.4862     5.1220     5.2416
  244.1000   114.3860     5.1897     5.3530
  244.2000   114.8872     5.2505     5.4991
  244.3000   116.0902     5.3120     5.5348
  244.4000   116.8922     5.3743     5.6221
  244.5000   118.0450     5.4415     5.6984
  244.6000   119.2982     5.4711     5.7654
  244.7000   120.5514     5.5503     5.8331
  244.8000   121.8045     5.6134     5.9016
  244.9000   123.0075     5.6786     5.9792
  245.0000   123.8095     5.8041     6.0725
  245.1000   124.8120     5.8777     6.2047
  245.2000   125.9148     5.9410     6.3514
  245.3000   127.1178     6.0615     6.4801
  245.4000   128.1204     6.1672     6.5562
  245.5000   129.1228     6.2394     6.6431
  245.6000   130.5263     6.3165     6.6771
  245.7000   132.0300     6.4387     6.7426
  245.8000   133.3333     6.4726     6.8218
  245.9000   134.3359     6.5642     6.8804
  246.0000   135.3383     6.6410     6.8856
  246.1000   135.0376     6.7029     6.9777
  246.2000   134.4361     6.8137     7.0485
  246.3000   133.5338     6.8578     7.0764
  246.4000   132.5312     6.9293     7.0954
  246.5000   131.5789     7.0106     7.1477
  246.6000   130.8271     7.0727     7.2293
  246.7000   130.0752     7.1256     7.2779
  246.8000   128.5214     7.2058     7.2779
  246.9000   127.2181     7.2531     7.3336
  247.0000   126.3158     7.3651     7.4002
  247.1000   125.4637     7.4363     7.4435
  247.2000   124.2105     7.5003     7.4891
  247.3000   122.7068     7.5763     7.5910
  247.4000   122.0050     7.6204     7.6285
  247.5000   121.8045     7.6711     7.6732
  247.6000   121.9048     7.7096     7.7181
  247.7000   122.3560     7.7545     7.7633
  247.8000   123.6090     7.7997     7.8088
  247.9000   125.1128     7.8336     7.8622
  248.0000   125.9147     7.8356     7.9006
  248.1000   126.6165     7.8884     7.9176
  248.2000   127.3184     7.8882     7.9176
  248.3000   128.3208     7.8880     7.9176
  248.4000   129.3234     7.8878     7.9187
  248.5000   130.3258     7.8875     7.9733
  248.6000   131.3282     7.8873     7.9733
  248.7000   132.4811     7.8871     7.9733
  248.8000   133.6341     7.8869     7.9733
  248.9000   134.5864     7.8867     7.9733
  249.0000   135.3383     7.8864     7.9733
  249.1000   135.5890     7.8862     7.9733
  249.2000   135.8396     7.8860     7.9733
  249.3000   135.9398     7.8857     7.9733
  249.4000   135.8396     7.8855     7.9733
  249.5000   135.5890     7.8853     7.9637
  249.6000   135.3383     7.8851     7.9176
  249.7000   135.3383     7.8753     7.9176
  249.8000   135.1378     7.8292     7.9176
  249.9000   134.5864     7.7744     7.9176
  250.0000   134.0351     7.7379     7.8957
  250.1000   133.7975     7.6927     7.8410
  250.2000   133.6120     7.6856     7.7863
  250.3000   133.6818     7.7367     7.7316
  250.4000   133.8370     7.7878     7.6975
  250.5000   133.8807     7.8301     7.6897
  250.6000   134.1390     7.8303     7.6432
  250.7000   134.1396     7.8306     7.6430
  250.8000   134.1402     7.7963     7.5763
  250.9000   134.2785     7.7265     7.5122
  251.0000   134.5283     7.6525     7.4831
  251.1000   134.7782     7.6144     7.4772
  251.2000   135.0449     7.6147     7.4303
  251.3000   135.0454     7.5737     7.4301
  251.4000   135.0460     7.4983     7.3686
  251.5000   134.9173     7.4340     7.3046
  251.6000   134.6687     7.4045     7.2746
  251.7000   134.4200     7.4001     7.2744
  251.8000   134.1462     7.3531     7.2742
  251.9000   134.1468     7.3532     7.2368
  252.0000   133.9749     7.2946     7.1946
  252.1000   133.6054     7.2307     7.1527
  252.2000   133.1076     7.2005     7.1111
  252.3000   132.5919     7.1977     7.0718
  252.4000   131.7438     7.1505     7.0716
  252.5000   130.8822     7.0438     7.0368
  252.6000   130.0499     7.0018     6.9700
  252.7000   129.5278     6.9836     6.9064
  252.8000   129.2182     6.9335     6.8750
  252.9000   128.7204     6.8548     6.8743
  253.0000   128.1384     6.8085     6.8265
  253.1000   128.3461     6.7759     6.7313
  253.2000   128.5959     6.7612     6.6607
  253.3000   128.9498     6.7126     6.6070
  253.4000   129.4488     6.6125     6.5373
  253.5000   129.9478     6.5741     6.4983
  253.6000   130.4469     6.4983     6.4614
  253.7000   131.3433     6.4233     6.3669
  253.8000   132.9296     6.3275     6.2973
  253.9000   134.5414     6.2457     6.2353
  254.0000   135.5388     6.1970     6.1323
  254.1000   136.5660     6.0865     6.0567
  254.2000   136.5666     5.9846     5.9910
  254.3000   136.5672     5.9073     5.8968
  254.4000   136.5678     5.8391     5.8121
  254.5000   136.4812     5.7716     5.7449
  254.6000   136.1969     5.7002     5.6786
  254.7000   135.6674     5.5954     5.6057
  254.8000   135.4346     5.5651     5.5186
  254.9000   134.8223     5.4864     5.4666
  255.0000   134.2055     5.4243     5.4196
  255.1000   133.5500     5.3733     5.3653
  255.2000   132.4992     5.2869     5.3319
  255.3000   130.8590     5.2534     5.2615
  255.4000   129.9598     5.1716     5.2092
  255.5000   128.7900     5.1234     5.1683
  255.6000   127.7882     5.0938     5.1251
  255.7000   127.0412     5.0561     5.0726
  255.8000   126.2941     5.0020     5.0430
  255.9000   125.4491     5.0022     5.0084
  256.0000   124.8000     4.9771     4.9845
  256.1000   124.5480     4.9674     4.9554
  256.2000   124.4351     4.9544     4.9382
  256.3000   124.2484     4.9329     4.9380
  256.4000   124.2490     4.9342     4.9379
  256.5000   124.2497     4.9680     4.9378
  256.6000   124.4584     4.9681     4.9829
  256.7000   124.5516     4.9682     5.0241
  256.8000   124.5522     4.9684     5.0532
  256.9000   124.6063     4.9748     5.0873
  257.0000   124.8541     5.0037     5.1495
  257.1000   124.8549     5.0039     5.2067
  257.2000   124.6557     5.0040     5.2675
  257.3000   124.4071     5.0215     5.3122
  257.4000   124.0618     5.0510     5.3637
  257.5000   123.5639     5.0806     5.4500
  257.6000   123.0533     5.1111     5.4844
  257.7000   122.0825     5.1404     5.5134
  257.8000   120.8950     5.1938     5.5913
  257.9000   120.3483     5.2548     5.6895
  258.0000   120.4371     5.3054     5.7795
  258.1000   120.6869     5.3458     5.8497
  258.2000   120.9516     5.4457     5.9654
  258.3000   121.6553     5.4757     6.0571
  258.4000   122.7692     5.5554     6.1157
  258.5000   124.2784     5.6186     6.1844
  258.6000   125.7844     5.6622     6.2743
  258.7000   126.8105     5.7286     6.3107
