~VERSION INFORMATION
 VERS.                2.0:   CWLS LOG ASCII STANDARD - VERSION 2.0
 WRAP.                 NO:   ONE LINE PER DEPTH STEP
~WELL INFORMATION
#MNEM.UNIT      DATA TYPE    INFORMATION
#----------   ------------   ------------------------------
 STRT.F           32.5000:   START DEPTH
 STOP.F          654.0000:   STOP DEPTH
 STEP.F            0.5000:   STEP LENGTH
 NULL.          -999.2500:   NO VALUE
 COMP. FENIX & SCISSON INC:   COMPANY
 WELL.          NPR #13-2:   WELL
 FLD .             TEAPOT:   FIELD
 LOC .       S2 T38N R78W:   LOCATION
 CNTY.            NATRONA:   COUNTY
 STAT.            WYOMING:   STATE
 CTRY. UNITED STATES OF AMERICA:   COUNTRY
 SRVC.           BIRDWELL:   SERVICE COMPANY
 DATE.        16-JAN-1978:   LOGDATE
 API .       490251055100:   API NUMBER
~CURVE INFORMATION
#MNEM.UNIT       API CODE    CURVE DESCRIPTION
#----------   ------------   ------------------------------
 DEPT.F                  :   
 ILD .OHMM   05 120 46 00:   INDUCTION LOG DEEP
 SN  .OHMM   05 040 16 00:   SHORT NORMAL 16"
 SPR .MV     05 010 01 00:   SPONTANEOUS POTENTIAL FROM RES.
 CALD.IN     45 280 60 00:   CALIPER FROM DENSITY LOG
 CORR.G/C3   45 356 01 00:   DENSITY CORRECTION
 DPHI.DEC    45 890 12 00:   DENSITY POROSITY SANDSTONE
 GRD .GAPI   45 310 01 00:   GAMMA RAY FROM DENSITY LOG
 RHOB.G/C3   45 350 01 00:   BULK DENSITY
~PARAMETER INFORMATION
#MNEM.UNIT          VALUE    DESCRIPTION
#----------   ------------   ------------------------------
 PD  .                 GL:   PERMANENT DATUM
 EPD .F              5091:   ELEVATION PERMANENT DATUM
 LMF .                 KB:   LOG MEASURED FROM
 DAPD.F                 4:   FEET ABOVE PERMANENT DATUM
 DMF .                 KB:   DRILLING MEASURED FROM
 EKB .F              5095:   KELLING BUSHING
 EGL .F              5091:   GROUND LEVEL
 DATE.        16-JAN-1978:   RUN DATE
 RUN .                  1:   RUN NUMBER
 DD  .F               652:   DEPTH DRILLER
 DL  .F               654:   DEPTH LOGGER
 BLI .F               649:   BOTTOM LOG INTERVAL
 TLI .F                30:   TOP LOG INTERVAL
 CS  .IN            8.625:   CASING SIZE
 CBD .F                20:   CASING BOTTOM DRILLER
 CBL .F                34:   CASING BOTTOM LOGGER
 BS  .IN            7.875:   BIT SIZE
 BSD .F               652:   BIT SIZE AT DEPTH
 DFT .                KCL:   DRILLING FLUID TYPE
 DFD .                8.7:   DRILLING FLUID DENSITY
 DFV .                 34:   DRILLING FLUID VISCOSITY
 DFPH.                 10:   DRILLING FLUID PH
 MSS .           FLOWLINE:   MUD SAMPLE SOURCE
 RMS .OHMM            0.3:   RESISTIVITY MUD SAMPLE
 MST .F                62:   MUD SAMPLE TEMPERATURE
 RMF .OHMM           0.26:   RESISTIVITY MUD FILTRATE SAMPLE
 MFST.F                66:   MUD FILTRATE SAMPLE TEMPERATURE
 RMC .OHMM           0.48:   RESISTIVITY MUD CAKE
 MCST.F                66:   MUD CAKE SAMPLE TEMPERATURE
 MFSS.               MEAS:   MUD FILTRATE SAMPLE SOURCE
 MCSS.               MEAS:   MUD CAKE SAMPLE SOURCE
 RMB .OHMM           0.26:   RESISTIVITY MUD AT BHT
 BHT .F                72:   BOTTOM HOLE TEMPERATURE
 TCS .HRS               3:   TIME CURCULATED STOPPED
 MRT .F                72:   MAXIMUM RECORDED TEMPERATURE
 LUN .               3027:   LOGGING UNIT NUMBER
 LUL .                GJT:   LOGGING UNIT LOCATION
 ENGI.           MARTINEZ:   RECORDING ENGINEER
 WITN.         HARRINGTON:   WITNESSED BY
 CLNT.            A2DTECH:   CLIENT CODE
 ORIG.           5" PRINT:   ORIGIN OF DATA
 UWI .       490251055100:   UNIQUE WELL ID
 DICO. A2D Technologies, Inc.:   DIGITIZING COMPANY
~OTHER INFORMATION
~A   DEPT      ILD         SN        SPR       CALD       CORR       DPHI         GRD      RHOB   
# ...
  194.5000    11.7347    12.8872   -27.7091     8.7210     0.1083     0.0880    94.8629     2.5091
  195.0000    11.6545    12.7109   -27.8538     8.7066     0.1098     0.0871    93.2580     2.5113
  195.5000    11.5749    12.7120   -27.9966     8.6923     0.1112     0.0868    91.1012     2.5121
  196.0000    11.4959    12.6251   -27.8374     8.6778     0.1113     0.0862    94.4159     2.5121
  196.5000    11.4969    12.4528   -27.5298     8.6484     0.1112     0.0880    96.3752     2.5128
  197.0000    11.4977    12.2828   -27.3723     8.6192     0.1052     0.0913    96.6775     2.5121
  197.5000    11.4192    12.2836   -27.2147     8.6047     0.0932     0.0970    91.5589     2.5075
  198.0000    11.4200    12.1999   -26.9054     8.5755     0.0781     0.1060    89.0001     2.4969
  198.5000    11.4209    12.2009   -26.8982     8.5610     0.0631     0.1141    89.4534     2.4863
  199.0000    11.3429    12.2017   -27.0428     8.5617     0.0466     0.1183    90.0573     2.4737
  199.5000    11.5018    12.2025   -27.1857     8.5623     0.0330     0.1201    89.4564     2.4677
  200.0000    11.5822    12.2312   -27.2636     8.5629     0.0300     0.1195    91.7169     2.4632
  200.5000    11.3452    12.2024   -27.6250     8.5483     0.0346     0.1188    93.0989     2.4640
  201.0000    11.3461    12.1175   -27.7715     8.5488     0.0391     0.1179    93.6777     2.4587
  201.5000    11.3469    12.1167   -27.6184     8.5643     0.0436     0.1165    92.4747     2.4610
  202.0000    11.3476    12.1159   -27.7658     8.5797     0.0481     0.1177    89.1629     2.4647
  202.5000    11.3484    12.1149   -27.9129     8.5951     0.0511     0.1213    86.1523     2.4678
  203.0000    11.3492    12.1983   -28.0601     8.6105     0.0479     0.1246    83.1417     2.4527
  203.5000    11.3499    12.1973   -28.0565     8.6409     0.0346     0.1237    81.4866     2.4467
  204.0000    11.3507    12.1125   -28.0536     8.6563     0.0287     0.1183    82.6929     2.4552
  204.5000    11.3517    12.1116   -27.7503     8.6867     0.0272     0.1108    85.7064     2.4672
  205.0000    11.2740    12.1108   -27.7474     8.7021     0.0212     0.1051    89.4730     2.4821
  205.5000    11.1971    12.1100   -27.7445     8.7175     0.0182     0.1021    90.9805     2.4896
  206.0000    11.2757    12.1092   -27.5915     8.7180     0.0152     0.1039    92.3653     2.4866
  206.5000    11.2765    12.1084   -27.5885     8.7184     0.0152     0.1084    88.2582     2.4828
  207.0000    11.2772    12.0942   -27.5856     8.7189     0.0137     0.1135    87.0394     2.4776
  207.5000    11.2780    12.0232   -27.5820     8.7344     0.0152     0.1120    87.0365     2.4731
  208.0000    11.3570    11.9396   -27.5791     8.7348     0.0183     0.1087    88.2655     2.4716
  208.5000    11.3578    11.9388   -27.5762     8.7352     0.0243     0.1081    88.7022     2.4716
  209.0000    11.3587    11.9380   -27.4231     8.7357     0.0273     0.1129    87.4827     2.4716
  209.5000    11.2810    11.9372   -27.4202     8.7361     0.0273     0.1156    88.2396     2.4701
  210.0000    11.2041    11.9364   -27.4173     8.7515     0.0273     0.1135    97.3552     2.4702
  210.5000    11.1276    11.9356   -27.4144     8.7520     0.0303     0.1107    95.2245     2.4716
  211.0000    11.0519    11.9348   -27.2613     8.7674     0.0394     0.1082    91.1182     2.4709
  211.5000    11.0526    12.0167   -27.1081     8.7678     0.0484     0.1121    97.9542     2.4701
  212.0000    11.0533    11.9330   -27.1046     8.7683     0.0559     0.1142    96.1275     2.4702
  212.5000    11.0541    11.9322   -26.9515     8.7687     0.0604     0.1139    89.8935     2.4702
  213.0000    11.0548    11.9314   -26.9486     8.7692     0.0680     0.1130    85.1793     2.4702
  213.5000    11.1323    11.9306   -26.9457     8.7697     0.0785     0.1112    85.1843     2.4732
  214.0000    11.2105    11.9298   -27.0937     8.7401     0.0875     0.1076    90.0933     2.4769
  214.5000    11.2890    12.0117   -27.0900     8.7406     0.0965     0.1046    91.5533     2.4822
  215.0000    11.2898    12.0109   -27.0871     8.7260     0.1056     0.1025    91.8543     2.4875
  215.5000    11.3689    12.0933   -27.0841     8.7265     0.1116     0.1010    91.3947     2.4906
  216.0000    11.3697    12.1763   -27.2314     8.7419     0.1116     0.1001    92.1516     2.4920
  216.5000    11.3704    12.2599   -27.0776     8.7424     0.1131     0.0986    98.9875     2.4942
  217.0000    11.2928    12.2589   -27.2249     8.7278     0.1176     0.0986    99.4412     2.4958
  217.5000    11.2158    12.0899   -27.0718     8.7283     0.1206     0.1016    94.8782     2.4965
  218.0000    11.1392    12.0890   -27.0689     8.7287     0.1207     0.1058    86.3646     2.4898
  218.5000    11.1400    12.0050   -27.0660     8.7293     0.1192     0.1100    83.6260     2.4853
  219.0000    11.0642    12.0042   -27.0631     8.7297     0.1207     0.1070    84.2310     2.4838
  219.5000    11.0649    12.0034   -26.9099     8.7302     0.1267     0.0992    87.0202     2.4898
  220.0000    11.0656    12.0026   -26.9064     8.7155     0.1357     0.0950    90.6485     2.4973
  220.5000    11.0664    11.9191   -26.7533     8.7161     0.1448     0.0944    90.9090     2.5033
  221.0000    10.9151    11.9183   -26.9005     8.7165     0.1449     0.0977    86.3460     2.5048
  221.5000    10.8407    11.9173   -27.0478     8.7169     0.1418     0.1001    86.0391     2.5003
  222.0000    10.7667    11.8345   -27.1957     8.7174     0.1358     0.1027    87.8598     2.4928
  222.5000    10.7674    11.8337   -27.1921     8.7178     0.1298     0.1058    89.2246     2.4861
  223.0000    10.6876    11.7514   -27.1892     8.7183     0.1268     0.1064    89.9815     2.4808
  223.5000    10.6210    11.7506   -27.3559     8.7187     0.1313     0.1082    90.1313     2.4763
  224.0000    10.6219    11.6689   -27.6331     8.7192     0.1299     0.1136    89.6716     2.4703
  224.5000    10.6226    11.5878   -27.6302     8.7046     0.1254     0.1178    89.9726     2.4628
  225.0000    10.6970    11.5870   -27.4771     8.6901     0.1239     0.1190    90.5775     2.4538
  225.5000    10.6977    11.5862   -27.4742     8.6906     0.1239     0.1178    90.5745     2.4583
  226.0000    10.6245    11.5852   -27.4713     8.6911     0.1329     0.1119    91.5887     2.4689
  226.5000    10.6254    11.6650   -27.4684     8.6915     0.1404     0.1056    93.9113     2.4797
  227.0000    10.6999    11.8263   -27.4655     8.7069     0.1465     0.1020    95.7320     2.4914
  227.5000    10.7018    11.9077   -27.4625     8.7074     0.1480     0.0991    96.0338     2.4974
  228.0000    10.7756    11.9067   -27.6098     8.7078     0.1480     0.0897    90.7109     2.5034
  228.5000    10.8513    11.9886   -27.4560     8.7082     0.1495     0.0819    90.2520     2.5124
  229.0000    10.9273    12.1904   -27.4531     8.6937     0.1510     0.0843    90.5537     2.5185
  229.5000    11.0802    12.3227   -27.4502     8.6608     0.1510     0.0825    90.5500     2.5222
  230.0000    11.0809    12.4991   -27.2971     8.5749     0.1450     0.0798    87.5075     2.5237
  230.5000    11.2360    12.6664   -27.0798     8.5154     0.1331     0.0792    82.0334     2.5245
  231.0000    11.3932    12.7533   -26.8408     8.4859     0.1211     0.0825    82.0304     2.5215
  231.5000    11.4731    12.8409   -26.8378     8.4864     0.1076     0.0906    82.2178     2.5125
  232.0000    11.4738    12.8398   -26.9851     8.5018     0.0896     0.0987    84.4553     2.5032
  232.5000    11.4746    12.9280   -27.1324     8.5173     0.0640     0.1110    87.4919     2.4810
  233.0000    11.4633    12.9271   -27.1287     8.5476     0.0400     0.1119    88.4008     2.4720
  233.5000    11.3971    12.8372   -27.1258     8.5780     0.0325     0.1150    87.9419     2.4659
  234.0000    11.3193    12.6602   -26.9728     8.6084     0.0326     0.1119    86.7231     2.4652
  234.5000    11.2421    12.5722   -26.9699     8.6238     0.0356     0.1083    85.5043     2.4765
