~VERSION INFORMATION
 VERS.                2.0:   CWLS LOG ASCII STANDARD - VERSION 2.0
 WRAP.                 NO:   ONE LINE PER DEPTH STEP
~WELL INFORMATION
#MNEM.UNIT      DATA TYPE    INFORMATION
#----------   ------------   ------------------------------
 STRT.F           14.0000:   START DEPTH
 STOP.F          692.5000:   STOP DEPTH
 STEP.F            0.5000:   STEP LENGTH
 NULL.          -999.2500:   NO VALUE
 COMP. FENIX & SCISSON INC:   COMPANY
 WELL. NPR #3 #27-51 SX 11 WP:   WELL
 FLD .        TEAPOT DOME:   FIELD
 LOC .      S11 T38N R78W:   LOCATION
 CNTY.            NATRONA:   COUNTY
 STAT.            WYOMING:   STATE
 CTRY. UNITED STATES OF AMERICA:   COUNTRY
 SRVC.      Dresser Atlas:   SERVICE COMPANY
 DATE.        16-AUG-1980:   LOGDATE
 API .       490251083900:   API NUMBER
~CURVE INFORMATION
#MNEM.UNIT       API CODE    CURVE DESCRIPTION
#----------   ------------   ------------------------------
 DEPT.F                  :   
 RHOB.G/C3   45 350 01 00:   BULK DENSITY
 CORR.G/C3   45 356 01 00:   DENSITY CORRECTION
 GRD .GAPI   45 310 01 00:   GAMMA RAY FROM DENSITY LOG
 CALD.IN     45 280 60 00:   CALIPER
 NPOR.DEC    42 890 03 00:   NEUTRON POROSITY SANDSTONE
 DPOR.DEC    45 890 12 00:   DENSITY POROSITY SANDSTONE
 SPR .MV     07 010 01 00:   SPONTANEOUS POTENTIAL
 SFL .OHMM   07 220 01 00:   SHALLOW FOCUSED LOG RESISTIVITY
 ILM .OHMM   07 120 44 00:   INDUCTION LOG MEDIUM
 ILD .OHMM   07 120 46 00:   INDUCTION LOG DEEP
~PARAMETER INFORMATION
#MNEM.UNIT          VALUE    DESCRIPTION
#----------   ------------   ------------------------------
 PD  .                 GL:   PERMANENT DATUM
 EPD .F              5194:   ELEVATION PERMANENT DATUM
 LMF .                 KB:   LOG MEASURED FROM
 DAPD.F                 5:   FEET ABOVE PERMANENT DATUM
 DMF .                 KB:   DRILLING MEASURED FROM
 EKB .F              5199:   KELLING BUSHING
 EGL .F              5194:   GROUND LEVEL
 DATE.            8-16-80:   RUN DATE
 RUN .                  1:   RUN NUMBER
 DD  .F               685:   DEPTH DRILLER
 DL  .F               693:   DEPTH LOGGER
 BLI .F               692:   BOTTOM LOG INTERVAL
 TLI .F                25:   TOP LOG INTERVAL
 BS  .IN            7.875:   BIT SIZE
 BSD .F               685:   BIT SIZE AT DEPTH
 DFT .                KCL:   DRILLING FLUID TYPE
 DFD .                9.4:   DRILLING FLUID DENSITY
 DFV .                 45:   DRILLING FLUID VISCOSITY
 DFPH.                 11:   DRILLING FLUID PH
 DFL .                7.2:   DRILLING FLUID LOSS
 MSS .           FLOWLINE:   MUD SAMPLE SOURCE
 RMS .OHMM            .74:   RESISTIVITY MUD SAMPLE
 MST .F                60:   MUD SAMPLE TEMPERATURE
 RMF .OHMM            .44:   RESISTIVITY MUD FILTRATE SAMPLE
 MFST.F                60:   MUD FILTRATE SAMPLE TEMPERATURE
 RMC .OHMM           1.35:   RESISTIVITY MUD CAKE
 MCST.F                60:   MUD CAKE SAMPLE TEMPERATURE
 MFSS.               MEAS:   MUD FILTRATE SAMPLE SOURCE
 MCSS.               MEAS:   MUD CAKE SAMPLE SOURCE
 TCS .HRS               1:   TIME CURCULATED STOPPED
 LUN .               6180:   LOGGING UNIT NUMBER
 LUL .               CODY:   LOGGING UNIT LOCATION
 ENGI.              HOYER:   RECORDING ENGINEER
 WITN.           MCINTYRE:   WITNESSED BY
 CLNT.            A2DTECH:   CLIENT CODE
 ORIG.      2" 2.5" PRINT:   ORIGIN OF DATA
 UWI .       490251083900:   UNIQUE WELL ID
 DICO. A2D Technologies, Inc.:   DIGITIZING COMPANY
~OTHER INFORMATION
~A   DEPT     RHOB       CORR        GRD       CALD       NPOR       DPOR        SPR        SFL         ILM       ILD   
# ...
  617.0000     2.4787     0.0208   108.4609     7.8750     0.2266     0.1194   -66.7836    10.1371     8.8183     9.6380
  617.5000     2.4785     0.0181   108.4739     7.8780     0.2273     0.1169   -66.5900    10.1282     8.6601     9.3967
  618.0000     2.4852     0.0155   108.4518     7.8818     0.2291     0.1188   -66.7468    10.0888     8.5046     9.1614
  618.5000     2.4783     0.0128   110.6828     7.8856     0.2291     0.1233   -66.9611    10.0519     8.3592     9.0289
  619.0000     2.4667     0.0102   113.5231     7.8894     0.2305     0.1242   -67.1768     9.8880     8.2359     8.9512
  619.5000     2.4737     0.0076   114.8695     7.8932     0.2363     0.1217   -67.3923     9.7080     8.1199     8.8742
  620.0000     2.4634     0.0048   112.5686     7.8969     0.2421     0.1298   -67.6055     9.5305     7.9731     8.7054
  620.5000     2.4463     0.0023   111.7018     7.9007     0.2451     0.1336   -67.7369     9.3564     7.7915     8.4338
  621.0000     2.4527     0.0005   112.8981     7.9045     0.2443     0.1208   -67.5924     9.2854     7.4681     8.1707
  621.5000     2.4707     0.0072   112.0158     7.9083     0.2418     0.1151   -67.4552     9.2142     7.0013     7.7660
  622.0000     2.4836     0.0131   113.8444     7.9121     0.2449     0.1234   -67.3181     9.1630     6.5364     7.0114
  622.5000     2.4714     0.0196   115.0618     7.9159     0.2501     0.1162   -67.1821     9.1676     6.0742     6.3302
  623.0000     2.4720     0.0257   115.4344     7.9196     0.2569     0.1179   -67.1646     9.1678     5.6447     5.7151
  623.5000     2.4831     0.0318   116.0140     7.9234     0.2642     0.1237   -67.1703     8.5958     5.2456     5.1598
  624.0000     2.4682     0.0318   119.8931     7.9272     0.2714     0.1295   -66.8979     7.5444     4.8626     4.9985
  624.5000     2.4547     0.0224   123.2770     7.9310     0.2786     0.1442   -66.5212     5.8787     5.2180     5.1141
  625.0000     2.4274     0.0126   124.5154     7.9348     0.2861     0.1481   -66.1405     4.7741     5.6470     5.2333
  625.5000     2.4370     0.0198   126.9677     7.9385     0.2838     0.1290   -65.7571     5.9540     6.1114     5.2333
  626.0000     2.4647     0.0314   129.0255     7.9424     0.2736     0.1104   -65.5720     8.9122     6.6139     5.4651
  626.5000     2.4998     0.0266   120.1271     7.9461     0.2635     0.1120   -65.5672    12.7531     7.0762     5.8140
  627.0000     2.4875     0.0089   111.6855     7.9498     0.2570     0.1100   -65.5718    11.2459     7.5353     6.4397
  627.5000     2.4923     0.0122   111.2490     7.9542     0.2536     0.1054   -65.8968     9.9527     7.9548     7.1328
  628.0000     2.5002     0.0229   111.8959     7.9524     0.2496     0.1009   -66.2546     9.5972     8.3275     7.9005
  628.5000     2.5111     0.0286   112.5119     7.9436     0.2441     0.0976   -66.5768     9.2254     8.5185     8.7507
  629.0000     2.5166     0.0264   112.2530     7.9355     0.2422     0.1023   -66.3489     8.9142     8.5163     9.1660
  629.5000     2.5085     0.0249   111.8584     7.9274     0.2445     0.1080   -65.9341     9.0658     8.5142     9.4223
  630.0000     2.4994     0.0269   111.4930     7.9192     0.2466     0.1054   -65.5222     9.3577     8.5134     9.4182
  630.5000     2.5022     0.0373   111.2502     7.9110     0.2430     0.1000   -65.1887     9.6619     8.6350     9.4185
  631.0000     2.5090     0.0442   112.6237     7.9028     0.2398     0.0992   -65.4087     9.8617     8.8012     9.5030
  631.5000     2.5142     0.0441   114.0990     7.8947     0.2365     0.1064   -65.6218     9.8617     8.9703     9.6601
  632.0000     2.5064     0.0443   116.7864     7.8864     0.2339     0.1023   -65.8312     9.9469     9.1428     9.8196
  632.5000     2.5041     0.0441   120.6365     7.8782     0.2320     0.0947   -65.9913    10.1909     9.3185     9.9816
  633.0000     2.5211     0.0443   119.6384     7.8755     0.2305     0.0847   -66.0503    10.4420     9.4976    10.1462
  633.5000     2.5375     0.0441   116.6485     7.8868     0.2289     0.0873   -66.1114    10.6971     9.6802    10.3135
  634.0000     2.5388     0.0433   115.6546     7.8961     0.2281     0.0937   -66.1720    10.8122     9.8663    10.4356
  634.5000     2.5219     0.0289   116.8338     7.9059     0.2273     0.1000   -66.2328    10.7345    10.0560    10.5339
  635.0000     2.5086     0.0134   118.3602     7.9155     0.2265     0.1029   -66.2943    10.7113    10.1371    10.6312
  635.5000     2.5031     0.0090   117.3167     7.9261     0.2256     0.1057   -66.3612    10.9560    10.1371    10.7295
  636.0000     2.4988     0.0083   115.9683     7.9342     0.2263     0.1029   -66.1706    11.0105    10.1371    10.8102
  636.5000     2.5037     0.0179   114.5106     7.9450     0.2309     0.0989   -65.8631    11.0105    10.2583    10.8102
  637.0000     2.5126     0.0283   114.0289     7.9626     0.2356     0.0944   -65.2777    11.0783    10.3824    10.8102
  637.5000     2.5210     0.0311   113.9629     7.9983     0.2384     0.0971   -64.6967    11.4430    10.5080    10.8848
  638.0000     2.5162     0.0281   112.0026     7.9885     0.2370     0.1001   -64.1197    11.7464    10.6351    10.9604
  638.5000     2.5056     0.0252   111.2330     7.9860     0.2341     0.1016   -63.7378    11.4660    10.7113    11.0364
  639.0000     2.5073     0.0256   110.7564     7.9821     0.2313     0.0998   -63.6646    11.1375    10.6367    11.1121
  639.5000     2.5120     0.0303   109.2044     7.9774     0.2284     0.0984   -63.5869    11.0055    10.5452    11.1121
  640.0000     2.5164     0.0306   108.8541     7.9737     0.2266     0.1034   -63.5107    11.3697    10.4544    11.0822
  640.5000     2.5017     0.0262   109.5920     7.9695     0.2255     0.1070   -63.4326    11.7951    10.4203    11.0458
  641.0000     2.4939     0.0243   110.4018     7.9654     0.2242     0.1036   -63.2913    11.9591    10.5751    11.0108
  641.5000     2.5023     0.0366   110.4746     7.9613     0.2219     0.1008   -62.8801    11.9591    10.7286    11.0105
  642.0000     2.5096     0.0362   111.4270     7.9572     0.2195     0.1016   -62.4817    11.8321    10.9099    11.0105
  642.5000     2.5058     0.0245   113.6964     7.9531     0.2238     0.0955   -62.2666    11.5448    10.7705    11.0108
  643.0000     2.5191     0.0305   116.7059     7.9491     0.2280     0.0894   -62.7550    11.2644    10.6806    11.0127
  643.5000     2.5358     0.0470   115.1668     7.9450     0.2323     0.0864   -63.2214    11.1121    10.5915    10.9304
  644.0000     2.5363     0.0426   111.7925     7.9409     0.2365     0.0909   -63.5250    11.2844    10.5031    10.8364
  644.5000     2.5267     0.0369   111.6422     7.9368     0.2379     0.0962   -63.2709    11.4051    10.4203    10.7431
  645.0000     2.5171     0.0306   113.3813     7.9327     0.2356     0.1015   -63.0419    11.5239    10.4200    10.7113
  645.5000     2.5073     0.0237   115.4150     7.9286     0.2306     0.1032   -62.8140    11.5302    10.4203    10.7113
  646.0000     2.5029     0.0198   114.0949     7.9246     0.2252     0.1016   -62.5857    11.5282    10.4206    10.7113
  646.5000     2.5107     0.0203   113.4811     7.9205     0.2274     0.1022   -62.3782    11.5247    10.4203    10.6856
  647.0000     2.5075     0.0249   114.9052     7.9164     0.2319     0.1030   -62.3753    11.5346    10.3558    10.5913
  647.5000     2.5047     0.0299   110.9748     7.9135     0.2365     0.1024   -62.3678    11.3033    10.2608    10.4979
  648.0000     2.5020     0.0349   111.6925     7.9112     0.2403     0.1001   -62.2101    11.1185    10.1666    10.4052
  648.5000     2.5095     0.0397   109.4712     7.9088     0.2381     0.0978   -62.0499    10.9411    10.0733    10.3134
  649.0000     2.5141     0.0371   112.1910     7.9064     0.2353     0.1008   -61.7036    10.7666     9.9809    10.2306
  649.5000     2.5059     0.0342   114.5557     7.9040     0.2386     0.1080   -61.1442    10.5948     9.8893    10.2306
  650.0000     2.4988     0.0311   112.7145     7.9016     0.2437     0.1080   -60.5842    10.4258     9.7597    10.1445
