~VERSION INFORMATION
 VERS.                2.0:   CWLS LOG ASCII STANDARD - VERSION 2.0
 WRAP.                 NO:   ONE LINE PER DEPTH STEP
~WELL INFORMATION
#MNEM.UNIT      DATA TYPE    INFORMATION
#----------   ------------   ------------------------------
 STRT.F           35.0000:   START DEPTH
 STOP.F          977.0000:   STOP DEPTH
 STEP.F            0.5000:   STEP LENGTH
 NULL.          -999.2500:   NO VALUE
 COMP. FENIX & SCISSON INC:   COMPANY
 WELL.  NPR-3 "SX" #52-14:   WELL
 FLD .             TEAPOT:   FIELD
 LOC .      S14 T38N R78W:   LOCATION
 CNTY.            NATRONA:   COUNTY
 STAT.            WYOMING:   STATE
 CTRY. UNITED STATES OF AMERICA:   COUNTRY
 SRVC.            Unknown:   SERVICE COMPANY
 DATE.        13-MAR-1978:   LOGDATE
 API .       490251059900:   API NUMBER
~CURVE INFORMATION
#MNEM.UNIT       API CODE    CURVE DESCRIPTION
#----------   ------------   ------------------------------
 DEPT.F                  :   
 CALD.IN     45 280 60 00:   CALIPER FROM DENSITY LOG
 GRD .GAPI   45 310 01 00:   GAMMA RAY FROM DENSITY LOG
 CORR.G/C3   45 356 01 00:   DENSITY CORRECTION
 RHOB.G/C3   45 350 01 00:   BULK DENSITY
 DPHI.DEC    45 890 12 00:   DENSITY POROSITY SANDSTONE
 SPR .MV     07 010 01 00:   SPONTANEOUS POTENTIAL FROM RES. LOG
 ILD .OHMM   07 120 46 00:   INDUCTION LOG DEEP
 SN  .OHMM   07 040 16 00:   SHORT NORMAL 16'
~PARAMETER INFORMATION
#MNEM.UNIT          VALUE    DESCRIPTION
#----------   ------------   ------------------------------
 PD  .                 GL:   PERMANENT DATUM
 EPD .F              5223:   ELEVATION PERMANENT DATUM
 LMF .                 KB:   LOG MEASURED FROM
 DAPD.F                 4:   FEET ABOVE PERMANENT DATUM
 DMF .                 KB:   DRILLING MEASURED FROM
 EKB .F              5227:   KELLING BUSHING
 EGL .F              5223:   GROUND LEVEL
 DATE.            3-13-78:   RUN DATE
 RUN .                  1:   RUN NUMBER
 DD  .F               975:   DEPTH DRILLER
 DL  .F               977:   DEPTH LOGGER
 BLI .F               971:   BOTTOM LOG INTERVAL
 TLI .F                50:   TOP LOG INTERVAL
 CS  .IN            8.625:   CASING SIZE
 CBD .F                40:   CASING BOTTOM DRILLER
 CBL .F                40:   CASING BOTTOM LOGGER
 BS  .IN            7.875:   BIT SIZE
 BSD .F               975:   BIT SIZE AT DEPTH
 DFT .                KCL:   DRILLING FLUID TYPE
 DFD .                8.6:   DRILLING FLUID DENSITY
 DFV .                 33:   DRILLING FLUID VISCOSITY
 DFPH.               10.5:   DRILLING FLUID PH
 DFL .               11.6:   DRILLING FLUID LOSS
 MSS .          FLOW LINE:   MUD SAMPLE SOURCE
 RMS .OHMM            .34:   RESISTIVITY MUD SAMPLE
 MST .F                60:   MUD SAMPLE TEMPERATURE
 RMF .OHMM            .36:   RESISTIVITY MUD FILTRATE SAMPLE
 MFST.F                62:   MUD FILTRATE SAMPLE TEMPERATURE
 RMC .OHMM            .75:   RESISTIVITY MUD CAKE
 MCST.F                59:   MUD CAKE SAMPLE TEMPERATURE
 MFSS.               MEAS:   MUD FILTRATE SAMPLE SOURCE
 MCSS.               MEAS:   MUD CAKE SAMPLE SOURCE
 RMB .OHMM            .27:   RESISTIVITY MUD AT BHT
 BHT .F                75:   BOTTOM HOLE TEMPERATURE
 TCS .HRS               4:   TIME CURCULATED STOPPED
 MRT .F                75:   MAXIMUM RECORDED TEMPERATURE
 LUN .               2958:   LOGGING UNIT NUMBER
 LUL .               CASP:   LOGGING UNIT LOCATION
 ENGI.             MILLER:   RECORDING ENGINEER
 WITN.            RHOADES:   WITNESSED BY
 CLNT.            A2DTECH:   CLIENT CODE
 ORIG.       2", 5" PRINT:   ORIGIN OF DATA
 UWI .       490251059900:   UNIQUE WELL ID
 DICO. A2D Technologies, Inc.:   DIGITIZING COMPANY
~OTHER INFORMATION
~A   DEPT     CALD         GRD      CORR       RHOB       DPHI        SPR        ILD         SN   
# ...
  926.0000     8.1596    83.2764     0.0209     2.4416     0.1184   -57.0853     9.6627    10.0762
  926.5000     8.1577    83.4750     0.0256     2.4488     0.1108   -57.1136     9.6544    10.0651
  927.0000     8.1574    83.6731     0.0303     2.4508     0.1076   -57.1420     9.6465    10.0541
  927.5000     8.1639    86.1947     0.0323     2.4582     0.1043   -57.1706     9.6262    10.0430
  928.0000     8.1703    89.6349     0.0320     2.4665     0.1016   -57.2518     9.5734    10.0320
  928.5000     8.1766    88.5122     0.0316     2.4657     0.1015   -57.3977     9.5209    10.0209
  929.0000     8.1830    86.0901     0.0312     2.4638     0.1028   -57.5431     9.4687    10.0099
  929.5000     8.1893    81.5054     0.0308     2.4669     0.1041   -57.6886     9.4168     9.9989
  930.0000     8.1956    80.5426     0.0306     2.4657     0.1032   -57.8341     9.3651     9.9879
  930.5000     8.2020    82.5372     0.0322     2.4663     0.1015   -57.9808     9.3138     9.9770
  931.0000     8.2083    85.5987     0.0338     2.4696     0.1000   -58.1275     9.2627     9.9660
  931.5000     8.2149    87.4089     0.0355     2.4704     0.0981   -58.3434     9.2119     9.9550
  932.0000     8.2153    85.5199     0.0360     2.4709     0.0964   -58.6013     9.1614     9.9441
  932.5000     8.2138    84.8285     0.0345     2.4737     0.1005   -58.8613     9.1112     9.9331
  933.0000     8.2123    85.5430     0.0330     2.4694     0.1002   -59.1272     9.0612     9.9222
  933.5000     8.2107    86.1698     0.0328     2.4690     0.0990   -59.1525     9.0115     9.9108
  934.0000     8.2092    83.6847     0.0333     2.4706     0.1013   -59.1175     8.9621     9.8879
  934.5000     8.2077    83.2559     0.0337     2.4668     0.1035   -59.0801     8.9130     9.8641
  935.0000     8.2062    82.9647     0.0342     2.4599     0.1057   -59.0428     8.8569     9.8404
  935.5000     8.2046    84.6738     0.0334     2.4571     0.1085   -59.0083     8.7579     9.8049
  936.0000     8.2031    86.1993     0.0230     2.4588     0.1118   -59.0391     8.6600     9.6933
  936.5000     8.2016    86.1941     0.0186     2.4495     0.1124   -59.2451     8.5632     9.5826
  937.0000     8.2000    86.5424     0.0185     2.4471     0.1104   -59.4430     8.4676     9.4731
  937.5000     8.1985    90.2097     0.0184     2.4530     0.1107   -59.6405     8.3729     9.3758
  938.0000     8.1970    93.4863     0.0238     2.4592     0.1028   -59.8121     8.2793     9.2663
  938.5000     8.1953    93.1395     0.0299     2.4648     0.1023   -59.9190     8.1868     9.1681
  939.0000     8.1935    92.0885     0.0334     2.4670     0.1017   -60.0260     8.0953     9.0708
  939.5000     8.1917    91.1243     0.0345     2.4649     0.1012   -60.1330     8.0048     8.9741
  940.0000     8.1899    93.2805     0.0345     2.4605     0.1098   -60.2400     7.9154     8.8781
  940.5000     8.1881    96.8987     0.0303     2.4556     0.1128   -60.3477     7.8671     8.7883
  941.0000     8.1863   100.6404     0.0246     2.4375     0.1292   -60.4537     7.8671     8.5496
  941.5000     8.1845   108.7480     0.0267     2.4189     0.1384   -60.5460     7.8671     8.3290
  942.0000     8.1827   114.7760     0.0353     2.4048     0.1367   -61.0134     7.8671     8.1201
  942.5000     8.1810   114.7891     0.0428     2.4067     0.1197   -61.5279     7.5373     7.9361
  943.0000     8.1792   105.4010     0.0309     2.4402     0.1046   -62.0507     7.2297     7.7113
  943.5000     8.1773    98.2093     0.0183     2.4570     0.0962   -62.5741     6.5938     7.4695
  944.0000     8.1715    93.2170     0.0189     2.4799     0.0952   -63.2199     5.9433     7.0826
  944.5000     8.1602    87.1636     0.0194     2.4797     0.0963   -63.9386     5.3570     6.6223
  945.0000     8.1489    86.3841     0.0199     2.4769     0.0944   -64.6618     5.0143     6.1919
  945.5000     8.1375    90.9965     0.0204     2.4783     0.0936   -64.9631     4.7342     5.7996
  946.0000     8.1262    94.4116     0.0209     2.4806     0.0936   -64.4388     4.7944     5.5894
  946.5000     8.1164    93.5304     0.0213     2.4819     0.0925   -63.5267     4.8566     5.6982
  947.0000     8.1207    91.7743     0.0218     2.4841     0.0904   -62.6090     4.9209     5.9080
  947.5000     8.1248    90.3733     0.0223     2.4865     0.0908   -62.5683     4.9858     6.5519
  948.0000     8.1289    90.5452     0.0244     2.4831     0.0917   -62.5724     5.3612     7.3079
  948.5000     8.1330    90.6885     0.0284     2.4876     0.0864   -62.5373     5.8879     8.0087
  949.0000     8.1364    90.6074     0.0322     2.4961     0.0828   -62.4033     6.4668     8.4624
  949.5000     8.1363    89.4206     0.0330     2.5022     0.0820   -62.2742     7.1033     8.8351
  950.0000     8.1327    88.5893     0.0292     2.4981     0.0844   -62.1452     7.6276     8.9838
  950.5000     8.1175    91.8777     0.0254     2.4923     0.0879   -62.0151     7.7743     9.1350
  951.0000     8.1027    93.5643     0.0227     2.4862     0.0915   -61.8166     7.9230     9.2887
  951.5000     8.0881    93.0845     0.0265     2.4841     0.0905   -61.5852     8.0140     9.4451
  952.0000     8.0790    91.5250     0.0308     2.4896     0.0870   -61.3939     8.0980     9.6040
  952.5000     8.0990    90.0466     0.0325     2.4915     0.0848   -61.7694     8.1830     9.7657
  953.0000     8.1185    90.1603     0.0325     2.4924     0.0861   -61.8997     8.2688     9.9300
  953.5000     8.1381    90.3413     0.0325     2.4973     0.0922   -61.7419     8.4105    10.0971
  954.0000     8.1561    90.9776     0.0325     2.4816     0.0904   -61.5844     8.6206    10.2402
  954.5000     8.1585    91.7901     0.0325     2.4871     0.0922   -61.4267     8.8360    10.3528
  955.0000     8.1604    86.6725     0.0329     2.4815     0.0958   -61.2706     9.0076    10.4666
  955.5000     8.1623    86.1905     0.0335     2.4756     0.0943   -61.3512     9.1720    10.5816
  956.0000     8.1643    87.0603     0.0342     2.4811     0.0949   -61.7479     9.3394    10.6980
  956.5000     8.1663    86.6044     0.0348     2.4800     0.0951   -62.1390     9.5100    10.8155
  957.0000     8.1682    86.1573     0.0355     2.4771     0.0935   -62.3712     9.6839    10.9344
  957.5000     8.1702    86.0760     0.0361     2.4804     0.0940   -62.3813     9.8612    11.0546
  958.0000     8.1721    88.6275     0.0362     2.4794     0.0963   -61.8824    10.0124    11.1756
  958.5000     8.1741    89.4641     0.0354     2.4713     0.0994   -61.4394    10.0520    11.2035
  959.0000     8.1760    84.8810     0.0347     2.4650     0.1024   -61.7532    10.0917    11.2313
  959.5000     8.1781    81.4381     0.0398     2.4598     0.1036   -62.0587    10.1318    11.2592
  960.0000     8.1800    81.7110     0.0511     2.4621     0.0975   -62.3617    10.1723    11.2872
  960.5000     8.1820    86.3079     0.0593     2.4726     0.0938   -62.0026    10.1895    11.3153
  961.0000     8.1839    87.1677     0.0658     2.4812     0.0917   -61.3821    10.1895    11.3434
  961.5000     8.1859    86.0782     0.0727     2.4853     0.0897   -61.1342    10.1895    11.3716
  962.0000     8.1879    85.4742     0.0808     2.4906     0.0920   -62.1251    10.1895    11.3840
  962.5000     8.1898    85.9722     0.0892     2.4846     0.0898   -62.9358    10.1895    11.3840
  963.0000     8.1918    85.8414     0.0898     2.4923     0.0864   -62.4096    10.1895    11.3841
  963.5000     8.1938    86.6143     0.0886     2.4884     0.0912   -62.7235    10.1895    11.3840
  964.0000     8.1954    87.7436     0.0946     2.4840     0.0944   -63.4245    10.1895    11.3840
  964.5000     8.2220    87.0682     0.1018     2.4824     0.0944   -63.8820    10.1895    11.3840
  965.0000     8.2594    87.9319     0.1090     2.4815     0.0894   -64.3456    10.1895    11.3840
  965.5000     8.2973    90.8414     0.1162     2.4869     0.0844   -64.5016    10.1895    11.3839
  966.0000     8.3356    90.6939     0.1074     2.4922     0.0893   -64.5704    10.1895    11.3839
