~VERSION INFORMATION
 VERS.                2.0:   CWLS LOG ASCII STANDARD - VERSION 2.0
 WRAP.                 NO:   ONE LINE PER DEPTH STEP
~WELL INFORMATION
#MNEM.UNIT      DATA TYPE    INFORMATION
#----------   ------------   ------------------------------
 STRT.F           98.5000:   START DEPTH
 STOP.F          716.5000:   STOP DEPTH
 STEP.F            0.5000:   STEP LENGTH
 NULL.          -999.2500:   NO VALUE
 COMP. U S NAVY-INTEX OIL:   COMPANY
 WELL. RES 3 TEAPOT DOM #32S-11:   WELL
 FLD .             TEAPOT:   FIELD
 LOC .      S11 T38N R78W:   LOCATION
 CNTY.            NATRONA:   COUNTY
 STAT.            WYOMING:   STATE
 CTRY. UNITED STATES OF AMERICA:   COUNTRY
 SRVC.       Schlumberger:   SERVICE COMPANY
 DATE.        13-JUL-1962:   LOGDATE
 API .       490250636500:   API NUMBER
~CURVE INFORMATION
#MNEM.UNIT       API CODE    CURVE DESCRIPTION
#----------   ------------   ------------------------------
 DEPT.F                  :   
 SPR .MV     05 010 01 00:   SPONTANEOUS POTENTIAL FROM RES.
 CILD.MMHO   05 110 46 00:   CONDUCTIVITY INDUCTION LOG DEEP
 ASN .OHMM   05 040 16 00:   AMPLIFIED SHORT NORMAL 16"
 ILD .OHMM   05 120 46 00:   INDUCTION LOG DEEP
 GR  .GAPI   30 310 01 00:   GAMMA RAY
~PARAMETER INFORMATION
#MNEM.UNIT          VALUE    DESCRIPTION
#----------   ------------   ------------------------------
 PD  .                 GL:   PERMANENT DATUM
 EPD .F              5161:   ELEVATION PERMANENT DATUM
 LMF .                 KB:   LOG MEASURED FROM
 DAPD.F                 5:   FEET ABOVE PERMANENT DATUM
 DMF .                 KB:   DRILLING MEASURED FROM
 EKB .F              5166:   KELLING BUSHING
 EGL .F              5161:   GROUND LEVEL
 DATE.            7-13-62:   RUN DATE
 RUN .                  1:   RUN NUMBER
 DD  .F               716:   DEPTH DRILLER
 DL  .F               717:   DEPTH LOGGER
 BLI .F               716:   BOTTOM LOG INTERVAL
 TLI .F               100:   TOP LOG INTERVAL
 CBD .F                10:   CASING BOTTOM DRILLER
 BS  .IN             6.75:   BIT SIZE
 BSD .F               716:   BIT SIZE AT DEPTH
 DFT .           OIL EMUL:   DRILLING FLUID TYPE
 DFD .               10.2:   DRILLING FLUID DENSITY
 DFV .                 43:   DRILLING FLUID VISCOSITY
 RMS .OHMM              5:   RESISTIVITY MUD SAMPLE
 MST .F                70:   MUD SAMPLE TEMPERATURE
 RMF .OHMM            5.5:   RESISTIVITY MUD FILTRATE SAMPLE
 MFST.F                70:   MUD FILTRATE SAMPLE TEMPERATURE
 RMC .OHMM              6:   RESISTIVITY MUD CAKE
 MCST.F                70:   MUD CAKE SAMPLE TEMPERATURE
 TCS .HRS              .5:   TIME CURCULATED STOPPED
 LUN .               2503:   LOGGING UNIT NUMBER
 LUL .               CSPR:   LOGGING UNIT LOCATION
 ENGI.           ELLERMAN:   RECORDING ENGINEER
 WITN.          JORGENSON:   WITNESSED BY
 CLNT.            A2DTECH:   CLIENT CODE
 ORIG.       2", 5" PRINT:   ORIGIN OF DATA
 UWI .       490250636500:   UNIQUE WELL ID
 DICO. A2D Technologies, Inc.:   DIGITIZING COMPANY
~OTHER INFORMATION
~A   DEPT      SPR       CILD        ASN        ILD         GR   
# ...
  525.5000   -45.0828   198.0847     5.8837     5.3152   114.2378
  526.0000   -44.0789   196.9476     5.6905     5.2005   108.6777
  526.5000   -43.1098   194.8669     5.7373     5.2868    99.7119
  527.0000   -42.6675   194.0524     5.9255     5.4238   101.4670
  527.5000   -42.8104   195.8333     5.9499     5.5618    91.2525
  528.0000   -42.9474   193.4047     5.9283     5.6993    90.6063
  528.5000   -43.0453   187.5529     6.1144     5.8369   102.1373
  529.0000   -42.9942   179.2137     6.3374     5.9733   116.1930
  529.5000   -42.8448   169.9664     6.5581     6.0946   112.1026
  530.0000   -42.6948   160.7191     6.6518     6.2831   105.1745
  530.5000   -42.6269   153.3065     6.7401     6.4831   103.5527
  531.0000   -42.5531   151.7137     6.8087     6.5905   112.0535
  531.5000   -42.4839   152.7218     6.8202     6.5905   106.8573
  532.0000   -42.5254   156.7036     6.8331     6.5546    99.4734
  532.5000   -43.1647   167.1539     6.8424     6.2939   102.7105
  533.0000   -43.8023   179.5800     6.7594     6.0300   116.7048
  533.5000   -44.4413   192.0060     6.5683     5.6643   124.7967
  534.0000   -44.9069   202.1169     6.2498     5.3598   133.0003
  534.5000   -45.2886   205.1411     5.8160     5.0928   126.8093
  535.0000   -45.4152   206.4894     5.7298     5.1084   113.9522
  535.5000   -44.7519   207.1573     5.8205     5.1689   112.3641
  536.0000   -43.8237   207.1573     5.6502     5.1744    92.5139
  536.5000   -42.8984   203.8609     5.6041     5.4254    89.7007
  537.0000   -42.0295   191.2061     6.1194     5.7316    91.0212
  537.5000   -41.6641   175.9073     6.5435     6.0746    75.1002
  538.0000   -41.6878   160.6084     6.9215     6.4645    81.5922
  538.5000   -42.1552   148.0370     7.2994     6.8508    90.3809
  539.0000   -42.8230   140.4710     7.5293     7.1606    95.0154
  539.5000   -43.7513   133.6190     7.7542     7.3325    98.0712
  540.0000   -44.4628   129.5363     7.9115     7.4913    93.7738
  540.5000   -44.2099   128.8024     8.0396     7.5474   102.6523
  541.0000   -43.7645   128.1089     8.1375     7.6066   101.4550
  541.5000   -43.5969   127.4153     8.2358     7.6666   104.1779
  542.0000   -44.0618   126.7218     8.2759     7.7266   109.5548
  542.5000   -44.5164   126.0282     8.3020     7.7870    98.3661
  543.0000   -44.8564   125.3347     8.3271     7.8047   107.7761
  543.5000   -44.5882   124.6411     8.3774     7.8141   106.4096
  544.0000   -44.3153   123.9476     8.4268     7.8235   111.6571
  544.5000   -44.3858   123.6633     8.4758     7.8329   108.1850
  545.0000   -44.6325   124.1835     8.4689     7.8423   119.8802
  545.5000   -44.8813   124.7036     8.4557     7.8518   106.9037
  546.0000   -45.1269   125.2238     8.3805     7.8612    92.0348
  546.5000   -45.1675   125.2641     8.3033     7.8706    97.4863
  547.0000   -44.9583   124.7439     8.2275     7.8795   100.9741
  547.5000   -44.4772   123.1351     8.1741     7.8889    89.9449
  548.0000   -43.7581   120.5343     8.2016     7.9387    87.4628
  548.5000   -43.2374   117.9335     8.3722     8.2035    89.6742
  549.0000   -43.2281   116.8710     8.5400     8.3876    97.6029
  549.5000   -43.7114   119.4052     8.7086     7.8931   112.7799
  550.0000   -44.1403   126.8408     8.7621     7.3955   122.4514
  550.5000   -44.8144   141.8425     8.6736     6.9008   109.8926
  551.0000   -45.4804   161.2298     8.5255     6.3849   110.5223
  551.5000   -45.4744   182.1169     7.7281     5.7854   110.8579
  552.0000   -44.4882   198.0847     6.8954     5.6525   103.9168
  552.5000   -43.0218   198.0847     6.2486     5.6150    98.4515
  553.0000   -42.4331   196.7866     6.2118     5.5829    91.7728
  553.5000   -41.8544   195.5816     6.4423     5.5398    77.5961
  554.0000   -42.0192   193.2823     6.3368     5.4786    78.8120
  554.5000   -43.2376   183.6492     6.6034     5.7630    79.7783
  555.0000   -44.1229   166.2764     7.8056     6.4933    75.1438
  555.5000   -44.4963   144.5859     8.9988     7.2251    78.3254
  556.0000   -44.7801   121.4718     9.4639     8.1679    79.4449
  556.5000   -45.0627   102.9759     9.8430     9.0798    82.8327
  557.0000   -45.3495    97.9084    10.0758     9.8239    89.9651
  557.5000   -45.3587    95.1627    10.1920     9.6616    79.5530
  558.0000   -45.1880    97.4698    10.2634     9.5112    81.4632
  558.5000   -45.0135   100.3024    10.3335     9.4045    84.7996
  559.0000   -44.8432   100.3024    10.4030     9.4058    78.4997
  559.5000   -44.7487   100.3024    10.4323     9.4024    66.5364
  560.0000   -44.6482    97.0308    10.5646     9.4240    58.5252
  560.5000   -44.5460    93.7078    10.9800     9.9778    53.5125
  561.0000   -44.4980    87.2513    11.8490    10.5531    48.0402
  561.5000   -45.1862    80.4701    12.8164    11.1417    49.1740
  562.0000   -45.9850    74.9735    14.3283    11.9821    28.1330
  562.5000   -46.9655    69.4769    15.8399    12.8159    12.9281
  563.0000   -48.9181    63.9803    17.3514    13.6636    17.6907
  563.5000   -50.4490    58.6089    17.9319    15.0163    23.4681
  564.0000   -51.2907    53.3871    18.5439    16.3641    21.4647
  564.5000   -52.1301    48.1653    20.8447    17.7084    31.1696
  565.0000   -52.9107    44.9093    23.1620    19.0571    24.5632
  565.5000   -53.5106    42.2984    24.0490    20.3465    29.1942
  566.0000   -54.1470    38.5796    24.5677    20.5817    16.7477
  566.5000   -55.6149    37.6301    25.5478    20.7807     9.5793
  567.0000   -57.3961    36.6807    26.2428    21.3438    12.4533
  567.5000   -60.2455    35.7313    26.8063    21.9625    14.5706
  568.0000   -61.7211    34.7819    27.3681    22.5814     9.5056
  568.5000   -62.1015    33.8311    28.0422    23.1065    13.0979
  569.0000   -62.2926    32.8783    28.1782    23.6274    19.2086
  569.5000   -62.4201    32.7565    28.1742    23.9469    23.8867
  570.0000   -61.6813    32.7584    28.1719    23.9866    21.3766
  570.5000   -60.8118    34.1676    27.4877    22.8808    25.1359
  571.0000   -60.1037    36.2019    25.7234    21.7689    30.9228
  571.5000   -59.5304    38.6120    23.9673    20.6495    36.5816
  572.0000   -58.9891    40.8383    23.0341    19.8011    32.6281
  572.5000   -58.9001    42.2964    23.7328    18.9952    36.0192
  573.0000   -58.8225    43.6629    24.7245    18.4779    32.1246
  573.5000   -57.6982    45.0237    24.7412    18.0835    39.0655
  574.0000   -56.7543    46.3859    23.9721    17.7650    31.5605
  574.5000   -56.0427    47.2469    23.3327    17.6276    28.0138
  575.0000   -55.7046    47.8315    22.7603    17.4900    23.2155
  575.5000   -56.6945    47.0024    22.6432    17.4980    27.9116
  576.0000   -57.6629    46.0200    22.6813    17.7966    22.6054
  576.5000   -57.8026    45.0565    22.7252    18.2008    17.3632
  577.0000   -57.1738    42.5843    22.9864    19.3438    13.0365
  577.5000   -57.3578    39.7909    24.7701    20.5332    13.7471
  578.0000   -57.7264    36.7943    26.7986    21.7035    19.8966
  578.5000   -57.0107    36.4105    27.9630    22.4786    36.0499
  579.0000   -56.1148    35.9927    26.7885    22.5395    31.9734
  579.5000   -58.5265    35.5750    25.9291    22.4051    27.1770
  580.0000   -61.0528    35.1573    27.1978    22.4815    27.5994
  580.5000   -63.5768    34.7782    28.4808    22.9730    24.0844
  581.0000   -63.8094    35.2969    26.9784    23.2855    34.0817
  581.5000   -63.0668    35.7863    25.5003    22.5295    27.1488
  582.0000   -60.5740    38.8226    23.7740    21.5526    26.2570
  582.5000   -57.8895    41.8347    22.7393    20.4680    35.2192
  583.0000   -58.1218    43.4165    22.7285    19.4606    25.9967
  583.5000   -57.8205    44.9395    22.7281    19.0580    21.4953
  584.0000   -57.1205    46.4625    22.0350    18.6677    19.7861
  584.5000   -57.5478    47.9855    21.2805    18.1290    29.4341
  585.0000   -58.0285    49.5086    20.1594    17.5667    40.4737
  585.5000   -58.4352    51.0316    19.5994    17.0578    51.1648
  586.0000   -58.5237    52.5546    19.3178    16.6148    43.3040
