~VERSION INFORMATION
 VERS.                2.0:   CWLS LOG ASCII STANDARD - VERSION 2.0
 WRAP.                 NO:   ONE LINE PER DEPTH STEP
~WELL INFORMATION
#MNEM.UNIT      DATA TYPE    INFORMATION
#----------   ------------   ------------------------------
 STRT.F           24.5000:   START DEPTH
 STOP.F          576.0000:   STOP DEPTH
 STEP.F            0.5000:   STEP LENGTH
 NULL.          -999.2500:   NO VALUE
 COMP. FENIX & SCISSON INC:   COMPANY
 WELL.    NPR-3 SX #61-15:   WELL
 FLD .             TEAPOT:   FIELD
 LOC .      S15 T38N R78W:   LOCATION
 CNTY.            NATRONA:   COUNTY
 STAT.            WYOMING:   STATE
 CTRY. UNITED STATES OF AMERICA:   COUNTRY
 SRVC.            Unknown:   SERVICE COMPANY
 DATE.        29-MAY-1978:   LOGDATE
 API .       490251062300:   API NUMBER
~CURVE INFORMATION
#MNEM.UNIT       API CODE    CURVE DESCRIPTION
#----------   ------------   ------------------------------
 DEPT.F                  :   
 GRD .GAPI   45 310 01 00:   GAMMA RAY FROM DENSITY LOG
 CALD.IN     45 280 60 00:   CALIPER FROM DENSITY LOG
 SN  .OHMM   05 040 16 00:   SHORT NORMAL 16'
 SPR .MV     05 010 01 00:   SPONTANEOUS POTENTIAL
 ILD .OHMM   05 120 46 00:   INDUCTION LOG DEEP
 RHOB.G/C3   45 350 01 00:   BULK DENSITY
 DPHI.DEC    45 890 12 00:   DENSITY POROSITY SANDSTONE
 CORR.G/C3   45 356 01 00:   DENSITY CORRECTION
~PARAMETER INFORMATION
#MNEM.UNIT          VALUE    DESCRIPTION
#----------   ------------   ------------------------------
 PD  .                 GL:   PERMANENT DATUM
 EPD .F              5221:   ELEVATION PERMANENT DATUM
 LMF .                 KB:   LOG MEASURED FROM
 DAPD.F                 4:   FEET ABOVE PERMANENT DATUM
 DMF .                 KB:   DRILLING MEASURED FROM
 EKB .F              5225:   KELLING BUSHING
 EGL .F              5221:   GROUND LEVEL
 DATE.          5-29-1978:   RUN DATE
 RUN .                  1:   RUN NUMBER
 DD  .F               565:   DEPTH DRILLER
 DL  .F               578:   DEPTH LOGGER
 BLI .F               570:   BOTTOM LOG INTERVAL
 TLI .F                40:   TOP LOG INTERVAL
 CS  .IN            8.625:   CASING SIZE
 CBD .F                40:   CASING BOTTOM DRILLER
 CBL .F                40:   CASING BOTTOM LOGGER
 BS  .IN            7.875:   BIT SIZE
 BSD .F               565:   BIT SIZE AT DEPTH
 DFT .                KCL:   DRILLING FLUID TYPE
 DFD .                8.7:   DRILLING FLUID DENSITY
 DFV .                 34:   DRILLING FLUID VISCOSITY
 DFPH.                9.5:   DRILLING FLUID PH
 DFL .               10.4:   DRILLING FLUID LOSS
 BHT .F                76:   BOTTOM HOLE TEMPERATURE
 TCS .HRS               3:   TIME CURCULATED STOPPED
 MRT .F                76:   MAXIMUM RECORDED TEMPERATURE
 LUN .               2958:   LOGGING UNIT NUMBER
 LUL .              CASP.:   LOGGING UNIT LOCATION
 ENGI.             MILLER:   RECORDING ENGINEER
 WITN.           MCGINLEY:   WITNESSED BY
 CLNT.            A2DTECH:   CLIENT CODE
 ORIG.      2" , 5" PRINT:   ORIGIN OF DATA
 UWI .       490251062300:   UNIQUE WELL ID
 DICO. A2D Technologies, Inc.:   DIGITIZING COMPANY
~OTHER INFORMATION
~A   DEPT       GRD      CALD         SN        SPR        ILD       RHOB       DPHI       CORR   
# ...
  348.5000   106.8844     7.5428     7.7731   -40.9607     6.1594     2.4874     0.1164     0.0715
  349.0000   103.0761     7.4764     7.6925   -40.9586     6.0471     2.4743     0.1210     0.0541
  349.5000    99.6235     7.4107     7.6815   -40.9565     6.0471     2.4641     0.1240     0.0542
  350.0000    98.3248     7.3449     7.6815   -40.9544     6.0776     2.4630     0.1234     0.0565
  350.5000    97.2909     7.2771     7.6666   -40.9522     6.1826     2.4633     0.1227     0.0589
  351.0000    96.7610     7.2642     7.6379   -40.9501     6.2891     2.4637     0.1205     0.0606
  351.5000    96.2321     7.2356     7.6093   -40.9480     6.3989     2.4638     0.1156     0.0593
  352.0000    94.3715     7.3140     7.5807   -40.9458     6.5058     2.4664     0.1154     0.0579
  352.5000    92.1097     7.4093     7.5525   -40.9437     6.5692     2.4689     0.1183     0.0566
  353.0000    89.8404     7.5056     7.5397   -40.9416     6.3667     2.4700     0.1211     0.0566
  353.5000    87.5813     7.6016     7.5464   -40.9400     6.1264     2.4658     0.1248     0.0577
  354.0000    86.2748     7.6849     7.3898   -40.9371     5.8952     2.4590     0.1298     0.0723
  354.5000    87.2744     7.7652     7.0919   -40.9338     5.6727     2.4521     0.1325     0.0890
  355.0000    88.4120     7.8455     6.8061   -40.5621     5.5665     2.4465     0.1332     0.1057
  355.5000    89.4228     7.9259     6.5310   -40.2614     5.5156     2.4451     0.1328     0.1216
  356.0000    93.5644     8.0060     6.2692   -39.9726     5.5156     2.4428     0.1280     0.1586
  356.5000    98.1650     8.0802     6.1570   -39.5900     5.4650     2.5254     0.1184     0.1974
  357.0000    99.2513     8.1269     6.1594   -38.7949     5.5156     2.5401     0.1080     0.2377
  357.5000    99.5217     8.1811     6.3144   -38.0006     5.6180     2.5421     0.0959     0.2458
  358.0000   101.3603     8.2350     6.5741   -37.7516     5.8877     2.5336     0.0904     0.2448
  358.5000   103.1994     8.2372     6.8444   -37.7476     6.1619     2.5252     0.0824     0.2448
  359.0000   104.1064     8.2200     7.1259   -37.7485     6.4492     2.5187     0.0708     0.2464
  359.5000   104.6095     8.1735     7.4111   -37.7490     6.7499     2.5247     0.0729     0.2486
  360.0000   104.7513     8.1259     7.6576   -37.7490     7.0643     2.5319     0.0797     0.2405
  360.5000   102.2796     8.0683     7.9122   -37.7490     7.3935     2.5360     0.0864     0.2082
  361.0000    99.7248     7.9805     8.1752   -37.7490     7.4994     2.5285     0.0932     0.1765
  361.5000    97.1956     7.8505     8.4471   -37.7490     7.5469     2.5140     0.0999     0.1448
  362.0000    96.7453     7.7212     8.5782   -37.7490     7.5947     2.4994     0.1050     0.1131
  362.5000    96.6118     7.5918     8.6575   -37.7490     7.6428     2.4888     0.1089     0.0846
  363.0000    96.4752     7.4614     8.6923   -37.7490     7.6912     2.4834     0.1128     0.0704
  363.5000    96.3422     7.3458     8.7333   -37.7490     7.7400     2.4783     0.1167     0.0550
  364.0000    94.3078     7.3101     8.7744   -37.7490     7.7890     2.4732     0.1180     0.0444
  364.5000    90.9339     7.2786     8.8158   -37.7490     7.8384     2.4701     0.1106     0.0446
  365.0000    89.6052     7.2466     8.8573   -37.7490     7.8880     2.4720     0.0968     0.0478
  365.5000    90.5616     7.2221     8.8991   -37.7490     7.9380     2.4829     0.0948     0.0563
  366.0000    91.4741     7.2472     8.9414   -37.7490     7.9882     2.4942     0.0954     0.0545
  366.5000    92.3688     7.4444     8.9819   -37.7490     8.0387     2.5050     0.0960     0.0531
  367.0000    92.5032     7.6124     8.9392   -37.7490     8.0906     2.5059     0.0955     0.0523
  367.5000    91.5832     7.6556     8.8969   -37.7490     8.1632     2.5032     0.0952     0.0590
  368.0000    91.3425     7.7007     8.8553   -37.7490     8.3478     2.5004     0.0949     0.0684
  368.5000    91.3984     7.7439     8.8173   -37.7490     8.5345     2.4990     0.0947     0.0778
  369.0000    91.4637     7.8665     8.8173   -37.7490     8.7375     2.4990     0.0944     0.0885
  369.5000    91.1425     8.0210     9.0454   -37.7490     8.7375     2.4992     0.0957     0.1102
  370.0000    90.4693     8.1088     9.2205   -37.7490     8.7375     2.4993     0.0976     0.1340
  370.5000    89.9303     8.1793     9.3995   -37.7490     8.8998     2.4995     0.0992     0.1579
  371.0000    90.2638     8.2387     9.5807   -37.7490     8.9493     2.4996     0.0992     0.1817
  371.5000    90.5906     8.2370     9.8478   -37.7490     8.9989     2.4998     0.0984     0.2055
  372.0000    90.8549     8.2545     9.6644   -37.7490     9.0488     2.4999     0.0927     0.2294
  372.5000    89.7949     8.2181     9.3174   -37.7492     9.0651     2.5000     0.0814     0.2532
  373.0000    88.6806     8.1701     8.9828   -37.7492     8.1370     2.5077     0.0772     0.2732
  373.5000    88.2710     8.1215     8.6603   -37.7478     7.4804     2.5236     0.0769     0.2770
  374.0000    88.0162     8.0743     8.3493   -37.6758     6.8768     2.5340     0.0784     0.2632
  374.5000    86.9178     7.9764     8.0431   -37.5115     6.5090     2.5311     0.0918     0.2272
  375.0000    85.2025     7.8584     7.8965   -37.3059     6.5090     2.5199     0.1093     0.1951
  375.5000    82.3840     7.7390     7.8965   -36.3636     6.5276     2.4997     0.1172     0.1609
  376.0000    80.3388     7.6194     7.8965   -35.1083     6.5409     2.4800     0.1161     0.1189
  376.5000    83.2720     7.5001     8.0431   -33.1721     6.5543     2.4723     0.1095     0.0698
  377.0000    86.0066     7.3945     8.4859   -31.7772     6.5677     2.4858     0.1036     0.0574
  377.5000    86.0500     7.3810     9.0066   -31.3132     7.3021     2.4968     0.0987     0.0446
  378.0000    83.3544     7.3896     9.5593   -30.8355     8.2230     2.5010     0.0941     0.0479
  378.5000    80.5093     7.3971    10.0307   -30.5405     9.2597     2.5043     0.0920     0.0521
  379.0000    77.8067     7.4267    10.2170   -30.4633    10.3151     2.5061     0.0920     0.0526
  379.5000    77.7112     7.4686    10.3745   -30.3849    10.2146     2.5060     0.0934     0.0525
  380.0000    77.9957     7.5108    10.5384   -30.3070    10.2271     2.5057     0.0952     0.0525
  380.5000    78.7283     7.5532    10.7049   -30.2265    10.2603     2.5042     0.0943     0.0531
  381.0000    80.5863     7.5951    10.8741   -30.0229    10.2845     2.5027     0.0929     0.0571
  381.5000    83.1569     7.5999    11.0465   -29.6005    10.3158     2.5019     0.0905     0.0636
  382.0000    85.7100     7.5934    11.2152   -29.1841    10.2963     2.5068     0.0860     0.0737
  382.5000    87.8365     7.5427    11.5155   -28.7598    10.9780     2.5110     0.1086     0.0776
  383.0000    86.7797     7.4987    11.5142   -28.0179    11.7125     2.5037     0.1168     0.0682
  383.5000    86.2747     7.5112    12.2300   -27.2894    12.5911     2.4869     0.1258     0.0603
  384.0000    86.7683     7.5858    12.7786   -26.4294    13.5401     2.4689     0.1356     0.0632
  384.5000    87.2738     7.6002    13.3519   -25.2880    14.5606     2.4509     0.1454     0.0792
  385.0000    86.2275     7.6144    13.9508   -24.1485    16.1128     2.4329     0.1551     0.0920
  385.5000    77.4614     7.6520    14.5767   -23.0086    18.5188     2.4149     0.1604     0.0991
  386.0000    66.5631     7.7018    15.1757   -21.8739    21.2841     2.3979     0.1629     0.1136
  386.5000    55.7350     7.7523    15.6797   -20.9886    24.4623     2.3968     0.1593     0.1463
  387.0000    50.5919     7.8036    15.9474   -20.9717    28.1151     2.3971     0.1589     0.1783
  387.5000    46.0217     7.8283    16.2196   -20.9391    30.2587     2.3976     0.1598     0.2083
  388.0000    44.3701     7.8478    16.4965   -20.9056    29.8822     2.3959     0.1652     0.2235
  388.5000    43.6204     7.9272    16.7781   -20.8720    29.4914     2.3894     0.1705     0.2376
