~VERSION INFORMATION
 VERS.                2.0:   CWLS LOG ASCII STANDARD - VERSION 2.0
 WRAP.                 NO:   ONE LINE PER DEPTH STEP
~WELL INFORMATION
#MNEM.UNIT      DATA TYPE    INFORMATION
#----------   ------------   ------------------------------
 STRT.F           34.0000:   START DEPTH
 STOP.F          517.0000:   STOP DEPTH
 STEP.F            0.5000:   STEP LENGTH
 NULL.          -999.2500:   NO VALUE
 COMP.    FENIX & SCISSON:   COMPANY
 WELL.       NPR #77-S-10:   WELL
 FLD .             TEAPOT:   FIELD
 LOC .      S10 T38N R78W:   LOCATION
 CNTY.            NATRONA:   COUNTY
 STAT.            WYOMING:   STATE
 CTRY. UNITED STATES OF AMERICA:   COUNTRY
 SRVC.              Welex:   SERVICE COMPANY
 DATE.        16-APR-1977:   LOGDATE
 API .       490251033600:   API NUMBER
~CURVE INFORMATION
#MNEM.UNIT       API CODE    CURVE DESCRIPTION
#----------   ------------   ------------------------------
 DEPT.F                  :   
 SPR .MV     07 010 01 00:   SPONTANEOUS POTENTIAL
 ILD .OHMM   07 120 46 00:   INDUCTION LOG DEEP
 ILM .OHMM   07 120 44 00:   INDUCTION LOG MEDIUM
 SGRD.OHMM   07 221 05 00:   SHALLOW SHORT GUARD RESISTIVITY
 CALD.IN     45 280 60 00:   CALIPER FROM DENSITY LOG
 GRD .GAPI   45 310 01 00:   GAMMA RAY FROM DENSITY LOG
 CORR.G/C3   45 356 01 00:   DENSITY CORRECTION
 RHOB.G/C3   45 350 01 00:   BULK DENSITY
 DPHI.DEC    45 890 12 00:   DENSITY POROSITY SANDSTONE
~PARAMETER INFORMATION
#MNEM.UNIT          VALUE    DESCRIPTION
#----------   ------------   ------------------------------
 PD  .                 GL:   PERMANENT DATUM
 EPD .F              5210:   ELEVATION PERMANENT DATUM
 LMF .                 GL:   LOG MEASURED FROM
 DMF .                 GL:   DRILLING MEASURED FROM
 EGL .F              5210:   GROUND LEVEL
 DATE.        16-APR-1977:   RUN DATE
 RUN .                  1:   RUN NUMBER
 DD  .F               525:   DEPTH DRILLER
 DL  .F               519:   DEPTH LOGGER
 BLI .F               517:   BOTTOM LOG INTERVAL
 TLI .F                30:   TOP LOG INTERVAL
 CS  .IN            8.625:   CASING SIZE
 BS  .IN            7.875:   BIT SIZE
 BSD .F               525:   BIT SIZE AT DEPTH
 DFT .            KCL MUD:   DRILLING FLUID TYPE
 DFD .                8.9:   DRILLING FLUID DENSITY
 BHT .F                61:   BOTTOM HOLE TEMPERATURE
 TCS .HRS            0300:   TIME CURCULATED STOPPED
 MRT .F                61:   MAXIMUM RECORDED TEMPERATURE
 ENGI.               DOAK:   RECORDING ENGINEER
 WITN.      B. HARRINGTON:   WITNESSED BY
 CLNT.            A2DTECH:   CLIENT CODE
 ORIG.           5" PRINT:   ORIGIN OF DATA
 UWI .       490251033600:   UNIQUE WELL ID
 DICO. A2D Technologies, Inc.:   DIGITIZING COMPANY
~OTHER INFORMATION
~A   DEPT      SPR        ILD        ILM       SGRD       CALD        GRD       CORR       RHOB       DPHI   
# ...
  216.5000   -44.8435     7.1619     9.9800    11.4226     7.7612   108.8432     0.0330     2.4547     0.1126
  217.0000   -44.8273     7.1658     9.8499    11.4281     7.7761   109.2946     0.0330     2.4569     0.1105
  217.5000   -44.8110     7.2194     9.7872    11.2769     7.7761   109.5964     0.0345     2.4607     0.1085
  218.0000   -44.7947     7.2234     9.5932    11.2823     7.7612   111.0045     0.0344     2.4651     0.1072
  218.5000   -44.7785     7.2774     9.6014    11.5238     7.7612   111.2464     0.0344     2.4681     0.1051
  219.0000   -44.7622     7.3826     9.8771    11.5293     7.7761   109.1574     0.0343     2.4711     0.1036
  219.5000   -44.8988     7.4378    10.0196    11.3768     7.7761   107.0676     0.0343     2.4725     0.1042
  220.0000   -44.8785     7.4934     9.8227    11.3823     7.7910   104.8276     0.0327     2.4710     0.1060
  220.5000   -44.8623     7.6017     9.7601    11.7874     7.8209   105.2797     0.0327     2.4665     0.1087
  221.0000   -44.8460     7.7116     9.7685    12.2070     7.8209   106.1794     0.0326     2.4602     0.1141
  221.5000   -44.8297     8.0419     9.8430    12.4683     7.8060   107.0992     0.0311     2.4485     0.1177
  222.0000   -44.9650     8.2146     9.8498    12.4743     7.7910   108.4281     0.0311     2.4455     0.1192
  222.5000   -44.9460     8.3333     9.9248    10.7970     7.7761   109.4773     0.0310     2.4469     0.1180
  223.0000   -44.9298     8.3379     9.9317    12.4004     7.7761   110.5265     0.0310     2.4529     0.1117
  223.5000   -44.9135     8.2851     9.8684    12.2364     7.7910   111.4263     0.0309     2.4709     0.1021
  224.0000   -44.8972     8.2327     9.8769    12.0745     7.7910   112.0271     0.0309     2.4836     0.0976
  224.5000   -44.8810     8.1242     9.7482    12.1639     7.7910   111.2826     0.0308     2.4843     0.0976
  225.0000   -45.0176     8.0728     9.6195    11.7571     7.7910   110.9865     0.0308     2.4813     0.0985
  225.5000   -45.2949     7.9118     9.2371    11.2858     7.7910   110.8400     0.0322     2.4760     0.0998
  226.0000   -45.2786     7.7008     8.9298    10.8334     7.7910   110.8436     0.0307     2.4737     0.1015
  226.5000   -45.4152     7.4438     8.6925    11.1418     7.7910   110.6970     0.0291     2.4715     0.1051
  227.0000   -45.3949     7.2452     8.2881    11.2644     7.7910   110.1020     0.0276     2.4670     0.1090
  227.5000   -45.5315     6.9552     7.8481    10.5543     7.7910   109.5070     0.0275     2.4560     0.1165
  228.0000   -45.8088     6.7231     7.4315    10.1663     7.7910   109.0607     0.0260     2.4384     0.1240
  228.5000   -45.9420     6.4987     7.0858     9.4278     7.7910   109.6622     0.0245     2.4287     0.1284
  229.0000   -46.0744     6.1957     6.7561     9.3352     7.7910   112.5351     0.0229     2.4174     0.1344
  229.5000   -46.5041     5.4375     6.4418     9.1486     7.7910   115.0499     0.0229     2.4061     0.1413
  230.0000   -46.6369     4.9396     6.0162     8.0285     7.7910   114.4549     0.0228     2.3919     0.1464
  230.5000   -46.9180     4.3351     5.5416     7.6803     7.8060   112.8135     0.0229     2.3821     0.1533
  231.0000   -47.0506     3.9382     5.1399     7.2714     7.8060   109.9764     0.0242     2.3739     0.1614
  231.5000   -47.3338     3.6023     4.6374     6.5603     7.8060   108.0361     0.0272     2.3589     0.1713
  232.0000   -47.9226     3.1834     4.0983     5.9381     7.8060   105.3484     0.0271     2.3416     0.1818
  232.5000   -48.4995     2.9728     3.5232     5.4689     7.8209   104.4544     0.0271     2.3274     0.1931
  233.0000   -48.7847     2.7954     3.0709     4.5104     7.8209   102.7534     0.0241     2.3090     0.2012
  233.5000   -48.9038     2.6466     2.8287     3.7456     7.8358   101.1717     0.0165     2.2786     0.2153
  234.0000   -48.7381     2.5231     2.6785     3.0679     7.8358   103.4175     0.0089     2.2532     0.2393
  234.5000   -48.2495     2.5074     2.7364     3.5235     7.8358   102.9719     0.0043     2.2449     0.2393
  235.0000   -47.6604     2.5618     2.9749     4.2470     7.8358   103.1243    -0.0002     2.2464     0.2375
  235.5000   -47.1978     2.6534     3.1897     3.8313     7.8358   104.0241    -0.0032     2.2576     0.2213
  236.0000   -46.8839     2.9074     3.6143     7.7092     7.8209   105.3722    -0.0063     2.2990     0.1940
  236.5000   -46.7188     3.1814     4.1238     5.7831     7.8209   107.3683    -0.0078     2.3587     0.1784
  237.0000   -46.4049     3.4808     4.7376     6.9356     7.8060   110.6104     0.0027     2.3916     0.1485
  237.5000   -46.2398     3.7906     5.3683     9.5787     7.7910   112.7060     0.0086     2.4283     0.1284
  238.0000   -46.2236     4.3496     5.7958    10.4801     7.7761   113.3068     0.0146     2.4462     0.1149
  238.5000   -46.2073     4.8310     6.1717     9.7861     7.7761   114.5055     0.0191     2.4574     0.1097
  239.0000   -46.0423     5.2440     6.4371     9.3934     7.7761   116.0032     0.0205     2.4634     0.1074
  239.5000   -45.8772     5.4600     6.6219     9.2371     7.7761   117.2019     0.0205     2.4656     0.1092
  240.0000   -45.8609     5.5389     6.6724     8.1628     7.7910   116.0090     0.0204     2.4619     0.1131
  240.5000   -45.8447     5.5420     6.6311     8.7500     7.7761   114.0687     0.0189     2.4566     0.1167
  241.0000   -45.8284     5.4690     6.5444     8.8758     7.7761   116.0155     0.0173     2.4543     0.1182
  241.5000   -45.8121     5.4284     6.5041     9.0658     7.7761   117.5131     0.0173     2.4521     0.1197
  242.0000   -46.0976     5.3566     6.4193     9.9213     7.7761   119.3098     0.0157     2.4475     0.1215
  242.5000   -46.2301     5.2133     6.2488    10.2744     7.7612   121.2558     0.0157     2.4430     0.1229
  243.0000   -46.3627     5.0738     6.1672     8.0186     7.7761   122.9030     0.0156     2.4348     0.1251
  243.5000   -46.3423     4.9116     6.1290     5.5273     7.7612   123.9522     0.0156     2.4258     0.1313
  244.0000   -46.3261     4.8136     6.3487     5.8842     7.7612   124.1046     0.0155     2.4115     0.1382
  244.5000   -46.3098     4.7503     6.3094     8.2549     7.7612   123.6598     0.0155     2.4092     0.1409
  245.0000   -46.4464     4.7195     6.1418     7.8154     7.7612   122.7658     0.0155     2.4145     0.1391
  245.5000   -46.4248     4.6897     6.0616     6.5352     7.7612   120.6760     0.0154     2.4264     0.1313
  246.0000   -46.4098     4.7910     6.0659     7.8771     7.7612   115.2978     0.0139     2.4333     0.1259
  246.5000   -46.2448     4.8939     6.7324     9.3644     7.7612   111.2648     0.0138     2.4384     0.1240
  247.0000   -46.2285     4.9990     6.7837     8.6245     7.7612   110.0717     0.0138     2.4428     0.1223
  247.5000   -46.0634     5.2132     7.1739     8.1653     7.7612   111.7190     0.0152     2.4503     0.1202
  248.0000   -46.0472     5.4365     7.7453     9.4428     7.7612   114.3029     0.0152     2.4623     0.1166
  248.5000   -45.8821     5.6694     8.0229    10.4054     7.7612   116.2098     0.0151     2.4525     0.1118
  249.0000   -45.8659     5.9122     8.0284    10.4104     7.7761   116.9601     0.0166     2.4623     0.1047
  249.5000   -45.8496     6.2512     8.0896    10.5601     7.7910   117.1124     0.0181     2.4802     0.0999
  250.0000   -45.8333     6.7471     8.6743    11.0879     7.7951   117.1153     0.0195     2.4809     0.0978
  250.5000   -45.8170     6.8006     9.1732    11.4053     7.8211   117.3611     0.0221     2.4795     0.0989
  251.0000   -45.8006     6.8978     8.9913    11.4141     7.8510   118.7626     0.0254     2.4779     0.1002
  251.5000   -45.7842     6.9025     8.7523    11.1881     7.8661   120.2588     0.0252     2.4741     0.1015
  252.0000   -45.7679     6.9073     8.5197    10.8533     7.8514   119.8118     0.0238     2.4711     0.1044
  252.5000   -45.7483     6.9130     8.3506    10.6382     7.8515   118.9164     0.0237     2.4666     0.1077
