~VERSION INFORMATION
 VERS.                2.0:   CWLS LOG ASCII STANDARD - VERSION 2.0
 WRAP.                 NO:   ONE LINE PER DEPTH STEP
~WELL INFORMATION
#MNEM.UNIT      DATA TYPE    INFORMATION
#----------   ------------   ------------------------------
 STRT.F           26.0000:   START DEPTH
 STOP.F          520.0000:   STOP DEPTH
 STEP.F            0.5000:   STEP LENGTH
 NULL.          -999.2500:   NO VALUE
 COMP. LAWRENCE/ALLISON INC:   COMPANY
 WELL.   52-15 STX #52-10:   WELL
 FLD .             TEAPOT:   FIELD
 LOC .      S10 T38N R78W:   LOCATION
 CNTY.            NATRONA:   COUNTY
 STAT.            WYOMING:   STATE
 CTRY. UNITED STATES OF AMERICA:   COUNTRY
 SRVC.           Gearhart:   SERVICE COMPANY
 DATE.        23-JUL-1987:   LOGDATE
 API .       490251114600:   API NUMBER
~CURVE INFORMATION
#MNEM.UNIT       API CODE    CURVE DESCRIPTION
#----------   ------------   ------------------------------
 DEPT.F                  :   
 RLL .OHMM   07 220 00 00:   LATEROLOG RESISTIVITY
 RILD.OHMM   07 120 46 00:   INDUCTION LOG DEEP RESISTIVITY
 RILM.OHMM   07 120 44 00:   INDUCTION LOG MEDIUM RESISTIVITY
 GRR .GAPI   07 310 01 00:   GAMMA RAY FROM RES. LOG.
~PARAMETER INFORMATION
#MNEM.UNIT          VALUE    DESCRIPTION
#----------   ------------   ------------------------------
 PD  .                 GL:   PERMANENT DATUM
 EPD .F              5195:   ELEVATION PERMANENT DATUM
 LMF .                 KB:   LOG MEASURED FROM
 DAPD.F                 8:   FEET ABOVE PERMANENT DATUM
 DMF .                 KB:   DRILLING MEASURED FROM
 EKB .F              5203:   KELLING BUSHING
 EDF .F              5201:   DRILLING FLOOR
 EGL .F              5195:   GROUND LEVEL
 DATE.          7-23-1987:   RUN DATE
 RUN .                  1:   RUN NUMBER
 DD  .F               519:   DEPTH DRILLER
 DL  .F               520:   DEPTH LOGGER
 BLI .F               519:   BOTTOM LOG INTERVAL
 TLI .F                30:   TOP LOG INTERVAL
 CS  .IN            8.625:   CASING SIZE
 CBD .F                48:   CASING BOTTOM DRILLER
 CBL .F                48:   CASING BOTTOM LOGGER
 BS  .IN            7.875:   BIT SIZE
 BSD .F               519:   BIT SIZE AT DEPTH
 DFT .                MUD:   DRILLING FLUID TYPE
 DFD .                8.9:   DRILLING FLUID DENSITY
 DFV .                 40:   DRILLING FLUID VISCOSITY
 MSS .            MUD PIT:   MUD SAMPLE SOURCE
 RMS .OHMM            .37:   RESISTIVITY MUD SAMPLE
 MST .F                70:   MUD SAMPLE TEMPERATURE
 RMF .OHMM            .29:   RESISTIVITY MUD FILTRATE SAMPLE
 MFST.F                70:   MUD FILTRATE SAMPLE TEMPERATURE
 RMC .OHMM             .5:   RESISTIVITY MUD CAKE
 MCST.F                70:   MUD CAKE SAMPLE TEMPERATURE
 MFSS.              CHART:   MUD FILTRATE SAMPLE SOURCE
 MCSS.              CHART:   MUD CAKE SAMPLE SOURCE
 RMB .OHMM            .35:   RESISTIVITY MUD AT BHT
 BHT .F                80:   BOTTOM HOLE TEMPERATURE
 TCS .HRS            1100:   TIME CURCULATED STOPPED
 TLAB.HRS            1534:   TIME LOGGER AT BOTTOM
 MRT .F                80:   MAXIMUM RECORDED TEMPERATURE
 LUN .               7597:   LOGGING UNIT NUMBER
 LUL .           GILLETTE:   LOGGING UNIT LOCATION
 ENGI.         WEATHERMON:   RECORDING ENGINEER
 WITN.         MR. STRONG:   WITNESSED BY
 CLNT.            A2DTECH:   CLIENT CODE
 ORIG.       2", 5" PRINT:   ORIGIN OF DATA
 UWI .       490251114600:   UNIQUE WELL ID
 DICO. A2D Technologies, Inc.:   DIGITIZING COMPANY
~OTHER INFORMATION
~A   DEPT      RLL       RILD       RILM         GRR  
# ...
  172.0000     9.7197     8.6247     8.0366    99.4672
  172.5000     9.6729     8.5831     7.9833    99.3534
  173.0000     9.5544     8.5668     7.9303    98.6056
  173.5000     9.4195     8.5668     7.8772    98.3554
  174.0000     9.2878     8.4271     7.7312    99.1320
  174.5000     9.2260     8.2986     7.6127    99.8864
  175.0000     9.2260     8.1721     7.4985   100.1249
  175.5000     9.2260     8.0475     7.2927   100.0077
  176.0000     9.1180     7.7697     7.0366    99.8856
  176.5000     8.7326     7.3856     6.7894    99.8373
  177.0000     8.3634     7.0206     6.5509    99.9789
  177.5000     8.0098     6.6717     6.3208   100.1369
  178.0000     7.6127     6.1406     6.0222   101.1679
  178.5000     7.2023     5.5346     5.6490   103.4148
  179.0000     6.8139     4.9906     5.2970   105.6603
  179.5000     6.4465     4.5002     4.9590   106.9629
  180.0000     6.0989     4.0579     4.3691   106.2320
  180.5000     5.6742     3.6727     3.8389   105.1848
  181.0000     5.1691     3.3544     3.3730   105.0455
  181.5000     4.7091     3.0639     2.9637   104.7560
  182.0000     4.2899     2.8888     2.6424   102.6617
  182.5000     3.9081     2.8345     2.4416    99.5140
  183.0000     3.5602     2.7824     2.4072    95.7195
  183.5000     3.5197     2.7661     2.4841    93.2543
  184.0000     3.8192     2.8891     2.5931    91.3823
  184.5000     4.0548     2.9873     2.7803    93.4476
  185.0000     4.2757     3.2554     3.0411    97.1061
  185.5000     5.0151     3.7050     3.3264    99.9488
  186.0000     5.9136     4.2168     3.6384   100.3382
  186.5000     6.4313     4.7992     4.1959   101.1632
  187.0000     7.0406     5.4621     5.0518   102.7929
  187.5000     7.7076     5.8230     5.3924   104.4146
  188.0000     7.8087     6.1281     5.5564   104.6426
  188.5000     7.4106     6.3779     5.6894   104.7975
  189.0000     7.0639     6.6271     5.8303   105.2746
  189.5000     6.8634     6.8630     6.0211   108.2529
  190.0000     7.2194     6.6402     5.9816   111.8029
  190.5000     7.5285     6.3848     5.9043   113.2801
  191.0000     7.8068     6.1392     5.8101   112.4507
  191.5000     7.8087     5.9030     5.6307   110.9717
  192.0000     7.4013     5.6763     5.3169   109.4836
  192.5000     7.0101     5.4555     5.0207   108.6219
  193.0000     6.6390     5.3098     4.8144   110.1176
  193.5000     6.2865     5.2083     4.7854   111.7689
  194.0000     6.0781     5.1463     4.7566   112.6715
  194.5000     6.3606     5.2164     4.7345   109.8488
  195.0000     6.6065     5.3870     4.8770   107.0504
  195.5000     6.7471     5.5707     5.0052   106.7437
  196.0000     6.7328     5.8194     5.2338   108.2761
  196.5000     6.9889     6.0792     5.4925   110.5598
  197.0000     7.3346     6.3506     5.7640   112.6628
  197.5000     7.6974     6.6341     6.0513   112.2071
  198.0000     8.0515     6.9303     6.3405   110.0355
  198.5000     8.3628     7.2400     6.6274   108.6435
  199.0000     8.6861     7.5623     6.9225   109.5564
  199.5000     8.8351     7.9585     6.9906   111.0273
  200.0000     8.8777     7.9445     7.0582   112.4930
  200.5000     8.9206     7.9272     7.1265   113.4692
  201.0000     8.9732     7.9075     7.1836   113.2581
  201.5000     8.8926     7.8886     7.1201   112.7074
  202.0000     8.7555     7.7776     7.0394   110.4967
  202.5000     8.6208     7.6134     6.9596   108.1873
  203.0000     8.4883     7.4527     6.8802   106.7714
  203.5000     8.3579     7.2954     6.8110   106.1739
  204.0000     8.2295     7.1417     6.7224   105.8511
  204.5000     8.1092     6.9916     6.6350   106.3190
  205.0000     7.9947     6.8412     6.5487   108.5280
  205.5000     7.8818     6.5672     6.4279   110.7478
  206.0000     7.7705     6.2355     6.1805   112.9405
  206.5000     7.6608     5.9229     5.9166   114.6340
  207.0000     7.3901     5.6261     5.4385   113.5371
  207.5000     6.8905     5.3441     4.9407   112.0623
  208.0000     6.4247     5.1463     4.6312   112.5393
  208.5000     5.9904     5.2385     4.4142   114.6109
  209.0000     5.5854     5.3756     4.2757   116.0581
  209.5000     5.4405     5.5164     4.5112   112.8814
  210.0000     5.9136     5.6608     4.8425   109.5232
  210.5000     6.7278     5.8090     5.1980   106.0924
  211.0000     7.6353     6.1031     5.5797   106.5170
  211.5000     8.1036     6.4876     5.8063   108.5856
  212.0000     8.1859     6.8962     5.9687   109.0244
  212.5000     8.2056     7.3306     6.1797   106.9423
  213.0000     8.2253     7.6863     6.4062   106.9112
  213.5000     8.2450     7.7791     6.6411   109.1840
  214.0000     8.3302     7.8730     6.8659   111.5826
  214.5000     8.4854     7.9681     6.9356   113.4859
  215.0000     8.6435     8.1036     7.0063   112.9132
  215.5000     8.8046     8.0971     7.0776   111.9609
  216.0000     8.9686     8.0864     7.1176   111.6143
  216.5000     9.1409     8.0756     7.1059   111.8645
  217.0000     9.1120     8.0648     7.0974   112.1084
  217.5000     9.0796     8.0541     7.0891   112.0295
  218.0000     9.0474     8.0433     7.0808   110.5839
  218.5000     9.0153     8.0326     7.0725   109.1415
  219.0000     8.9833     8.0219     7.0642   109.4987
  219.5000     8.9731     8.0112     7.0561   110.3561
  220.0000     8.9731     8.0006     7.0476   110.1387
  220.5000     8.9731     7.9899     7.0388   109.2507
  221.0000     8.9732     7.9794     7.0302   108.3612
  221.5000     8.9740     7.9693     7.0215   108.5746
  222.0000     8.9663     7.9593     7.0129   108.9263
  222.5000     9.0694     7.8753     7.0043   109.2748
  223.0000     9.1110     7.8939     6.9957   109.6248
  223.5000     9.1527     7.9058     6.9873   110.1297
  224.0000     9.1946     7.9183     7.0048   111.2173
  224.5000     9.2260     7.9309     7.0274   113.1623
  225.0000     9.1155     7.9431     7.0518   115.4159
  225.5000     9.0566     7.9532     7.0682   117.0551
  226.0000     9.0001     7.5344     7.0907   115.7367
  226.5000     8.9758     7.1813     7.1135   113.5458
  227.0000     8.6369     6.8395     7.1363   115.8782
  227.5000     8.3157     6.4906     7.1591   120.3441
  228.0000     8.0065     6.1362     7.1839   124.8751
  228.5000     7.7367     6.0594     7.0775   126.2574
  229.0000     7.8028     6.0210     6.8391   123.0386
  229.5000     7.9208     5.9826     6.3968   119.8071
  230.0000     8.0405     5.9444     5.9831   116.5733
  230.5000     8.1036     5.9065     5.5962   116.3737
  231.0000     7.4625     5.8585     5.2343   118.4772
  231.5000     6.9203     5.8750     4.8958   118.4901
  232.0000     6.5482     5.9196     4.8231   115.7413
  232.5000     6.6337     5.9646     5.0518   113.3360
  233.0000     6.8800     6.0100     5.4071   114.6102
  233.5000     7.4622     6.1996     5.8051   117.1371
  234.0000     8.0936     6.4638     5.9686   119.6898
  234.5000     8.3320     6.7393     6.1487   119.4403
  235.0000     8.2592     7.0265     6.3348   119.5475
  235.5000     8.2065     7.2508     6.5550   120.2814
  236.0000     8.1790     7.3183     6.7879   118.7942
  236.5000     8.2162     7.0527     6.9225   116.8281
  237.0000     8.2580     6.7800     6.7244   114.8088
  237.5000     8.2991     6.5179     6.3752   114.3717
  238.0000     8.3320     6.2659     6.0441   114.4030
  238.5000     7.8579     6.0237     5.7515   114.5543
  239.0000     7.3296     5.8313     5.0518   114.7374
  239.5000     6.8369     5.7387     4.8621   115.7762
  240.0000     6.3687     5.6477     4.7345   118.5834
  240.5000     6.4902     5.5580     4.9001   119.5289
  241.0000     6.6814     5.4911     5.1186   117.6148
  241.5000     7.0777     5.8102     5.3469   115.1265
  242.0000     7.7164     6.0796     5.5854   112.5391
  242.5000     8.0288     6.3623     5.8345   111.1551
  243.0000     8.0288     6.6578     6.0947   110.8411
  243.5000     8.0288     6.9671     6.3665   111.1142
  244.0000     8.3086     7.2907     6.6505   111.4077
  244.5000     8.5873     7.5950     6.9187   111.2066
