~VERSION INFORMATION
 VERS.                2.0:   CWLS LOG ASCII STANDARD - VERSION 2.0
 WRAP.                 NO:   ONE LINE PER DEPTH STEP
~WELL INFORMATION
#MNEM.UNIT      DATA TYPE    INFORMATION
#----------   ------------   ------------------------------
 STRT.F           80.0000:   START DEPTH
 STOP.F          740.0000:   STOP DEPTH
 STEP.F            0.5000:   STEP LENGTH
 NULL.          -999.2500:   NO VALUE
 COMP. U S NAVY/INTEX OIL CO:   COMPANY
 WELL. NPR 3 TEAPOT DOME #73-S-34:   WELL
 FLD .             TEAPOT:   FIELD
 LOC .      S34 T39N R78W:   LOCATION
 CNTY.            NATRONA:   COUNTY
 STAT.            WYOMING:   STATE
 CTRY. UNITED STATES OF AMERICA:   COUNTRY
 SRVC. Schlumberger Well Surveying Corp:   SERVICE COMPANY
 DATE.        19-FEB-1961:   LOGDATE
 API .       490250655200:   API NUMBER
~CURVE INFORMATION
#MNEM.UNIT       API CODE    CURVE DESCRIPTION
#----------   ------------   ------------------------------
 DEPT.F                  :   
 GR  .CPS    99 310 30 00:   GAMMA RAY FROM PERFORATING FORMATION COLLAR CHART
 SPR .MV     05 010 01 00:   SPONTANEOUS POTENTIAL
 ILD .OHMM   05 120 46 00:   INDUCTION LOG DEEP
 CILD.MMHO   05 110 46 00:   CONDUCTIVITY INDUCTION LOG DEEP
 ASN .OHMM   05 041 16 00:   AMPLIFIED SHORT NORMAL 16"
~PARAMETER INFORMATION
#MNEM.UNIT          VALUE    DESCRIPTION
#----------   ------------   ------------------------------
 LMF .                 KB:   LOG MEASURED FROM
 DMF .                 KB:   DRILLING MEASURED FROM
 EKB .F              5044:   KELLING BUSHING
 EGL .F              5040:   GROUND LEVEL
 DATE.          2-19-1961:   RUN DATE
 RUN .                  1:   RUN NUMBER
 DD  .F               740:   DEPTH DRILLER
 DL  .F               741:   DEPTH LOGGER
 BLI .F               740:   BOTTOM LOG INTERVAL
 TLI .F                80:   TOP LOG INTERVAL
 CBD .F               740:   CASING BOTTOM DRILLER
 CBL .F               741:   CASING BOTTOM LOGGER
 BS  .IN            7.875:   BIT SIZE
 BSD .F               740:   BIT SIZE AT DEPTH
 DFT .       GEL-OIL EMUL:   DRILLING FLUID TYPE
 DFD .                9.2:   DRILLING FLUID DENSITY
 DFV .                 49:   DRILLING FLUID VISCOSITY
 DFPH.                  8:   DRILLING FLUID PH
 DFL .               11.4:   DRILLING FLUID LOSS
 MSS .           FLOWLINE:   MUD SAMPLE SOURCE
 RMS .OHMM            .84:   RESISTIVITY MUD SAMPLE
 MST .F                74:   MUD SAMPLE TEMPERATURE
 RMF .OHMM            .83:   RESISTIVITY MUD FILTRATE SAMPLE
 MFST.F                75:   MUD FILTRATE SAMPLE TEMPERATURE
 RMC .OHMM            .52:   RESISTIVITY MUD CAKE
 MCST.F                74:   MUD CAKE SAMPLE TEMPERATURE
 RMB .OHMM           1.98:   RESISTIVITY MUD AT BHT
 BHT .F                70:   BOTTOM HOLE TEMPERATURE
 TCS .HRS               1:   TIME CURCULATED STOPPED
 MRT .F                70:   MAXIMUM RECORDED TEMPERATURE
 LUN .               2523:   LOGGING UNIT NUMBER
 LUL .               CSPR:   LOGGING UNIT LOCATION
 ENGI.             KNOBEL:   RECORDING ENGINEER
 WITN.          JORGENSEN:   WITNESSED BY
 CLNT.            A2DTECH:   CLIENT CODE
 ORIG.        2" 5" PRINT:   ORIGIN OF DATA
 UWI .       490250655200:   UNIQUE WELL ID
 DICO. A2D Technologies, Inc.:   DIGITIZING COMPANY
~OTHER INFORMATION
~A   DEPT       GR        SPR          ILD      CILD         ASN 
# ...
  568.0000    67.8851   -20.1209     7.4244   146.9367     9.5540
  568.5000    69.3572   -20.0347     7.7430   139.7938     9.8344
  569.0000    66.2334   -20.0265     7.7367   137.8532    10.4359
  569.5000    68.4358   -20.2102     7.7361   138.3980    10.4395
  570.0000    68.4202   -20.4016     7.7367   138.9553    10.4352
  570.5000    67.4546   -20.5916     7.7790   139.5211    10.4113
  571.0000    70.3314   -20.7855     7.9266   138.4216    10.3883
  571.5000    67.1240   -20.7330     8.0724   136.6736    10.3654
  572.0000    63.6122   -20.5556     8.2236   134.9256    10.3425
  572.5000    65.0865   -20.3751     8.1655   133.6535    10.3407
  573.0000    66.8140   -20.1945     8.0024   135.1102    10.3986
  573.5000    65.3306   -20.0126     7.8389   136.5669    10.4367
  574.0000    66.5184   -19.8281     7.7390   138.0235    10.4354
  574.5000    63.3121   -20.0180     7.9007   137.4039    10.3902
  575.0000    65.3378   -20.2509     8.0697   135.3063    10.2678
  575.5000    61.4884   -20.4814     8.2392   133.2087    10.1467
  576.0000    59.5186   -20.6228     8.4075   131.1111    10.2131
  576.5000    61.3716   -20.4193     8.5707   129.6840    10.4307
  577.0000    64.8161   -20.2181     8.4094   128.2025    10.6479
  577.5000    65.8808   -20.0164     7.7964   131.9122    10.8181
  578.0000    57.1275   -19.8133     7.1892   142.5165    10.7083
  578.5000    54.0023   -19.6168     6.5807   159.8843    10.3043
  579.0000    55.1699   -19.7525     5.9732   177.4137     9.9375
  579.5000    54.8815   -19.9099     5.6779   194.9692     8.9268
  580.0000    50.4033   -20.0662     5.7572   193.3923     7.8499
  580.5000    47.5580   -20.2220     5.6480   189.5686     7.5972
  581.0000    47.4866   -20.3777     5.6530   188.8889     7.6779
  581.5000    49.9661   -20.5334     5.9935   189.5119     7.8640
  582.0000    53.0845   -20.6894     6.4592   183.6189     9.1440
  582.5000    49.0464   -20.8443     6.9839   166.5206    10.5584
  583.0000    44.4650   -21.0055     7.8294   147.1833    11.3209
  583.5000    45.4361   -20.8111     8.7771   127.7395    11.8060
  584.0000    42.7918   -20.4301     9.7354   113.6315    12.2941
  584.5000    45.4056   -20.0429    10.0696   107.7436    12.3288
  585.0000    39.6652   -19.6534     9.9939   106.0556    12.4785
  585.5000    41.2994   -19.7447     9.9108   107.1596    12.6238
  586.0000    41.9880   -19.9072     9.8265   108.2636    12.7725
  586.5000    38.6124   -20.0711     9.8848   109.3677    12.9218
  587.0000    35.9432   -20.2338    10.1593   106.9690    13.1604
  587.5000    39.1053   -20.3965    10.7282   102.8903    13.3584
  588.0000    36.5047   -20.5591    11.6190    97.0479    14.1086
  588.5000    32.2685   -20.7221    12.4872    88.8073    14.9498
  589.0000    33.3987   -20.8866    13.3580    80.5667    16.4907
  589.5000    34.8415   -21.0486    14.2043    72.3259    17.9759
  590.0000    31.0128   -20.9155    15.9429    64.8955    19.4618
  590.5000    27.1580   -20.7593    17.9902    59.6962    20.7622
  591.0000    23.4983   -20.6037    20.0762    53.9356    21.8838
  591.5000    22.1525   -20.4490    22.1873    48.1672    22.9880
  592.0000    24.3980   -20.2931    22.5764    42.0561    23.6120
  592.5000    22.6290   -20.2358    21.9707    43.6595    23.7831
  593.0000    24.0263   -20.2754    21.3007    45.8188    23.6175
  593.5000    21.9095   -20.3157    20.6376    47.9781    23.2326
  594.0000    24.7790   -20.3563    20.0306    49.1381    22.4237
  594.5000    29.5928   -20.3983    19.7432    48.0893    21.6213
  595.0000    34.5020   -20.4214    19.4476    47.2482    20.8246
  595.5000    38.4005   -20.6587    19.1519    49.5846    20.6141
  596.0000    40.7104   -20.6321    18.8502    52.4403    20.6436
  596.5000    36.9534   -20.3951    18.9107    52.8834    20.8119
  597.0000    37.3002   -20.1528    19.1692    51.4849    20.9754
  597.5000    34.2318   -19.9116    19.4330    50.0865    21.1241
  598.0000    38.0649   -19.6706    19.6789    48.2866    21.2217
  598.5000    41.8860   -19.4296    19.5147    49.0810    20.9592
  599.0000    46.0917   -19.1887    19.3220    50.0033    20.6957
  599.5000    43.4234   -18.9477    19.1295    50.9256    20.4314
  600.0000    40.5337   -18.7068    18.9375    51.8479    20.3150
  600.5000    42.8931   -18.4655    18.7442    52.7701    20.5850
  601.0000    37.6660   -18.2143    18.5460    53.6924    20.8467
  601.5000    32.4754   -18.1539    18.5758    54.5171    21.1068
  602.0000    28.6244   -18.1187    18.6589    54.2943    21.2057
  602.5000    30.1130   -18.0814    18.7413    53.9790    20.8380
  603.0000    26.8646   -18.0437    18.8302    53.6637    20.4976
  603.5000    28.0342   -18.0059    18.9258    53.3484    20.3116
  604.0000    28.4878   -17.9681    18.7179    53.0331    20.6798
  604.5000    26.8558   -17.9303    18.2598    52.7178    21.2437
  605.0000    28.1570   -17.8925    17.8026    52.7103    21.0161
  605.5000    30.0393   -17.8547    17.3455    54.9647    20.5950
  606.0000    31.2226   -17.8168    16.8887    57.2191    20.1714
  606.5000    28.6774   -17.7784    16.4317    59.4735    19.7482
  607.0000    30.1567   -17.7413    15.9750    61.7279    19.3241
  607.5000    31.4287   -17.8133    15.5193    63.9823    18.9008
  608.0000    28.2445   -17.8950    15.1312    65.9398    18.5577
  608.5000    25.4870   -17.9764    15.2284    65.2308    18.7273
  609.0000    29.1539   -18.0576    15.3589    64.2628    18.9378
  609.5000    31.9414   -18.1388    15.5796    63.2949    19.1480
  610.0000    29.8031   -18.2200    15.8778    62.3270    19.3565
  610.5000    33.1431   -18.3012    16.1840    61.3591    19.3141
  611.0000    36.6389   -18.3824    16.2941    60.3912    19.2551
  611.5000    38.4899   -18.4636    16.3543    59.4233    19.1960
  612.0000    37.4467   -18.5448    16.3961    58.4554    19.0669
  612.5000    40.9060   -18.6265    16.4413    57.6324    18.7932
  613.0000    39.7462   -18.7075    16.1964    59.0785    18.5218
  613.5000    43.5004   -18.7611    15.7292    61.0053    18.2496
  614.0000    46.5794   -18.6434    15.3562    62.9322    17.9683
  614.5000    48.8904   -18.5273    15.1712    64.8590    18.0060
  615.0000    45.5906   -18.4117    14.9118    66.7859    18.1271
  615.5000    44.7157   -18.2962    14.8727    67.8364    18.2484
  616.0000    45.4713   -18.1807    15.0807    66.7215    18.2831
  616.5000    41.2900   -18.0652    15.2888    65.6067    18.1494
  617.0000    39.6398   -17.9493    15.4974    64.4919    18.0227
  617.5000    35.3460   -17.8341    15.7035    63.3771    18.0612
  618.0000    33.7893   -17.7444    15.8259    62.2623    18.1113
  618.5000    35.2226   -17.8000    15.7486    60.7477    18.0383
  619.0000    33.4308   -17.8533    15.6758    61.3675    17.8989
  619.5000    34.7557   -17.9062    15.6798    62.1679    17.8269
  620.0000    35.6950   -17.9591    15.8269    62.9683    17.8804
  620.5000    38.9773   -18.0119    16.0220    63.7687    17.9247
  621.0000    36.7305   -18.0648    15.9148    64.5691    17.9950
  621.5000    39.2040   -18.1176    15.6904    64.3309    18.0642
  622.0000    39.9712   -18.1705    15.4589    63.3554    18.0998
  622.5000    37.6352   -18.2234    15.5855    62.3799    17.9664
  623.0000    39.0598   -18.2763    15.7943    62.4123    17.8355
  623.5000    37.8490   -18.3282    15.7071    64.0131    17.7092
  624.0000    40.2738   -18.3266    15.3741    65.6139    17.6801
  624.5000    42.5474   -18.2358    15.1065    65.6438    17.5417
  625.0000    45.1869   -18.1464    15.2246    65.2722    17.4038
  625.5000    46.4535   -18.0568    15.3105    64.9061    17.2650
  626.0000    45.1779   -17.9672    15.0404    66.0978    17.0508
  626.5000    47.5790   -17.8776    14.7599    67.3045    16.9779
  627.0000    49.8691   -17.7880    14.4936    68.4874    17.0435
  627.5000    52.5584   -17.6984    14.4842    69.6435    17.1086
  628.0000    55.2274   -17.6087    14.4833    69.5639    17.1757
  628.5000    55.2126   -17.5191    14.5881    68.7011    17.1168
