~VERSION INFORMATION
 VERS.                2.0:   CWLS LOG ASCII STANDARD - VERSION 2.0
 WRAP.                 NO:   ONE LINE PER DEPTH STEP
~WELL INFORMATION
#MNEM.UNIT      DATA TYPE    INFORMATION
#----------   ------------   ------------------------------
 STRT.F           24.5000:   START DEPTH
 STOP.F          750.0000:   STOP DEPTH
 STEP.F            0.5000:   STEP LENGTH
 NULL.          -999.2500:   NO VALUE
 COMP. FENIX & SCISSON INC:   COMPANY
 WELL.    NPR 3 SX #35-11:   WELL
 FLD .          N.P.R. #3:   FIELD
 LOC .      S11 T38N R78W:   LOCATION
 CNTY.            NATRONA:   COUNTY
 STAT.            WYOMING:   STATE
 CTRY. UNITED STATES OF AMERICA:   COUNTRY
 SRVC.            Unknown:   SERVICE COMPANY
 DATE.        23-FEB-1978:   LOGDATE
 API .       490251027200:   API NUMBER
~CURVE INFORMATION
#MNEM.UNIT       API CODE    CURVE DESCRIPTION
#----------   ------------   ------------------------------
 DEPT.F                  :   
 ILM .OHMM   07 120 44 00:   INDUCTION LOG MEDIUM
 ILD .OHMM   07 120 46 00:   INDUCTION LOG DEEP
 LL8 .OHMM   07 220 08 00:   LATEROLOG-8 RES.
 SPR .MV     07 010 01 00:   SPONTANEOUS POTENTIAL
 CALD.IN     45 280 60 00:   CALIPER FROM DENSITY LOG
 CORR.G/C3   45 356 01 00:   DENSITY CORRECTION
 DPHI.DEC    45 890 12 00:   DENSITY POROSITY SANDSTONE
 GRD .GAPI   45 310 01 00:   GAMMA RAY FROM DENSITY LOG
 RHOB.G/C3   45 350 01 00:   BULK DENSITY
 IL  .OHMM   05 120 40 00:   INDUCTION RESISTIVITY
 SN  .OHMM   05 040 16 00:   SHORT NORMAL 16"
 SPR1.MV     05 010 01 00:   SPONTANEOUS POTENTIAL INDUCTION ELECTRICAL LOG
~PARAMETER INFORMATION
#MNEM.UNIT          VALUE    DESCRIPTION
#----------   ------------   ------------------------------
 PD  .                 GL:   PERMANENT DATUM
 EPD .F              5204:   ELEVATION PERMANENT DATUM
 LMF .                 KB:   LOG MEASURED FROM
 DAPD.F                 4:   FEET ABOVE PERMANENT DATUM
 DMF .                 KB:   DRILLING MEASURED FROM
 EKB .F              5208:   KELLING BUSHING
 EGL .F              5204:   GROUND LEVEL
 DATE.        23-FEB-1978:   RUN DATE
 RUN .                  1:   RUN NUMBER
 DD  .F               755:   DEPTH DRILLER
 DL  .F               751:   DEPTH LOGGER
 BLI .F               745:   BOTTOM LOG INTERVAL
 TLI .F                45:   TOP LOG INTERVAL
 CS  .IN            8.625:   CASING SIZE
 CBD .F                40:   CASING BOTTOM DRILLER
 CBL .F                40:   CASING BOTTOM LOGGER
 BS  .IN            7.875:   BIT SIZE
 BSD .F               755:   BIT SIZE AT DEPTH
 DFT .         LIGNO SULF:   DRILLING FLUID TYPE
 DFD .                8.7:   DRILLING FLUID DENSITY
 DFV .                 33:   DRILLING FLUID VISCOSITY
 DFPH.                 10:   DRILLING FLUID PH
 DFL .                  4:   DRILLING FLUID LOSS
 MSS .           FLOWLINE:   MUD SAMPLE SOURCE
 RMS .OHMM            2.0:   RESISTIVITY MUD SAMPLE
 MST .F                60:   MUD SAMPLE TEMPERATURE
 RMF .OHMM            1.9:   RESISTIVITY MUD FILTRATE SAMPLE
 MFST.F                62:   MUD FILTRATE SAMPLE TEMPERATURE
 RMC .OHMM            3.5:   RESISTIVITY MUD CAKE
 MCST.F                60:   MUD CAKE SAMPLE TEMPERATURE
 MFSS.               MEAS:   MUD FILTRATE SAMPLE SOURCE
 RMB .OHMM           1.69:   RESISTIVITY MUD AT BHT
 BHT .F                71:   BOTTOM HOLE TEMPERATURE
 TCS .HRS               3:   TIME CURCULATED STOPPED
 MRT .F                71:   MAXIMUM RECORDED TEMPERATURE
 CLNT.            A2DTECH:   CLIENT CODE
 ORIG.           5" PRINT:   ORIGIN OF DATA
 UWI .       490251027200:   UNIQUE WELL ID
 DICO. A2D Technologies, Inc.:   DIGITIZING COMPANY
~OTHER INFORMATION
~A   DEPT      ILM        ILD        LL8        SPR       CALD       CORR       DPHI         GRD      RHOB         IL         SN       SPR1   
# ...
  192.5000     7.3578     7.2570     8.0940   -27.7762     8.2750     0.0161     0.1407   119.1007     2.4151     6.9515     7.6996   -33.3221
  193.0000     7.4149     7.4149     7.7745   -27.7567     8.2763     0.0185     0.1343   118.3730     2.4219     7.0451     7.8110   -33.1532
  193.5000     7.5764     7.5243     7.5159   -27.5886     8.2627     0.0201     0.1292   115.7108     2.4288     7.0972     7.8690   -33.0180
  194.0000     7.6352     7.6352     7.6290   -27.5691     8.2641     0.0240     0.1382   112.0070     2.4281     7.1496     7.9179   -32.9651
  194.5000     7.8014     7.8014     7.8496   -27.5497     8.2654     0.0309     0.1270   111.1264     2.4327     7.2024     7.9760   -32.8323
  195.0000     7.9713     7.9713     8.1888   -27.2330     8.2668     0.0217     0.1405   110.8493     2.4238     7.2555     7.9793   -32.8144
  195.5000     8.2012     8.1448     8.5427   -27.2135     8.2532     0.0174     0.1444   109.5264     2.4179     7.2586     8.0379   -32.7964
  196.0000     8.3222     8.3222     8.6693   -27.3475     8.2546     0.0213     0.1389   108.3523     2.4210     7.3631     8.1534   -32.8982
  196.5000     8.3291     8.3291     8.5582   -27.6252     8.2559     0.0221     0.1358   107.3271     2.4263     7.4175     8.2706   -33.2508
  197.0000     8.3361     8.3361     8.2185   -28.1100     8.2572     0.0192     0.1346   105.7066     2.4279     7.4722     8.3313   -33.3414
  197.5000     8.2857     8.2839     8.3403   -28.6264     8.2586     0.0291     0.1357   104.9789     2.4273     7.5274     8.3924   -33.3670
  198.0000     8.2926     8.3500     8.5224   -28.9232     8.2599     0.0292     0.1336   106.3346     2.4289     7.5830     8.3866   -33.5898
  198.5000     8.3570     8.3570     8.7086   -29.1961     8.2613     0.0262     0.1330   107.3927     2.4297     7.5861     8.3309   -33.8862
  199.0000     8.3047     8.3640     8.8376   -29.7566     8.2626     0.0385     0.1290   108.3019     2.4321     7.5893     8.2275   -33.8683
  199.5000     8.2562     8.2545     8.4868   -30.1877     8.2639     0.0363     0.1229   109.2112     2.4442     7.5392     8.1591   -33.8990
  200.0000     8.2063     8.1498     8.2632   -30.7578     8.2653     0.0303     0.1295   107.8870     2.4360     7.4901     8.2905   -33.9533
  200.5000     8.1024     8.1046     7.9901   -30.8300     8.2715     0.0463     0.1192   105.3849     2.4437     7.4930     8.1219   -33.8483
  201.0000     8.0529     8.0236     7.8320   -30.8658     8.2777     0.0434     0.1147   105.7063     2.4678     7.4396     7.9568   -34.0756
  201.5000     8.0057     7.9507     7.8414   -30.5409     8.2839     0.0337     0.1237   106.4741     2.4484     7.3436     7.8488   -34.6113
  202.0000     8.0160     7.9041     7.8490   -30.3702     8.2579     0.0277     0.1293   109.0277     2.4305     7.2369     7.7436   -34.9072
  202.5000     7.9671     7.8038     7.8025   -30.1995     8.2004     0.0346     0.1269   110.8313     2.4223     7.0986     7.7463   -34.9401
  203.0000     7.9773     7.7581     7.6500   -29.7316     8.2024     0.0219     0.1317   107.4384     2.4344     7.0513     7.7489   -34.8176
  203.5000     7.9855     7.7681     7.6029   -29.1151     8.2196     0.0159     0.1389   106.5634     2.4225     7.0050     7.7772   -34.4322
  204.0000     7.9938     7.7761     7.6120   -28.6472     8.2659     0.0152     0.1343   109.1229     2.4234     6.9595     7.8085   -33.8463
  204.5000     8.0020     7.8923     8.8075   -28.1793     8.2827     0.0222     0.1328   111.6764     2.4296     6.9619     7.8112   -33.4444
  205.0000     7.9551     8.0082     9.5771   -28.0085     8.1942     0.0268     0.1369   110.5097     2.4237     6.9643     7.8139   -33.4693
  205.5000     7.9065     7.9065     8.2361   -28.2836     8.0918     0.0269     0.1275   107.8549     2.4177     7.0641     7.8393   -33.9606
  206.0000     7.8062     7.8062     7.6943   -28.2614     8.1556     0.0293     0.1215   104.4561     2.4435     7.1157     7.8819   -34.2123
  206.5000     7.7605     7.7091     7.6485   -28.2392     8.2315     0.0332     0.1178   102.8370     2.4587     7.1677     7.9317   -33.4462
  207.0000     7.8243     7.7170     7.7091   -28.0624     8.2626     0.0371     0.1190   107.4799     2.4535     7.2195     7.9899   -32.9794
  207.5000     7.8323     7.7250     7.7700   -27.8975     8.2645     0.0227     0.1247   109.2894     2.4446     7.2224     7.9932   -32.9618
  208.0000     7.8404     7.7329     7.9401   -27.7127     8.2515     0.0138     0.1340   111.3965     2.4296     7.2249     8.0513   -33.0939
  208.5000     7.8485     7.7409     8.1702   -27.5557     8.2684     0.0209     0.1372   113.6524     2.4252     7.2276     8.0546   -33.2259
  209.0000     7.8566     7.7489     8.3491   -27.5334     8.2703     0.0191     0.1384   116.0572     2.4231     7.2299     8.0010   -33.3580
  209.5000     7.8646     7.8106     8.2426   -27.5111     8.2723     0.0164     0.1317   117.1226     2.4262     7.2325     8.0042   -33.3404
  210.0000     7.8727     7.8727     7.9707   -27.6510     8.2593     0.0389     0.1248   111.6405     2.4377     7.2350     7.9507   -33.4725
  210.5000     7.9354     7.8809     7.9235   -27.8326     8.2612     0.0511     0.1310   109.7297     2.4355     7.2375     7.9542   -33.7542
  211.0000     7.9983     7.8890     7.9312   -28.0143     8.1865     0.0670     0.1331   109.3012     2.4288     7.2400     7.9569   -33.8870
  211.5000     8.0068     7.9518     7.8842   -28.3114     8.1138     0.0753     0.1310   109.4797     2.4327     7.1923     7.9597   -34.0184
  212.0000     8.0704     8.0151     7.8919   -28.4434     8.0584     0.0671     0.1330   109.6463     2.4291     7.1948     7.9624   -34.0000
  212.5000     8.0789     8.0233     7.8451   -29.3072     8.0926     0.0499     0.1258   106.9975     2.4368     7.1973     8.0208   -33.9820
  213.0000     8.0315     8.0316     7.9127   -29.5878     8.1530     0.0282     0.1353   104.3427     2.4263     7.1998     8.1361   -33.9641
  213.5000     7.9297     8.0399     8.1765   -29.7142     8.2146     0.0172     0.1398   104.5153     2.4257     7.2023     8.2530   -33.9310
  214.0000     7.9928     7.9928     8.9086   -29.8407     8.2613     0.0151     0.1362   105.1344     2.4258     7.2048     8.3135   -33.7785
  214.5000     8.0565     7.9460     8.8468   -29.9671     8.2768     0.0144     0.1325   105.4558     2.4282     7.2073     8.3745   -33.7605
  215.0000     8.0075     7.9543     8.6034   -29.9395     8.2787     0.0153     0.1304   106.9677     2.4306     7.2103     8.2042   -33.7425
  215.5000     7.9046     7.8472     8.2400   -29.9173     8.2955     0.0169     0.1270   108.7772     2.4337     7.2128     8.0596   -33.6980
  216.0000     7.6962     7.6391     7.6320   -29.5980     8.2975     0.0178     0.1267   110.7355     2.4384     7.2153     7.9290   -33.5569
  216.5000     7.5451     7.4932     7.4829   -28.9815     8.2994     0.0164     0.1278   109.2712     2.4399     7.1678     7.7678   -33.5389
  217.0000     7.3522     7.4031     7.2861   -28.3650     8.2864     0.0150     0.1299   107.6581     2.4356     7.0715     7.6623   -33.5210
  217.5000     7.3598     7.3525     7.1437   -28.0457     8.2884     0.0181     0.1332   107.9795     2.4327     6.9275     7.5562   -33.4650
  218.0000     7.2664     7.1668     7.1506   -28.1724     8.2903     0.0228     0.1319   110.2354     2.4305     6.7877     7.4523   -33.2944
  218.5000     7.1742     7.1760     7.1575   -28.2987     8.2755     0.0267     0.1270   111.8901     2.4352     6.7425     7.3792   -33.1677
  219.0000     7.1834     7.1834     7.2140   -28.1279     8.2327     0.0351     0.1222   109.3901     2.4474     6.6981     7.3086   -33.1031
  219.5000     7.1908     7.1908     7.2709   -28.1055     8.1917     0.0321     0.1252   109.1103     2.4422     6.6541     7.3118   -32.9820
  220.0000     7.1982     7.1469     7.5856   -27.6374     8.2404     0.0399     0.1299   110.6282     2.4318     6.6570     7.2990   -32.9640
