~VERSION INFORMATION
 VERS.                2.0:   CWLS LOG ASCII STANDARD - VERSION 2.0
 WRAP.                 NO:   ONE LINE PER DEPTH STEP
~WELL INFORMATION
#MNEM.UNIT      DATA TYPE    INFORMATION
#----------   ------------   ------------------------------
 STRT.F           16.0000:   START DEPTH
 STOP.F         1254.0000:   STOP DEPTH
 STEP.F            0.5000:   STEP LENGTH
 NULL.          -999.2500:   NO VALUE
 COMP. FENIX & SCISSON INC:   COMPANY
 WELL. NAVAL PET RESERVE 3   75-S-14 #75-14:   WELL
 FLD .             TEAPOT:   FIELD
 LOC .      S14 T38N R78W:   LOCATION
 CNTY.            NATRONA:   COUNTY
 STAT.            WYOMING:   STATE
 CTRY. UNITED STATES OF AMERICA:   COUNTRY
 SRVC.              Welex:   SERVICE COMPANY
 DATE.        17-FEB-1977:   LOGDATE
 API .       490251027400:   API NUMBER
~CURVE INFORMATION
#MNEM.UNIT       API CODE    CURVE DESCRIPTION
#----------   ------------   ------------------------------
 DEPT.F                  :   
 SGRD.OHMM   07 220 05 00:   SHALLOW RESISTIVITY
 ILM .OHMM   07 120 44 00:   INDUCTION LOG MEDIUM
 SPR .MV     07 010 01 00:   SPONTANEOUS POTENTIAL
 ILD .OHMM   07 120 46 00:   INDUCTION LOG DEEP
 CALD.IN     45 280 60 00:   CALIPER
 GRD .GAPI   45 310 01 00:   GAMMA RAY FROM DENSITY LOG
 DPHI.DEC    45 890 12 00:   DENSITY POROSITY SANDSTONE
 RHOB.G/C3   45 350 01 00:   BULK DENSITY
 CORR.G/C3   45 356 01 00:   DENSITY CORRECTION
~PARAMETER INFORMATION
#MNEM.UNIT          VALUE    DESCRIPTION
#----------   ------------   ------------------------------
 PD  .                 GL:   PERMANENT DATUM
 EPD .F              5336:   ELEVATION PERMANENT DATUM
 LMF .                 GL:   LOG MEASURED FROM
 DMF .                 GL:   DRILLING MEASURED FROM
 EKB .F              5341:   KELLING BUSHING
 EGL .F              5336:   GROUND LEVEL
 DATE.          2-17-1977:   RUN DATE
 RUN .                  1:   RUN NUMBER
 DD  .F              1260:   DEPTH DRILLER
 DL  .F              1258:   DEPTH LOGGER
 BLI .F              1256:   BOTTOM LOG INTERVAL
 TLI .F                30:   TOP LOG INTERVAL
 CS  .IN            8.625:   CASING SIZE
 CBD .F                42:   CASING BOTTOM DRILLER
 CBL .F                42:   CASING BOTTOM LOGGER
 BS  .IN            7.875:   BIT SIZE
 BSD .F              1260:   BIT SIZE AT DEPTH
 DFT .          KCL WATER:   DRILLING FLUID TYPE
 DFD .                9.5:   DRILLING FLUID DENSITY
 DFV .                 34:   DRILLING FLUID VISCOSITY
 MSS .          FLOW LINE:   MUD SAMPLE SOURCE
 RMS .OHMM            .30:   RESISTIVITY MUD SAMPLE
 MST .F                43:   MUD SAMPLE TEMPERATURE
 RMF .OHMM            .28:   RESISTIVITY MUD FILTRATE SAMPLE
 MFST.F                43:   MUD FILTRATE SAMPLE TEMPERATURE
 RMC .OHMM            .40:   RESISTIVITY MUD CAKE
 MCST.F                43:   MUD CAKE SAMPLE TEMPERATURE
 MFSS.           MEASURED:   MUD FILTRATE SAMPLE SOURCE
 MCSS.           MEASURED:   MUD CAKE SAMPLE SOURCE
 RMB .OHMM            .13:   RESISTIVITY MUD AT BHT
 BHT .F               101:   BOTTOM HOLE TEMPERATURE
 TCS .HRS               5:   TIME CURCULATED STOPPED
 MRT .F               101:   MAXIMUM RECORDED TEMPERATURE
 LUN .               8611:   LOGGING UNIT NUMBER
 LUL .           GILLETTE:   LOGGING UNIT LOCATION
 ENGI.             LAWSON:   RECORDING ENGINEER
 WITN.         STUEBINGER:   WITNESSED BY
 CLNT.            A2DTECH:   CLIENT CODE
 ORIG.       2", 5" PRINT:   ORIGIN OF DATA
 UWI .       490251027400:   UNIQUE WELL ID
 DICO. A2D Technologies, Inc.:   DIGITIZING COMPANY
~OTHER INFORMATION
~A   DEPT     SGRD        ILM        SPR        ILD       CALD         GRD      DPHI       RHOB       CORR   
# ...
  892.0000     9.6919     6.4188   -42.0804     5.4011     8.0693   132.7362     0.0806     2.5130     0.0617
  892.5000     9.4707     6.3587   -42.1160     5.3462     8.0725   131.1854     0.0784     2.5076     0.0610
  893.0000     9.3188     6.2993   -42.1515     5.2919     8.0756   129.6276     0.0792     2.5106     0.0594
  893.5000     9.3620     6.2403   -42.1892     5.2381     8.0788   128.0723     0.0799     2.5162     0.0578
  894.0000     9.6593     6.1594   -42.1618     5.1849     8.0820   126.5146     0.0784     2.5217     0.0562
  894.5000     9.9661     6.2620   -42.2255     5.1233     8.0851   124.9464     0.0748     2.5271     0.0561
  895.0000    10.2826     6.4331   -42.0030     5.1537     8.0883   123.3965     0.0725     2.5264     0.0581
  895.5000    10.6980     6.6902   -41.9970     5.2174     8.0915   125.4165     0.0792     2.5151     0.0591
  896.0000    10.2934     6.6278   -41.9691     5.2822     8.0947   127.8936     0.0860     2.5039     0.0536
  896.5000     9.7764     6.5087   -41.9370     5.3478     8.0978   129.5877     0.0927     2.4926     0.0483
  897.0000     9.3986     6.5351   -41.9054     5.4142     8.1011   128.5121     0.0986     2.4819     0.0431
  897.5000     9.6846     6.5680   -41.8738     5.4815     8.1016   127.3941     0.0956     2.4864     0.0410
  898.0000    10.1228     6.6007   -41.8422     5.5496     8.1016   126.6943     0.0919     2.4916     0.0455
  898.5000    10.5029     6.6336   -41.8106     5.6185     8.1016   128.3015     0.0882     2.4967     0.0499
  899.0000    10.0233     6.6667   -41.7790     5.6883     8.1016   127.8697     0.0844     2.5018     0.0543
  899.5000     9.6658     6.6999   -41.7474     5.7589     8.1016   126.5811     0.0834     2.5069     0.0587
  900.0000    10.0358     6.7333   -41.7158     5.8305     8.1016   127.6565     0.0834     2.5109     0.0595
  900.5000    10.4008     6.7671   -41.6842     5.9369     8.1016   129.7814     0.0838     2.5114     0.0586
  901.0000    10.7969     6.8153   -41.6526     5.8722     8.1016   131.9396     0.0877     2.4973     0.0564
  901.5000    10.8967     6.7703   -41.6211     5.8420     8.1016   133.8289     0.0948     2.4817     0.0530
  902.0000    10.4086     6.6884   -41.5895     5.8120     8.1016   134.4125     0.1018     2.4661     0.0487
  902.5000     9.9297     6.6081   -41.5579     5.7821     8.1016   135.0958     0.1089     2.4523     0.0397
  903.0000     9.5796     6.5287   -41.5263     5.7524     8.1016   135.7498     0.1143     2.4564     0.0408
  903.5000     9.8871     6.4503   -41.4948     5.7228     8.1016   135.6565     0.1089     2.4650     0.0444
  904.0000    10.1911     6.3729   -41.4632     5.6934     8.1016   133.9547     0.1035     2.4735     0.0479
  904.5000    10.4067     6.2964   -41.4320     5.6642     8.1016   132.3317     0.0981     2.4822     0.0515
  905.0000    10.1689     6.2164   -41.3088     5.6351     8.1016   129.5323     0.0930     2.4901     0.0542
  905.5000    10.1234     6.2728   -41.1110     5.6061     8.1016   126.2514     0.0928     2.4900     0.0541
  906.0000    10.2557     6.3767   -40.9128     5.5773     8.1016   122.2263     0.0938     2.4896     0.0541
  906.5000    10.4067     6.4822   -40.7144     5.5486     8.1016   123.8217     0.0947     2.4933     0.0541
  907.0000    10.1133     6.5895   -40.5163     5.5156     8.1016   126.2954     0.0954     2.4974     0.0542
  907.5000     9.8478     6.6986   -40.3181     5.5999     8.1016   125.7476     0.0918     2.5015     0.0588
  908.0000    10.1256     6.8095   -40.1199     5.7334     8.1015   125.3920     0.0848     2.5055     0.0639
  908.5000    10.4573     6.9222   -39.9217     5.8701     8.1016   126.5361     0.0790     2.5097     0.0642
  909.0000    10.7999     7.0368   -39.7235     6.0100     8.1052   127.2174     0.0800     2.5099     0.0641
  909.5000    11.0990     7.1533   -39.5253     6.1532     8.1245   126.1849     0.0819     2.5083     0.0647
  910.0000    10.9974     7.2716   -39.3271     6.2999     8.1433   125.1913     0.0846     2.5067     0.0663
  910.5000    11.2832     7.3920   -39.1290     6.4500     8.1621   124.1997     0.0828     2.5054     0.0679
  911.0000    11.5824     7.5144   -38.9308     6.6038     8.1810   123.2088     0.0811     2.5073     0.0670
  911.5000    11.8896     7.6388   -38.7326     6.7611     8.2003   122.2179     0.0794     2.5094     0.0656
  912.0000    12.0573     7.7652   -38.5344     6.9223     8.2013   121.2237     0.0777     2.5115     0.0642
  912.5000    11.8429     7.8937   -38.3362     7.0869     8.2013   120.2329     0.0768     2.5136     0.0628
  913.0000    11.7290     8.0244   -38.1381     7.2689     8.2055   119.2484     0.0775     2.5157     0.0638
  913.5000    12.3189     8.1572   -37.9399     7.3361     8.2100   120.3292     0.0779     2.5178     0.0669
  914.0000    12.9894     8.2922   -37.7417     7.4104     8.2145   123.7623     0.0763     2.5199     0.0701
  914.5000    13.8417     8.4295   -37.5435     7.4282     8.2190   125.8054     0.0745     2.5221     0.0713
  915.0000    13.2042     8.5690   -37.3453     7.4463     8.2235   125.3285     0.0751     2.5212     0.0677
  915.5000    12.6250     8.7109   -37.1470     7.4643     8.2280   124.0851     0.0762     2.5188     0.0692
  916.0000    13.0209     8.8551   -36.9480     7.4824     8.2325   122.8590     0.0774     2.5164     0.0742
  916.5000    13.3498     9.0016   -36.7546     7.5005     8.2371   121.6396     0.0786     2.5140     0.0766
  917.0000    13.7149     9.1506   -36.6401     7.5186     8.2416   120.4024     0.0798     2.5116     0.0777
  917.5000    13.2193     9.3021   -36.4341     7.5418     8.2217   119.1961     0.0810     2.5093     0.0787
  918.0000    13.4666     9.4561   -36.4578     7.5410     8.1945   117.1289     0.0804     2.5076     0.0799
  918.5000    13.8417     9.5796   -36.4937     7.5015     8.1659   115.1191     0.0802     2.5078     0.0775
  919.0000    13.3780     9.3312   -36.5313     7.4604     8.1406   113.9291     0.0876     2.4975     0.0736
  919.5000    12.9984     9.1324   -36.5683     7.4195     8.1632   116.1145     0.0945     2.4873     0.0690
  920.0000    12.5093     8.9378   -36.6053     7.3789     8.1773   117.6449     0.1014     2.4770     0.0643
  920.5000    12.5700     8.7474   -36.6423     7.3384     8.1529   116.3905     0.1045     2.4751     0.0648
  921.0000    12.6615     8.5610   -36.6794     7.2982     8.1294   115.1748     0.1006     2.4797     0.0655
  921.5000    12.8594     8.3786   -36.7164     7.2582     8.1060   113.9553     0.0968     2.4844     0.0663
  922.0000    12.5943     8.1925   -36.7534     7.2184     8.0822   112.7346     0.0930     2.4892     0.0670
  922.5000    12.3164     8.1175   -36.7904     7.1789     8.0596   111.5171     0.0922     2.4939     0.0677
  923.0000    12.0420     8.3017   -36.8274     7.1395     8.0807   110.4167     0.0922     2.4974     0.0684
  923.5000    11.7265     8.4938   -36.8644     7.1004     8.0903   110.8967     0.0937     2.4915     0.0692
  924.0000    12.1185     8.6904   -36.9014     7.0710     8.1025   111.5952     0.0967     2.4856     0.0699
  924.5000    12.6037     8.8916   -36.9382     7.1713     8.1151   112.2997     0.0996     2.4797     0.0691
  925.0000    12.8594     9.0978   -36.9738     7.2528     8.1426   113.0041     0.1026     2.4739     0.0677
  925.5000    12.3030     9.3072   -37.0173     7.3356     8.1262   113.7084     0.1056     2.4680     0.0662
  926.0000    11.9499     9.4909   -37.1774     7.4171     8.1103   114.2969     0.1086     2.4622     0.0648
  926.5000    11.9412     9.3976   -37.2303     7.5414     8.1015   112.8127     0.1116     2.4563     0.0614
  927.0000    12.8305     9.3160   -37.2264     7.5414     8.1016   111.1028     0.1146     2.4505     0.0578
  927.5000    13.2193     9.2351   -37.2611     7.4724     8.1029   109.3507     0.1134     2.4521     0.0573
  928.0000    12.6438     9.1548   -37.3006     7.3788     8.1086   109.6300     0.1112     2.4569     0.0566
