~VERSION INFORMATION
 VERS.                2.0:   CWLS LOG ASCII STANDARD - VERSION 2.0
 WRAP.                 NO:   ONE LINE PER DEPTH STEP
~WELL INFORMATION
#MNEM.UNIT      DATA TYPE    INFORMATION
#----------   ------------   ------------------------------
 STRT.F          588.0000:   START DEPTH
 STOP.F         1583.5000:   STOP DEPTH
 STEP.F            0.5000:   STEP LENGTH
 NULL.          -999.2500:   NO VALUE
 COMP.   FENIX & SCISSONS:   COMPANY
 WELL.   NPR 3 #23STX1-11:   WELL
 FLD .             TEAPOT:   FIELD
 LOC .      S11 T38N R78W:   LOCATION
 CNTY.            NATRONA:   COUNTY
 STAT.            WYOMING:   STATE
 CTRY. UNITED STATES OF AMERICA:   COUNTRY
 SRVC.            Unknown:   SERVICE COMPANY
 DATE.        15-JUN-1979:   LOGDATE
 API .       490251078300:   API NUMBER
~CURVE INFORMATION
#MNEM.UNIT       API CODE    CURVE DESCRIPTION
#----------   ------------   ------------------------------
 DEPT.F                  :   
 RHOB.G/C3   45 350 01 00:   BULK DENSITY
 DPHI.DEC    45 890 10 00:   DENSITY POROSITY LIMESTONE
 CORR.G/C3   45 356 01 00:   DENSITY CORRECTION
 GRD .GAPI   45 310 01 00:   GAMMA RAY FROM DENSITY LOG
 CALD.IN     45 280 60 00:   CALIPER FROM DENSITY LOG
~PARAMETER INFORMATION
#MNEM.UNIT          VALUE    DESCRIPTION
#----------   ------------   ------------------------------
 PD  .                 GL:   PERMANENT DATUM
 EPD .F              5168:   ELEVATION PERMANENT DATUM
 LMF .                 KB:   LOG MEASURED FROM
 DAPD.F                10:   FEET ABOVE PERMANENT DATUM
 DMF .                 KB:   DRILLING MEASURED FROM
 EKB .F              5178:   KELLING BUSHING
 EGL .F              5168:   GROUND LEVEL
 DATE.            6-15-79:   RUN DATE
 RUN .                  1:   RUN NUMBER
 DD  .F              1580:   DEPTH DRILLER
 DL  .F              1580:   DEPTH LOGGER
 BLI .F              1578:   BOTTOM LOG INTERVAL
 TLI .F               680:   TOP LOG INTERVAL
 CS  .IN            9.625:   CASING SIZE
 CBD .F               660:   CASING BOTTOM DRILLER
 CBL .F               670:   CASING BOTTOM LOGGER
 BS  .IN             8.75:   BIT SIZE
 BSD .F              1580:   BIT SIZE AT DEPTH
 DFT .                OIL:   DRILLING FLUID TYPE
 TCS .HRS               4:   TIME CURCULATED STOPPED
 MRT .F                80:   MAXIMUM RECORDED TEMPERATURE
 LUN .               3029:   LOGGING UNIT NUMBER
 LUL .             CASPER:   LOGGING UNIT LOCATION
 ENGI.            MULLINS:   RECORDING ENGINEER
 CLNT.            A2DTECH:   CLIENT CODE
 ORIG.     1", 2.5" PRINT:   ORIGIN OF DATA
 UWI .       490251078300:   UNIQUE WELL ID
 DICO. A2D Technologies, Inc.:   DIGITIZING COMPANY
~OTHER INFORMATION
~A   DEPT     RHOB       DPHI       CORR         GRD      CALD   
# ...
  710.0000     2.4812     0.0454     0.0020    99.1264     9.3130
  710.5000     2.4829     0.0429     0.0014    99.0034     9.3130
  711.0000     2.4826     0.0436     0.0008    99.9790     9.3130
  711.5000     2.4829     0.0444     0.0003    99.6936     9.3130
  712.0000     2.4828     0.0452     0.0000    97.1275     9.3130
  712.5000     2.4921     0.0367     0.0021    94.7080     9.3124
  713.0000     2.5048     0.0301     0.0049    93.9210     9.3116
  713.5000     2.5133     0.0264     0.0076    93.1705     9.3109
  714.0000     2.5176     0.0229     0.0105    91.7578     9.3102
  714.5000     2.5216     0.0194     0.0130    90.5843     9.3094
  715.0000     2.5365     0.0121     0.0159    89.3984     9.3087
  715.5000     2.5326     0.0152     0.0128    87.9207     9.3080
  716.0000     2.5184     0.0219     0.0092    89.0830     9.3072
  716.5000     2.4981     0.0364     0.0054    92.0011     9.3065
  717.0000     2.4907     0.0389     0.0014    94.9077     9.3057
  717.5000     2.4902     0.0389     0.0011    97.3108     9.3050
  718.0000     2.4895     0.0389     0.0040    98.8708     9.3043
  718.5000     2.4891     0.0381     0.0066   100.1780     9.3035
  719.0000     2.4932     0.0368     0.0090    99.7769     9.3028
  719.5000     2.4966     0.0355     0.0121    97.4876     9.3021
  720.0000     2.5004     0.0336     0.0154    96.0172     9.3013
  720.5000     2.5040     0.0306     0.0201    95.0534     9.3006
  721.0000     2.5077     0.0277     0.0231    94.0595     9.2999
  721.5000     2.5130     0.0248     0.0267    93.6368     9.2991
  722.0000     2.5186     0.0219     0.0304    92.7154     9.2984
  722.5000     2.5125     0.0254     0.0309    90.6013     9.2977
  723.0000     2.5069     0.0283     0.0250    90.1488     9.2969
  723.5000     2.5096     0.0274     0.0197    92.7752     9.2962
  724.0000     2.5147     0.0267     0.0140    93.2062     9.2955
  724.5000     2.5071     0.0300     0.0086    90.9134     9.2947
  725.0000     2.5080     0.0270     0.0043    92.7976     9.2940
  725.5000     2.5144     0.0241     0.0076    93.9196     9.2933
  726.0000     2.5199     0.0211     0.0111    91.4649     9.2925
  726.5000     2.5239     0.0194     0.0064    89.8691     9.2918
  727.0000     2.5090     0.0348    -0.0076    88.8635     9.2910
  727.5000     2.4804     0.0437    -0.0192    89.9520     9.2903
  728.0000     2.4760     0.0479    -0.0108    92.2173     9.2896
  728.5000     2.4725     0.0494    -0.0027    91.8760     9.2888
  729.0000     2.4701     0.0508    -0.0021    90.2865     9.2881
  729.5000     2.4674     0.0523    -0.0062    92.7478     9.2874
  730.0000     2.4650     0.0516    -0.0072    95.8376     9.2866
  730.5000     2.4727     0.0484    -0.0033    99.8896     9.2859
  731.0000     2.4815     0.0437    -0.0002   100.5319     9.2852
  731.5000     2.4838     0.0434     0.0037    99.4925     9.2844
  732.0000     2.4804     0.0430     0.0034   100.6753     9.2837
  732.5000     2.4850     0.0425     0.0026   102.7580     9.2830
  733.0000     2.4894     0.0407     0.0018   100.3922     9.2822
  733.5000     2.4891     0.0389     0.0012    95.2641     9.2815
  734.0000     2.4970     0.0373    -0.0002    92.8926     9.2808
  734.5000     2.5030     0.0350     0.0050    95.2450     9.2800
  735.0000     2.5024     0.0340     0.0141    98.5781     9.2793
  735.5000     2.4946     0.0381     0.0145    96.3123     9.2785
  736.0000     2.4870     0.0417     0.0081    92.9260     9.2778
  736.5000     2.4791     0.0455     0.0023    92.7987     9.2771
  737.0000     2.4789     0.0443    -0.0027    94.6037     9.2763
  737.5000     2.4927     0.0413    -0.0075    95.4811     9.2756
  738.0000     2.5056     0.0354     0.0030    92.5562     9.2749
  738.5000     2.5167     0.0249     0.0141    89.6765     9.2741
  739.0000     2.5320     0.0138     0.0434    91.6736     9.2734
  739.5000     2.6576    -0.0339     0.2005    90.7633     9.2726
  740.0000     2.8946    -0.1004     0.5212    86.5899     9.2726
  740.5000     3.0127    -0.1004     0.4974    84.6588     9.2730
  741.0000     2.9961    -0.1004     0.5153    86.8314     9.2735
  741.5000     2.8554    -0.0996     0.3535    88.5045     9.2739
  742.0000     2.5358    -0.0157    -0.0183    87.4486     9.2743
  742.5000     2.5031     0.0239    -0.0065    84.7931     9.2747
  743.0000     2.5081     0.0319    -0.0120    80.3890     9.2752
  743.5000     2.5009     0.0348    -0.0044    78.7359     9.2756
  744.0000     2.4940     0.0377     0.0030    84.1254     9.2760
  744.5000     2.4908     0.0371     0.0065    86.0194     9.2765
  745.0000     2.4994     0.0342     0.0098    86.0774     9.2769
  745.5000     2.5084     0.0309     0.0127    88.2750     9.2773
  746.0000     2.5198     0.0216     0.0165    87.9437     9.2777
  746.5000     2.5329     0.0115     0.0199    88.4621     9.2782
  747.0000     2.5369     0.0104     0.0232    90.5445     9.2786
  747.5000     2.5392     0.0091     0.0272    91.3543     9.2790
  748.0000     2.5317     0.0090     0.0249    89.6414     9.2794
  748.5000     2.5234     0.0171     0.0173    86.1766     9.2799
  749.0000     2.5150     0.0243     0.0103    83.3721     9.2803
  749.5000     2.5073     0.0316     0.0024    82.6737     9.2807
  750.0000     2.4987     0.0340     0.0036    84.6923     9.2811
  750.5000     2.5029     0.0305     0.0116    87.8074     9.2816
  751.0000     2.5102     0.0261     0.0186    88.1548     9.2820
  751.5000     2.5182     0.0220     0.0262    89.3375     9.2824
  752.0000     2.5217     0.0217     0.0258    92.1737     9.2829
  752.5000     2.5158     0.0213     0.0206    91.6067     9.2833
  753.0000     2.5104     0.0294     0.0160    89.7110     9.2837
  753.5000     2.5045     0.0318     0.0123    87.0450     9.2841
  754.0000     2.5050     0.0308     0.0122    84.4741     9.2846
  754.5000     2.5079     0.0300     0.0115    83.5985     9.2850
  755.0000     2.5108     0.0286     0.0101    84.2926     9.2854
  755.5000     2.5136     0.0269     0.0086    84.8038     9.2858
  756.0000     2.5165     0.0243     0.0104    87.5618     9.2863
  756.5000     2.5193     0.0207     0.0165    87.4862     9.2867
  757.0000     2.5226     0.0186     0.0227    85.3481     9.2871
  757.5000     2.5209     0.0209     0.0225    88.9477     9.2875
  758.0000     2.5163     0.0229     0.0189    94.7421     9.2880
  758.5000     2.5172     0.0224     0.0157    96.2859     9.2884
  759.0000     2.5203     0.0208     0.0127    94.7634     9.2888
  759.5000     2.5231     0.0192     0.0092    93.3748     9.2893
  760.0000     2.5232     0.0186     0.0088    92.7702     9.2897
  760.5000     2.5242     0.0186     0.0105    90.6246     9.2901
  761.0000     2.5264     0.0181     0.0119    87.4623     9.2905
  761.5000     2.5286     0.0161     0.0134    85.5640     9.2910
  762.0000     2.5310     0.0140     0.0148    85.6627     9.2914
  762.5000     2.5329     0.0121     0.0159    87.9289     9.2918
  763.0000     2.5347     0.0152     0.0130    90.0508     9.2922
  763.5000     2.5229     0.0207     0.0103    91.6065     9.2927
  764.0000     2.5141     0.0253     0.0075    92.1842     9.2931
  764.5000     2.5079     0.0275     0.0048    93.9633     9.2935
  765.0000     2.5053     0.0283     0.0080    98.0705     9.2940
  765.5000     2.5141     0.0258     0.0132   101.5914     9.2944
  766.0000     2.5217     0.0146     0.0187   105.4358     9.2948
  766.5000     2.5261     0.0172     0.0189   102.1050     9.2952
  767.0000     2.5216     0.0211     0.0160    98.2702     9.2957
  767.5000     2.5176     0.0231     0.0134    94.1839     9.2961
  768.0000     2.5097     0.0247     0.0103    93.1452     9.2965
  768.5000     2.4978     0.0303     0.0062    93.0178     9.2970
  769.0000     2.4903     0.0364     0.0022    90.7019     9.2974
  769.5000     2.4905     0.0373     0.0001    88.1353     9.2978
  770.0000     2.4968     0.0364     0.0055    89.0354     9.2982
  770.5000     2.5004     0.0310     0.0109    93.6424     9.2987
