~VERSION INFORMATION
 VERS.                2.0:   CWLS LOG ASCII STANDARD - VERSION 2.0
 WRAP.                 NO:   ONE LINE PER DEPTH STEP
~WELL INFORMATION
#MNEM.UNIT      DATA TYPE    INFORMATION
#----------   ------------   ------------------------------
 STRT.F           20.5000:   START DEPTH
 STOP.F          544.0000:   STOP DEPTH
 STEP.F            0.5000:   STEP LENGTH
 NULL.          -999.2500:   NO VALUE
 COMP. LAWRENCE/ALLISON INC:   COMPANY
 WELL.    45-65 SX #10-10:   WELL
 FLD .             TEAPOT:   FIELD
 LOC .      S10 T38N R78W:   LOCATION
 CNTY.            NATRONA:   COUNTY
 STAT.            WYOMING:   STATE
 CTRY. UNITED STATES OF AMERICA:   COUNTRY
 SRVC.            Unknown:   SERVICE COMPANY
 DATE.        01-SEP-1984:   LOGDATE
 API .       490251098400:   API NUMBER
~CURVE INFORMATION
#MNEM.UNIT       API CODE    CURVE DESCRIPTION
#----------   ------------   ------------------------------
 DEPT.F                  :   
 GRD .GAPI   45 310 01 00:   GAMMA RAY FROM DENSITY LOG
 CALD.IN     45 280 60 00:   CALIPER
 DEN .G/C3   45 350 01 00:   COMPENSATED BULK DENSTIY
 CORR.G/C3   45 356 01 00:   DENSITY CORRECTION
 CNC .DEC    42 890 03 00:   NEUTRON POROSITY SANDSTONE
 PORD.DEC    45 890 12 00:   POROSITY DENSITY SANDSTONE
 AC  .US/F   60 520 00 00:   ACOUSTIC SONIC
 SPR .MV     07 010 01 00:   SPONTANEOUS POTENTIAL
 RILD.OHMM   07 120 46 00:   INDUCTION LOG DEEP RESISTIVITY
 RILM.OHMM   07 120 44 00:   INDUCTION LOG MEDIUM RESISTIVITY
 RFOC.OHMM   07 220 04 00:   RESISTIVITY FOCUSED LOG
~PARAMETER INFORMATION
#MNEM.UNIT          VALUE    DESCRIPTION
#----------   ------------   ------------------------------
 PD  .                 GL:   PERMANENT DATUM
 EPD .F              5208:   ELEVATION PERMANENT DATUM
 LMF .                 KB:   LOG MEASURED FROM
 DAPD.F                12:   FEET ABOVE PERMANENT DATUM
 DMF .                 KB:   DRILLING MEASURED FROM
 EKB .F              5220:   KELLING BUSHING
 EGL .F              5208:   GROUND LEVEL
 DATE.        1-SEPT-1984:   RUN DATE
 RUN .                  1:   RUN NUMBER
 DD  .F               550:   DEPTH DRILLER
 DL  .F               544:   DEPTH LOGGER
 BLI .F               544:   BOTTOM LOG INTERVAL
 TLI .F                30:   TOP LOG INTERVAL
 CBL .F                44:   CASING BOTTOM LOGGER
 BS  .IN            7.875:   BIT SIZE
 BSD .F               550:   BIT SIZE AT DEPTH
 DFT .          KCL WATER:   DRILLING FLUID TYPE
 MSS .               TANK:   MUD SAMPLE SOURCE
 RMS .OHMM           .236:   RESISTIVITY MUD SAMPLE
 MST .F                75:   MUD SAMPLE TEMPERATURE
 TCS .HRS               3:   TIME CURCULATED STOPPED
 MRT .F               100:   MAXIMUM RECORDED TEMPERATURE
 LUN .               4082:   LOGGING UNIT NUMBER
 LUL .               ROOS:   LOGGING UNIT LOCATION
 ENGI.             MILLER:   RECORDING ENGINEER
 WITN.            JOHNSON:   WITNESSED BY
 CLNT.            A2DTECH:   CLIENT CODE
 ORIG.       2", 5" PRINT:   ORIGIN OF DATA
 UWI .       490251098400:   UNIQUE WELL ID
 DICO. A2D Technologies, Inc.:   DIGITIZING COMPANY
~OTHER INFORMATION
~A   DEPT      GRD       CALD        DEN       CORR          CNC     PORD         AC        SPR       RILD       RILM       RFOC   
# ...
  203.5000   113.3991     8.4752     2.4845     0.0118     0.2448     0.1191   103.6967   -23.3402     7.7964     7.8203     9.2409
  204.0000   110.8746     8.4752     2.4760     0.0379     0.2517     0.1205   103.7877   -23.0238     7.7958     7.8428     9.2204
  204.5000   108.3189     8.4752     2.4651     0.0340     0.2606     0.1311   103.8861   -22.7029     7.7960     7.8653     9.2002
  205.0000   107.6611     8.4752     2.4593     0.0304     0.2589     0.1250   104.1858   -22.3695     7.6145     7.9402     9.0879
  205.5000   109.1127     8.4752     2.4693     0.0410     0.2665     0.1310   104.6135   -22.0371     7.4869     7.9406     8.9326
  206.0000   109.4398     8.4752     2.4801     0.0518     0.2661     0.1181   105.0782   -21.6967     7.3612     7.7734     8.7800
  206.5000   107.1898     8.4752     2.4888     0.0432     0.2406     0.1150   105.5087   -21.4700     7.2376     7.5917     8.6300
  207.0000   109.1356     8.4752     2.4857     0.0325     0.2455     0.1169   105.7012   -21.2425     7.1273     7.4142     8.4826
  207.5000   112.2503     8.4752     2.4824     0.0218     0.2386     0.1188   105.8937   -21.0141     6.9654     7.2410     8.3419
  208.0000   114.9877     8.4752     2.4791     0.0158     0.2491     0.1171   106.3162   -20.7848     6.8072     7.0718     8.1647
  208.5000   113.2426     8.4752     2.4832     0.0225     0.2550     0.1110   106.6302   -20.5532     6.7294     6.9067     7.9914
  209.0000   111.1651     8.4752     2.4934     0.0300     0.2561     0.1141   107.1980   -19.9332     6.3976     6.7453     7.8948
  209.5000   109.6847     8.4752     2.4957     0.0377     0.2572     0.1106   107.6639   -19.9206     6.1103     6.4234     7.7454
  210.0000   110.3193     8.4751     2.4792     0.0404     0.2598     0.1403   108.2554   -19.9574     5.8358     6.0997     7.5988
  210.5000   110.9045     8.4745     2.4618     0.0411     0.2582     0.1315   108.8811   -19.9915     5.5736     5.7924     7.3374
  211.0000   111.5164     8.4714     2.4454     0.0418     0.2593     0.1402   109.5622   -20.0246     5.3233     5.5005     6.9156
  211.5000   110.6383     8.4684     2.4492     0.0425     0.2571     0.1267   110.2933   -20.0576     5.0834     5.2737     6.4722
  212.0000   109.1950     8.4654     2.4774     0.0432     0.2463     0.1036   111.0718   -20.0922     4.9678     5.3418     5.9015
  212.5000   110.3670     8.4624     2.5039     0.0440     0.2393     0.1086   111.6950   -20.0494     5.1405     5.3916     6.0782
  213.0000   111.8781     8.4594     2.5046     0.0516     0.2417     0.1053   111.8781   -19.9589     5.2780     5.6132     6.5335
  213.5000   111.3741     8.4564     2.5003     0.0597     0.2393     0.1089   111.4883   -19.7993     5.4791     5.8634     7.0228
  214.0000   111.2017     8.4534     2.4931     0.0677     0.2484     0.1134   110.0349   -19.5033     5.7515     6.1247     7.5488
  214.5000   114.7821     8.4504     2.4886     0.0636     0.2526     0.1135   108.2480   -19.2093     6.0374     6.3976     8.0030
  215.0000   118.1248     8.4474     2.4897     0.0580     0.2529     0.1137   106.4740   -18.9150     6.3375     6.6828     8.2160
  215.5000   118.8550     8.4444     2.4903     0.0525     0.2549     0.1138   105.2865   -18.6195     6.6525     6.9808     8.3137
  216.0000   116.4723     8.4415     2.4849     0.0470     0.2405     0.1166   104.5808   -18.3269     6.9832     7.2917     8.3137
  216.5000   113.9426     8.4384     2.4806     0.0397     0.2457     0.1186   104.7964   -18.2553     7.3303     7.5960     8.2794
  217.0000   111.3890     8.4355     2.4857     0.0321     0.2426     0.1163   105.2030   -18.1943     7.6185     7.7217     8.2414
  217.5000   111.3848     8.4354     2.4907     0.0246     0.2465     0.1133   105.6097   -18.1283     7.6536     7.8495     8.2376
  218.0000   114.6286     8.4354     2.4905     0.0170     0.2471     0.1161   106.0839   -18.2268     7.6372     7.9402     8.5623
  218.5000   117.9048     8.4354     2.4837     0.0164     0.2478     0.1186   105.8089   -18.3593     7.6241     7.9402     8.8208
  219.0000   118.2380     8.4354     2.4833     0.0170     0.2486     0.1163   105.5260   -18.6222     7.6112     7.9402     9.1141
  219.5000   114.7480     8.4354     2.4869     0.0177     0.2533     0.1130   105.2431   -18.8843     7.5984     7.9392     9.1057
  220.0000   111.1506     8.4354     2.4891     0.0215     0.2517     0.1158   104.9603   -19.1454     7.5857     7.8686     9.0890
  220.5000   108.1238     8.4354     2.4873     0.0270     0.2501     0.1142   104.8170   -19.4065     7.5729     7.8667     9.0723
  221.0000   109.2311     8.4354     2.4857     0.0322     0.2501     0.1158   104.9004   -19.6680     7.5602     7.8675     9.0556
  221.5000   113.3503     8.4354     2.4848     0.0333     0.2517     0.1147   104.9850   -19.9269     7.5475     7.8676     9.0390
  222.0000   117.3490     8.4354     2.4856     0.0248     0.2564     0.1011   105.0947   -20.1864     7.5348     7.8676     9.0224
  222.5000   119.5058     8.4354     2.4865     0.0164     0.2601     0.1114   105.2797   -20.0785     7.5222     7.8676     9.0058
  223.0000   119.5400     8.4354     2.5016     0.0078     0.2633     0.0822   105.6338   -19.8901     7.5095     7.8676     8.9892
  223.5000   115.5790     8.4354     2.5403    -0.0018     0.2573     0.0589   105.8836   -19.6841     7.4969     7.8676     8.9726
  224.0000   111.4083     8.4354     2.5890     0.0025     0.2441     0.0962   106.1909   -19.4745     7.4843     7.8676     8.9497
  224.5000   110.6385     8.4354     2.5704     0.0364     0.2391     0.0918   106.4747   -19.2657     7.4717     7.8676     8.9893
  225.0000   114.8148     8.4354     2.5254     0.0618     0.2405     0.0882   105.5436   -19.0566     7.4591     7.8676     9.0723
  225.5000   118.9529     8.4354     2.4828     0.0601     0.2373     0.1170   104.2827   -18.8477     7.4466     7.8676     9.1561
  226.0000   118.4423     8.4354     2.4819     0.0374     0.2373     0.1154   103.0320   -18.6406     7.4711     7.8676     9.1892
  226.5000   114.9845     8.4354     2.4846     0.0105     0.2377     0.1158   102.1878   -18.5367     7.4998     7.8676     9.0633
  227.0000   111.4192     8.4354     2.4872    -0.0120     0.2385     0.1142   103.0617   -18.5971     7.5286     7.8676     8.9745
  227.5000   110.2321     8.4354     2.4889    -0.0064     0.2380     0.1244   104.7133   -18.6551     7.5576     7.8681     8.8866
  228.0000   110.7372     8.4354     2.4739     0.0014     0.2561     0.1395   106.3828   -18.7136     7.5840     7.8658     8.7995
  228.5000   111.3306     8.4354     2.4570    -0.0011     0.2503     0.1380   106.8447   -18.7719     7.5835     7.8724     8.7133
  229.0000   112.0146     8.4354     2.4477    -0.0121     0.2517     0.1386   106.7601   -18.8304     7.4193     7.6536     8.7047
  229.5000   115.6969     8.4354     2.4404    -0.0229     0.2464     0.1423   106.6731   -18.8883     7.2409     7.4988     8.9893
  230.0000   123.6817     8.4354     2.4387    -0.0213     0.2389     0.1222   106.5860   -18.9771     7.0669     7.3472     9.2602
  230.5000   130.5621     8.4354     2.4512     0.0333     0.2421     0.1267   106.4985   -19.0829     6.9707     7.1986     8.7942
  231.0000   129.8417     8.4354     2.4675     0.0644     0.2397     0.1295   106.9813   -19.1892     6.8648     7.0531     8.1358
  231.5000   121.8738     8.4329     2.4839     0.0702     0.2546     0.1134   108.2862   -19.2955     6.7604     6.9105     7.5280
  232.0000   117.4246     8.4298     2.4927     0.0628     0.2822     0.1321   109.9099   -19.4018     6.6678     6.7708     7.2660
  232.5000   120.0783     8.4268     2.4836     0.0495     0.2990     0.1259   111.4785   -19.5081     6.3619     6.6068     7.6260
  233.0000   122.8239     8.4237     2.4605     0.0364     0.2987     0.1543   111.8781   -19.6144     6.0278     6.3884     7.8952
  233.5000   123.1840     8.4206     2.4232     0.0259     0.2917     0.1628   111.3786   -19.7207     5.7112     6.0720     8.1735
