~VERSION INFORMATION
 VERS.                2.0:   CWLS LOG ASCII STANDARD - VERSION 2.0
 WRAP.                 NO:   ONE LINE PER DEPTH STEP
~WELL INFORMATION
#MNEM.UNIT      DATA TYPE    INFORMATION
#----------   ------------   ------------------------------
 STRT.F           32.0000:   START DEPTH
 STOP.F          557.0000:   STOP DEPTH
 STEP.F            0.5000:   STEP LENGTH
 NULL.          -999.2500:   NO VALUE
 COMP. FENIX & SCISSON U.S. NAVY:   COMPANY
 WELL.   S-3 NPR #3 #31-3:   WELL
 FLD .              NPR-3:   FIELD
 LOC .       S3 T38N R78W:   LOCATION
 CNTY.            NATRONA:   COUNTY
 STAT.            WYOMING:   STATE
 CTRY. UNITED STATES OF AMERICA:   COUNTRY
 SRVC.              Welex:   SERVICE COMPANY
 DATE.        05-MAR-1977:   LOGDATE
 API .       490251039500:   API NUMBER
~CURVE INFORMATION
#MNEM.UNIT       API CODE    CURVE DESCRIPTION
#----------   ------------   ------------------------------
 DEPT.F                  :   
 CALD.IN     45 280 60 00:   CALIPER FROM DENSITY LOG
 DPHI.DEC    45 890 12 00:   DENSITY POROSITY SANDSTONE
 DRHO.G/C3   45 356 01 00:   DENSITY CORRECTION
 GRD .GAPI   45 310 01 00:   GAMMA RAY FROM DENSITY LOG
 RHOB.G/C3   45 350 01 00:   BULK DENSITY
 ILD .OHMM   07 120 46 00:   INDUCTION LOG DEEP
 ILM .OHMM   07 120 44 00:   INDUCTION LOG MEDIUM
 SGRD.OHMM   07 220 05 00:   SHALLOW GUARD RESISTIVITY
 SPR .MV     07 010 01 00:   SPONTANEOUS POTENTIAL FROM RES.
~PARAMETER INFORMATION
#MNEM.UNIT          VALUE    DESCRIPTION
#----------   ------------   ------------------------------
 PD  .                 GL:   PERMANENT DATUM
 EPD .F              5178:   ELEVATION PERMANENT DATUM
 LMF .                 GL:   LOG MEASURED FROM
 DMF .                 GL:   DRILLING MEASURED FROM
 EGL .F              5178:   GROUND LEVEL
 DATE.        05-MAR-1977:   RUN DATE
 RUN .                  1:   RUN NUMBER
 DD  .F               560:   DEPTH DRILLER
 DL  .F               560:   DEPTH LOGGER
 BLI .F               558:   BOTTOM LOG INTERVAL
 TLI .F                40:   TOP LOG INTERVAL
 CS  .IN            8.625:   CASING SIZE
 CBD .F                43:   CASING BOTTOM DRILLER
 CBL .F                43:   CASING BOTTOM LOGGER
 BS  .IN            7.875:   BIT SIZE
 BSD .F               560:   BIT SIZE AT DEPTH
 DFT .                KCL:   DRILLING FLUID TYPE
 DFD .                8.8:   DRILLING FLUID DENSITY
 DFV .                 32:   DRILLING FLUID VISCOSITY
 MSS .           FLOWLINE:   MUD SAMPLE SOURCE
 RMS .OHMM           1.46:   RESISTIVITY MUD SAMPLE
 MST .F                48:   MUD SAMPLE TEMPERATURE
 RMF .OHMM          0.972:   RESISTIVITY MUD FILTRATE SAMPLE
 MFST.F                48:   MUD FILTRATE SAMPLE TEMPERATURE
 RMC .OHMM           2.32:   RESISTIVITY MUD CAKE
 MCST.F                48:   MUD CAKE SAMPLE TEMPERATURE
 MFSS.               MEAS:   MUD FILTRATE SAMPLE SOURCE
 MCSS.               MEAS:   MUD CAKE SAMPLE SOURCE
 RMB .OHMM           1.03:   RESISTIVITY MUD AT BHT
 BHT .F                68:   BOTTOM HOLE TEMPERATURE
 TCS .HRS               2:   TIME CURCULATED STOPPED
 MRT .F                68:   MAXIMUM RECORDED TEMPERATURE
 LUN .               8611:   LOGGING UNIT NUMBER
 LUL .           GILLETTE:   LOGGING UNIT LOCATION
 ENGI.          D. LAWSON:   RECORDING ENGINEER
 WITN.     MR. STUEBINGER:   WITNESSED BY
 CLNT.            A2DTECH:   CLIENT CODE
 ORIG.           5" PRINT:   ORIGIN OF DATA
 UWI .       490251039500:   UNIQUE WELL ID
 DICO. A2D Technologies, Inc.:   DIGITIZING COMPANY
~OTHER INFORMATION
~A   DEPT       CALD     DPHI        DRHO        GRD        RHOB      ILD        ILM       SGRD        SPR   
# ...
  251.0000     8.1157     0.1480     0.0161   114.1200     2.3990     5.0238     5.7673     5.1251   -19.4364
  251.5000     8.1169     0.1463     0.0148   113.5410     2.4013     5.1371     5.9775     5.4741   -19.5057
  252.0000     8.1180     0.1349     0.0135   113.4098     2.4247     5.3175     6.2738     8.2959   -19.5751
  252.5000     8.1192     0.1178     0.0167   115.5266     2.4562     5.5464     6.5431     8.4149   -19.5835
  253.0000     8.1203     0.1100     0.0169   116.0288     2.4638     5.6200     6.7301     7.9672   -19.5714
  253.5000     8.1215     0.1105     0.0201   117.0435     2.4624     5.9431     6.9226     8.3671   -19.7061
  254.0000     8.1226     0.1039     0.0232   118.9941     2.4737     6.2841     7.1699     8.9715   -19.8432
  254.5000     8.1089     0.1009     0.0249   118.0919     2.4761     6.6447     7.4261     8.9145   -19.8315
  255.0000     8.0952     0.1047     0.0236   119.7494     2.4745     6.9294     7.7455     8.7967   -19.8199
  255.5000     8.0966     0.1017     0.0208   119.9130     2.4718     6.9327     7.8576     8.6207   -19.8082
  256.0000     8.0978     0.1074     0.0210   120.0767     2.4681     6.9360     7.8619     9.1163   -19.7965
  256.5000     8.0990     0.1085     0.0212   120.2403     2.4652     6.9874     7.9757     9.3803   -19.7849
  257.0000     8.1001     0.1073     0.0213   120.5529     2.4668     7.0393     7.9800     9.0633   -19.7732
  257.5000     8.1013     0.1030     0.0200   121.1636     2.4706     7.0426     8.0397     9.3359   -19.7615
  258.0000     8.1024     0.1000     0.0202   120.2840     2.4797     7.1441     8.0999     9.5898   -19.7498
  258.5000     8.1036     0.1000     0.0189   121.7889     2.4798     7.2470     8.1621     9.5961   -19.7381
  259.0000     8.1048     0.0994     0.0205   124.7841     2.4814     7.4080     8.2278     9.6680   -19.7262
  259.5000     8.1060     0.0981     0.0208   127.3518     2.4845     7.4582     8.4579     9.6733   -19.7119
  260.0000     8.1074     0.0948     0.0224   128.0924     2.4906     7.5656     8.5804     9.6785   -19.7002
  260.5000     8.0933     0.0926     0.0226   127.2159     2.4922     7.6746     8.7046     9.6838   -19.6886
  261.0000     8.1097     0.0908     0.0228   124.2499     2.4967     7.6783     8.7697     9.7563   -19.6769
  261.5000     8.0957     0.0902     0.0230   123.6647     2.4968     7.7889     8.8354     9.8977   -19.6652
  262.0000     8.0971     0.0896     0.0201   124.1300     2.4969     7.7926     8.9015    10.0411   -19.6536
  262.5000     8.0833     0.0865     0.0203   122.7997     2.5000     7.9049     8.9681    10.1865   -19.6419
  263.0000     8.0845     0.0787     0.0205   125.2024     2.5137     7.9086     9.0352    10.1921   -19.6302
  263.5000     8.0857     0.0703     0.0267   126.8563     2.5289     7.9124     9.1029    10.1976   -19.6185
  264.0000     8.1018     0.0720     0.0299   127.0631     2.5340     7.9161     9.1078    10.2032   -19.6069
  264.5000     8.1181     0.0963     0.0241   126.1401     2.5124     7.9199     9.1127    10.2089   -19.5952
  265.0000     8.1192     0.1082     0.0152   125.5587     2.4720     7.9787     9.1178     9.9354   -19.5833
  265.5000     8.1353     0.1091     0.0109   124.9225     2.4645     7.9825     9.0508     9.6694   -19.5714
  266.0000     8.1811     0.1072     0.0125   124.0976     2.4677     7.9871     8.9414     9.6080   -19.7090
  266.5000     8.2417     0.1024     0.0157   123.6687     2.4767     7.9349     8.7626     9.8162   -19.6944
  267.0000     8.3024     0.0973     0.0190   121.1497     2.4828     7.9396     8.6458     9.9584   -19.6827
  267.5000     8.1845     0.0963     0.0221   118.4818     2.4874     7.8334     8.4156    10.0330   -19.6711
  268.0000     8.1262     0.1005     0.0238   119.6886     2.4800     7.7295     8.3034     9.9692   -19.6594
  268.5000     8.1276     0.1053     0.0224   121.1935     2.4726     7.5231     8.1949     9.9747   -19.4989
  269.0000     8.0987     0.1103     0.0196   120.0158     2.4667     7.4233     8.0868     9.7076   -19.4872
  269.5000     8.0701     0.1124     0.0168   120.4775     2.4593     7.2242     7.9789     9.3826   -19.4756
  270.0000     8.0567     0.1147     0.0170   123.6217     2.4564     7.0304     7.6599     9.0684   -19.4639
  270.5000     8.0427     0.1165     0.0172   125.4247     2.4520     6.7948     7.4036     8.8249   -19.4522
  271.0000     8.0739     0.1194     0.0189   122.5574     2.4498     6.5194     7.2042     8.5256   -19.4405
  271.5000     8.0750     0.1221     0.0205   120.9829     2.4476     6.1222     6.9543     8.2932   -19.4286
  272.0000     8.1060     0.1200     0.0208   122.1933     2.4470     5.6463     6.2392     7.6986   -19.4143
  272.5000     8.1086     0.1229     0.0224   121.6118     2.4433     5.1277     5.9477     7.1878   -19.4026
  273.0000     8.1383     0.1271     0.0241   119.2419     2.4359     4.5929     5.5150     6.6186   -19.3909
  273.5000     8.1395     0.1283     0.0273   114.9345     2.4300     4.1138     5.0437     6.0945   -19.3793
  274.0000     8.1555     0.1307     0.0305   114.4984     2.4226     3.7880     4.5808     5.5348   -19.5193
  274.5000     8.1864     0.1473     0.0337   115.1127     2.4062     3.3695     4.0469     4.9574   -19.6565
  275.0000     8.2174     0.1581     0.0368   115.4266     2.3853     2.9972     3.5018     4.3190   -19.6419
  275.5000     8.2334     0.1694     0.0353   112.7586     2.3659     2.7599     3.1804     3.9224   -19.6302
  276.0000     8.2346     0.1844     0.0327   108.3022     2.3311     2.6126     2.9288     3.3240   -19.6185
  276.5000     8.2357     0.2125     0.0239   107.7170     2.3001     2.5250     2.8504     2.9363   -19.6069
  277.0000     8.2369     0.2304     0.0135   107.8843     2.2687     2.5088     2.8520     2.9379   -19.5952
  277.5000     8.2383     0.2447     0.0047   108.9421     2.2321     2.5804     2.9363     3.1083   -19.5833
  278.0000     8.2395     0.2501    -0.0027   111.3770     2.2389     2.7341     3.2401     3.3106   -19.5714
  278.5000     8.2406     0.2276    -0.0055   113.3903     2.2840     2.9663     3.5646     4.7572   -19.5573
  279.0000     8.2418     0.1889    -0.0038   122.4022     2.3208     3.2244     3.9563     5.5650   -19.5456
  279.5000     8.2429     0.1602     0.0024   127.6329     2.3711     3.6284     4.5770     4.6512   -19.5339
  280.0000     8.2441     0.1314     0.0116   131.3733     2.4297     4.1397     5.1865     7.5548   -19.5223
  280.5000     8.2304     0.1191     0.0193   132.1330     2.4515     4.6907     5.6383     7.7711   -19.5106
  281.0000     8.2464     0.1026     0.0270   132.2966     2.4809     5.2419     5.9622     7.7753   -19.4989
  281.5000     8.2327     0.0977     0.0302   132.9073     2.4854     5.6981     6.2181     7.8880   -19.6390
  282.0000     8.2193     0.0989     0.0304   135.3064     2.4810     6.0250     6.3960     8.0022   -19.6244
  282.5000     8.2353     0.1007     0.0305   135.6408     2.4766     6.1969     6.4886     8.0611   -19.4639
  283.0000     8.2365     0.1037     0.0307   133.9943     2.4745     6.2862     6.5825     7.9557   -19.4522
  283.5000     8.2376     0.1039     0.0309   131.6110     2.4738     6.2892     6.5861     7.7427   -19.4405
  284.0000     8.2236     0.1044     0.0311   129.7974     2.4739     6.2923     6.5897     7.6935   -19.5777
  284.5000     8.2251     0.1074     0.0313   127.7823     2.4694     6.2959     6.5941     7.6978   -19.7148
  285.0000     8.2262     0.1133     0.0315   126.6046     2.4616     6.1271     6.5062     7.8094   -19.7002
  285.5000     8.2274     0.1154     0.0316   125.8704     2.4524     5.9628     6.4212     7.9234   -19.6886
  286.0000     8.2286     0.1172     0.0318   127.3789     2.4488     5.4906     6.2494     7.9277   -19.6769
  286.5000     8.2300     0.1195     0.0320   128.8838     2.4474     5.1976     6.2528     7.9320   -19.6652
  287.0000     8.2311     0.1219     0.0337   131.1339     2.4444     5.0233     6.0019     7.8273   -19.6536
