~VERSION INFORMATION
 VERS.                2.0:   CWLS LOG ASCII STANDARD - VERSION 2.0
 WRAP.                 NO:   ONE LINE PER DEPTH STEP
~WELL INFORMATION
#MNEM.UNIT      DATA TYPE    INFORMATION
#----------   ------------   ------------------------------
 STRT.F           24.5000:   START DEPTH
 STOP.F          750.0000:   STOP DEPTH
 STEP.F            0.5000:   STEP LENGTH
 NULL.          -999.2500:   NO VALUE
 COMP. FENIX & SCISSON INC:   COMPANY
 WELL.    NPR 3 SX #35-11:   WELL
 FLD .          N.P.R. #3:   FIELD
 LOC .      S11 T38N R78W:   LOCATION
 CNTY.            NATRONA:   COUNTY
 STAT.            WYOMING:   STATE
 CTRY. UNITED STATES OF AMERICA:   COUNTRY
 SRVC.            Unknown:   SERVICE COMPANY
 DATE.        23-FEB-1978:   LOGDATE
 API .       490251027200:   API NUMBER
~CURVE INFORMATION
#MNEM.UNIT       API CODE    CURVE DESCRIPTION
#----------   ------------   ------------------------------
 DEPT.F                  :   
 ILM .OHMM   07 120 44 00:   INDUCTION LOG MEDIUM
 ILD .OHMM   07 120 46 00:   INDUCTION LOG DEEP
 LL8 .OHMM   07 220 08 00:   LATEROLOG-8 RES.
 SPR .MV     07 010 01 00:   SPONTANEOUS POTENTIAL
 CALD.IN     45 280 60 00:   CALIPER FROM DENSITY LOG
 CORR.G/C3   45 356 01 00:   DENSITY CORRECTION
 DPHI.DEC    45 890 12 00:   DENSITY POROSITY SANDSTONE
 GRD .GAPI   45 310 01 00:   GAMMA RAY FROM DENSITY LOG
 RHOB.G/C3   45 350 01 00:   BULK DENSITY
 IL  .OHMM   05 120 40 00:   INDUCTION RESISTIVITY
 SN  .OHMM   05 040 16 00:   SHORT NORMAL 16"
 SPR1.MV     05 010 01 00:   SPONTANEOUS POTENTIAL INDUCTION ELECTRICAL LOG
~PARAMETER INFORMATION
#MNEM.UNIT          VALUE    DESCRIPTION
#----------   ------------   ------------------------------
 PD  .                 GL:   PERMANENT DATUM
 EPD .F              5204:   ELEVATION PERMANENT DATUM
 LMF .                 KB:   LOG MEASURED FROM
 DAPD.F                 4:   FEET ABOVE PERMANENT DATUM
 DMF .                 KB:   DRILLING MEASURED FROM
 EKB .F              5208:   KELLING BUSHING
 EGL .F              5204:   GROUND LEVEL
 DATE.        23-FEB-1978:   RUN DATE
 RUN .                  1:   RUN NUMBER
 DD  .F               755:   DEPTH DRILLER
 DL  .F               751:   DEPTH LOGGER
 BLI .F               745:   BOTTOM LOG INTERVAL
 TLI .F                45:   TOP LOG INTERVAL
 CS  .IN            8.625:   CASING SIZE
 CBD .F                40:   CASING BOTTOM DRILLER
 CBL .F                40:   CASING BOTTOM LOGGER
 BS  .IN            7.875:   BIT SIZE
 BSD .F               755:   BIT SIZE AT DEPTH
 DFT .         LIGNO SULF:   DRILLING FLUID TYPE
 DFD .                8.7:   DRILLING FLUID DENSITY
 DFV .                 33:   DRILLING FLUID VISCOSITY
 DFPH.                 10:   DRILLING FLUID PH
 DFL .                  4:   DRILLING FLUID LOSS
 MSS .           FLOWLINE:   MUD SAMPLE SOURCE
 RMS .OHMM            2.0:   RESISTIVITY MUD SAMPLE
 MST .F                60:   MUD SAMPLE TEMPERATURE
 RMF .OHMM            1.9:   RESISTIVITY MUD FILTRATE SAMPLE
 MFST.F                62:   MUD FILTRATE SAMPLE TEMPERATURE
 RMC .OHMM            3.5:   RESISTIVITY MUD CAKE
 MCST.F                60:   MUD CAKE SAMPLE TEMPERATURE
 MFSS.               MEAS:   MUD FILTRATE SAMPLE SOURCE
 RMB .OHMM           1.69:   RESISTIVITY MUD AT BHT
 BHT .F                71:   BOTTOM HOLE TEMPERATURE
 TCS .HRS               3:   TIME CURCULATED STOPPED
 MRT .F                71:   MAXIMUM RECORDED TEMPERATURE
 CLNT.            A2DTECH:   CLIENT CODE
 ORIG.           5" PRINT:   ORIGIN OF DATA
 UWI .       490251027200:   UNIQUE WELL ID
 DICO. A2D Technologies, Inc.:   DIGITIZING COMPANY
~OTHER INFORMATION
~A   DEPT      ILM        ILD        LL8        SPR       CALD       CORR       DPHI         GRD      RHOB         IL         SN       SPR1   
# ...
  612.5000    13.1758    12.6090    13.3116   -30.2781     8.1572     0.0236     0.1490    87.8001     2.4042    10.8578    12.2634   -42.9641
  613.0000    12.8285    12.5307    13.1681   -30.2540     8.1595     0.0205     0.1505    84.8479     2.4013    10.8630    12.1826   -42.7725
  613.5000    12.8418    12.5448    13.0658   -30.5318     8.1766     0.0200     0.1520    84.2707     2.3976    10.7917    12.1023   -42.4194
  614.0000    12.8551    12.6430    13.0575   -30.6659     8.1788     0.0254     0.1486    84.8959     2.4015    10.7226    12.1075   -42.3114
  614.5000    12.9580    12.7420    13.0738   -30.6418     8.1813     0.0230     0.1510    86.4080     2.4024    10.6517    12.1117   -42.1672
  615.0000    13.1525    12.9307    13.3028   -30.4739     8.1982     0.0172     0.1516    88.2177     2.3995    10.5835    12.0051   -41.9112
  615.5000    13.4430    13.2130    13.6794   -30.1574     8.2004     0.0219     0.1437    89.5810     2.4101    10.5136    11.8974   -41.7418
  616.0000    13.8354    13.1310    14.0893   -29.9895     8.2028     0.0228     0.1388    87.8192     2.4238    10.4463    11.8734   -41.5723
  616.5000    13.9461    12.9626    14.1097   -29.5244     8.1896     0.0183     0.1315    86.8016     2.4375    10.3772    11.8502   -41.4030
  617.0000    13.3915    12.7398    13.5314   -28.9107     8.1924     0.0184     0.1258    88.3136     2.4436    10.3108    11.7985   -41.2336
  617.5000    12.9485    12.5980    12.6337   -28.2971     8.1797     0.0192     0.1360    90.1233     2.4204    10.3149    11.8037   -41.1377
  618.0000    12.6950    12.5586    12.1298   -27.8320     8.1818     0.0186     0.1453    90.7426     2.4100    10.3193    11.8078   -41.1951
  618.5000    12.5331    12.3105    12.1447   -27.0697     8.1991     0.0187     0.1495    90.9154     2.4071    10.3236    11.8119   -41.2515
  619.0000    12.3732    11.9887    12.0750   -26.6046     8.2014     0.0203     0.1410    91.7361     2.4109    10.3597    11.8628   -41.2335
  619.5000    12.3001    11.9170    12.0899   -26.4367     8.2036     0.0249     0.1379    93.2634     2.4193    10.4040    11.9026   -41.1350
  620.0000    12.2278    11.8457    12.1897   -25.9716     8.2057     0.0288     0.1451    95.1885     2.4096    10.4084    11.9071   -40.9656
  620.5000    12.2407    11.7747    12.2047   -26.1009     8.2079     0.0251     0.1496    96.0809     2.4029    10.4127    11.8799   -40.7962
  621.0000    12.2534    11.7034    12.2197   -26.3788     8.2104     0.0214     0.1486    96.8660     2.4016    10.4170    11.8321   -40.5410
  621.5000    12.2661    11.7148    12.2347   -26.8052     8.2124     0.0170     0.1420    98.9599     2.4087    10.4214    11.8363   -40.3952
  622.0000    12.1917    11.7253    12.2498   -27.5289     8.2149     0.0224     0.1356    99.8571     2.4217    10.4257    11.8404   -40.4666
  622.5000    12.0343    11.7358    12.1795   -28.4011     8.2168     0.0345     0.1266    99.5833     2.4396    10.4301    11.9272   -40.7822
  623.0000    11.8848    11.8277    12.1095   -28.9761     8.2191     0.0369     0.1201    99.7562     2.4547    10.4344    11.9314   -40.9401
  623.5000    11.8149    11.9194    11.9562   -29.4026     8.2316     0.0302     0.1189    98.4409     2.4549    10.4387    11.9356   -40.7330
  624.0000    11.9197    12.0404    11.9709   -29.8338     8.2384     0.0348     0.1207    98.0185     2.4550    10.3707    11.8569   -40.7974
  624.5000    12.0936    12.1915    11.9856   -30.2554     8.2410     0.0410     0.1207    97.0008     2.4554    10.3649    11.8612   -41.1804
  625.0000    12.2720    12.4577    12.0004   -30.3895     8.2284     0.0418     0.1197    96.1320     2.4507    10.3077    11.8653   -41.5170
  625.5000    12.4505    12.4689    12.1016   -30.8112     8.2306     0.0320     0.1248    94.3702     2.4372    10.3120    11.8693   -41.9034
  626.0000    12.6290    12.3090    12.2872   -30.9453     8.2329     0.0299     0.1320    90.6740     2.4291    10.3163    11.7910   -42.3398
  626.5000    12.7411    12.1512    12.3867   -31.0745     8.2351     0.0284     0.1350    88.7634     2.4262    10.2490    11.7953   -42.4611
  627.0000    12.4085    12.1621    12.4014   -31.2038     8.2374     0.0226     0.1373    89.2339     2.4233    10.2543    11.7992   -41.4822
  627.5000    12.1656    12.0061    12.3261   -31.0311     8.2392     0.0174     0.1427    90.5971     2.4031    10.1865    11.7808   -41.0779
  628.0000    12.0104    11.8495    12.2486   -30.8632     8.2414     0.0138     0.1586    91.0676     2.3859    10.1202    11.7255   -41.0599
  628.5000    11.9367    11.7786    12.0985   -30.5467     8.2287     0.0146     0.1556    89.7523     2.3822    10.1248    11.6487   -40.9299
  629.0000    11.8664    11.5502    12.0282   -30.2302     8.2309     0.0253     0.1498    88.7346     2.4004    10.1290    11.6523   -40.6468
  629.5000    11.7966    11.4021    11.9497   -29.7651     8.2183     0.0344     0.1456    88.3061     2.4148    10.1339    11.6564   -39.9794
  630.0000    11.6492    11.2534    11.8061   -29.4486     8.2206     0.0330     0.1461    89.9730     2.4156    10.1374    11.6605   -39.4387
  630.5000    11.5776    11.2660    11.7462   -28.6864     8.2228     0.0248     0.1468    92.8244     2.4075    10.1516    11.6645   -39.3233
  631.0000    11.5095    11.2761    11.7607   -27.7755     8.2250     0.0211     0.1444    94.7829     2.4053    10.2171    11.7501   -39.4517
  631.5000    11.4418    11.2863    11.6830   -27.1618     8.2273     0.0325     0.1384    96.1462     2.4235    10.2926    11.8363   -39.5836
  632.0000    11.3774    11.2162    11.6260   -26.8453     8.2295     0.0334     0.1357    94.2357     2.4252    10.3685    12.0064   -39.8652
  632.5000    11.3892    11.2288    11.6428   -26.5289     8.2317     0.0327     0.1363    92.6227     2.4237    10.5178    12.2641   -39.9972
  633.0000    11.4010    11.2388    11.6573   -26.5095     8.2340     0.0245     0.1358    91.4563     2.4277    10.6693    12.6148   -40.2788
  633.5000    11.4128    11.2489    11.6718   -26.4902     8.2213     0.0164     0.1389    89.2481     2.4180    11.1276    12.9758   -40.7102
  634.0000    11.5041    11.3370    11.7210   -26.6243     8.2236     0.0112     0.1458    87.7840     2.4121    11.8497    13.4410   -41.5906
  634.5000    11.5961    11.3472    11.8841   -27.1961     8.2109     0.0060     0.1587    89.7425     2.3943    12.9740    14.0202   -42.3214
  635.0000    11.7703    11.4360    12.0030   -28.0651     8.1982     0.0038     0.1629    92.1475     2.3882    14.4035    14.6278   -43.3515
  635.5000    12.0302    11.6857    12.1891   -28.6402     8.1851     0.0130     0.1496    91.1527     2.3946    15.6610    15.3658   -44.6811
  636.0000    12.3837    11.6962    12.3781   -29.2152     8.1730     0.0191     0.1433    87.4229     2.4148    17.0283    16.3735   -46.1603
  636.5000    13.1082    12.3712    12.5700   -29.6417     8.1753     0.0248     0.1459    85.6453     2.4081    18.0081    17.5639   -47.4899
  637.0000    13.9774    14.1170    12.7649   -29.9243     8.1775     0.0321     0.1468    85.7242     2.4105    18.7816    18.8407   -48.2206
  637.5000    15.4352    15.0351    13.1826   -30.2022     8.1798     0.0245     0.1537    86.3090     2.4023    19.1847    20.3394   -48.8017
  638.0000    17.5307    16.3478    15.2971   -30.7724     8.1820     0.0187     0.1588    84.2341     2.3919    19.1927    21.1897   -48.9336
  638.5000    20.0003    19.1770    19.9812   -31.6446     8.1843     0.0226     0.1620    77.2278     2.3867    18.9340    21.0097   -48.9158
  639.0000    21.9207    21.4349    24.3547   -32.6654     8.1865     0.0355     0.1608    71.5000     2.3852    18.4251    20.8305   -48.5987
  639.5000    24.8735    23.7939    29.8492   -32.9433     8.1888     0.0484     0.1557    68.8455     2.3982    17.8040    20.6291   -47.9775
  640.0000    27.1534    26.7796    37.6938   -32.7754     8.1756     0.0289     0.1414    67.2325     2.4224    17.3237    20.4931   -47.0659
