~VERSION INFORMATION
 VERS.                2.0:   CWLS LOG ASCII STANDARD - VERSION 2.0
 WRAP.                 NO:   ONE LINE PER DEPTH STEP
~WELL INFORMATION
#MNEM.UNIT      DATA TYPE    INFORMATION
#----------   ------------   ------------------------------
 STRT.F            6.0000:   START DEPTH
 STOP.F         2600.0000:   STOP DEPTH
 STEP.F            0.5000:   STEP LENGTH
 NULL.          -999.2500:   NO VALUE
 COMP. FENIX & SCISSON INC:   COMPANY
 WELL.   NPR 3 SH #17 -34:   WELL
 FLD .             TEAPOT:   FIELD
 LOC .      S34 T39N R78W:   LOCATION
 CNTY.            NATRONA:   COUNTY
 STAT.            WYOMING:   STATE
 CTRY. UNITED STATES OF AMERICA:   COUNTRY
 SRVC.            Unknown:   SERVICE COMPANY
 DATE.        21-MAR-1978:   LOGDATE
 API .       490251060600:   API NUMBER
~CURVE INFORMATION
#MNEM.UNIT       API CODE    CURVE DESCRIPTION
#----------   ------------   ------------------------------
 DEPT.F                  :   
 NPHI.DEC    42 890 03 00:   NEUTRON POROSITY SANDSTONE
 CALD.IN     45 280 60 00:   CALIPER FROM DENSITY LOG
 GRD .GAPI   45 310 01 00:   GAMMA RAY FROM DENSITY LOG
 CORR.G/C3   45 356 01 00:   DENSITY CORRECTION
 RHOB.G/C3   45 350 01 00:   BULK DENSITY
 DPHI.DEC    45 890 12 00:   DENSITY POROSITY SANDSTONE
~PARAMETER INFORMATION
#MNEM.UNIT          VALUE    DESCRIPTION
#----------   ------------   ------------------------------
 PD  .                 GL:   PERMANENT DATUM
 EPD .F              5150:   ELEVATION PERMANENT DATUM
 LMF .                 KB:   LOG MEASURED FROM
 DMF .                 KB:   DRILLING MEASURED FROM
 EKB .F              5160:   KELLING BUSHING
 EGL .F              5150:   GROUND LEVEL
 DATE.          3-21-1978:   RUN DATE
 RUN .                  1:   RUN NUMBER
 DD  .F              2612:   DEPTH DRILLER
 DL  .F              2592:   DEPTH LOGGER
 BLI .F              2590:   BOTTOM LOG INTERVAL
 TLI .F                20:   TOP LOG INTERVAL
 CS  .IN            9.625:   CASING SIZE
 CBD .F               710:   CASING BOTTOM DRILLER
 CBL .F               710:   CASING BOTTOM LOGGER
 BS  .IN            8.625:   BIT SIZE
 BSD .F              2612:   BIT SIZE AT DEPTH
 DFT .           AIR MIST:   DRILLING FLUID TYPE
 BHT .F               110:   BOTTOM HOLE TEMPERATURE
 TCS .HRS               2:   TIME CURCULATED STOPPED
 MRT .F               110:   MAXIMUM RECORDED TEMPERATURE
 LUN .               2958:   LOGGING UNIT NUMBER
 LUL .               CASP:   LOGGING UNIT LOCATION
 ENGI.            POINTER:   RECORDING ENGINEER
 WITN.           MCGINLEY:   WITNESSED BY
 CLNT.            A2DTECH:   CLIENT CODE
 ORIG.      2" , 5" PRINT:   ORIGIN OF DATA
 UWI .       490251060600:   UNIQUE WELL ID
 DICO. A2D Technologies, Inc.:   DIGITIZING COMPANY
~OTHER INFORMATION
~A    DEPT      NPHI     CALD        GRD       CORR       RHOB       DPHI   
# ...
 2294.0000  -999.2500     9.0656   128.2553     0.0207     2.4293     0.1327
 2294.5000  -999.2500     9.0657   129.3512     0.0270     2.4290     0.1300
 2295.0000  -999.2500     9.0721   126.6500     0.0332     2.4347     0.1275
 2295.5000  -999.2500     9.0905   125.9959     0.0395     2.4371     0.1259
 2296.0000  -999.2500     9.1088   127.8511     0.0466     2.4371     0.1256
 2296.5000  -999.2500     9.1271   129.4871     0.0553     2.4408     0.1233
 2297.0000  -999.2500     9.1456   126.2530     0.0638     2.4475     0.1203
 2297.5000  -999.2500     9.1643   121.5677     0.0719     2.4476     0.1179
 2298.0000  -999.2500     9.1623   122.8988     0.1074     2.4524     0.1196
 2298.5000  -999.2500     9.1591   125.7187     0.0800     2.4957     0.1004
 2299.0000  -999.2500     9.1560   125.6675     0.0427     2.4588     0.1104
 2299.5000  -999.2500     9.1529   125.1682     0.0339     2.4396     0.1200
 2300.0000  -999.2500     9.1498   120.1300     0.0352     2.4524     0.1173
 2300.5000  -999.2500     9.1467   117.2294     0.0369     2.4485     0.1188
 2301.0000  -999.2500     9.1437   121.5446     0.0409     2.4464     0.1200
 2301.5000  -999.2500     9.1406   129.5446     0.0459     2.4485     0.1185
 2302.0000  -999.2500     9.1375   130.9609     0.0523     2.4500     0.1159
 2302.5000  -999.2500     9.1344   131.4524     0.0640     2.4521     0.1147
 2303.0000  -999.2500     9.1313   133.1900     0.0701     2.4565     0.1162
 2303.5000  -999.2500     9.1282   136.8683     0.0789     2.4549     0.0972
 2304.0000  -999.2500     9.1251   138.2188     0.0871     2.4609     0.0996
 2304.5000  -999.2500     9.1221   133.3369     0.0673     2.4896     0.1050
 2305.0000  -999.2500     9.1190   127.8843     0.0523     2.4829     0.1092
 2305.5000  -999.2500     9.1159   125.8464     0.0483     2.4773     0.1060
 2306.0000  -999.2500     9.1128   128.9508     0.0499     2.4673     0.1100
 2306.5000  -999.2500     9.1097   126.7403     0.0517     2.4631     0.1153
 2307.0000  -999.2500     9.1066   122.8415     0.0534     2.4611     0.1206
 2307.5000  -999.2500     9.1020   120.0211     0.0552     2.4503     0.1259
 2308.0000  -999.2500     9.0930   126.4862     0.0569     2.4395     0.1324
 2308.5000  -999.2500     9.0840   130.2396     0.0587     2.4323     0.1305
 2309.0000  -999.2500     9.0749   133.0760     0.0626     2.4236     0.1271
 2309.5000  -999.2500     9.0660   136.3382     0.0667     2.4291     0.1236
 2310.0000  -999.2500     9.0707   136.9997     0.0601     2.4352     0.1285
 2310.5000  -999.2500     9.0763   139.7287     0.0536     2.4313     0.1352
 2311.0000  -999.2500     9.0817   138.5540     0.0469     2.4266     0.1372
 2311.5000  -999.2500     9.0872   136.9285     0.0521     2.4185     0.1350
 2312.0000  -999.2500     9.0927   132.3922     0.0612     2.4242     0.1342
 2312.5000  -999.2500     9.0982   127.9412     0.0693     2.4270     0.1340
 2313.0000  -999.2500     9.1043   127.6115     0.0694     2.4284     0.1257
 2313.5000  -999.2500     9.0824   129.8866     0.0636     2.4334     0.1192
 2314.0000  -999.2500     9.0500   130.4786     0.0520     2.4385     0.1213
 2314.5000  -999.2500     9.0457   128.2733     0.0443     2.4408     0.1207
 2315.0000  -999.2500     9.0457   126.0844     0.0488     2.4481     0.1180
 2315.5000  -999.2500     9.0457   120.5795     0.0466     2.4501     0.1202
 2316.0000  -999.2500     9.0457   123.0474     0.0437     2.4498     0.1232
 2316.5000  -999.2500     9.0457   128.4236     0.0476     2.4440     0.1247
 2317.0000  -999.2500     9.0457   130.3029     0.0513     2.4384     0.1261
 2317.5000  -999.2500     9.0457   128.1056     0.0502     2.4386     0.1283
 2318.0000  -999.2500     9.0457   125.0872     0.0489     2.4422     0.1334
 2318.5000  -999.2500     9.0457   118.8377     0.0474     2.4272     0.1364
 2319.0000  -999.2500     9.0457   116.6552     0.0540     2.4202     0.1356
 2319.5000  -999.2500     9.0457   116.7375     0.0774     2.4183     0.1320
 2320.0000  -999.2500     9.0457   116.8706     0.0995     2.4408     0.1318
 2320.5000  -999.2500     9.0457   117.1025     0.0588     2.4655     0.1316
 2321.0000  -999.2500     9.0457   120.3319     0.0204     2.4398     0.1292
 2321.5000  -999.2500     9.0457   123.8053     0.0273     2.4254     0.1294
 2322.0000  -999.2500     9.0457   124.7510     0.0335     2.4312     0.1297
 2322.5000  -999.2500     9.0457   124.1620     0.0382     2.4307     0.1305
 2323.0000  -999.2500     9.0457   123.5809     0.0404     2.4303     0.1335
 2323.5000  -999.2500     9.0457   122.2349     0.0448     2.4297     0.1330
 2324.0000  -999.2500     9.0457   120.8143     0.0511     2.4283     0.1360
 2324.5000  -999.2500     9.0457   119.8003     0.0559     2.4260     0.1421
 2325.0000  -999.2500     9.0457   121.7639     0.0572     2.4166     0.1453
 2325.5000  -999.2500     9.0457   123.9762     0.0609     2.4068     0.1471
 2326.0000  -999.2500     9.0457   124.9794     0.1028     2.4030     0.1311
 2326.5000  -999.2500     9.0457   126.0454     0.0852     2.4313     0.1144
 2327.0000  -999.2500     9.0457   128.0137     0.0417     2.4595     0.1209
 2327.5000  -999.2500     9.0457   129.8463     0.0302     2.4162     0.1270
 2328.0000  -999.2500     9.0457   125.7289     0.0305     2.4432     0.1330
 2328.5000  -999.2500     9.0457   121.2589     0.0318     2.4288     0.1379
 2329.0000  -999.2500     9.0457   115.9794     0.0433     2.4210     0.1395
 2329.5000  -999.2500     9.0457   109.1525     0.0547     2.4151     0.1404
 2330.0000  -999.2500     9.0457   106.7518     0.0632     2.4135     0.1408
 2330.5000  -999.2500     9.0484   108.0417     0.0677     2.4155     0.1452
 2331.0000  -999.2500     9.0550   112.9548     0.0704     2.4364     0.1385
 2331.5000  -999.2500     9.0616   117.1991     0.0996     2.4120     0.1356
 2332.0000  -999.2500     9.0682   114.5553     0.0787     2.4497     0.1397
 2332.5000  -999.2500     9.0747   110.4854     0.0439     2.4072     0.1417
 2333.0000  -999.2500     9.0813   110.3156     0.0668     2.4128     0.1380
 2333.5000  -999.2500     9.0879   109.3130     0.0769     2.4225     0.1373
 2334.0000  -999.2500     9.0945   108.3217     0.0762     2.4294     0.1389
 2334.5000  -999.2500     9.1010   111.4635     0.0815     2.4048     0.1385
 2335.0000  -999.2500     9.1054   114.9363     0.0949     2.4251     0.1408
 2335.5000  -999.2500     9.1054   119.1197     0.0919     2.4192     0.1312
 2336.0000  -999.2500     9.1054   122.1762     0.0892     2.4120     0.1172
 2336.5000  -999.2500     9.1054   126.7363     0.0698     2.4528     0.1154
 2337.0000  -999.2500     9.1054   126.2736     0.0490     2.4456     0.1134
 2337.5000  -999.2500     9.1054   123.0463     0.0500     2.4401     0.1112
 2338.0000  -999.2500     9.1054   118.9778     0.0530     2.4610     0.1124
 2338.5000  -999.2500     9.1054   116.7139     0.0397     2.4621     0.1138
 2339.0000  -999.2500     9.1054   122.0148     0.0202     2.4581     0.1144
 2339.5000  -999.2500     9.1054   129.0050     0.0114     2.4565     0.1108
 2340.0000  -999.2500     9.1054   134.1225     0.0150     2.4591     0.1075
 2340.5000  -999.2500     9.1054   134.1477     0.0186     2.4683     0.1058
 2341.0000  -999.2500     9.1054   133.0007     0.0216     2.4716     0.1043
 2341.5000  -999.2500     9.1054   130.8862     0.0216     2.4726     0.1008
 2342.0000  -999.2500     9.1054   128.2258     0.0181     2.4776     0.1027
 2342.5000  -999.2500     9.1054   123.6552     0.0142     2.4762     0.1040
 2343.0000  -999.2500     9.1054   119.3181     0.0150     2.4765     0.1029
 2343.5000  -999.2500     9.1054   119.5691     0.0175     2.4754     0.1016
 2344.0000  -999.2500     9.1054   120.0683     0.0195     2.4801     0.1023
 2344.5000  -999.2500     9.1053   120.5530     0.0172     2.4821     0.1033
 2345.0000  -999.2500     9.1028   122.7848     0.0149     2.4762     0.1048
 2345.5000  -999.2500     9.0878   125.9437     0.0133     2.4762     0.1067
