~VERSION INFORMATION
 VERS.                2.0:   CWLS LOG ASCII STANDARD - VERSION 2.0
 WRAP.                 NO:   ONE LINE PER DEPTH STEP
~WELL INFORMATION
#MNEM.UNIT      DATA TYPE    INFORMATION
#----------   ------------   ------------------------------
 STRT.F            0.0000:   START DEPTH
 STOP.F         1027.0000:   STOP DEPTH
 STEP.F            0.1000:   STEP LENGTH
 NULL.          -999.2500:   NO VALUE
 COMP.       F D SERV INC:   COMPANY
 WELL.   77-1 X 27 #77-27:   WELL
 FLD .             TEAPOT:   FIELD
 LOC .      S27 T39N R78W:   LOCATION
 CNTY.            NATRONA:   COUNTY
 STAT.            WYOMING:   STATE
 CTRY. UNITED STATES OF AMERICA:   COUNTRY
 SRVC.      Western Atlas:   SERVICE COMPANY
 DATE.        04-NOV-1991:   LOGDATE
 API .       490252248600:   API NUMBER
~CURVE INFORMATION
#MNEM.UNIT       API CODE    CURVE DESCRIPTION
#----------   ------------   ------------------------------
 DEPT.F                  :   
 GRR .GAPI   07 310 01 00:   GAMMA RAY
 RILD.OHMM   07 120 46 00:   INDUCTION LOG DEEP RESISTIVITY
 RFOC.OHMM   07 220 04 00:   RESISTIVITY FOCUSED LOG
 RILM.OHMM   07 120 44 00:   INDUCTION LOG MEDIUM RESISTIVITY
 SPR .MV     07 010 01 00:   SPONTANEOUS POTENTIAL
~PARAMETER INFORMATION
#MNEM.UNIT          VALUE    DESCRIPTION
#----------   ------------   ------------------------------
 PD  .                 GL:   PERMANENT DATUM
 EPD .F              5077:   ELEVATION PERMANENT DATUM
 LMF .                 KB:   LOG MEASURED FROM
 DAPD.F                10:   FEET ABOVE PERMANENT DATUM
 DMF .                 KB:   DRILLING MEASURED FROM
 EKB .F              5087:   KELLING BUSHING
 EDF .F              5086:   DRILLING FLOOR
 EGL .F              5077:   GROUND LEVEL
 DATE.        04-NOV-1991:   RUN DATE
 RUN .                  1:   RUN NUMBER
 DD  .F              1030:   DEPTH DRILLER
 DL  .F              1030:   DEPTH LOGGER
 BLI .F              1027:   BOTTOM LOG INTERVAL
 CS  .IN            9.625:   CASING SIZE
 CBD .F                50:   CASING BOTTOM DRILLER
 CBL .F                52:   CASING BOTTOM LOGGER
 BS  .IN             8.75:   BIT SIZE
 BSD .F              1030:   BIT SIZE AT DEPTH
 DFT .          KCL WATER:   DRILLING FLUID TYPE
 MSS .           FLOWLINE:   MUD SAMPLE SOURCE
 RMS .OHMM            .24:   RESISTIVITY MUD SAMPLE
 MST .F                72:   MUD SAMPLE TEMPERATURE
 RMB .OHMM            .19:   RESISTIVITY MUD AT BHT
 BHT .F                90:   BOTTOM HOLE TEMPERATURE
 TCS .HRS               2:   TIME CURCULATED STOPPED
 MRT .F                90:   MAXIMUM RECORDED TEMPERATURE
 LUN .            HL-6274:   LOGGING UNIT NUMBER
 LUL .             CASPER:   LOGGING UNIT LOCATION
 ENGI.             RAUTIO:   RECORDING ENGINEER
 WITN.             STRONG:   WITNESSED BY
 CLNT.            A2DTECH:   CLIENT CODE
 ORIG.           5" PRINT:   ORIGIN OF DATA
 UWI .       490252248600:   UNIQUE WELL ID
 DICO. A2D Technologies, Inc.:   DIGITIZING COMPANY
~OTHER INFORMATION
~A    DEPT      GRR      RILD       RFOC       RILM        SPR   
# ...
  951.6000    89.6174    11.0152    11.4065    10.5316   -25.4299
  951.7000    89.9064    11.0152    11.4066    10.5321   -25.4287
  951.8000    90.3807    11.0152    11.4068    10.5325   -25.4064
  951.9000    90.8718    11.0152    11.4069    10.5329   -25.2766
  952.0000    91.2424    11.0152    11.4071    10.5334   -25.2754
  952.1000    91.6452    11.0152    11.4072    10.5338   -25.2743
  952.2000    92.1520    11.0152    11.4074    10.5342   -25.2084
  952.3000    92.3214    11.0152    11.3600    10.5150   -25.1222
  952.4000    92.4999    11.0094    11.3289    10.4622   -25.1210
  952.5000    92.7732    10.9391    11.3290    10.4627   -25.1196
  952.6000    92.7745    10.8844    11.3292    10.4631   -25.1186
  952.7000    92.7761    10.8635    11.3294    10.4228   -25.1174
  952.8000    92.7772    10.8359    11.3295    10.3916   -25.1162
  952.9000    92.6653    10.7742    11.2871    10.3921   -25.1150
  953.0000    92.4821    10.7139    11.2515    10.3901   -25.1138
  953.1000    92.2656    10.7139    11.2517    10.3211   -25.1123
  953.2000    91.8845    10.7139    11.2508    10.3215   -25.2100
  953.3000    91.7078    10.7139    11.1742    10.3219   -25.2599
  953.4000    91.2486    10.7139    11.1744    10.3223   -25.2587
  953.5000    90.7942    10.7139    11.1745    10.3228   -25.2575
  953.6000    90.3683    10.7139    11.1747    10.3232   -25.2562
  953.7000    89.8340    10.7139    11.1748    10.3236   -25.2551
  953.8000    89.4226    10.6698    11.1750    10.2798   -25.3429
  953.9000    89.4238    10.6398    11.1751    10.2531   -25.4024
  954.0000    89.4251    10.6398    11.1753    10.2535   -25.4012
  954.1000    89.5092    10.6352    11.1754    10.2539   -25.4000
  954.2000    89.6952    10.5663    11.1566    10.2544   -25.3986
  954.3000    89.8811    10.5663    11.0985    10.2548   -25.3976
  954.4000    90.0670    10.5663    11.0987    10.2155   -25.3964
  954.5000    90.2529    10.5663    11.0439    10.1847   -25.3952
  954.6000    90.3314    10.5663    11.0223    10.1851   -25.3940
  954.7000    90.4002    10.5663    11.0224    10.1855   -25.3928
  954.8000    90.5587    10.5663    11.0226    10.1860   -25.3916
  954.9000    90.5601    10.5192    11.0220    10.1864   -25.3904
  955.0000    90.3892    10.4932    10.9594    10.1868   -25.3892
  955.1000    90.0738    10.4723    10.9468    10.1872   -25.3880
  955.2000    89.7059    10.4207    10.9470    10.1877   -25.3868
  955.3000    89.2858    10.4207    10.9242    10.1881   -25.3855
  955.4000    88.7333    10.4207    10.8716    10.1885   -25.3844
  955.5000    88.0983    10.4207    10.8718    10.1455   -25.3832
  955.6000    87.9425    10.3917    10.8719    10.1189   -25.3820
  955.7000    87.8762    10.3487    10.8721    10.1193   -25.3808
  955.8000    88.1085    10.3487    10.8722    10.1197   -25.3796
  955.9000    88.7006    10.3487    10.8541    10.1202   -25.3783
  956.0000    89.4521    10.3487    10.7974    10.0692   -25.4810
  956.1000    90.1801    10.3487    10.7976    10.0510   -25.5257
  956.2000    90.7781    10.3245    10.7445    10.0514   -25.5245
  956.3000    91.4348    10.2772    10.7232    10.0518   -25.5475
  956.4000    92.2360    10.2772    10.7234    10.0504   -25.6718
  956.5000    93.1604    10.2772    10.7235     9.9832   -25.6707
  956.6000    94.1759    10.2772    10.7232     9.9835   -25.6695
  956.7000    94.6763    10.2772    10.6623     9.9497   -25.7359
  956.8000    94.9785    10.2772    10.6498     9.9153   -25.8168
  956.9000    94.9916    10.2703    10.6500     9.9157   -25.8302
  957.0000    94.8548    10.2061    10.6281     9.9162   -25.9640
  957.1000    94.8497    10.2061    10.5767     9.9166   -25.9629
  957.2000    94.6332    10.2061    10.5768     9.8749   -25.9617
  957.3000    94.6343    10.1788    10.5770     9.8488   -25.9605
  957.4000    94.5245    10.1356    10.5337     9.8315   -25.9593
  957.5000    94.4124    10.1356    10.5042     9.7814   -25.9581
  957.6000    94.4138    10.1356    10.4869     9.7819   -25.9567
  957.7000    94.4152    10.1356    10.4318     9.7823   -25.9557
  957.8000    94.5923    10.1356    10.4320     9.7827   -25.9545
  957.9000    94.6424    10.1356    10.3809     9.7831   -26.0018
  958.0000    94.6437    10.1356    10.3220     9.7835   -26.1020
  958.1000    94.7010    10.1356    10.2887     9.7839   -26.1005
  958.2000    94.8710    10.0801    10.2760     9.7844   -26.2180
  958.3000    94.8725    10.0655    10.2176     9.7847   -26.2479
  958.4000    94.8737    10.0351    10.1596     9.7518   -26.3122
  958.5000    94.7544     9.9960    10.1476     9.7179   -26.3952
  958.6000    94.6518     9.9960    10.1477     9.7089   -26.4064
  958.7000    94.6125     9.9960    10.1270     9.6515   -26.5424
  958.8000    94.4294     9.9960    10.0695     9.6519   -26.5413
  958.9000    94.2461     9.9960    10.0083     9.6523   -26.5401
  959.0000    94.2081     9.9702    10.0085     9.6527   -26.5948
  959.1000    94.2094     9.9269    10.0086     9.6359   -26.6874
  959.2000    94.2761     9.9256    10.0087     9.5867   -26.6890
  959.3000    94.4367     9.8583     9.9925     9.5871   -26.8345
  959.4000    94.4381     9.8583     9.9398     9.5875   -26.8335
  959.5000    94.6093     9.8583     9.9400     9.5879   -26.8323
  959.6000    94.7952     9.8583     9.9401     9.5636   -26.8311
  959.7000    94.9812     9.8493     9.9038     9.5224   -26.8299
  959.8000    95.2172     9.7901     9.8717     9.5228   -26.8287
  959.9000    95.5877     9.7901     9.8718     9.5232   -26.9439
  960.0000    96.0182     9.7901     9.8720     9.5236   -26.9760
  960.1000    96.1740     9.7615     9.8721     9.4917   -27.0382
  960.2000    96.3599     9.7225     9.8722     9.4585   -27.1234
  960.3000    96.4711     9.7225     9.8403     9.4499   -27.1222
  960.4000    96.4725     9.7225     9.8043     9.3939   -27.1208
  960.5000    96.4738     9.7225     9.7965     9.3942   -27.2265
  960.6000    96.4752     9.7225     9.7368     9.3552   -27.2683
  960.7000    96.3371     9.6984     9.7369     9.3023   -27.3208
  960.8000    96.1539     9.6553     9.7371     9.2497   -27.4156
  960.9000    95.9706     9.6550     9.7372     9.1973   -27.4144
  961.0000    95.7679     9.6001     9.7373     9.1390   -27.4132
  961.1000    95.3593     9.5885     9.7375     9.1393   -27.5091
  961.2000    95.0322     9.5573     9.7376     9.0708   -27.6311
  961.3000    94.5404     9.5223     9.7377     9.0141   -27.7090
  961.4000    94.0722     9.5146     9.7024     8.9904   -27.7254
  961.5000    93.7043     9.4565     9.6707     8.8905   -27.8562
  961.6000    93.3365     9.4565     9.6708     8.8910   -27.8551
  961.7000    92.8974     9.4182     9.6710     8.8505   -27.9415
  961.8000    92.7496     9.3646     9.6711     8.8004   -28.0024
  961.9000    92.6753     9.3113     9.6282     8.7506   -28.0012
  962.0000    92.7456     9.2583     9.6045     8.7011   -28.0000
  962.1000    92.9603     9.1977     9.6047     8.6493   -27.9986
  962.2000    93.3531     9.1977     9.6048     8.6030   -28.1022
  962.3000    93.7014     9.1646     9.6049     8.5543   -28.1461
  962.4000    94.2055     9.1124     9.5546     8.5059   -28.1964
  962.5000    94.7607     9.0606     9.5003     8.4578   -28.2934
  962.6000    95.3694     9.0083     9.4730     8.4142   -28.2922
  962.7000    96.0952     8.9578     9.4731     8.4146   -28.4126
  962.8000    96.7295     8.8679     9.4698     8.3730   -28.5346
  962.9000    97.3637     8.7949     9.4079     8.3256   -28.5880
  963.0000    98.2218     8.7449     9.3625     8.2996   -28.6287
  963.1000    99.1461     8.6951     9.3432     8.2890   -28.7355
  963.2000   100.0703     8.6412     9.3209     8.2421   -28.7340
  963.3000   101.0026     8.5965     9.2679     8.1862   -28.8449
  963.4000   102.1015     8.5140     9.2148     8.1492   -28.9669
  963.5000   102.9245     8.4402     9.1630     8.1030   -29.0888
  963.6000   103.3551     8.3797     9.1514     8.0402   -29.1784
  963.7000   103.4780     8.2846     9.1222     7.9562   -29.1830
