~VERSION INFORMATION
 VERS.                2.0:   CWLS LOG ASCII STANDARD - VERSION 2.0
 WRAP.                 NO:   ONE LINE PER DEPTH STEP
~WELL INFORMATION
#MNEM.UNIT      DATA TYPE    INFORMATION
#----------   ------------   ------------------------------
 STRT.F           80.0000:   START DEPTH
 STOP.F          964.0000:   STOP DEPTH
 STEP.F            0.5000:   STEP LENGTH
 NULL.          -999.2500:   NO VALUE
 COMP. U S NAVY-INTEX OIL:   COMPANY
 WELL. N.P.R. #3` #57-S-2:   WELL
 FLD .        TEAPOT DOME:   FIELD
 LOC .       S2 T38N R78W:   LOCATION
 CNTY.            NATRONA:   COUNTY
 STAT.            WYOMING:   STATE
 CTRY. UNITED STATES OF AMERICA:   COUNTRY
 SRVC.       Schlumberger:   SERVICE COMPANY
 DATE.        04-AUG-1961:   LOGDATE
 API .       490250640500:   API NUMBER
~CURVE INFORMATION
#MNEM.UNIT       API CODE    CURVE DESCRIPTION
#----------   ------------   ------------------------------
 DEPT.F                  :   
 GR  .GAPI   30 310 01 00:   GAMMA RAY
 ASN .OHMM   05 041 16 00:   AMPLIFIED SHORT NORMAL 16"
 CILD.MMHO   05 110 46 00:   CONDUCTIVITY INDUCTION LOG DEEP
 ILD .OHMM   05 120 46 00:   INDUCTION LOG DEEP
 SPR .MV     05 010 01 00:   SPONTANEOUS POTENTIAL FROM RES.
~PARAMETER INFORMATION
#MNEM.UNIT          VALUE    DESCRIPTION
#----------   ------------   ------------------------------
 LMF .                 KB:   LOG MEASURED FROM
 DMF .                 KB:   DRILLING MEASURED FROM
 EKB .F              5205:   KELLING BUSHING
 EGL .F              5200:   GROUND LEVEL
 DATE.        04-AUG-1961:   RUN DATE
 RUN .                  1:   RUN NUMBER
 DD  .F               965:   DEPTH DRILLER
 DL  .F               965:   DEPTH LOGGER
 BLI .F               954:   BOTTOM LOG INTERVAL
 TLI .F               150:   TOP LOG INTERVAL
 BS  .IN             6.75:   BIT SIZE
 BSD .F               965:   BIT SIZE AT DEPTH
 DFT .       OIL EMULSION:   DRILLING FLUID TYPE
 DFD .                9.4:   DRILLING FLUID DENSITY
 DFV .                 65:   DRILLING FLUID VISCOSITY
 MSS .           FLOWLINE:   MUD SAMPLE SOURCE
 RMS .OHMM            1.0:   RESISTIVITY MUD SAMPLE
 MST .F                80:   MUD SAMPLE TEMPERATURE
 TCS .HRS               1:   TIME CURCULATED STOPPED
 LUN .               2544:   LOGGING UNIT NUMBER
 LUL .                 NC:   LOGGING UNIT LOCATION
 ENGI.            EARNEST:   RECORDING ENGINEER
 WITN.          JORGENSEN:   WITNESSED BY
 CLNT.            A2DTECH:   CLIENT CODE
 ORIG.        2" 5" PRINT:   ORIGIN OF DATA
 UWI .       490250640500:   UNIQUE WELL ID
 DICO. A2D Technologies, Inc.:   DIGITIZING COMPANY
~OTHER INFORMATION
~A   DEPT       GR        ASN       CILD        ILD        SPR   
# ...
  507.0000  -999.2500     7.7260   147.3474     7.0718   -66.5295
  507.5000  -999.2500     7.7336   146.3964     7.1386   -66.8926
  508.0000  -999.2500     7.7340   143.7823     7.2531   -67.2648
  508.5000  -999.2500     7.7394   142.9930     7.3662   -67.5040
  509.0000  -999.2500     7.7646   142.0420     7.4066   -67.7822
  509.5000  -999.2500     7.8115   140.7097     7.4837   -67.7809
  510.0000  -999.2500     7.9148   140.6907     7.5602   -67.6304
  510.5000  -999.2500     8.0647   139.1665     7.5618   -67.5422
  511.0000  -999.2500     8.1477   138.2383     7.5633   -67.3294
  511.5000  -999.2500     8.1850   137.6232     7.5648   -67.1787
  512.0000  -999.2500     8.2003   140.5984     7.5665   -67.1138
  512.5000  -999.2500     8.2007   142.7677     7.4611   -67.0206
  513.0000  -999.2500     8.2011   146.6767     7.4186   -66.7784
  513.5000  -999.2500     8.1588   149.5378     7.3712   -66.6853
  514.0000  -999.2500     8.0648   152.9930     7.3263   -66.4261
  514.5000  -999.2500     7.9353   155.5021     7.2726   -66.1267
  515.0000  -999.2500     7.7728   158.4835     7.1988   -66.1252
  515.5000  -999.2500     7.5901   160.2152     7.0496   -66.2725
  516.0000  -999.2500     7.5306   161.4414     6.9762   -66.4719
  516.5000  -999.2500     7.5310   161.4189     6.9774   -66.7168
  517.0000  -999.2500     7.5315   161.3964     6.9789   -66.8872
  517.5000  -999.2500     7.5318   161.3739     6.9804   -67.1895
  518.0000  -999.2500     7.5322   160.9610     6.9819   -67.3085
  518.5000  -999.2500     7.5173   159.8256     6.9836   -67.3070
  519.0000  -999.2500     7.4863   159.8048     7.0276   -67.3000
  519.5000  -999.2500     7.4436   159.6096     6.9864   -67.1550
  520.0000  -999.2500     7.4938   158.2545     6.9880   -67.0045
  520.5000  -999.2500     7.5789   158.2357     6.9895   -66.7048
  521.0000  -999.2500     7.6256   158.2128     6.9911   -66.7034
  521.5000  -999.2500     7.6543   158.1907     7.0314   -66.7019
  522.0000  -999.2500     7.6548   157.8579     7.0693   -66.7002
  522.5000  -999.2500     7.6551   155.1402     7.0710   -66.4481
  523.0000  -999.2500     7.6555   154.4543     7.0723   -66.1013
  523.5000  -999.2500     7.6647   152.0946     7.0738   -65.7804
  524.0000  -999.2500     7.6951   152.0676     7.0753   -65.5022
  524.5000  -999.2500     7.7762   150.0999     7.1521   -65.5006
  525.0000  -999.2500     7.8189   149.0229     7.1538   -65.4993
  525.5000  -999.2500     7.8516   146.6967     7.1551   -65.5072
  526.0000  -999.2500     7.8710   145.7455     7.1616   -65.8907
  526.5000  -999.2500     7.9751   142.9473     7.3090   -66.0912
  527.0000  -999.2500     8.0770   142.9279     7.3102   -66.3874
  527.5000  -999.2500     8.1072   141.3912     7.3118   -66.6083
  528.0000  -999.2500     8.1236   139.8799     7.4287   -66.6985
  528.5000  -999.2500     8.1480   137.9880     7.5520   -66.9789
  529.0000  -999.2500     8.2150   136.8299     7.6930   -67.1267
  529.5000  -999.2500     8.3180   134.5846     7.7984   -67.2742
  530.0000  -999.2500     8.4305   130.6307     7.9217   -67.1038
  530.5000  -999.2500     8.5644   129.2528     7.9696   -66.7971
  531.0000  -999.2500     8.6929   130.7357     8.0753   -66.5244
  531.5000  -999.2500     8.7825   132.2141     8.0769   -66.4617
  532.0000  -999.2500     8.8730   132.1922     8.0783   -66.3726
  532.5000  -999.2500     8.8652   131.8819     8.1551   -66.3711
  533.0000  -999.2500     8.8117   130.6430     8.1569   -66.5189
  533.5000  -999.2500     8.7695   129.9799     8.2334   -66.6661
  534.0000  -999.2500     8.7753   129.0991     8.2350   -66.7372
  534.5000  -999.2500     8.8001   128.0780     8.3532   -66.9764
  535.0000  -999.2500     8.8478   127.5526     8.3886   -67.2576
  535.5000  -999.2500     8.9319   124.5257     8.5409   -67.4548
  536.0000  -999.2500     9.0554   124.5045     8.5723   -67.7019
  536.5000  -999.2500     9.1759   122.7729     8.6943   -68.0169
  537.0000  -999.2500     9.3121   121.4531     8.7912   -67.8217
  537.5000  -999.2500     9.4862   119.3693     8.8667   -67.5482
  538.0000  -999.2500     9.6976   118.4083     9.0001   -67.2489
  538.5000  -999.2500     9.9242   115.3829     9.1132   -67.2474
  539.0000  -999.2500     9.9950   112.0120     9.2364   -67.2459
  539.5000  -999.2500    10.0735   109.3297     9.3060   -67.5800
  540.0000  -999.2500    10.1196   105.6057     9.4829   -67.6900
  540.5000  -999.2500    10.1405   103.2808     9.6100   -67.8376
  541.0000  -999.2500    10.2698   101.7526     9.7721   -67.5092
  541.5000  -999.2500    10.4197   101.7342     9.9418   -67.0891
  542.0000  -999.2500    10.5823   100.2094    10.2171   -66.9876
  542.5000  -999.2500    10.7888   100.1877    10.4003   -66.9374
  543.0000  -999.2500    10.7197   101.6691    10.5211   -67.1679
  543.5000  -999.2500    10.4822   103.1428    10.2251   -67.2837
  544.0000  -999.2500    10.2421   103.7437    10.0321   -67.5291
  544.5000  -999.2500    10.0483   106.1040     9.8480   -67.6766
  545.0000  -999.2500     9.9115   108.0332     9.7741   -67.6751
  545.5000  -999.2500     9.7481   109.4644     9.6915   -67.6736
  546.0000  -999.2500     9.6283   112.0405     9.6265   -67.5231
  546.5000  -999.2500     9.5265   112.7778     9.5527   -67.5215
  547.0000  -999.2500     9.5269   113.6836     9.4789   -67.3781
  547.5000  -999.2500     9.5273   114.9775     9.4804   -67.1932
  548.0000  -999.2500     9.5277   115.4957     9.4819   -66.9207
  548.5000  -999.2500     9.5280   116.4339     9.4836   -66.6215
  549.0000  -999.2500     9.5284   116.4114     9.4849   -66.3218
  549.5000  -999.2500     9.5288   117.8934     9.4827   -66.0892
  550.0000  -999.2500     9.5291   117.8655     9.4127   -65.6731
  550.5000  -999.2500     9.5295   117.8453     9.3386   -65.2740
  551.0000  -999.2500     9.5300   117.7175     9.3405   -64.8848
  551.5000  -999.2500     9.5303   116.2945     9.3419   -65.1257
  552.0000  -999.2500     9.5307   116.2763     9.3434   -65.6056
  552.5000  -999.2500     9.5310   116.2527     9.3451   -65.8646
  553.0000  -999.2500     9.5202   116.2312     9.3464   -65.8628
  553.5000  -999.2500     9.4570   116.2087     9.3479   -66.0807
  554.0000  -999.2500     9.4574   116.1831     9.3494   -66.3199
  554.5000  -999.2500     9.4578   115.5657     9.2754   -66.6033
  555.0000  -999.2500     9.5025   114.6396     9.2773   -66.6021
  555.5000  -999.2500     9.5480   114.6171     9.2786   -66.6005
  556.0000  -999.2500     9.5934   114.5946     9.2801   -66.7481
  556.5000  -999.2500     9.6389   114.5703     9.2066   -66.7466
  557.0000  -999.2500     9.6839   114.5496     9.2078   -66.5959
  557.5000  -999.2500     9.6263   114.5270     9.1341   -66.5363
  558.0000  -999.2500     9.5879   116.0022     9.0602   -66.2931
  558.5000  -999.2500     9.5505   117.4850     8.9863   -65.9955
  559.0000  -999.2500     9.5359   120.4650     8.9129   -65.9940
  559.5000  -999.2500     9.5204   122.8179     8.7347   -65.9924
  560.0000  -999.2500     9.4968   127.0273     8.6145   -65.8420
  560.5000  -999.2500     9.4499   132.4074     8.4478   -65.9896
  561.0000  -999.2500     9.3132   136.0461     8.2058   -65.9878
  561.5000  -999.2500     9.1653   139.9551     7.7908   -66.3311
  562.0000  -999.2500     8.9387   143.3731     7.4558   -66.5812
  562.5000  -999.2500     8.6566   148.2106     7.1850   -67.0392
  563.0000  -999.2500     8.4223   150.3153     7.1175   -67.1977
  563.5000  -999.2500     8.1342   148.7065     7.1428   -67.4707
  564.0000  -999.2500     7.9372   145.5456     7.2711   -67.4695
  564.5000  -999.2500     7.8957   141.2355     7.4646   -67.4680
  565.0000  -999.2500     8.0008   140.6408     7.6004   -67.3746
  565.5000  -999.2500     8.0984   138.1859     7.8029   -67.1669
  566.0000  -999.2500     8.2556   135.1652     7.9096   -67.0163
  566.5000  -999.2500     8.4742   133.2834     8.0329   -66.7283
  567.0000  -999.2500     8.6315   130.6136     8.1561   -66.5549
  567.5000  -999.2500     8.7650   128.3784     8.2794   -66.2665
