~VERSION INFORMATION
 VERS.                2.0:   CWLS LOG ASCII STANDARD - VERSION 2.0
 WRAP.                 NO:   ONE LINE PER DEPTH STEP
~WELL INFORMATION
#MNEM.UNIT      DATA TYPE    INFORMATION
#----------   ------------   ------------------------------
 STRT.F            1.0000:   START DEPTH
 STOP.F          600.0000:   STOP DEPTH
 STEP.F            0.5000:   STEP LENGTH
 NULL.          -999.2500:   NO VALUE
 COMP.       F D SERV INC:   COMPANY
 WELL.    62-1 SX-3 #62-3:   WELL
 FLD .             TEAPOT:   FIELD
 LOC .       S3 T38N R78W:   LOCATION
 CNTY.            NATRONA:   COUNTY
 STAT.            WYOMING:   STATE
 CTRY. UNITED STATES OF AMERICA:   COUNTRY
 SRVC.     Atlas Wireline:   SERVICE COMPANY
 DATE.        05-MAY-1992:   LOGDATE
 API .       490252250800:   API NUMBER
~CURVE INFORMATION
#MNEM.UNIT       API CODE    CURVE DESCRIPTION
#----------   ------------   ------------------------------
 DEPT.F                  :   
 GRR .GAPI   07 310 01 00:   GAMMA RAY
 RILD.OHMM   07 120 46 00:   INDUCTION LOG DEEP RESISTIVITY
 RILM.OHMM   07 120 44 00:   INDUCTION LOG MEDIUM RESISTIVITY
~PARAMETER INFORMATION
#MNEM.UNIT          VALUE    DESCRIPTION
#----------   ------------   ------------------------------
 PD  .                 GL:   PERMANENT DATUM
 EPD .F              5159:   ELEVATION PERMANENT DATUM
 LMF .                 KB:   LOG MEASURED FROM
 DAPD.F                 5:   FEET ABOVE PERMANENT DATUM
 DMF .                 KB:   DRILLING MEASURED FROM
 EKB .F              5164:   KELLING BUSHING
 EGL .F              5159:   GROUND LEVEL
 DATE.        06-MAY-1992:   RUN DATE
 RUN .                  1:   RUN NUMBER
 DD  .F               605:   DEPTH DRILLER
 DL  .F               609:   DEPTH LOGGER
 BLI .F               607:   BOTTOM LOG INTERVAL
 CS  .IN            8.625:   CASING SIZE
 CBD .F                51:   CASING BOTTOM DRILLER
 CBL .F                51:   CASING BOTTOM LOGGER
 BS  .IN            7.875:   BIT SIZE
 BSD .F               605:   BIT SIZE AT DEPTH
 DFT .                AIR:   DRILLING FLUID TYPE
 TCS .HRS               3:   TIME CURCULATED STOPPED
 LUN .            HL-6272:   LOGGING UNIT NUMBER
 LUL .             CASPER:   LOGGING UNIT LOCATION
 ENGI.             ZIEGER:   RECORDING ENGINEER
 WITN.             STRONG:   WITNESSED BY
 CLNT.            A2DTECH:   CLIENT CODE
 ORIG.           5" PRINT:   ORIGIN OF DATA
 UWI .       490252250800:   UNIQUE WELL ID
 DICO. A2D Technologies, Inc.:   DIGITIZING COMPANY
~OTHER INFORMATION
~A    DEPT      GRR      RILD       RILM   
    1.0000    44.4310  -999.2500  -999.2500
    1.5000    46.0121  -999.2500  -999.2500
    2.0000    47.7226  -999.2500  -999.2500
    2.5000    48.3068  -999.2500  -999.2500
    3.0000    47.9781  -999.2500  -999.2500
    3.5000    46.4443  -999.2500  -999.2500
    4.0000    42.7925  -999.2500  -999.2500
    4.5000    38.5408  -999.2500  -999.2500
    5.0000    47.5918  -999.2500  -999.2500
    5.5000    55.7403  -999.2500  -999.2500
    6.0000    64.1913  -999.2500  -999.2500
    6.5000    68.1038  -999.2500  -999.2500
    7.0000    67.4778  -999.2500  -999.2500
    7.5000    68.0620  -999.2500  -999.2500
    8.0000    73.1848  -999.2500  -999.2500
    8.5000    77.0973  -999.2500  -999.2500
    9.0000    78.8917  -999.2500  -999.2500
    9.5000    77.6605  -999.2500  -999.2500
   10.0000    76.4293  -999.2500  -999.2500
   10.5000    76.4084  -999.2500  -999.2500
   11.0000    77.2952  -999.2500  -999.2500
   11.5000    79.1560  -999.2500  -999.2500
   12.0000    81.2223  -999.2500  -999.2500
   12.5000    82.4257  -999.2500  -999.2500
   13.0000    83.2628  -999.2500  -999.2500
   13.5000    81.1187  -999.2500  -999.2500
   14.0000    75.3489  -999.2500  -999.2500
   14.5000    61.1071  -999.2500  -999.2500
   15.0000    53.2245  -999.2500  -999.2500
   15.5000    61.6703  -999.2500  -999.2500
   16.0000    71.3317  -999.2500  -999.2500
   16.5000    76.4545  -999.2500  -999.2500
   17.0000    77.0439  -999.2500  -999.2500
   17.5000    76.1100  -999.2500  -999.2500
   18.0000    76.9968  -999.2500  -999.2500
   18.5000    78.4887  -999.2500  -999.2500
   19.0000    79.6781  -999.2500  -999.2500
   19.5000    74.8160  -999.2500  -999.2500
   20.0000    72.0719  -999.2500  -999.2500
   20.5000    70.5381  -999.2500  -999.2500
   21.0000    71.4249  -999.2500  -999.2500
   21.5000    73.2213  -999.2500  -999.2500
   22.0000    74.1221  -999.2500  -999.2500
   22.5000    75.6279  -999.2500  -999.2500
   23.0000    74.8825  -999.2500  -999.2500
   23.5000    71.0124  -999.2500  -999.2500
   24.0000    68.5761  -999.2500  -999.2500
   24.5000    72.1808  -999.2500  -999.2500
   25.0000    74.5805  -999.2500  -999.2500
   25.5000    75.7698  -999.2500  -999.2500
   26.0000    76.6566  -999.2500  -999.2500
   26.5000    76.9435  -999.2500  -999.2500
   27.0000    77.5225  -999.2500  -999.2500
   27.5000    77.5015  -999.2500  -999.2500
   28.0000    75.6652  -999.2500  -999.2500
   28.5000    72.9211  -999.2500  -999.2500
   29.0000    71.6951  -999.2500  -999.2500
   29.5000    73.4843  -999.2500  -999.2500
   30.0000    75.8840  -999.2500  -999.2500
   30.5000    75.5605  -999.2500  -999.2500
   31.0000    76.4473  -999.2500  -999.2500
   31.5000    77.9392  -999.2500  -999.2500
   32.0000    79.4311  -999.2500  -999.2500
   32.5000    80.3278  -999.2500  -999.2500
   33.0000    80.2965  -999.2500  -999.2500
   33.5000    77.7010  -999.2500  -999.2500
   34.0000    73.9930  -999.2500  -999.2500
   34.5000    70.8544  -999.2500  -999.2500
   35.0000    72.9515  -999.2500  -999.2500
   35.5000    75.3459  -999.2500  -999.2500
   36.0000    76.5405  -999.2500  -999.2500
   36.5000    75.9091  -999.2500  -999.2500
   37.0000    75.2831  -999.2500  -999.2500
   37.5000    75.5647  -999.2500  -999.2500
   38.0000    77.3592  -999.2500  -999.2500
   38.5000    77.6461  -999.2500  -999.2500
   39.0000    77.3173  -999.2500  -999.2500
   39.5000    80.9273  -999.2500  -999.2500
   40.0000    83.3269  -999.2500  -999.2500
   40.5000    84.8241  -999.2500  -999.2500
   41.0000    82.6799  -999.2500  -999.2500
   41.5000    81.1461  -999.2500  -999.2500
   42.0000    80.8226  -999.2500  -999.2500
   42.5000    79.8939  -999.2500  -999.2500
   43.0000    79.5703  -999.2500  -999.2500
   43.5000    79.5311  -999.2500  -999.2500
   44.0000    78.6202  -999.2500  -999.2500
   44.5000    79.5076  -999.2500  -999.2500
   45.0000    80.6917  -999.2500  -999.2500
   45.5000    82.1836  -999.2500  -999.2500
   46.0000    84.5833  -999.2500  -999.2500
   46.5000    87.8906  -999.2500  -999.2500
   47.0000    85.7517  -999.2500  -999.2500
   47.5000    80.5871  -999.2500  -999.2500
   48.0000    76.3301  -999.2500  -999.2500
   48.5000    82.3606  -999.2500  -999.2500
   49.0000    92.9297  -999.2500  -999.2500
   49.5000   100.1705  -999.2500  -999.2500
   50.0000   113.6656  -999.2500  -999.2500
   50.5000   121.6047  -999.2500  -999.2500
   51.0000   121.8871     2.0295     3.8604
   51.5000   121.8535     2.1596     5.2435
   52.0000   121.5240     3.4897     7.1220
   52.5000   120.5893     5.2597     8.6531
   53.0000   120.5624     7.6032    11.1160
   53.5000   119.6278     9.2362    12.2506
   54.0000   118.0877     6.4271    11.5021
   54.5000   117.1266     6.0760     8.4037
   55.0000   117.7711     5.9063     7.1073
   55.5000   120.6442     5.7413     7.0481
   56.0000   126.1431     5.5038     7.1025
   56.5000   129.4444     5.5396     7.0999
   57.0000   128.8124     6.1492     6.9024
   57.5000   126.0623     6.8316     6.3895
   58.0000   124.8251     7.1568     6.1666
   58.5000   124.7982     6.6553     6.0403
   59.0000   123.8635     6.3070     6.0455
   59.5000   123.8366     6.1309     6.1632
   60.0000   125.0267     6.0862     6.2912
   60.5000   127.1111     6.2979     6.3773
   61.0000   128.6038     6.4727     6.5103
   61.5000   129.7871     6.5611     6.6914
   62.0000   130.9705     6.7423     6.8304
   62.5000   131.2405     6.8812     6.9238
   63.0000   129.6996     7.0231     7.0682
   63.5000   127.5547     7.1190     7.2655
   64.0000   126.0150     7.2657     7.4157
   64.5000   123.5612     7.3130     7.4657
   65.0000   122.3298     7.2579     7.4624
   65.5000   122.3711     7.2544     7.3566
   66.0000   124.8413     7.1010     7.2524
   66.5000   125.8804     7.0484     7.0017
   67.0000   125.5441     6.8483     6.8069
   67.5000   125.5172     6.6062     6.5260
   68.0000   125.4903     6.3402     6.3438
   68.5000   125.4634     6.2062     6.2545
   69.0000   125.7458     6.1595     6.2476
   69.5000   125.7121     6.1138     6.2001
   70.0000   125.6852     6.1109     6.1610
   70.5000   128.9866     6.2369     6.2453
   71.0000   130.7751     6.3654     6.3308
   71.5000   131.3600     6.4974     6.5074
   72.0000   130.1161     6.6769     6.6432
   72.5000   129.4841     6.8145     6.9238
   73.0000   128.8520     6.9550     7.1170
   73.5000   127.3122     7.1479     7.2150
   74.0000   122.7467     7.3462     7.4157
   74.5000   120.2992     7.4466     7.4131
   75.0000   119.0620     7.4421     7.4106
   75.5000   120.5903     7.4385     7.4080
   76.0000   124.2358     7.4349     7.4055
   76.5000   126.5456     7.4833     7.4029
   77.0000   125.7991     7.4278     7.4004
   77.5000   121.9464     7.4761     7.3978
   78.0000   123.1298     7.4724     7.3953
   78.5000   127.0363     7.4169     7.3927
   79.0000   127.9239     7.4653     7.3902
   79.5000   127.5876     7.2055     7.3832
   80.0000   127.5607     7.1521     7.1754
   80.5000   127.5338     7.0009     6.9823
   81.0000   128.7172     6.9975     6.8828
   81.5000   128.6902     6.9942     6.7852
   82.0000   127.7556     6.9423     6.7358
   82.5000   127.1236     6.8908     6.7335
   83.0000   127.3992     6.7923     6.6844
   83.5000   129.7929     6.7890     6.6357
   84.0000   132.4891     6.7387     6.5874
   84.5000   128.2262     6.7354     6.5851
   85.0000   123.6607     6.6855     6.6294
   85.5000   120.3055     6.6359     6.5811
   86.0000   125.7731     6.5867     6.6249
   86.5000   131.7494     6.5835     6.6220
   87.0000   130.4025     6.6263     6.6197
   87.5000   125.6430     6.5771     6.6175
   88.0000   123.4992     6.6200     6.6152
   88.5000   129.5170     6.6630     6.6591
   89.0000   132.8183     6.7063     6.7034
   89.5000   133.1007     6.7499     6.7479
   90.0000   130.6465     6.8404     6.8402
   90.5000   130.6196     6.9330     6.9338
   91.0000   128.7772     7.0759     6.9392
   91.5000   120.8834     7.1717     7.1249
