~VERSION INFORMATION
 VERS.                2.0:   CWLS LOG ASCII STANDARD - VERSION 2.0
 WRAP.                 NO:   ONE LINE PER DEPTH STEP
~WELL INFORMATION
#MNEM.UNIT      DATA TYPE    INFORMATION
#----------   ------------   ------------------------------
 STRT.F           30.0000:   START DEPTH
 STOP.F          618.0000:   STOP DEPTH
 STEP.F            0.5000:   STEP LENGTH
 NULL.          -999.2500:   NO VALUE
 COMP. FENNIX & SCISSON, INC.:   COMPANY
 WELL.       NPR #88-S-10:   WELL
 FLD .              NPR-3:   FIELD
 LOC .      S10 T38N R78W:   LOCATION
 CNTY.            NATRONA:   COUNTY
 STAT.            WYOMING:   STATE
 CTRY. UNITED STATES OF AMERICA:   COUNTRY
 SRVC.              Welex:   SERVICE COMPANY
 DATE.        22-APR-1977:   LOGDATE
 API .       490251034200:   API NUMBER
~CURVE INFORMATION
#MNEM.UNIT       API CODE    CURVE DESCRIPTION
#----------   ------------   ------------------------------
 DEPT.F                  :   
 CALD.IN     45 280 60 00:   CALIPER FROM DENSITY LOG
 GRD .GAPI   45 310 01 00:   GAMMA RAY FROM DENSITY LOG
 CORR.G/C3   45 356 01 00:   DENSITY CORRECTION
 RHOB.G/C3   45 350 01 00:   BULK DENSITY
 DPHI.DEC    45 890 12 00:   DENSITY POROSITY SANDSTONE
 ILD .OHMM   07 120 46 00:   INDUCTION LOG DEEP
 ILM .OHMM   07 120 44 00:   INDUCTION LOG MEDIUM
 SGRD.OHMM   07 220 05 00:   SHALLOW GUARD RESISTIVITY
 SPR .MV     07 010 01 00:   SPONTANEOUS POTENTIAL FROM RES.
~PARAMETER INFORMATION
#MNEM.UNIT          VALUE    DESCRIPTION
#----------   ------------   ------------------------------
 PD  .                 GL:   PERMANENT DATUM
 EPD .F              5255:   ELEVATION PERMANENT DATUM
 LMF .                 GL:   LOG MEASURED FROM
 DMF .                 GL:   DRILLING MEASURED FROM
 EGL .F              5255:   GROUND LEVEL
 DATE.        22-APR-1977:   RUN DATE
 RUN .                  1:   RUN NUMBER
 DD  .F               630:   DEPTH DRILLER
 DL  .F               620:   DEPTH LOGGER
 BLI .F               618:   BOTTOM LOG INTERVAL
 TLI .F                38:   TOP LOG INTERVAL
 CS  .IN            8.625:   CASING SIZE
 CBD .F                40:   CASING BOTTOM DRILLER
 BS  .IN            7.875:   BIT SIZE
 BSD .F               630:   BIT SIZE AT DEPTH
 DFT .            KCL GEL:   DRILLING FLUID TYPE
 DFD .                9.0:   DRILLING FLUID DENSITY
 DFV .                 40:   DRILLING FLUID VISCOSITY
 DFPH.                8.0:   DRILLING FLUID PH
 DFL .                6.4:   DRILLING FLUID LOSS
 MSS .            MUD PIT:   MUD SAMPLE SOURCE
 RMS .OHMM            .20:   RESISTIVITY MUD SAMPLE
 MST .F                65:   MUD SAMPLE TEMPERATURE
 RMF .OHMM            .18:   RESISTIVITY MUD FILTRATE SAMPLE
 MFST.F                65:   MUD FILTRATE SAMPLE TEMPERATURE
 RMC .OHMM            .28:   RESISTIVITY MUD CAKE
 MCST.F                65:   MUD CAKE SAMPLE TEMPERATURE
 MFSS.               MEAS:   MUD FILTRATE SAMPLE SOURCE
 MCSS.               MEAS:   MUD CAKE SAMPLE SOURCE
 RMB .OHMM            .18:   RESISTIVITY MUD AT BHT
 BHT .F                71:   BOTTOM HOLE TEMPERATURE
 TCS .HRS            0300:   TIME CURCULATED STOPPED
 MRT .F                71:   MAXIMUM RECORDED TEMPERATURE
 LUN .               8611:   LOGGING UNIT NUMBER
 LUL .             CASPER:   LOGGING UNIT LOCATION
 ENGI.          T. JOYNER:   RECORDING ENGINEER
 WITN.           ROB LYON:   WITNESSED BY
 CLNT.            A2DTECH:   CLIENT CODE
 ORIG.           5" PRINT:   ORIGIN OF DATA
 UWI .       490251034200:   UNIQUE WELL ID
 DICO. A2D Technologies, Inc.:   DIGITIZING COMPANY
~OTHER INFORMATION
~A   DEPT     CALD        GRD       CORR       RHOB       DPHI        ILD        ILM       SGRD        SPR   
# ...
  322.0000     7.7739   125.9351     0.0173     2.4477     0.1218     7.0333     9.2466    10.9969   -24.7678
  322.5000     7.7884   124.2809     0.0173     2.4574     0.1161     6.9826     9.0553    11.1465   -24.7696
  323.0000     7.7880   119.3348     0.0158     2.4529     0.1190     6.9323     8.7465    11.2226   -24.7711
  323.5000     7.7876   117.8318     0.0143     2.4350     0.1263     6.8823     8.5067    11.2966   -24.6234
  324.0000     7.7871   121.4201     0.0128     2.4290     0.1319     6.8327     8.3884    11.3700   -24.6253
  324.5000     7.7867   118.4187     0.0128     2.4260     0.1356     6.8304     8.3866    11.4455   -24.6267
  325.0000     7.8013   119.6103     0.0128     2.4222     0.1371     6.8280     8.5603    11.3637   -24.6282
  325.5000     7.8007   121.9995     0.0128     2.4177     0.1387     6.8257     8.7375    10.8254   -24.6297
  326.0000     7.8153   123.9396     0.0128     2.4125     0.1411     6.7765     8.8571    10.3125   -24.7800
  326.5000     7.8148   120.3409     0.0128     2.4042     0.1457     6.6814     8.8552    10.2375   -25.0791
  327.0000     7.8294   120.0370     0.0128     2.3900     0.1530     6.5425     8.4360    10.5222   -25.3782
  327.5000     7.8288   123.3229     0.0128     2.3855     0.1599     6.3625     8.0366    10.5921   -25.6773
  328.0000     7.8434   124.0669     0.0113     2.3765     0.1685     6.1028     7.7091    10.3724   -25.8276
  328.5000     7.8578   123.0116     0.0113     2.3556     0.1766     5.8135     7.3950     9.9494   -26.1267
  329.0000     7.8574   121.3589     0.0113     2.3421     0.1871     5.4621     7.1428     9.4780   -26.5746
  329.5000     7.8569   120.3050     0.0113     2.3301     0.1910     5.0967     6.8992     9.0290   -27.0225
  330.0000     7.8565   120.1493     0.0113     2.3177     0.2006     4.6907     6.6181     8.4252   -27.3216
  330.5000     7.8411   120.7421     0.0098     2.2857     0.2164     4.2580     6.2600     7.8617   -27.7695
  331.0000     7.8257   121.4846     0.0083     2.2760     0.2278     3.8652     5.7166     7.4378   -28.0686
  331.5000     7.8252   122.6763     0.0053     2.2660     0.2362     3.4606     5.0468     6.9884   -28.2189
  332.0000     7.8248   120.4248     0.0023     2.2488     0.2457     3.0350     4.5144     6.4318   -28.5180
  332.5000     7.8094   117.2751     0.0008     2.2418     0.2451     2.7741     4.0394     5.7585   -28.8171
  333.0000     7.8090   118.0176     0.0008     2.2710     0.2200     2.6244     3.4656     5.1202   -28.9674
  333.5000     7.8085   119.6599     0.0008     2.3032     0.2075     2.5173     3.0210     4.4595   -28.9689
  334.0000     7.8081   118.4548     0.0008     2.3495     0.1757     2.4312     2.8085     3.9380   -28.8212
  334.5000     7.8076   116.6539     0.0008     2.3720     0.1680     2.3971     2.8108     3.6747   -28.5251
  335.0000     7.8072   117.9937     0.0008     2.3690     0.1677     2.4129     2.9976     3.7764   -28.2289
  335.5000     7.8217   118.5865     0.0008     2.3719     0.1662     2.6019     3.2302     4.4546   -27.9332
  336.0000     7.8212   122.4728     0.0023     2.3779     0.1464     2.8058     3.5235     5.1827   -27.6370
  336.5000     7.8208   120.9698     0.0023     2.4168     0.1411     3.0676     3.7227     6.0299   -27.3409
  337.0000     7.8203   120.3650     0.0023     2.4160     0.1435     3.3308     3.9878     5.4360   -27.0448
  337.5000     7.8348   120.5089     0.0023     2.4116     0.1429     3.5918     4.3311     6.2810   -26.7486
  338.0000     7.8342   127.3890     0.0023     2.4130     0.1405     3.8732     4.6716     8.1599   -26.4525
  338.5000     7.8190   131.8740     0.0039     2.4258     0.1348     4.2055     5.0737     8.9842   -26.3048
  339.0000     7.8335   133.5148     0.0068     2.4250     0.1318     4.4423     5.4350     9.0557   -26.1575
  339.5000     7.8330   133.6587     0.0083     2.4332     0.1315     4.6923     5.7422     8.7954   -26.0101
  340.0000     7.8326   130.9579     0.0098     2.4384     0.1342     4.8887     5.9426     8.4367   -25.8632
  340.5000     7.8321   129.4549     0.0098     2.4339     0.1381     4.9895     5.7004     8.2617   -26.0135
  341.0000     7.8303   128.4010     0.0098     2.4197     0.1426     5.0569     5.4305     8.2033   -26.0150
  341.5000     7.8163   127.4968     0.0083     2.4078     0.1492     4.8501     5.2453     8.3724   -26.1653
  342.0000     7.8159   127.0418     0.0068     2.3988     0.1519     4.6843     5.1368     8.5444   -26.3156
  342.5000     7.8005   129.1316     0.0053     2.3995     0.1501     4.5869     4.9960     8.6017   -26.4658
  343.0000     7.8000   128.3771     0.0053     2.4175     0.1441     4.5225     4.9265     8.0259   -26.4673
  343.5000     7.7996   127.1735     0.0038     2.4189     0.1366     4.4899     4.8580     7.2355   -26.4688
  344.0000     7.7991   127.4669     0.0053     2.4257     0.1309     4.4576     4.8236     6.7052   -26.3214
  344.5000     7.7987   130.3053     0.0053     2.4369     0.1270     4.4560     4.8226     6.3875   -26.1741
  345.0000     7.8131   132.0957     0.0053     2.4369     0.1264     4.4545     4.8216     6.9365   -26.1756
  345.5000     7.8126   133.7364     0.0053     2.4399     0.1253     4.4841     4.8206     7.3785   -26.0283
  346.0000     7.8122   139.5688     0.0053     2.4488     0.1235     4.5136     4.8196     7.3258   -25.8810
  346.5000     7.8117   140.3114     0.0053     2.4518     0.1202     4.5742     4.8522     7.7926   -25.8825
  347.0000     7.8113   140.3053     0.0053     2.4473     0.1172     4.6365     4.9524     8.0088   -25.7351
  347.5000     7.8108   140.2994     0.0068     2.4570     0.1157     4.7640     5.0900     8.0060   -25.5878
  348.0000     7.8104   140.2934     0.0068     2.4615     0.1142     4.8958     5.2675     8.3418   -25.5893
  348.5000     7.8099   139.0898     0.0053     2.4548     0.1199     5.1002     5.4513     8.9347   -25.4420
  349.0000     7.8095   137.1377     0.0053     2.4458     0.1205     5.2771     5.6805     9.3739   -25.4435
  349.5000     7.8090   134.4371     0.0053     2.4428     0.1217     5.4602     5.8382     9.5678   -25.4449
  350.0000     7.8117   129.6410     0.0043     2.4396     0.1257     5.6627     5.9571     9.7780   -25.5018
  350.5000     7.8235   129.6425     0.0023     2.4278     0.1286     5.8145     6.1476     9.8556   -25.5952
  351.0000     7.8233   129.6440     0.0023     2.4188     0.1319     5.9675     6.3374     9.9333   -25.5952
  351.5000     7.8232   129.6455     0.0008     2.4159     0.1349     6.0076     6.3357    10.0109   -25.7440
  352.0000     7.8230   123.5092     0.0009     2.4174     0.1343     6.0478     6.3778    10.0959   -25.8929
  352.5000     7.8229   122.0134     0.0009     2.4278     0.1313     6.0051     6.3760    10.0838   -25.8929
  353.0000     7.8227   123.8116     0.0009     2.4366     0.1262     6.0038     6.3743     9.9521   -25.7440
  353.5000     7.8226   124.8610     0.0010     2.4462     0.1214     5.9547     6.3287     9.8131   -25.7440
  354.0000     7.8224   125.9104     0.0055     2.4527     0.1181     5.9116     6.2380     9.6091   -25.7440
  354.5000     7.8223   128.9056     0.0116     2.4571     0.1184     5.7967     6.1082     9.4098   -25.5952
  355.0000     7.8221   126.5122     0.0146     2.4553     0.1214     5.6770     5.9812     9.4073   -25.5952
  355.5000     7.8220   126.0642     0.0147     2.4457     0.1238     5.4460     5.8568     9.4047   -25.5952
  356.0000     7.8218   131.1559     0.0147     2.4398     0.1253     5.2244     5.7349     9.4021   -25.5952
  356.5000     7.8217   134.3011     0.0147     2.4360     0.1268     4.9774     5.6545     9.2708   -25.5952
  357.0000     7.8215   134.3026     0.0148     2.4346     0.1274     4.7421     5.5752     9.0162   -25.5952
  357.5000     7.8064   134.3041     0.0148     2.4368     0.1258     4.5492     5.4971     8.7083   -25.5952
  358.0000     7.8063   133.8565     0.0148     2.4450     0.1228     4.4246     5.3788     8.2958   -25.5952
