~VERSION INFORMATION
 VERS.                2.0:   CWLS LOG ASCII STANDARD - VERSION 2.0
 WRAP.                 NO:   ONE LINE PER DEPTH STEP
~WELL INFORMATION
#MNEM.UNIT      DATA TYPE    INFORMATION
#----------   ------------   ------------------------------
 STRT.F          149.5000:   START DEPTH
 STOP.F          864.5000:   STOP DEPTH
 STEP.F            0.5000:   STEP LENGTH
 NULL.          -999.2500:   NO VALUE
 COMP. U S NAVY/INTEX OIL CO:   COMPANY
 WELL.    NPR #3 #78-S-27:   WELL
 FLD .             TEAPOT:   FIELD
 LOC .      S27 T39N R78W:   LOCATION
 CNTY.            NATRONA:   COUNTY
 STAT.            WYOMING:   STATE
 CTRY. UNITED STATES OF AMERICA:   COUNTRY
 SRVC. Schlumberger Well Surveying Corp:   SERVICE COMPANY
 DATE.        25-FEB-1961:   LOGDATE
 API .       490250657800:   API NUMBER
~CURVE INFORMATION
#MNEM.UNIT       API CODE    CURVE DESCRIPTION
#----------   ------------   ------------------------------
 DEPT.F                  :   
 SPR .MV     05 010 01 00:   SPONTANEOUS POTENTIAL FROM RES.
 CILD.MMHO   05 110 46 00:   CONDUCTIVITY INDUCTION LOG DEEP
 ASN .OHMM   05 041 16 00:   AMPLIFIED SHORT NORMAL 16"
 ILD .OHMM   05 120 46 00:   INDUCTION LOG DEEP
 GR  .GAPI   81 310 01 00:   GAMMA RAY
~PARAMETER INFORMATION
#MNEM.UNIT          VALUE    DESCRIPTION
#----------   ------------   ------------------------------
 PD  .                 GL:   PERMANENT DATUM
 EPD .F              5038:   ELEVATION PERMANENT DATUM
 LMF .                 KB:   LOG MEASURED FROM
 DAPD.F                 4:   FEET ABOVE PERMANENT DATUM
 DMF .                 KB:   DRILLING MEASURED FROM
 EKB .F              5042:   KELLING BUSHING
 EGL .F              5038:   GROUND LEVEL
 DATE.            2-25-61:   RUN DATE
 RUN .                  1:   RUN NUMBER
 DD  .F               865:   DEPTH DRILLER
 DL  .F               869:   DEPTH LOGGER
 BLI .F               864:   BOTTOM LOG INTERVAL
 TLI .F               150:   TOP LOG INTERVAL
 CBD .F                12:   CASING BOTTOM DRILLER
 BS  .IN            7.875:   BIT SIZE
 BSD .F               865:   BIT SIZE AT DEPTH
 DFT .       OIL EMULSION:   DRILLING FLUID TYPE
 DFD .               10.2:   DRILLING FLUID DENSITY
 DFV .                 48:   DRILLING FLUID VISCOSITY
 DFPH.                8.5:   DRILLING FLUID PH
 DFL .               10.2:   DRILLING FLUID LOSS
 RMS .OHMM            1.7:   RESISTIVITY MUD SAMPLE
 MST .F                57:   MUD SAMPLE TEMPERATURE
 MFSS.                  C:   MUD FILTRATE SAMPLE SOURCE
 MCSS.                  C:   MUD CAKE SAMPLE SOURCE
 RMB .OHMM            1.3:   RESISTIVITY MUD AT BHT
 BHT .F                75:   BOTTOM HOLE TEMPERATURE
 TCS .HRS               1:   TIME CURCULATED STOPPED
 MRT .F                75:   MAXIMUM RECORDED TEMPERATURE
 LUN .               2572:   LOGGING UNIT NUMBER
 LUL .                 NC:   LOGGING UNIT LOCATION
 ENGI.             ROUSER:   RECORDING ENGINEER
 WITN.          JORGENSEN:   WITNESSED BY
 CLNT.            A2DTECH:   CLIENT CODE
 ORIG.       2", 5" PRINT:   ORIGIN OF DATA
 UWI .       490250657800:   UNIQUE WELL ID
 DICO. A2D Technologies, Inc.:   DIGITIZING COMPANY
~OTHER INFORMATION
~A   DEPT      SPR       CILD        ASN        ILD         GR   
# ...
  210.5000   -61.1854   195.2405     5.4271     4.3447  -999.2500
  211.0000   -61.1348   203.8935     5.1890     3.8018  -999.2500
  211.5000   -61.0849   220.3097     5.0354     3.0928  -999.2500
  212.0000   -61.0345   247.3314     4.7166     2.6741  -999.2500
  212.5000   -60.9845   274.5113     4.3201     2.5793  -999.2500
  213.0000   -60.9339   301.6893     3.9362     2.4206  -999.2500
  213.5000   -60.8844   328.8265     3.5456     2.2937  -999.2500
  214.0000   -60.8330   357.0485     3.4717     2.1247  -999.2500
  214.5000   -60.7852   366.7198     3.4660     2.0493  -999.2500
  215.0000   -60.7290   377.0659     3.5983     2.0524  -999.2500
  215.5000   -60.6969   380.9366     3.7418     2.0918  -999.2500
  216.0000   -60.7010   372.4048     4.1585     2.5587  -999.2500
  216.5000   -60.6991   356.2124     4.6373     3.0770  -999.2500
  217.0000   -60.7002   293.0862     4.9450     3.5999  -999.2500
  217.5000   -60.6996   259.6067     5.0739     4.0993  -999.2500
  218.0000   -60.7000   226.9539     5.0963     4.6508  -999.2500
  218.5000   -60.6999   198.8978     5.0903     4.8742  -999.2500
  219.0000   -60.7000   196.1323     5.0918     4.6999  -999.2500
  219.5000   -60.7000   196.9088     5.0974     4.5868  -999.2500
  220.0000   -60.7000   200.6585     5.1488     4.4825  -999.2500
  220.5000   -60.7000   204.4081     5.2111     4.3940  -999.2500
  221.0000   -60.7003   207.9158     5.2215     4.3656  -999.2500
  221.5000   -60.7001   209.0631     5.0903     4.3524  -999.2500
  222.0000   -60.7011   211.0822     4.9575     4.1511  -999.2500
  222.5000   -60.6997   213.1012     4.8240     3.9490  -999.2500
  223.0000   -60.7027   221.6784     4.6909     3.7461  -999.2500
  223.5000   -60.6978   234.8021     4.5576     3.5431  -999.2500
  224.0000   -60.7079   247.9259     4.4239     3.3417  -999.2500
  224.5000   -60.6289   261.0496     4.2909     3.1360  -999.2500
  225.0000   -60.4215   274.1733     4.1567     2.9381  -999.2500
  225.5000   -60.2270   287.2971     4.0248     2.7281  -999.2500
  226.0000   -60.0189   298.0695     3.8906     2.6536  -999.2500
  226.5000   -59.8281   306.1122     3.8378     2.6551  -999.2500
  227.0000   -59.6049   307.1142     3.8973     2.7050  -999.2500
  227.5000   -59.5021   307.1142     4.1597     2.7882  -999.2500
  228.0000   -59.7467   307.1142     4.4215     2.9031  -999.2500
  228.5000   -60.0285   302.1042     4.6792     3.3353  -999.2500
  229.0000   -60.3101   283.1697     4.9385     3.7356  -999.2500
  229.5000   -60.5930   258.2682     5.1983     4.1502  -999.2500
  230.0000   -60.8714   233.3667     5.4494     4.4877  -999.2500
  230.5000   -60.9064   208.4653     5.6004     4.7791  -999.2500
  231.0000   -60.8993   188.8778     5.6934     4.9683  -999.2500
  231.5000   -60.9032   188.8778     5.7903     4.9692  -999.2500
  232.0000   -60.8965   188.8778     5.8214     4.9819  -999.2500
  232.5000   -60.8343   190.0601     5.8403     4.9317  -999.2500
  233.0000   -60.7564   191.6754     5.7962     4.6061  -999.2500
  233.5000   -60.6819   197.8958     5.4818     4.3110  -999.2500
  234.0000   -60.6058   208.8427     5.1984     4.0140  -999.2500
  234.5000   -60.5307   223.3545     4.9167     3.7164  -999.2500
  235.0000   -60.4551   237.8664     4.6262     3.4230  -999.2500
  235.5000   -60.3797   252.3782     4.3560     3.0914  -999.2500
  236.0000   -60.3059   266.8900     4.0359     2.9056  -999.2500
  236.5000   -60.2991   281.4019     3.8842     2.6805  -999.2500
  237.0000   -60.2973   295.9137     3.9437     2.5450  -999.2500
  237.5000   -60.3243   313.1263     4.0295     2.5628  -999.2500
  238.0000   -60.3894   324.1483     4.1425     2.5577  -999.2500
  238.5000   -60.4493   321.0855     4.3066     2.6572  -999.2500
  239.0000   -60.5123   310.1202     4.5178     2.9221  -999.2500
  239.5000   -60.5734   290.8245     4.7119     3.2537  -999.2500
  240.0000   -60.6363   267.7498     4.9330     3.5749  -999.2500
  240.5000   -60.6948   244.6751     5.0994     3.9024  -999.2500
  241.0000   -60.7014   226.8512     5.1935     4.2350  -999.2500
  241.5000   -60.7002   218.2703     5.3082     4.3502  -999.2500
  242.0000   -60.7005   211.7292     5.4120     4.4267  -999.2500
  242.5000   -60.7008   208.5564     5.5277     4.5250  -999.2500
  243.0000   -60.6972   205.3836     5.5581     4.5755  -999.2500
  243.5000   -60.6563   201.9038     5.5432     4.5590  -999.2500
  244.0000   -60.6091   205.1458     5.4060     4.4196  -999.2500
  244.5000   -60.5631   208.7352     5.2325     4.2416  -999.2500
  245.0000   -60.5166   212.3246     5.0673     4.0736  -999.2500
  245.5000   -60.4704   215.9140     4.8977     3.8991  -999.2500
  246.0000   -60.4240   222.7856     4.7308     3.7313  -999.2500
  246.5000   -60.3777   233.8903     4.5616     3.5526  -999.2500
  247.0000   -60.3313   245.0155     4.3957     3.4060  -999.2500
  247.5000   -60.2851   256.1850     4.2939     3.2933  -999.2500
  248.0000   -60.2386   267.3196     4.1995     3.1738  -999.2500
  248.5000   -60.1926   274.5857     4.1023     3.0551  -999.2500
  249.0000   -60.1456   277.5761     4.0102     2.9404  -999.2500
  249.5000   -60.1034   280.5658     3.9678     2.8146  -999.2500
  250.0000   -60.0992   287.8353     3.9661     2.7559  -999.2500
  250.5000   -60.1000   299.4315     3.9654     2.7628  -999.2500
  251.0000   -60.0999   305.1102     3.9683     2.7620  -999.2500
  251.5000   -60.0999   302.5489     3.9536     2.7496  -999.2500
  252.0000   -60.1004   300.1002     3.8152     2.6108  -999.2500
  252.5000   -60.0997   303.8702     3.6632     2.4610  -999.2500
  253.0000   -60.1013   318.5822     3.5149     2.3125  -999.2500
  253.5000   -60.0985   339.7821     3.3636     2.1644  -999.2500
  254.0000   -60.1044   360.9820     3.2157     2.0141  -999.2500
  254.5000   -60.0584   382.1819     3.0631     1.8680  -999.2500
  255.0000   -59.9623   403.5962     2.9641     1.7143  -999.2500
  255.5000   -59.8768   416.8832     2.9594     1.6471  -999.2500
  256.0000   -59.7842   423.6580     2.9723     1.6594  -999.2500
  256.5000   -59.7064   420.0456     3.0172     1.6467  -999.2500
  257.0000   -59.6987   414.1075     3.1634     1.6903  -999.2500
  257.5000   -59.7000   408.7648     3.4624     2.0191  -999.2500
  258.0000   -59.6995   387.7426     3.7572     2.3526  -999.2500
  258.5000   -59.6998   372.2445     4.0448     2.6856  -999.2500
  259.0000   -59.6997   323.3417     4.3463     3.0146  -999.2500
  259.5000   -59.6999   286.0721     4.5762     3.3468  -999.2500
  260.0000   -59.6999   263.7943     4.5908     3.5324  -999.2500
  260.5000   -59.7000   248.6690     4.5192     3.6345  -999.2500
  261.0000   -59.7000   237.9760     4.4241     3.6537  -999.2500
  261.5000   -59.6999   245.9649     4.3398     3.4880  -999.2500
  262.0000   -59.7000   252.8297     4.2509     3.3394  -999.2500
  262.5000   -59.6997   259.7968     4.1642     3.1846  -999.2500
  263.0000   -59.7001   266.7089     4.0765     3.0342  -999.2500
  263.5000   -59.6993   272.2204     3.9889     2.8798  -999.2500
  264.0000   -59.7030   285.6878     3.9022     2.7302  -999.2500
  264.5000   -59.7353   296.8676     3.8132     2.5721  -999.2500
  265.0000   -59.7691   308.0283     3.7315     2.4611  -999.2500
  265.5000   -59.8024   319.2000     3.6815     2.4586  -999.2500
  266.0000   -59.8359   325.6256     3.7005     2.4558  -999.2500
  266.5000   -59.8694   329.1583     3.7074     2.4588  -999.2500
  267.0000   -59.9028   329.1583     3.8340     2.4641  -999.2500
  267.5000   -59.9364   326.1022     4.0529     2.7262  -999.2500
  268.0000   -59.9699   317.4895     4.2748     3.1109  -999.2500
  268.5000   -60.0034   296.3814     4.5678     3.4725  -999.2500
  269.0000   -60.0369   275.2733     4.8466     3.8480  -999.2500
  269.5000   -60.0704   254.1651     5.1325     4.2110  -999.2500
  270.0000   -60.0998   233.0570     5.4156     4.5894  -999.2500
  270.5000   -60.0988   207.9158     5.6984     4.9435  -999.2500
  271.0000   -60.1047   197.0274     5.9844     5.3514  -999.2500
