~VERSION INFORMATION
 VERS.                2.0:   CWLS LOG ASCII STANDARD - VERSION 2.0
 WRAP.                 NO:   ONE LINE PER DEPTH STEP
~WELL INFORMATION
#MNEM.UNIT      DATA TYPE    INFORMATION
#----------   ------------   ------------------------------
 STRT.F          376.0000:   START DEPTH
 STOP.F         2400.0000:   STOP DEPTH
 STEP.F            0.5000:   STEP LENGTH
 NULL.          -999.2500:   NO VALUE
 COMP. LAWRENCE/ALLISON INC:   COMPANY
 WELL.        55 X #15-15:   WELL
 FLD .            WILDCAT:   FIELD
 LOC .      S15 T38N R78W:   LOCATION
 CNTY.            NATRONA:   COUNTY
 STAT.            WYOMING:   STATE
 CTRY. UNITED STATES OF AMERICA:   COUNTRY
 SRVC.            Unknown:   SERVICE COMPANY
 DATE.        12-APR-1988:   LOGDATE
 API .       490251119800:   API NUMBER
~CURVE INFORMATION
#MNEM.UNIT       API CODE    CURVE DESCRIPTION
#----------   ------------   ------------------------------
 DEPT.F                  :   
 GR  .GAPI   30 310 01 00:   GAMMA RAY
 TGAS.UNITS  91 830 01 00:   TOTAL GAS UNIT
 ROP .FT/HR  91 810 01 00:   RATE OF DRILLING PENETRATION
~PARAMETER INFORMATION
#MNEM.UNIT          VALUE    DESCRIPTION
#----------   ------------   ------------------------------
 PD  .                 GL:   PERMANENT DATUM
 EPD .F              5293:   ELEVATION PERMANENT DATUM
 LMF .                 GL:   LOG MEASURED FROM
 DMF .                 KB:   DRILLING MEASURED FROM
 EKB .F              5304:   KELLING BUSHING
 EGL .F              5293:   GROUND LEVEL
 DATE.        12-APR-1988:   RUN DATE
 RUN .                  1:   RUN NUMBER
 DD  .F              2400:   DEPTH DRILLER
 DL  .F               851:   DEPTH LOGGER
 BLI .F               846:   BOTTOM LOG INTERVAL
 TLI .F               372:   TOP LOG INTERVAL
 CS  .IN                7:   CASING SIZE
 CBL .F               890:   CASING BOTTOM LOGGER
 BSD .F              2400:   BIT SIZE AT DEPTH
 DFT .              WATER:   DRILLING FLUID TYPE
 TCS .HRS               1:   TIME CURCULATED STOPPED
 ENGI.          BANGERTER:   RECORDING ENGINEER
 WITN.             NORHAN:   WITNESSED BY
 CLNT.            A2DTECH:   CLIENT CODE
 ORIG.           5" PRINT:   ORIGIN OF DATA
 UWI .       490251119800:   UNIQUE WELL ID
 DICO. A2D Technologies, Inc.:   DIGITIZING COMPANY
~OTHER INFORMATION
~A   DEPT        GR      TGAS        ROP   
# ...
 1741.0000  -999.2500     8.8036     0.4453
 1741.5000  -999.2500     8.8092     0.4645
 1742.0000  -999.2500     8.8148     0.4837
 1742.5000  -999.2500     9.1993     0.5311
 1743.0000  -999.2500     9.2049     0.5598
 1743.5000  -999.2500     9.2105     0.5601
 1744.0000  -999.2500     8.8371     0.5605
 1744.5000  -999.2500     8.8428     0.5138
 1745.0000  -999.2500     8.4694     0.4765
 1745.5000  -999.2500     8.0597     0.4674
 1746.0000  -999.2500     7.7227     0.4678
 1746.5000  -999.2500     7.3508     0.4682
 1747.0000  -999.2500     7.7353     0.4591
 1747.5000  -999.2500     7.7409     0.4689
 1748.0000  -999.2500     7.3676     0.4693
 1748.5000  -999.2500     7.3732     0.4697
 1749.0000  -999.2500     7.3787     0.4701
 1749.5000  -999.2500     6.6251     0.4704
 1750.0000  -999.2500     6.2517     0.4708
 1750.5000  -999.2500     6.2587     0.4617
 1751.0000  -999.2500     5.8839     0.4527
 1751.5000  -999.2500     5.8909     0.4437
 1752.0000  -999.2500     5.8965     0.4535
 1752.5000  -999.2500     5.9021     0.4444
 1753.0000  -999.2500     5.9078     0.4449
 1753.5000  -999.2500     5.9135     0.4358
 1754.0000  -999.2500     5.5400     0.4362
 1754.5000  -999.2500     5.5470     0.4271
 1755.0000  -999.2500     5.5526     0.4275
 1755.5000  -999.2500     5.5582     0.4279
 1756.0000  -999.2500     5.5637     0.4282
 1756.5000  -999.2500     5.5686     0.4286
 1757.0000  -999.2500     5.9539     0.4290
 1757.5000  -999.2500     5.9589     0.4294
 1758.0000  -999.2500     5.9646     0.4298
 1758.5000  -999.2500     5.9707     0.4395
 1759.0000  -999.2500     5.9763     0.4399
 1759.5000  -999.2500     5.9819     0.4403
 1760.0000  -999.2500     6.3664     0.4407
 1760.5000  -999.2500     6.3720     0.4411
 1761.0000  -999.2500     6.3777     0.4415
 1761.5000  -999.2500     6.3834     0.4419
 1762.0000  -999.2500     6.3891     0.4422
 1762.5000  -999.2500     6.3958     0.4426
 1763.0000  -999.2500     6.4014     0.4430
 1763.5000  -999.2500     6.4070     0.4434
 1764.0000  -999.2500     6.4126     0.4342
 1764.5000  -999.2500     6.4182     0.4347
 1765.0000  -999.2500     6.4238     0.4256
 1765.5000  -999.2500     6.4294     0.4260
 1766.0000  -999.2500     6.0546     0.4264
 1766.5000  -999.2500     6.0616     0.4267
 1767.0000  -999.2500     6.0672     0.4271
 1767.5000  -999.2500     6.0728     0.4275
 1768.0000  -999.2500     6.0784     0.4279
 1768.5000  -999.2500     5.7009     0.4282
 1769.0000  -999.2500     5.3317     0.4286
 1769.5000  -999.2500     5.3375     0.4290
 1770.0000  -999.2500     5.3443     0.4294
 1770.5000  -999.2500     5.3499     0.4298
 1771.0000  -999.2500     5.3555     0.4302
 1771.5000  -999.2500     5.3611     0.4305
 1772.0000  -999.2500     5.7456     0.4309
 1772.5000  -999.2500     5.7512     0.4313
 1773.0000  -999.2500     5.7568     0.4317
 1773.5000  -999.2500     5.7624     0.4321
 1774.0000  -999.2500     5.7680     0.4324
 1774.5000  -999.2500     5.7736     0.4328
 1775.0000  -999.2500     5.7792     0.4332
 1775.5000  -999.2500     5.7848     0.4335
 1776.0000  -999.2500     5.7904     0.4339
 1776.5000  -999.2500     5.7960     0.4343
 1777.0000  -999.2500     5.8017     0.4347
 1777.5000  -999.2500     5.8074     0.4350
 1778.0000  -999.2500     5.8142     0.4354
 1778.5000  -999.2500     5.8197     0.4358
 1779.0000  -999.2500     5.8253     0.4362
 1779.5000  -999.2500     5.8309     0.4366
 1780.0000  -999.2500     5.8358     0.4369
 1780.5000  -999.2500     5.8421     0.4373
 1781.0000  -999.2500     6.2267     0.4471
 1781.5000  -999.2500     5.8519     0.4569
 1782.0000  -999.2500     5.8589     0.4761
 1782.5000  -999.2500     5.8645     0.4859
 1783.0000  -999.2500     5.8701     0.4863
 1783.5000  -999.2500     5.4966     0.4867
 1784.0000  -999.2500     5.5024     0.4870
 1784.5000  -999.2500     5.5080     0.4874
 1785.0000  -999.2500     5.5137     0.4783
 1785.5000  -999.2500     5.5194     0.4693
 1786.0000  -999.2500     5.9051     0.4603
 1786.5000  -999.2500     5.9107     0.4512
 1787.0000  -999.2500     5.9163     0.4469
 1787.5000  -999.2500     5.5415     0.4426
 1788.0000  -999.2500     5.5485     0.4429
 1788.5000  -999.2500     5.5541     0.4433
 1789.0000  -999.2500     5.5597     0.4438
 1789.5000  -999.2500     5.5653     0.4441
 1790.0000  -999.2500     5.5709     0.4445
 1790.5000  -999.2500     5.5765     0.4449
 1791.0000  -999.2500     5.5821     0.4453
 1791.5000  -999.2500     5.5877     0.4456
 1792.0000  -999.2500     5.5933     0.4460
 1792.5000  -999.2500     5.5989     0.4463
 1793.0000  -999.2500     5.6046     0.4467
 1793.5000  -999.2500     5.2311     0.4471
 1794.0000  -999.2500     4.8578     0.4475
 1794.5000  -999.2500     4.8648     0.4479
 1795.0000  -999.2500     4.8704     0.4482
 1795.5000  -999.2500     5.2549     0.4486
 1796.0000  -999.2500     5.2605     0.4584
 1796.5000  -999.2500     5.2661     0.4705
 1797.0000  -999.2500     5.2717     0.4828
 1797.5000  -999.2500     5.6562     0.4878
 1798.0000  -999.2500     5.6618     0.4893
 1798.5000  -999.2500     5.6674     0.4979
 1799.0000  -999.2500     5.6730     0.4984
 1799.5000  -999.2500     5.6786     0.4987
 1800.0000  -999.2500     5.6842     0.4840
 1800.5000  -999.2500     5.6899     0.4524
 1801.0000  -999.2500     5.6956     0.4434
 1801.5000  -999.2500     5.7024     0.4534
 1802.0000  -999.2500     5.7395     0.4539
 1802.5000  -999.2500     6.1315     0.4543
 1803.0000  -999.2500     6.1445     0.4548
 1803.5000  -999.2500     6.1575     0.4553
 1804.0000  -999.2500     6.1706     0.4557
 1804.5000  -999.2500     5.8046     0.4563
 1805.0000  -999.2500     5.8177     0.4568
 1805.5000  -999.2500     5.8307     0.4554
 1806.0000  -999.2500     5.8437     0.4482
 1806.5000  -999.2500     5.8567     0.4393
 1807.0000  -999.2500     5.8699     0.4304
 1807.5000  -999.2500     5.8832     0.4214
 1808.0000  -999.2500     5.5168     0.4219
 1808.5000  -999.2500     5.5331     0.4223
 1809.0000  -999.2500     5.5461     0.4228
 1809.5000  -999.2500     5.5573     0.4233
 1810.0000  -999.2500     5.5722     0.4143
 1810.5000  -999.2500     5.5852     0.4148
 1811.0000  -999.2500     5.5971     0.4153
 1811.5000  -999.2500     5.6103     0.4063
 1812.0000  -999.2500     5.6242     0.4068
 1812.5000  -999.2500     5.6373     0.4061
 1813.0000  -999.2500     5.6503     0.3983
 1813.5000  -999.2500     5.6634     0.3988
 1814.0000  -999.2500     5.6766     0.3993
 1814.5000  -999.2500     5.6899     0.3997
 1815.0000  -999.2500     5.7056     0.4002
 1815.5000  -999.2500     5.7186     0.4007
 1816.0000  -999.2500     5.7297     0.4012
 1816.5000  -999.2500     5.8329     0.4016
 1817.0000  -999.2500     6.1366     0.4115
 1817.5000  -999.2500     6.1496     0.4214
 1818.0000  -999.2500     6.1627     0.4313
 1818.5000  -999.2500     5.7967     0.4507
 1819.0000  -999.2500     5.8098     0.4699
 1819.5000  -999.2500     5.8228     0.4515
 1820.0000  -999.2500     5.8358     0.4425
 1820.5000  -999.2500     5.8491     0.4336
 1821.0000  -999.2500     5.8623     0.4342
 1821.5000  -999.2500     5.8781     0.4346
 1822.0000  -999.2500     5.8911     0.4256
 1822.5000  -999.2500     5.9041     0.4166
 1823.0000  -999.2500     5.5350     0.4077
 1823.5000  -999.2500     5.1690     0.4082
 1824.0000  -999.2500     4.8031     0.3992
 1824.5000  -999.2500     4.8194     0.3997
 1825.0000  -999.2500     4.8324     0.4002
 1825.5000  -999.2500     4.8454     0.3955
 1826.0000  -999.2500     4.8584     0.4011
 1826.5000  -999.2500     4.8714     0.3922
 1827.0000  -999.2500     4.8846     0.3927
 1827.5000  -999.2500     4.8979     0.3931
 1828.0000  -999.2500     4.9138     0.3936
 1828.5000  -999.2500     4.9268     0.3942
 1829.0000  -999.2500     4.9398     0.4040
 1829.5000  -999.2500     4.9528     0.4044
 1830.0000  -999.2500     4.9658     0.4050
 1830.5000  -999.2500     4.9789     0.3960
 1831.0000  -999.2500     4.9919     0.3964
 1831.5000  -999.2500     5.0049     0.3969
