~VERSION INFORMATION
 VERS.                2.0:   CWLS LOG ASCII STANDARD - VERSION 2.0
 WRAP.                 NO:   ONE LINE PER DEPTH STEP
~WELL INFORMATION
#MNEM.UNIT      DATA TYPE    INFORMATION
#----------   ------------   ------------------------------
 STRT.F           32.0000:   START DEPTH
 STOP.F          551.0000:   STOP DEPTH
 STEP.F            0.5000:   STEP LENGTH
 NULL.          -999.2500:   NO VALUE
 COMP.    FENIX & SCISSON:   COMPANY
 WELL.   NPR ##3 84-SX-10:   WELL
 FLD .              NPR 3:   FIELD
 LOC .      S10 T38N R78W:   LOCATION
 CNTY.            NATRONA:   COUNTY
 STAT.            WYOMING:   STATE
 CTRY. UNITED STATES OF AMERICA:   COUNTRY
 SRVC.              Welex:   SERVICE COMPANY
 DATE.        25-JAN-1978:   LOGDATE
 API .       490251033700:   API NUMBER
~CURVE INFORMATION
#MNEM.UNIT       API CODE    CURVE DESCRIPTION
#----------   ------------   ------------------------------
 DEPT.F                  :   
 SPR .MV     07 010 01 00:   SPONTANEOUS POTENTIAL FROM RES.
 ILD .OHMM   07 120 46 00:   INDUCTION LOG DEEP
 ILM .OHMM   07 120 44 00:   INDUCTION LOG MEDIUM
 SGRD.OHMM   07 220 05 00:   SHALLOW GUARD RESISTIVITY
 CALD.IN     45 280 60 00:   CALIPER FROM DENSITY LOG
 GRD .GAPI   45 310 01 00:   GAMMA RAY FROM DENSITY LOG
 CORR.G/C3   45 356 01 00:   DENSITY CORRECTION
 RHOB.G/C3   45 350 01 00:   BULK DENSITY
 DPHI.DEC    45 890 12 00:   DENSITY POROSITY SANDSTONE
~PARAMETER INFORMATION
#MNEM.UNIT          VALUE    DESCRIPTION
#----------   ------------   ------------------------------
 CLNT.            A2DTECH:   CLIENT CODE
 ORIG.           5" PRINT:   ORIGIN OF DATA
 UWI .       490251033700:   UNIQUE WELL ID
 DICO. A2D Technologies, Inc.:   DIGITIZING COMPANY
~OTHER INFORMATION
~A   DEPT      SPR        ILD        ILM       SGRD         CALD      GRD       CORR       RHOB       DPHI   
# ...
  287.5000   -48.2357     5.1491     5.7223     9.3612     8.3612   138.6261     0.0165     2.4934     0.1004
  288.0000   -48.2410     5.2561     6.0468    10.0322     8.3604   141.8134     0.0135     2.4826     0.1073
  288.5000   -48.2454     5.4028     6.3018    10.6031     8.3596   144.9162     0.0119     2.4798     0.1070
  289.0000   -48.2497     5.5922     6.5676    10.9758     8.3738   144.1582     0.0193     2.4888     0.1043
  289.5000   -48.2541     5.9160     6.7038    10.9744     8.3881   145.3522     0.0238     2.4978     0.0992
  290.0000   -48.2585     6.3761     6.7957    10.8971     8.3874   143.0927     0.0267     2.5015     0.0947
  290.5000   -48.2628     6.6454     6.8438    10.5976     8.3867   139.6320     0.0267     2.5075     0.0908
  291.0000   -48.2673     6.7837     6.9832    10.6868     8.3859   140.3756     0.0206     2.5112     0.0881
  291.5000   -48.2727     6.8300     7.0785    11.3553     8.3851   140.9672     0.0175     2.5097     0.0909
  292.0000   -48.2770     6.9718     7.0767    11.5930     8.3993   141.5606     0.0190     2.4916     0.0954
  292.5000   -48.5817     7.0191     7.0262    11.6721     8.3836   142.3041     0.0249     2.4893     0.1011
  293.0000   -48.7362     7.0666     7.0245    11.7518     8.3829   143.3479     0.0294     2.4975     0.0987
  293.5000   -48.8907     7.1145     7.0720    11.8320     8.3821   144.2416     0.0293     2.5027     0.0942
  294.0000   -49.0452     7.1627     7.1685    11.9125     8.3814   144.8469     0.0262     2.5042     0.0933
  294.5000   -49.0496     7.2112     7.2166    11.8286     8.3957   144.5257     0.0217     2.4972     0.1003
  295.0000   -49.2042     7.2096     7.2148    11.8352     8.3949   143.6175     0.0186     2.4853     0.1057
  295.5000   -49.2096     7.2084     7.2127    11.9078     8.3941   142.2590     0.0171     2.4793     0.1087
  296.0000   -49.2140     7.1574     7.1612    11.8235     8.3934   139.5490     0.0155     2.4807     0.1064
  296.5000   -49.2183     7.1067     7.1100    11.8220     8.3926   138.4550     0.0154     2.4867     0.1043
  297.0000   -49.2227     7.0078     7.0105    11.6576     8.3769   140.8860     0.0154     2.4882     0.1055
  297.5000   -49.2271     6.9078     6.9605    11.5755     8.3762   140.4265     0.0168     2.4769     0.1088
  298.0000   -49.2314     6.8057     6.9588    11.4940     8.3754   139.8187     0.0183     2.4738     0.1097
  298.5000   -49.2358     6.7654     7.0055    11.4102     8.3596   139.8114     0.0212     2.4828     0.1079
  299.0000   -49.0900     6.7643     7.1508    11.3327     8.3738   139.6541     0.0241     2.4926     0.1034
  299.5000   -49.0955     6.8104     7.1987    11.5695     8.3731   140.5478     0.0308     2.4993     0.0989
  300.0000   -49.0911     6.8061     7.1439    11.6485     8.3724   143.0931     0.0379     2.5078     0.0935
  300.5000   -48.9963     6.7895     6.9802    11.5616     8.3721   143.2414     0.0390     2.5090     0.0887
  301.0000   -48.8074     6.7424     6.9317    11.5542     8.3718   143.5403     0.0390     2.5060     0.0939
  301.5000   -48.6615     6.6035     6.7890    11.3990     8.3865   144.4398     0.0405     2.5007     0.1002
  302.0000   -48.5157     6.4621     6.7356    11.3188     8.3862   146.3903     0.0404     2.4932     0.1020
  302.5000   -48.3709     6.2039     6.3342    11.3174     8.3859   148.7913     0.0389     2.4879     0.1032
  303.0000   -48.3754     6.0342     5.9926    11.1600     8.4006   149.5406     0.0374     2.4809     0.1056
  303.5000   -48.2304     5.6694     5.6694    10.5972     8.4003   149.5388     0.0283     2.4698     0.1113
  304.0000   -48.2347     5.4762     5.5526     7.2576     8.4000   150.0475     0.0208     2.4510     0.1178
  304.5000   -48.2390     5.5524     5.5575     6.6774     8.3997   149.6861     0.0147     2.4405     0.1246
  305.0000   -48.0931     5.5907     5.6296     9.7093     8.3994   148.6336     0.0057     2.4435     0.1309
  305.5000   -47.9473     5.5905     5.7079     9.8437     8.3991   147.7151     0.0012     2.4457     0.1273
  306.0000   -47.8015     5.4375     5.7473     9.7744     8.4139   145.7775     0.0102     2.4479     0.1258
  306.5000   -47.6556     5.3255     5.7870    10.1881     8.4285   143.5238     0.0191     2.4487     0.1264
  307.0000   -47.5108     5.2489     5.7468    10.4736     8.4282   141.5704     0.0206     2.4457     0.1246
  307.5000   -47.3649     5.1438     5.5127    10.3996     8.4279   140.6681     0.0206     2.4389     0.1252
  308.0000   -47.2191     5.0729     5.2881     9.3061     8.4277   141.5676     0.0250     2.4306     0.1318
  308.5000   -47.2245     5.0727     5.1434     7.2895     8.4273   142.4667     0.0280     2.4276     0.1369
  309.0000   -47.0776     5.1077     5.1432     5.5302     8.4270   140.9637     0.0280     2.4298     0.1379
  309.5000   -47.0829     5.2173     5.2924     7.1471     8.4267   139.0103     0.0280     2.4335     0.1252
  310.0000   -47.0872     5.3610     5.6663    10.2494     8.4264   137.3573     0.0279     2.4598     0.1119
  310.5000   -47.0916     5.5113     5.8657    10.3913     8.4412   135.5540     0.0294     2.4967     0.0990
  311.0000   -47.0969     5.7053     5.9886    10.3899     8.4408   134.8018     0.0309     2.5140     0.0930
  311.5000   -47.1012     5.8653     6.0719    10.3165     8.4555   138.4037     0.0308     2.5049     0.0978
  312.0000   -47.1055     5.9490     6.1195    10.3151     8.4553   136.1500     0.0308     2.4989     0.0987
  312.5000   -47.1098     6.0295     6.1988    10.3138     8.4550   136.4488     0.0285     2.4959     0.0981
  313.0000   -47.1141     6.0293     6.1986    10.3843     8.4697   137.7988     0.0247     2.4951     0.0975
  313.5000   -47.1195     6.0290     6.2415    10.3829     8.4543   139.3108     0.0217     2.4973     0.0987
  314.0000   -47.1238     6.0288     6.1553    10.5263     8.4540   141.0988     0.0187     2.4939     0.1026
  314.5000   -47.1281     5.9839     6.0230    10.6719     8.4688   142.8992     0.0141     2.4815     0.1069
  315.0000   -47.1323     5.7034     5.8231    10.7448     8.4685   143.3486     0.0118     2.4695     0.1117
  315.5000   -47.1366     5.4333     5.6247    10.4495     8.4682   141.8453     0.0096     2.4559     0.1189
  316.0000   -47.1420     5.2482     5.5088     8.9074     8.4678   140.9429     0.0095     2.4461     0.1249
  316.5000   -47.1463     5.1046     5.3954     6.4735     8.4675   140.7432     0.0095     2.4409     0.1309
  317.0000   -47.1506     5.0692     5.3579     5.5569     8.4823   137.7866     0.0125     2.4446     0.1213
  317.5000   -47.0037     5.1041     5.3949     8.7206     8.4820   135.6830     0.0192     2.4709     0.1099
  318.0000   -47.0091     5.1751     5.4699    10.6620     8.4817   133.5795     0.0259     2.4964     0.0998
  318.5000   -46.8632     5.5845     5.6624     8.7788     8.4813   132.2267     0.0319     2.5070     0.0894
  319.0000   -46.8686     5.6622     5.9024     9.2784     8.4811   131.3104     0.0349     2.5182     0.0915
  319.5000   -46.8729     5.6620     6.1640    10.5839     8.4958   130.7220     0.0379     2.5268     0.0864
  320.0000   -46.8772     6.0258     6.5479    11.1863     8.4955   130.8710     0.0393     2.5377     0.0729
  320.5000   -47.0316     6.4130     6.8255    11.4998     8.4802   131.1699     0.0393     2.5302     0.0759
  321.0000   -47.0360     6.6849     7.1148    11.6583     8.4949   131.4684     0.0348     2.5324     0.0741
  321.5000   -47.0413     6.9682     7.3143    11.8200     8.4946   131.4670     0.0332     2.5369     0.0732
  322.0000   -47.0456     7.1636     7.5264    12.1505     8.4943   129.6634     0.0332     2.5300     0.0744
  322.5000   -46.8986     7.3645     7.6770    12.2339     8.4940   128.9115     0.0317     2.5174     0.0837
  323.0000   -47.0542     7.4669     7.7837    12.2320     8.4937   130.8617     0.0279     2.5174     0.0844
  323.5000   -46.9083     7.5185     7.7834    12.2300     8.4934   130.8603     0.0256     2.5188     0.0837
