~VERSION INFORMATION
 VERS.                2.0:   CWLS LOG ASCII STANDARD - VERSION 2.0
 WRAP.                 NO:   ONE LINE PER DEPTH STEP
~WELL INFORMATION
#MNEM.UNIT      DATA TYPE    INFORMATION
#----------   ------------   ------------------------------
 STRT.F          520.5000:   START DEPTH
 STOP.F         3119.5000:   STOP DEPTH
 STEP.F            0.5000:   STEP LENGTH
 NULL.          -999.2500:   NO VALUE
 COMP.   FLUOR DANIEL INC:   COMPANY
 WELL. NAVAL PETROLEUM RESERVE 3 X-10 #52-10:   WELL
 FLD .            WILDCAT:   FIELD
 LOC .      S10 T38N R78W:   LOCATION
 CNTY.            NATRONA:   COUNTY
 STAT.            WYOMING:   STATE
 CTRY. UNITED STATES OF AMERICA:   COUNTRY
 SRVC.            Unknown:   SERVICE COMPANY
 DATE.        16-AUG-1995:   LOGDATE
 API .       490252275200:   API NUMBER
~CURVE INFORMATION
#MNEM.UNIT       API CODE    CURVE DESCRIPTION
#----------   ------------   ------------------------------
 DEPT.F                  :   
 ROP .MIN/FT 91 810 01 00:   RAT OF DRILLING PENETRATION
 TGAS.UNITS  91 830 01 00:   TOTAL GAS FROM HOTWIRE
~PARAMETER INFORMATION
#MNEM.UNIT          VALUE    DESCRIPTION
#----------   ------------   ------------------------------
 EKB .F              5206:   KELLING BUSHING
 EGL .F              5196:   GROUND LEVEL
 DATE.            8-16-95:   RUN DATE
 DD  .F              3120:   DEPTH DRILLER
 CS  .IN            9.625:   CASING SIZE
 CBD .F               508:   CASING BOTTOM DRILLER
 BS  .IN             8.75:   BIT SIZE
 BSD .F              3120:   BIT SIZE AT DEPTH
 ENGI.               HUSK:   RECORDING ENGINEER
 WITN.              TOWER:   WITNESSED BY
 CLNT.            A2DTECH:   CLIENT CODE
 ORIG.           5" PRINT:   ORIGIN OF DATA
 UWI .       490252275200:   UNIQUE WELL ID
 DICO. A2D Technologies, Inc.:   DIGITIZING COMPANY
~OTHER INFORMATION
~A   DEPT        ROP     TGAS   
# ...
 1857.0000     0.5813   157.5211
 1857.5000     0.5912   157.6056
 1858.0000     0.5906   157.6901
 1858.5000     0.5882   157.7746
 1859.0000     0.5785   157.7151
 1859.5000     0.5779   157.5247
 1860.0000     0.5773   157.3343
 1860.5000     0.5766   157.1440
 1861.0000     0.5442   156.9536
 1861.5000     0.5224   156.7632
 1862.0000     0.5005   156.5729
 1862.5000     0.4999   156.3825
 1863.0000     0.4992   156.1922
 1863.5000     0.4984   156.0018
 1864.0000     0.5084   155.8114
 1864.5000     0.5077   155.6210
 1865.0000     0.5071   155.4307
 1865.5000     0.5064   155.2403
 1866.0000     0.5164   155.0500
 1866.5000     0.5158   154.8885
 1867.0000     0.5151   154.9859
 1867.5000     0.5251   154.9143
 1868.0000     0.5243   154.2570
 1868.5000     0.5236   153.5997
 1869.0000     0.5230   152.9423
 1869.5000     0.5223   152.2850
 1870.0000     0.5217   151.6277
 1870.5000     0.5210   150.9703
 1871.0000     0.5204   150.3130
 1871.5000     0.5197   149.6557
 1872.0000     0.5189   148.9983
 1872.5000     0.5183   148.3410
 1873.0000     0.5177   147.6837
 1873.5000     0.5170   147.0264
 1874.0000     0.5270   146.3690
 1874.5000     0.5263   145.6926
 1875.0000     0.5257   145.7143
 1875.5000     0.5250   145.7366
 1876.0000     0.5138   145.7590
 1876.5000     0.6509   145.7813
 1877.0000     0.6501   145.8036
 1877.5000     0.6602   145.8260
 1878.0000     0.6594   145.8483
 1878.5000     0.6693   145.8706
 1879.0000     0.6687   145.8930
 1879.5000     0.6786   145.9153
 1880.0000     0.6779   145.9376
 1880.5000     0.6774   145.9600
 1881.0000     0.6752   145.9823
 1881.5000     0.6764   146.0046
 1882.0000     0.6653   146.0270
 1882.5000     0.6647   146.0493
 1883.0000     0.6641   146.0721
 1883.5000     0.6636   145.7943
 1884.0000     0.6631   145.5110
 1884.5000     0.6625   145.2278
 1885.0000     0.6620   144.9445
 1885.5000     0.6615   144.6612
 1886.0000     0.6610   144.3779
 1886.5000     0.6605   144.0946
 1887.0000     0.6599   143.8114
 1887.5000     0.6700   143.5281
 1888.0000     0.6695   143.2448
 1888.5000     0.6690   142.9615
 1889.0000     0.6683   142.4504
 1889.5000     0.6678   141.7041
 1890.0000     0.6673   140.9577
 1890.5000     0.6668   140.2114
 1891.0000     0.6663   139.4650
 1891.5000     0.6657   138.7187
 1892.0000     0.6652   137.9723
 1892.5000     0.5800   137.2260
 1893.0000     0.5794   136.4796
 1893.5000     0.5789   135.2112
 1894.0000     0.5784   133.5834
 1894.5000     0.5884   131.9556
 1895.0000     0.5878   130.3278
 1895.5000     0.5873   128.7000
 1896.0000     0.5868   128.0554
 1896.5000     0.5863   127.9241
 1897.0000     0.5858   127.7928
 1897.5000     0.5852   127.6615
 1898.0000     0.5847   127.5302
 1898.5000     0.5842   127.3989
 1899.0000     0.5837   127.2676
 1899.5000     0.5832   127.1363
 1900.0000     0.5826   127.0050
 1900.5000     0.5820   126.8563
 1901.0000     0.5815   126.1536
 1901.5000     0.5810   125.3436
 1902.0000     0.5804   124.5335
 1902.5000     0.5799   123.7234
 1903.0000     0.5794   122.9134
 1903.5000     0.5789   121.1242
 1904.0000     0.5784   120.6338
 1904.5000     0.5779   119.6089
 1905.0000     0.5773   118.7624
 1905.5000     0.5768   117.7164
 1906.0000     0.5762   116.6705
 1906.5000     0.5757   115.6245
 1907.0000     0.5751   114.5786
 1907.5000     0.5746   113.5326
 1908.0000     0.5741   112.4866
 1908.5000     0.5736   111.4407
 1909.0000     0.5731   110.3360
 1909.5000     0.5725   110.1133
 1910.0000     0.5720   109.8773
 1910.5000     0.5715   109.6413
 1911.0000     0.5710   109.4054
 1911.5000     0.5704   109.1694
 1912.0000     0.5698   108.9334
 1912.5000     0.5693   108.6974
 1913.0000     0.5688   108.4615
 1913.5000     0.5683   108.2255
 1914.0000     0.5677   107.9895
 1914.5000     0.5672   107.7536
 1915.0000     0.5561   107.5176
 1915.5000     0.5556   107.2816
 1916.0000     0.5551   107.0457
 1916.5000     0.6817   106.8097
 1917.0000     0.6811   106.5359
 1917.5000     0.6805   105.8619
 1918.0000     0.6907   105.0592
 1918.5000     0.6901   104.2566
 1919.0000     0.6896   103.4540
 1919.5000     0.6890   102.6514
 1920.0000     0.8052   101.8488
 1920.5000     0.8045   101.0462
 1921.0000     0.7934   100.2809
 1921.5000     0.7929    99.6699
 1922.0000     0.7924    99.0589
 1922.5000     0.5482    98.4479
 1923.0000     0.5476    97.8369
 1923.5000     0.5471    97.2259
 1924.0000     0.5466    96.6149
 1924.5000     0.5461    96.0039
 1925.0000     0.5455    95.3929
 1925.5000     0.5450    94.7819
 1926.0000     0.5445    94.1709
 1926.5000     0.5440    93.5598
 1927.0000     0.5434    92.9488
 1927.5000     0.5428    92.2992
 1928.0000     0.5423    91.7118
 1928.5000     0.5418    91.0847
 1929.0000     0.5412    90.4576
 1929.5000     0.5407    89.8306
 1930.0000     0.5402    89.2035
 1930.5000     0.5397    88.5764
 1931.0000     0.5391    87.9494
 1931.5000     0.5386    87.3223
 1932.0000     0.5381    86.6952
 1932.5000     0.5376    86.0682
 1933.0000     0.5371    85.4411
 1933.5000     0.5365    84.8140
 1934.0000     0.5360    84.1867
 1934.5000     0.5355    83.5089
 1935.0000     0.5349    82.8312
 1935.5000     0.5344    82.1534
 1936.0000     0.5338    81.4757
 1936.5000     0.5333    80.7979
 1937.0000     0.5327    80.1202
 1937.5000     0.5322    79.4424
 1938.0000     0.5317    78.7647
 1938.5000     0.5312    78.0869
 1939.0000     0.5307    77.4092
 1939.5000     0.5301    76.7314
 1940.0000     0.5296    76.0537
 1940.5000     0.5291    75.3759
 1941.0000     0.5286    74.6550
 1941.5000     0.5280    73.8917
 1942.0000     0.5275    73.1283
 1942.5000     0.5270    72.3649
 1943.0000     0.5265    71.6016
 1943.5000     0.5260    70.8382
 1944.0000     0.5254    70.0748
 1944.5000     0.5248    69.3114
 1945.0000     0.5243    68.5481
 1945.5000     0.5237    67.7847
 1946.0000     0.5232    67.0213
 1946.5000     0.5227    66.2580
 1947.0000     0.5222    65.7571
 1947.5000     0.5217    65.5570
 1948.0000     0.5211    65.3569
 1948.5000     0.5206    65.1567
 1949.0000     0.5201    64.9566
 1949.5000     0.5196    64.7565
 1950.0000     0.5190    64.5564
 1950.5000     0.5079    64.3563
 1951.0000     0.5074    64.1561
 1951.5000     0.5069    63.9560
 1952.0000     0.5064    63.7559
 1952.5000     0.4952    63.5558
 1953.0000     0.4947    63.3557
 1953.5000     0.4941    63.1555
 1954.0000     0.4936    63.0118
 1954.5000     0.4824    62.9300
 1955.0000     0.4820    62.8482
 1955.5000     0.4814    62.7663
 1956.0000     0.4809    62.6845
 1956.5000     0.4803    62.6027
 1957.0000     0.4798    62.5209
 1957.5000     0.4793    62.4390
 1958.0000     0.4788    62.3572
 1958.5000     0.4677    62.2754
 1959.0000     0.4671    63.6330
 1959.5000     0.4666    65.5600
 1960.0000     0.4661    67.4871
 1960.5000     0.4877    68.6245
 1961.0000     0.4881    68.4835
 1961.5000     0.4885    68.3426
 1962.0000     0.4889    68.2016
 1962.5000     0.4893    68.0606
 1963.0000     0.4897    67.9197
 1963.5000     0.4901    67.7787
 1964.0000     0.4905    67.6378
 1964.5000     0.4909    67.4968
 1965.0000     0.4913    67.3559
 1965.5000     0.4917    67.2149
 1966.0000     0.4921    67.0739
 1966.5000     0.4925    66.9330
 1967.0000     0.4929    66.7920
 1967.5000     0.4933    66.6511
 1968.0000     0.4937    66.5101
 1968.5000     0.6953    66.3691
 1969.0000     0.6957    66.2282
 1969.5000     0.6961    66.0872
 1970.0000     0.6965    65.9463
 1970.5000     0.6969    65.8053
 1971.0000     0.6974    65.6644
 1971.5000     0.6978    65.5234
 1972.0000     0.6981    65.3824
 1972.5000     0.6985    65.2415
 1973.0000     0.6989    65.1005
 1973.5000     0.6993    64.9596
 1974.0000     0.6997    64.8186
 1974.5000     0.7001    64.6777
 1975.0000     0.7958    64.5367
 1975.5000     0.8069    64.3957
 1976.0000     0.8179    64.2300
 1976.5000     0.8288    85.3825
 1977.0000     0.8292    92.8027
 1977.5000     0.8296   102.3355
 1978.0000     0.8300   109.7556
