~VERSION INFORMATION
 VERS.                2.0:   CWLS LOG ASCII STANDARD - VERSION 2.0
 WRAP.                 NO:   ONE LINE PER DEPTH STEP
~WELL INFORMATION
#MNEM.UNIT      DATA TYPE    INFORMATION
#----------   ------------   ------------------------------
 STRT.F          906.5000:   START DEPTH
 STOP.F         2710.5000:   STOP DEPTH
 STEP.F            0.5000:   STEP LENGTH
 NULL.          -999.2500:   NO VALUE
 COMP.   FLUOR DANIEL INC:   COMPANY
 WELL. NAVAL PETROLEUM RESERVE 3 X-4 #77-4:   WELL
 FLD .             TEAPOT:   FIELD
 LOC .       S4 T38N R78W:   LOCATION
 CNTY.            NATRONA:   COUNTY
 STAT.            WYOMING:   STATE
 CTRY. UNITED STATES OF AMERICA:   COUNTRY
 SRVC.            Unknown:   SERVICE COMPANY
 DATE.        21-JUN-1995:   LOGDATE
 API .       490252273600:   API NUMBER
~CURVE INFORMATION
#MNEM.UNIT       API CODE    CURVE DESCRIPTION
#----------   ------------   ------------------------------
 DEPT.F                  :   
 TGAS.UNITS  91 830 01 00:   TOTAL GAS FROM HOTWIRE
 ROP .MIN/FT 91 810 01 00:   RAT OF DRILLING PENETRATION
~PARAMETER INFORMATION
#MNEM.UNIT          VALUE    DESCRIPTION
#----------   ------------   ------------------------------
 EKB .F              5291:   KELLING BUSHING
 EGL .F              5281:   GROUND LEVEL
 DATE.            6-21-95:   RUN DATE
 DD  .F              2711:   DEPTH DRILLER
 CBD .F               893:   CASING BOTTOM DRILLER
 ENGI.               HUSK:   RECORDING ENGINEER
 WITN.              TOWER:   WITNESSED BY
 CLNT.            A2DTECH:   CLIENT CODE
 ORIG.           5" PRINT:   ORIGIN OF DATA
 UWI .       490252273600:   UNIQUE WELL ID
 DICO. A2D Technologies, Inc.:   DIGITIZING COMPANY
~OTHER INFORMATION
~A   DEPT      TGAS         ROP 
# ...
 1028.0000    45.7790     0.5000
 1028.5000    45.7793     0.5000
 1029.0000    45.7795     0.5000
 1029.5000    45.7798     0.5000
 1030.0000    45.7801     0.9659
 1030.5000    45.7804     0.9659
 1031.0000    45.7807     0.9659
 1031.5000    45.7809     0.9659
 1032.0000    45.7812     0.9773
 1032.5000    45.7815     0.9773
 1033.0000    45.7818     0.9886
 1033.5000    45.7821     0.9773
 1034.0000    45.7823     0.9773
 1034.5000    45.7826     0.9773
 1035.0000    45.7829     0.9659
 1035.5000    45.7832     0.9659
 1036.0000    45.7835     0.9659
 1036.5000    45.7837     1.2955
 1037.0000    45.7840     1.2841
 1037.5000    45.7843     1.2841
 1038.0000    45.7682     1.2548
 1038.5000   367.7525     0.9633
 1039.0000   377.8751     0.9862
 1039.5000   386.8699     0.9862
 1040.0000   421.8045     0.9862
 1040.5000   418.7919     0.9862
 1041.0000   411.4669     0.9862
 1041.5000   409.1172     0.9862
 1042.0000   405.8969     1.0780
 1042.5000   401.9218     1.9725
 1043.0000   397.3827     1.9745
 1043.5000   393.4075     1.9839
 1044.0000   388.8685     1.9725
 1044.5000   386.0211     1.4679
 1045.0000   382.6099     1.4794
 1045.5000   378.6347     1.4679
 1046.0000   374.6596     0.9174
 1046.5000   368.4288     0.7569
 1047.0000   365.0175     0.7569
 1047.5000   361.6063     0.7569
 1048.0000   357.6311     0.7569
 1048.5000   353.6560     0.7569
 1049.0000   350.2159     0.7569
 1049.5000   347.8387     0.7569
 1050.0000   345.4889     0.7569
 1050.5000   343.3875     0.9862
 1051.0000   342.2319     0.9862
 1051.5000   341.0762     0.9862
 1052.0000   339.9207     0.9852
 1052.5000   337.6372     0.7569
 1053.0000   335.9177     0.7569
 1053.5000   334.1982     0.7683
 1054.0000   331.9147     0.7798
 1054.5000   330.7591     0.7798
 1055.0000   329.6035     0.7798
 1055.5000   328.4479     0.7798
 1056.0000   327.2923     0.7798
 1056.5000   325.5728     0.9862
 1057.0000   323.8533     0.9862
 1057.5000   322.1100     0.9862
 1058.0000   320.4135     0.9862
 1058.5000   319.0789     0.9862
 1059.0000   316.9682     0.9862
 1059.5000   315.2487     0.9862
 1060.0000   312.4117     0.9862
 1060.5000   310.7545     0.9862
 1061.0000   309.0972     0.9862
 1061.5000   307.9952     0.9862
 1062.0000   306.3466     0.9862
 1062.5000   305.2532     0.9862
 1063.0000   303.5959     0.9862
 1063.5000   303.6304     0.9862
 1064.0000   302.5370     1.4680
 1064.5000   301.4436     1.4709
 1065.0000   300.9142     1.4737
 1065.5000   299.8295     1.4765
 1066.0000   298.1722     1.7431
 1066.5000   297.0788     1.7376
 1067.0000   296.5494     1.7316
 1067.5000   296.0113     1.7256
 1068.0000   294.9179     1.4894
 1068.5000   292.7044     0.7569
 1069.0000   291.6062     0.7569
 1069.5000   290.5186     0.7569
 1070.0000   289.4253     0.7569
 1070.5000   288.3319     0.7569
 1071.0000   287.2385     0.7569
 1071.5000   286.7091     0.7569
 1072.0000   286.1796     0.7569
 1072.5000   285.0863     0.7569
 1073.0000   284.0015     0.7569
 1073.5000   282.9081     0.7569
 1074.0000   282.3778     0.7569
 1074.5000   281.8492     0.4817
 1075.0000   280.7559     0.4817
 1075.5000   280.2264     0.4817
 1076.0000   279.6970     0.4817
 1076.5000   279.7400     0.4817
 1077.0000   278.6380     0.4817
 1077.5000   278.1086     0.4817
 1078.0000   278.1517     0.4817
 1078.5000   278.1861     0.4817
 1079.0000   278.7845     0.4817
 1079.5000   278.8189     0.4817
 1080.0000   278.8534     0.4977
 1080.5000   278.8886     0.5090
 1081.0000   278.3670     0.5207
 1081.5000   278.4015     0.5215
 1082.0000   277.8634     0.5223
 1082.5000   277.9065     0.5231
 1083.0000   277.9409     0.5239
 1083.5000   276.8389     0.5247
 1084.0000   276.3095     0.5255
 1084.5000   275.7871     0.5263
 1085.0000   275.8231     0.5271
 1085.5000   275.2936     0.5279
 1086.0000   275.3289     0.5288
 1086.5000   275.3712     0.5296
 1087.0000   275.4056     0.5304
 1087.5000   274.8676     0.5312
 1088.0000   274.9106     0.5204
 1088.5000   274.9451     0.5204
 1089.0000   274.9795     0.5204
 1089.5000   275.0140     0.5317
 1090.0000   274.4831     0.5317
 1090.5000   273.9550     0.5204
 1091.0000   273.9897     0.5204
 1091.5000   274.0249     0.5317
 1092.0000   274.0670     0.5317
 1092.5000   274.1015     0.5317
 1093.0000   274.1360     0.5317
 1093.5000   274.1704     0.5317
 1094.0000   273.6323     0.5430
 1094.5000   273.1029     0.7014
 1095.0000   273.1460     0.7014
 1095.5000   272.6151     0.7014
 1096.0000   272.0870     0.7014
 1096.5000   272.1217     0.6972
 1097.0000   272.7209     0.6930
 1097.5000   273.3268     0.6888
 1098.0000   273.3613     0.6846
 1098.5000   272.8232     0.6804
 1099.0000   272.2938     0.6762
 1099.5000   271.2090     0.6720
 1100.0000   271.2435     0.6674
 1100.5000   267.2606     0.6422
 1101.0000   266.6635     0.6422
 1101.5000   265.6512     0.6422
 1102.0000   265.6718     0.6193
 1102.5000   266.2523     0.6193
 1103.0000   266.2689     0.5963
 1103.5000   266.2854     0.6193
 1104.0000   266.8658     0.7454
 1104.5000   266.8824     0.7569
 1105.0000   266.8990     0.7569
 1105.5000   266.9155     0.7569
 1106.0000   267.4962     0.7569
 1106.5000   267.5132     0.7569
 1107.0000   267.5332     0.7569
 1107.5000   267.5498     0.7454
 1108.0000   267.0024     0.7339
 1108.5000   267.0190     0.7339
 1109.0000   267.0355     0.7339
 1109.5000   265.9243     0.7339
 1110.0000   265.9408     0.7339
 1110.5000   265.3929     0.7339
 1111.0000   264.8459     0.7339
 1111.5000   263.1531     0.7454
 1112.0000   260.8647     0.7339
 1112.5000   259.2567     0.7339
 1113.0000   258.7093     0.7454
 1113.5000   258.1661     0.7454
 1114.0000   258.1826     0.7339
 1114.5000   258.1992     0.7339
 1115.0000   258.2157     0.7339
 1115.5000   258.2323     0.7339
 1116.0000   258.2488     0.7569
 1116.5000   258.2654     0.9633
 1117.0000   258.2836     0.9633
 1117.5000   259.4267     0.9748
 1118.0000   259.4436     0.9862
 1118.5000   259.4636     1.2156
 1119.0000   259.4801     1.2156
 1119.5000   259.4967     1.2271
 1120.0000   258.9452     0.9404
 1120.5000   258.9659     0.9461
 1121.0000   258.4143     0.9513
 1121.5000   258.3598     0.9565
 1122.0000   258.2681     0.4805
 1122.5000   258.1764     0.4818
 1123.0000   258.0847     0.4833
 1123.5000   257.9930     0.4848
 1124.0000   257.9012     0.4864
 1124.5000   257.8095     0.4879
 1125.0000   257.7178     0.4895
 1125.5000   257.6261     0.4910
 1126.0000   257.5344     0.4926
 1126.5000   257.4427     0.4941
 1127.0000   257.3510     0.4956
 1127.5000   257.2592     0.4972
 1128.0000   257.1675     0.4987
 1128.5000   257.0758     0.5003
 1129.0000   256.9841     0.5018
 1129.5000   256.8924     0.5033
 1130.0000   256.8007     0.5049
 1130.5000   256.7089     0.5064
 1131.0000   256.6172     0.5080
 1131.5000   256.5255     0.5095
 1132.0000   256.4338     0.5111
 1132.5000   256.3421     0.5126
 1133.0000   256.2504     0.5141
 1133.5000   256.1586     0.5157
 1134.0000   256.0669     0.5172
 1134.5000   255.9752     0.5188
 1135.0000   255.8835     0.5203
 1135.5000   255.7918     0.5218
 1136.0000   255.7001     0.5234
 1136.5000   255.6084     0.5249
 1137.0000   255.0104     0.5265
 1137.5000   253.9033     0.5280
 1138.0000   253.3518     0.9530
 1138.5000   252.2447     0.9642
 1139.0000   252.2612     0.9639
 1139.5000   251.7139     0.9521
 1140.0000   251.1624     0.9518
 1140.5000   251.1831     0.9632
 1141.0000   251.1996     0.9630
 1141.5000   251.2162     0.9629
 1142.0000   251.1846     0.9478
 1142.5000   250.5871     0.7217
 1143.0000   250.1380     0.7216
 1143.5000   250.1587     0.7215
 1144.0000   250.1711     0.7328
 1144.5000   250.1382     0.7326
 1145.0000   250.1084     0.7440
 1145.5000   250.0786     0.7324
 1146.0000   250.0489     0.7208
 1146.5000   250.0191     0.7206
 1147.0000   249.9893     0.7204
 1147.5000   249.9596     0.7203
 1148.0000   249.9298     0.7202
 1148.5000   249.9001     0.7200
 1149.0000   249.8703     0.7199
