~VERSION INFORMATION
 VERS.                2.0:   CWLS LOG ASCII STANDARD - VERSION 2.0
 WRAP.                 NO:   ONE LINE PER DEPTH STEP
~WELL INFORMATION
#MNEM.UNIT      DATA TYPE    INFORMATION
#----------   ------------   ------------------------------
 STRT.F            0.0000:   START DEPTH
 STOP.F          984.0000:   STOP DEPTH
 STEP.F            0.5000:   STEP LENGTH
 NULL.          -999.2500:   NO VALUE
 COMP. LAWRENCE/ALLISON INC:   COMPANY
 WELL.     NPR 3 #51-X-11:   WELL
 FLD .             TEAPOT:   FIELD
 LOC .      S11 T38N R78W:   LOCATION
 CNTY.            NATRONA:   COUNTY
 STAT.            WYOMING:   STATE
 CTRY. UNITED STATES OF AMERICA:   COUNTRY
 SRVC.           Gearhart:   SERVICE COMPANY
 DATE.        22-AUG-1988:   LOGDATE
 API .       490251125400:   API NUMBER
~CURVE INFORMATION
#MNEM.UNIT       API CODE    CURVE DESCRIPTION
#----------   ------------   ------------------------------
 DEPT.F                  :   
 GRR .GAPI   07 310 01 00:   GAMMA RAY FROM RES. LOG.
 ILM .OHMM   07 120 44 00:   INDUCTION LOG MEDIUM
 ILD .OHMM   07 120 46 00:   INDUCTION LOG DEEP
~PARAMETER INFORMATION
#MNEM.UNIT          VALUE    DESCRIPTION
#----------   ------------   ------------------------------
 PD  .                 GL:   PERMANENT DATUM
 EPD .F              5187:   ELEVATION PERMANENT DATUM
 LMF .                 KB:   LOG MEASURED FROM
 DAPD.F                10:   FEET ABOVE PERMANENT DATUM
 DMF .                 KB:   DRILLING MEASURED FROM
 EKB .F              5197:   KELLING BUSHING
 EGL .F              5187:   GROUND LEVEL
 DATE.            8-22-88:   RUN DATE
 RUN .                  1:   RUN NUMBER
 DD  .F              1000:   DEPTH DRILLER
 DL  .F               992:   DEPTH LOGGER
 BLI .F             983.5:   BOTTOM LOG INTERVAL
 CS  .IN            9.625:   CASING SIZE
 CBD .F                49:   CASING BOTTOM DRILLER
 CBL .F                49:   CASING BOTTOM LOGGER
 BS  .IN             8.75:   BIT SIZE
 BSD .F              1000:   BIT SIZE AT DEPTH
 DFT .                AIR:   DRILLING FLUID TYPE
 BHT .F                70:   BOTTOM HOLE TEMPERATURE
 TLAB.HRS            0300:   TIME LOGGER AT BOTTOM
 MRT .F                70:   MAXIMUM RECORDED TEMPERATURE
 LUN .               7609:   LOGGING UNIT NUMBER
 LUL .           GILLETTE:   LOGGING UNIT LOCATION
 ENGI.          HUCKFELDT:   RECORDING ENGINEER
 WITN.             STRONG:   WITNESSED BY
 CLNT.            A2DTECH:   CLIENT CODE
 ORIG.      1" 2.5" PRINT:   ORIGIN OF DATA
 UWI .       490251125400:   UNIQUE WELL ID
 DICO. A2D Technologies, Inc.:   DIGITIZING COMPANY
~OTHER INFORMATION
~A    DEPT      GRR       ILM        ILD   
# ...
  546.0000   102.5101     6.9984     7.1248
  546.5000   105.3499     7.0100     7.1364
  547.0000   107.6847     7.0211     7.1495
  547.5000   108.3339     7.1099     7.2026
  548.0000   108.9101     7.2315     7.3464
  548.5000   109.4961     7.3552     7.4931
  549.0000   110.1058     7.4810     7.6427
  549.5000   112.6704     7.6089     7.7953
  550.0000   115.9155     7.7132     7.8762
  550.5000   115.4643     7.7357     7.9059
  551.0000   113.5792     7.7637     7.9358
  551.5000   113.0497     7.7919     7.9657
  552.0000   112.5707     7.8202     7.9958
  552.5000   109.1731     7.8486     8.0260
  553.0000   107.6100     7.8770     8.0563
  553.5000   107.7319     7.9056     8.0867
  554.0000   107.8470     7.9343     8.1173
  554.5000   110.1481     7.9631     8.1479
  555.0000   113.2185     7.9920     8.2316
  555.5000   115.0562     8.0623     8.3451
  556.0000   113.7914     8.1801     8.4604
  556.5000   111.5846     8.2997     8.5773
  557.0000   109.4422     8.4210     8.6957
  557.5000   108.4868     8.5440     8.8156
  558.0000   107.9777     8.6688     8.9372
  558.5000   108.5769     8.7954     9.0601
  559.0000   111.5558     8.9238     9.1848
  559.5000   112.5265     9.0540     9.3112
  560.0000   110.1552     9.1861     9.4394
  560.5000   108.2508     9.3201     9.5693
  561.0000   106.1475     9.4561     9.7026
  561.5000   104.9933     9.5941     9.8406
  562.0000   103.8425     9.7341     9.9806
  562.5000   102.6490     9.8761    10.2080
  563.0000   101.9356    10.0191    10.1595
  563.5000   102.0570     9.9065    10.0406
  564.0000   102.1412     9.7961     9.9231
  564.5000   104.1348     9.6869     9.8070
  565.0000   106.1541     9.5789     9.6923
  565.5000   107.2695     9.4721     9.6031
  566.0000   107.7483     9.3666     9.5280
  566.5000   108.2629     9.2621     9.4640
  567.0000   108.9449     9.1589     9.4298
  567.5000   109.7999     9.1205     9.3957
  568.0000   110.8167     9.1129     9.3617
  568.5000   109.9790     9.1054     9.3279
  569.0000   108.2337     9.0979     9.2942
  569.5000   107.7421     9.0904     9.2606
  570.0000   109.5863     9.0829     9.2271
  570.5000   111.7587     9.0754     9.1938
  571.0000   111.9800     9.0679     9.1609
  571.5000   110.3807     9.0604     9.1261
  572.0000   108.9516     9.0529     9.1046
  572.5000   107.5269     9.0455     9.0817
  573.0000   106.8817     9.0380     9.0591
  573.5000   108.8588     9.0305     9.0367
  574.0000   111.4216     9.0231     9.0144
  574.5000   114.0560     9.0156     8.9921
  575.0000   115.1039     9.0083     8.9699
  575.5000   115.0534     9.0009     8.9477
  576.0000   114.9794     8.9939     8.9256
  576.5000   114.9940     8.9864     8.9035
  577.0000   112.8156     8.9782     8.8814
  577.5000   112.0366     8.9741     8.8594
  578.0000   115.9732     8.9623     8.8375
  578.5000   122.3321     8.9687     8.8156
  579.0000   125.7813     8.7744     8.7909
  579.5000   123.2256     8.6051     8.6262
  580.0000   120.8765     8.4391     8.4397
  580.5000   118.4386     8.2762     8.2572
  581.0000   116.0038     8.1166     8.0787
  581.5000   115.8493     7.9600     7.9040
  582.0000   115.8666     7.8064     7.7331
  582.5000   116.0981     7.6558     7.5659
  583.0000   119.3624     7.5081     7.4023
  583.5000   122.3302     7.3633     7.2423
  584.0000   124.7449     7.1578     7.0857
  584.5000   125.6651     7.2320     6.9325
  585.0000   121.7397     7.3695     7.0385
  585.5000   116.4425     7.5096     7.0754
  586.0000   111.1280     7.6524     7.1125
  586.5000   106.8945     7.7979     7.1498
  587.0000   105.0230     7.9461     7.2811
  587.5000   104.9295     8.0971     7.4410
  588.0000   106.0041     8.3117     7.6045
  588.5000   105.1623     8.2403     7.7715
  589.0000   104.3264     8.1247     7.9423
  589.5000   103.6692     8.0108     8.0080
  590.0000   103.5341     7.8984     8.0079
  590.5000   104.8924     7.8308     8.0077
  591.0000   106.6298     7.7875     8.0074
  591.5000   107.5894     7.7445     8.0072
  592.0000   108.5815     7.7017     8.0070
  592.5000   109.6644     7.6592     8.0069
  593.0000   110.6547     7.6169     8.0068
  593.5000   111.6682     7.5705     8.0067
  594.0000   112.3351     7.6224     8.0058
  594.5000   113.7414     7.6798     8.0195
  595.0000   113.7462     7.7377     8.0622
  595.5000   112.4388     7.7961     8.1041
  596.0000   111.1177     7.8549     8.1468
  596.5000   110.3001     7.9143     8.1893
  597.0000   111.0971     7.9741     8.2331
  597.5000   111.7526     8.0344     8.2746
  598.0000   111.9214     8.0952     8.3105
  598.5000   112.1179     8.1579     8.2865
  599.0000   112.2364     8.2049     8.2662
  599.5000   112.4350     8.2533     8.2459
  600.0000   112.6204     8.3011     8.2256
  600.5000   113.8692     8.2835     8.2054
  601.0000   115.8244     8.2485     8.1853
  601.5000   114.6611     8.2136     8.1658
  602.0000   111.8011     8.1787     8.1366
  602.5000   109.2771     8.1442     8.1026
  603.0000   108.4864     8.1097     8.0687
  603.5000   108.5427     8.0755     8.0356
  604.0000   108.5688     8.0414     8.0029
  604.5000   108.0394     8.0074     7.9702
  605.0000   105.9904     7.9735     7.9375
  605.5000   103.9925     7.9398     7.9051
  606.0000   101.6556     7.9062     7.8727
  606.5000   102.8564     7.8728     7.8405
  607.0000   105.7229     7.8395     7.8084
  607.5000   108.4080     7.8063     7.7765
  608.0000   108.4526     7.7733     7.7447
  608.5000   108.5978     7.7404     7.7132
  609.0000   108.5532     7.7077     7.6873
  609.5000   109.9506     7.6751     7.6423
  610.0000   111.8005     7.6427     7.5974
  610.5000   112.6967     7.6103     7.5531
  611.0000   112.4937     7.5781     7.5093
  611.5000   113.8602     7.5461     7.4661
  612.0000   116.6013     7.5142     7.4230
  612.5000   119.4195     7.4825     7.3802
  613.0000   120.2456     7.4508     7.3373
  613.5000   118.3625     7.4192     7.2948
  614.0000   116.9153     7.3879     7.2525
  614.5000   115.2726     7.3566     7.2104
  615.0000   118.1991     7.3255     7.1706
  615.5000   121.6653     7.2928     7.1990
  616.0000   123.1724     7.4355     7.2568
  616.5000   118.8849     7.5895     7.3602
  617.0000   112.2576     7.7467     7.5380
  617.5000   111.0534     7.9087     7.7204
  618.0000   110.0745     8.0726     7.9073
  618.5000   109.4106     8.1694     8.0069
  619.0000   108.5179     8.1898     8.0347
  619.5000   107.4180     8.2101     8.0603
  620.0000   106.0540     8.2302     8.0861
  620.5000   107.1790     8.2505     8.1119
  621.0000   109.3651     8.2711     8.1378
  621.5000   111.4459     8.2920     8.1524
  622.0000   113.5398     8.3117     8.1280
  622.5000   114.2763     8.2521     8.1038
  623.0000   114.2417     8.1959     8.0796
  623.5000   114.2111     8.1400     8.0555
  624.0000   114.2082     8.0846     8.0314
  624.5000   113.0440     8.0296     8.0063
  625.0000   111.0825     7.9292     7.8827
  625.5000   111.6948     7.7984     7.7582
  626.0000   113.4331     7.6698     7.6358
  626.5000   115.4252     7.5432     7.5153
  627.0000   114.8430     7.4188     7.3967
  627.5000   112.8019     7.2964     7.2797
  628.0000   111.7343     7.1760     7.1582
  628.5000   112.1106     7.0576     7.0992
  629.0000   112.2723     6.9401     7.0378
  629.5000   112.4688     6.8803     6.9769
  630.0000   112.8590     6.8148     6.8953
  630.5000   113.4418     6.7807     6.9526
  631.0000   114.0797     6.8352     7.0418
  631.5000   113.9529     6.8901     7.1322
  632.0000   113.4579     6.9454     7.2238
  632.5000   112.9651     7.0011     7.3165
  633.0000   112.5441     7.0574     7.4104
  633.5000   111.5999     7.1139     7.5055
  634.0000   110.8013     7.1967     7.6019
  634.5000   109.9228     7.3709     7.6994
  635.0000   109.3360     7.5493     7.7982
  635.5000   108.7374     7.7132     7.8983
  636.0000   108.9376     7.7013     8.0047
  636.5000   109.5408     7.6905     7.9979
