~VERSION INFORMATION
 VERS.                2.0:   CWLS LOG ASCII STANDARD - VERSION 2.0
 WRAP.                 NO:   ONE LINE PER DEPTH STEP
~WELL INFORMATION
#MNEM.UNIT      DATA TYPE    INFORMATION
#----------   ------------   ------------------------------
 STRT.F           85.0000:   START DEPTH
 STOP.F          780.0000:   STOP DEPTH
 STEP.F            0.5000:   STEP LENGTH
 NULL.          -999.2500:   NO VALUE
 COMP. U S NAVY-INTEX OIL:   COMPANY
 WELL.        NPR #47-S-2:   WELL
 FLD .             TEAPOT:   FIELD
 LOC .       S2 T38N R78W:   LOCATION
 CNTY.            NATRONA:   COUNTY
 STAT.            WYOMING:   STATE
 CTRY. UNITED STATES OF AMERICA:   COUNTRY
 SRVC.       Schlumberger:   SERVICE COMPANY
 DATE.        30-JUN-1962:   LOGDATE
 API .       490250640200:   API NUMBER
~CURVE INFORMATION
#MNEM.UNIT       API CODE    CURVE DESCRIPTION
#----------   ------------   ------------------------------
 DEPT.F                  :   
 SPR .MV     05 010 01 00:   SPONTANEOUS POTENTIAL FROM RES.
 ASN .OHMM   05 041 18 00:   AMPLIFIED SHORT NORMAL 18"
 ILD .OHMM   05 120 46 00:   INDUCTION LOG DEEP
 CILD.MMHO   05 110 46 00:   CONDUCTIVITY INDUCTION LOG DEEP
 CALM.IN     15 280 01 00:   CALIPER FROM MICRO LOG
 GR  .GAPI   30 310 01 00:   GAMMA RAY
~PARAMETER INFORMATION
#MNEM.UNIT          VALUE    DESCRIPTION
#----------   ------------   ------------------------------
 PD  .                 KB:   PERMANENT DATUM
 LMF .                 KB:   LOG MEASURED FROM
 DMF .                 KB:   DRILLING MEASURED FROM
 EKB .F              5175:   KELLING BUSHING
 EGL .F              5170:   GROUND LEVEL
 DATE.          6-30-1962:   RUN DATE
 RUN .                  1:   RUN NUMBER
 DD  .F               775:   DEPTH DRILLER
 DL  .F               781:   DEPTH LOGGER
 BLI .F               780:   BOTTOM LOG INTERVAL
 TLI .F                86:   TOP LOG INTERVAL
 BS  .IN             6.75:   BIT SIZE
 BSD .F               775:   BIT SIZE AT DEPTH
 DFT .            GEL-OIL:   DRILLING FLUID TYPE
 DFD .                 10:   DRILLING FLUID DENSITY
 DFV .                 50:   DRILLING FLUID VISCOSITY
 DFL .                3.6:   DRILLING FLUID LOSS
 MSS .           FLOWLINE:   MUD SAMPLE SOURCE
 RMS .OHMM           5.75:   RESISTIVITY MUD SAMPLE
 MST .F                69:   MUD SAMPLE TEMPERATURE
 RMF .OHMM           4.96:   RESISTIVITY MUD FILTRATE SAMPLE
 MFST.F                69:   MUD FILTRATE SAMPLE TEMPERATURE
 RMC .OHMM           4.80:   RESISTIVITY MUD CAKE
 MCST.F                69:   MUD CAKE SAMPLE TEMPERATURE
 RMB .OHMM           5.13:   RESISTIVITY MUD AT BHT
 BHT .F                78:   BOTTOM HOLE TEMPERATURE
 TCS .HRS               1:   TIME CURCULATED STOPPED
 MRT .F                78:   MAXIMUM RECORDED TEMPERATURE
 LUN .               2503:   LOGGING UNIT NUMBER
 LUL .              CSPR.:   LOGGING UNIT LOCATION
 ENGI.             KNOBEL:   RECORDING ENGINEER
 WITN.          JORGENSEN:   WITNESSED BY
 CLNT.            A2DTECH:   CLIENT CODE
 ORIG.      2" & 5" PRINT:   ORIGIN OF DATA
 UWI .       490250640200:   UNIQUE WELL ID
 DICO. A2D Technologies, Inc.:   DIGITIZING COMPANY
~OTHER INFORMATION
~A   DEPT      SPR        ASN        ILD         CILD     CALM         GR   
# ...
  709.0000   -27.6786    18.4880    16.5650    55.9098     6.5166    52.7768
  709.5000   -26.9345    18.5629    16.7130    55.1729     6.4736    53.0804
  710.0000   -27.3810    18.6427    16.8609    54.4333     6.4418    52.3391
  710.5000   -28.1250    18.7874    17.0089    52.9486     6.4490    54.4337
  711.0000   -28.8690    18.7869    17.1569    52.9639     6.5072    54.1403
  711.5000   -29.3155    18.6377    17.2302    52.9792     6.5235    52.4752
  712.0000   -29.1667    18.5629    17.2286    52.9945     6.5248    48.8568
  712.5000   -28.7202    18.4132    17.0029    54.5135     6.5560    44.1417
  713.0000   -28.1250    18.3383    16.7772    56.7844     6.5871    44.0099
  713.5000   -27.3810    18.1138    16.4020    58.3035     6.5885    46.7015
  714.0000   -26.9345    17.8892    16.0268    60.5744     6.5109    47.7513
  714.5000   -26.9345    17.7395    15.6516    61.3383     6.4378    48.8011
  715.0000   -26.4881    17.4401    15.3511    62.8572     6.4283    49.1047
  715.5000   -25.8929    17.1407    14.9759    64.3759     6.5081    49.1097
  716.0000   -25.5952    16.9162    14.7502    65.1430     6.5952    47.0252
  716.5000   -26.3393    16.6916    14.5245    65.9101     6.6264    40.3138
  717.0000   -26.7857    16.5419    14.3735    67.4292     6.6427    38.9756
  717.5000   -27.2321    16.3922    14.2973    68.1963     6.6440    36.8911
  718.0000   -26.6369    16.1677    14.0716    68.9635     6.6453    39.2842
  718.5000   -27.0833    15.7934    13.6964    70.4825     6.6318    41.5268
  719.0000   -27.8274    15.5689    13.4706    72.0016     6.6331    40.3378
  719.5000   -28.2738    15.3443    13.3944    72.7687     6.6046    40.9411
  720.0000   -28.1250    15.2695    13.4680    72.7840     6.5910    40.6476
  720.5000   -28.2738    15.1946    13.5412    72.7993     6.5774    37.3691
  721.0000   -27.9762    15.3443    13.6888    72.0589     6.5937    36.9251
  721.5000   -27.7996    15.3443    13.7625    70.5742     6.6100    37.5273
  722.0000   -27.5298    15.4192    13.9101    69.8338     6.6412    36.9154
  722.5000   -27.3810    15.4192    13.9086    68.9853     6.6425    37.2638
  723.0000   -27.5298    15.3443    13.9070    68.3606     6.5386    40.2487
  723.5000   -27.8274    15.3443    13.8308    67.6240     6.4360    42.7712
  724.0000   -29.3552    15.2695    13.7546    67.6392     6.3775    44.2687
  724.5000   -29.4643    15.1051    13.6039    67.5764     6.2597    43.2290
  725.0000   -28.1250    14.9701    13.4529    69.1736     6.3060    37.4131
  725.5000   -27.9762    14.8952    13.2912    70.6926     6.5760    37.5674
  726.0000   -27.9762    14.8204    13.1510    72.2116     6.6519    37.2740
  726.5000   -27.3810    14.6650    13.0676    73.7307     6.6831    35.6360
  727.0000   -26.9345    14.3678    12.9238    75.2497     6.7143    30.4184
  727.5000   -26.1905    14.1455    12.8438    76.7688     6.7157  -999.2500
  728.0000   -25.2976    13.8473    12.6966    77.5359     6.7021  -999.2500
  728.5000   -24.1071    13.6228    12.6200    78.3031     6.6736  -999.2500
  729.0000   -23.2143    13.4731    12.4693    78.3184     6.6600  -999.2500
  729.5000   -22.7679    13.3234    12.3931    79.0855     6.7061  -999.2500
  730.0000   -22.9167    13.2485    12.3169    79.0978     6.7224  -999.2500
  730.5000   -23.6607    13.0988    12.1659    79.2158     6.7387  -999.2500
  731.0000   -24.1071    13.0240    12.0896    80.6865     6.7400  -999.2500
  731.5000   -23.9583    12.8743    12.0134    82.1503     6.7264  -999.2500
  732.0000   -23.3631    12.7246    11.9372    82.9175     6.7278  -999.2500
  732.5000   -22.7679    12.5749    11.7862    83.6847     6.7291  -999.2500
  733.0000   -22.0238    12.4251    11.7099    83.6999     6.7156  -999.2500
  733.5000   -21.5774    12.3503    11.7084    83.7152     6.5975  -999.2500
  734.0000   -21.4286    12.4251    11.6322    83.7305     6.3899  -999.2500
  734.5000   -22.3214    12.4251    11.6307    83.7458     6.4062  -999.2500
  735.0000   -23.0655    12.4251    11.6292    83.0054     6.3777  -999.2500
  735.5000   -23.2143    12.4251    11.6277    83.0245     6.1103  -999.2500
  736.0000   -23.3631    12.4251    11.6262    83.0397     6.0967  -999.2500
  736.5000   -23.2143    12.5000    11.6247    83.0550     6.1280  -999.2500
  737.0000   -22.9167    12.5000    11.5484    83.0703     6.1442  -999.2500
  737.5000   -22.7679    12.4251    11.5469    83.8374     6.0113  -999.2500
  738.0000   -22.6190    12.3503    11.4707    83.8496     6.0000  -999.2500
  738.5000   -22.6190    12.2754    11.3944    85.3685     6.0438  -999.2500
  739.0000   -22.3214    12.1257    11.3182    86.1353     6.3735  -999.2500
  739.5000   -22.1726    11.9760    11.1672    86.9023     6.6584  -999.2500
  740.0000   -21.6666    11.7515    11.1657    88.4213     6.6896  -999.2500
  740.5000   -20.2381    11.7515    11.0895    89.9403     6.6910  -999.2500
  741.0000   -20.7064    11.7515    10.9385    90.7075     6.7072  -999.2500
  741.5000   -21.5952    11.6634    10.8623    90.7228     6.7235  -999.2500
  742.0000   -20.9405    11.4521    10.7860    91.4899     6.7398  -999.2500
  742.5000   -19.3253    11.4521    10.7098    91.5052     6.7411  -999.2500
  743.0000   -19.0476    11.4521    10.5588    92.2724     6.7275  -999.2500
  743.5000   -19.4960    11.4521    10.4825    93.0395     6.7140  -999.2500
  744.0000   -19.3452    11.3772    10.4810    93.8067     6.7000  -999.2500
  744.5000   -18.7500    11.3772    10.4795    94.5739     6.6868  -999.2500
  745.0000   -18.1548    11.3024    10.5532    95.3410     6.6729  -999.2500
  745.5000   -17.4107    11.2275    10.6264    94.6006     6.6447  -999.2500
  746.0000   -17.1131    11.2275    10.6996    93.8640     6.6461  -999.2500
  746.5000   -16.8155    11.0778    10.7729    93.0450     6.6474  -999.2500
  747.0000   -16.6667    11.1527    10.8461    92.3559     6.6338  -999.2500
  747.5000   -16.5179    11.2275    10.9193    91.6541     6.6501  -999.2500
  748.0000   -16.5179    11.3772    10.9996    90.9173     6.6514  -999.2500
  748.5000   -16.3690    11.5269    11.0710    90.1805     6.6226  -999.2500
  749.0000   -16.3690    11.6018    11.1390    90.1963     6.6090  -999.2500
  749.5000   -16.2202    11.6018    11.2123    90.2116     6.5659  -999.2500
  750.0000   -16.3690    11.6018    11.1360    90.9787     6.5520  -999.2500
  750.5000   -16.2731    11.6018    11.0598    90.2396     6.5834  -999.2500
  751.0000   -16.3690    11.8263    10.9088    90.4106     6.5994  -999.2500
  751.5000   -17.4107    11.6018    10.8326    91.8821     6.6155  -999.2500
  752.0000   -18.0060    11.2275    10.7563    94.1054     6.6315  -999.2500
  752.5000   -18.6012    11.0778    10.6801    96.3280     6.6625  -999.2500
  753.0000   -19.0476    11.0030    10.6038    99.3385     6.6636  -999.2500
  753.5000   -19.6429    10.8533    10.4529   100.8576     6.6647  -999.2500
  754.0000   -20.0893    10.7784    10.3766   102.3766     6.6506  -999.2500
  754.5000   -19.3452    10.7784    10.2256   103.1438     6.6368  -999.2500
  755.0000   -18.6012    10.7784    10.2241   103.9109     6.5934  -999.2500
  755.5000   -17.7083    10.7784    10.1479   103.9262     6.5793  -999.2500
  756.0000   -17.1131    10.8533    10.1464   104.6934     6.5807  -999.2500
  756.5000   -16.9643    10.8533    10.0701   104.7086     6.5669  -999.2500
  757.0000   -17.5595    10.9281    10.0686   104.7239     6.5531  -999.2500
  757.5000   -18.1548    10.9281    10.0671   104.7392     6.5542  -999.2500
  758.0000   -19.0476    10.9281    10.0656   104.7545     6.5401  -999.2500
  758.5000   -19.9405    11.0147    10.0641   104.0141     6.5415  -999.2500
  759.0000   -20.8333    11.0873    10.1377   104.0301     6.5274  -999.2500
  759.5000   -21.1310    11.2347    10.2106   103.2927     6.5288  -999.2500
  760.0000   -21.4286    11.3822    10.2842   102.5561     6.5448  -999.2500
  760.5000   -20.6845    11.5296    10.4318   101.0677     6.5459  -999.2500
