~VERSION INFORMATION
 VERS.                2.0:   CWLS LOG ASCII STANDARD - VERSION 2.0
 WRAP.                 NO:   ONE LINE PER DEPTH STEP
~WELL INFORMATION
#MNEM.UNIT      DATA TYPE    INFORMATION
#----------   ------------   ------------------------------
 STRT.F           28.0000:   START DEPTH
 STOP.F          463.0000:   STOP DEPTH
 STEP.F            0.5000:   STEP LENGTH
 NULL.          -999.2500:   NO VALUE
 COMP.    FENIX & SCISSON:   COMPANY
 WELL.  NPR-3 #74 S 10-10:   WELL
 FLD .        TEAPOT DOME:   FIELD
 LOC .      S10 T38N R78W:   LOCATION
 CNTY.            NATRONA:   COUNTY
 STAT.            WYOMING:   STATE
 CTRY. UNITED STATES OF AMERICA:   COUNTRY
 SRVC.           BIRDWELL:   SERVICE COMPANY
 DATE.        12-FEB-1978:   LOGDATE
 API .       490251057000:   API NUMBER
~CURVE INFORMATION
#MNEM.UNIT       API CODE    CURVE DESCRIPTION
#----------   ------------   ------------------------------
 DEPT.F                  :   
 ILD .OHMM   05 120 46 00:   INDUCTION LOG DEEP
 SN  .OHMM   05 040 16 00:   SHORT NORMAL 16"
 SPR .MV     05 010 01 00:   SPONTANEOUS POTENTIAL FROM RES.
 CALD.IN     45 280 60 00:   CALIPER FROM DENSITY LOG
 CORR.G/C3   45 356 01 00:   DENSITY CORRECTION
 DPHI.DEC    45 890 12 00:   DENSITY POROSITY SANDSTONE
 GRD .GAPI   45 310 01 00:   GAMMA RAY FROM DENSITY LOG
 RHOB.G/C3   45 350 01 00:   BULK DENSITY
~PARAMETER INFORMATION
#MNEM.UNIT          VALUE    DESCRIPTION
#----------   ------------   ------------------------------
 PD  .                 GL:   PERMANENT DATUM
 EPD .F              5183:   ELEVATION PERMANENT DATUM
 LMF .                 KB:   LOG MEASURED FROM
 DAPD.F                 4:   FEET ABOVE PERMANENT DATUM
 DMF .                 KB:   DRILLING MEASURED FROM
 EKB .F              5187:   KELLING BUSHING
 EGL .F              5183:   GROUND LEVEL
 DATE.        12-FEB-1978:   RUN DATE
 RUN .                  1:   RUN NUMBER
 DD  .F               465:   DEPTH DRILLER
 DL  .F               465:   DEPTH LOGGER
 BLI .F               463:   BOTTOM LOG INTERVAL
 TLI .F                40:   TOP LOG INTERVAL
 CS  .IN            8.625:   CASING SIZE
 CBD .F                39:   CASING BOTTOM DRILLER
 BS  .IN            7.875:   BIT SIZE
 BSD .F               465:   BIT SIZE AT DEPTH
 DFT .         LIGNO-SULF:   DRILLING FLUID TYPE
 DFD .                8.8:   DRILLING FLUID DENSITY
 DFV .                 34:   DRILLING FLUID VISCOSITY
 DFPH.                 10:   DRILLING FLUID PH
 DFL .                4.0:   DRILLING FLUID LOSS
 MSS .                PIT:   MUD SAMPLE SOURCE
 RMS .OHMM            1.3:   RESISTIVITY MUD SAMPLE
 MST .F                62:   MUD SAMPLE TEMPERATURE
 RMF .OHMM            1.4:   RESISTIVITY MUD FILTRATE SAMPLE
 MFST.F                62:   MUD FILTRATE SAMPLE TEMPERATURE
 MCST.F                62:   MUD CAKE SAMPLE TEMPERATURE
 MFSS.               MEAS:   MUD FILTRATE SAMPLE SOURCE
 RMB .OHMM            1.3:   RESISTIVITY MUD AT BHT
 BHT .F                62:   BOTTOM HOLE TEMPERATURE
 TCS .HRS               2:   TIME CURCULATED STOPPED
 MRT .F                70:   MAXIMUM RECORDED TEMPERATURE
 LUN .               2953:   LOGGING UNIT NUMBER
 LUL .             CASPER:   LOGGING UNIT LOCATION
 ENGI.            POINTER:   RECORDING ENGINEER
 WITN.          MC GINLEY:   WITNESSED BY
 CLNT.            A2DTECH:   CLIENT CODE
 ORIG.           5" PRINT:   ORIGIN OF DATA
 UWI .       490251057000:   UNIQUE WELL ID
 DICO. A2D Technologies, Inc.:   DIGITIZING COMPANY
~OTHER INFORMATION
~A   DEPT      ILD         SN        SPR       CALD       CORR       DPHI         GRD      RHOB   
# ...
  190.0000     6.6337     6.9406   -36.9983     8.1952     0.1338     0.1085    94.0963     2.4847
  190.5000     6.4096     6.9903   -36.9835     8.1811     0.1413     0.1103    95.9137     2.4892
  191.0000     6.1930     6.9918   -36.9687     8.1669     0.1443     0.1110    98.1758     2.4855
  191.5000     5.9016     6.9932   -36.8053     8.1680     0.1413     0.1073    98.6336     2.4832
  192.0000     5.7023     6.7562   -36.7905     8.1839     0.1382     0.1098    99.5431     2.4901
  192.5000     5.5863     6.5258   -36.7756     8.1848     0.1382     0.1253   101.6574     2.4772
  193.0000     5.5108     6.2600   -36.7608     8.1857     0.1382     0.1392   101.9631     2.4591
  193.5000     5.4362     6.1305   -36.7459     8.2016     0.1412     0.1437   100.1632     2.4409
  194.0000     5.3998     6.0937   -36.7311     8.1724     0.1474     0.1257    93.5426     2.4257
  194.5000     5.3268     6.2232   -36.7162     8.1581     0.1552     0.1294    88.8798     2.4419
  195.0000     5.4021     6.3556   -36.5329     8.1592     0.1774     0.1201    88.2833     2.4623
  195.5000     5.4478     6.5812   -36.2407     8.1601     0.1894     0.1126    88.5904     2.4842
  196.0000     5.7561     6.7677   -36.0773     8.1459     0.1894     0.0955    92.8333     2.5258
  196.5000     6.0440     7.0080   -36.0624     8.1318     0.1864     0.0922    96.2449     2.5191
  197.0000     6.3101     7.3581   -36.1932     8.1027     0.1894     0.1009    98.2482     2.5078
  197.5000     6.6546     7.6193   -36.1784     8.0885     0.1924     0.1001    98.4047     2.5176
  198.0000     6.8426     7.9447   -36.3122     8.0596     0.1909     0.0734    98.5612     2.5305
  198.5000     7.0360     8.2267   -36.2975     8.0453     0.1723     0.0731    98.8683     2.5487
  199.0000     7.3864     8.5188   -36.5835     8.0311     0.1568     0.0713    99.4766     2.5540
  199.5000     7.5951     8.7602   -36.7174     8.0472     0.1365     0.0758   100.0849     2.5563
  200.0000     8.0287     9.0087   -36.6989     8.0330     0.1274     0.0818    99.4881     2.5564
  200.5000     8.0855     9.1371   -36.8364     7.9736     0.0926     0.0849    96.7787     2.5533
  201.0000     8.1427     8.9514   -37.2637     7.9291     0.0800     0.0904    92.8645     2.5367
  201.5000     8.0874     8.8305   -37.4012     7.9147     0.0597     0.1010    94.6732     2.5072
  202.0000     8.0328     8.7713   -37.5350     7.9154     0.0507     0.0968    99.9458     2.5141
  202.5000     7.9785     8.8968   -37.5165     7.9160     0.0477     0.0980   100.5497     2.5149
  203.0000     7.8703     8.9612   -37.6503     7.8866     0.0448     0.1067    98.8945     2.5025
  203.5000     7.8169     8.8402   -37.1811     7.8720     0.0433     0.1028    99.3750     2.4975
  204.0000     7.7643     8.4822   -37.1782     7.8728     0.0418     0.1007   100.5545     2.4998
  204.5000     7.6587     8.1954   -37.0264     7.8884     0.0389     0.1033   100.4054     2.4991
  205.0000     7.6069     8.0847   -36.8747     7.9040     0.0374     0.1156    98.9008     2.4923
  205.5000     7.5556     7.8113   -36.5741     7.9046     0.0359     0.1201    95.4384     2.4832
  206.0000     7.4015     7.6525   -36.4224     7.9052     0.0390     0.1270    96.0423     2.4719
  206.5000     7.3008     7.3937   -36.2706     7.9058     0.0451     0.1273    97.2486     2.4614
  207.0000     7.0994     7.1934   -35.8212     7.9214     0.0512     0.1273    96.1959     2.4576
  207.5000     6.7099     6.9985   -35.5207     7.9220     0.0527     0.1285    95.2938     2.4569
  208.0000     6.0325     6.6214   -35.3689     7.9226     0.0543     0.1333    96.9519     2.4561
  208.5000     5.6559     6.3483   -35.3660     7.9682     0.0560     0.1477   100.1160     2.4531
  209.0000     5.6568     6.2686   -35.2143     8.0138     0.0604     0.1455   101.3223     2.4290
  209.5000     5.7762     6.2772   -35.2113     8.0294     0.0650     0.1395   100.0828     2.4214
  210.0000     5.8574     6.6303   -35.2183     8.0450     0.0695     0.1284    97.4800     2.4351
  210.5000     5.9398     7.1085   -35.3543     8.0456     0.0771     0.1199    93.4958     2.4487
  211.0000     6.1496     7.6741   -35.5001     8.0462     0.0953     0.1139    94.0997     2.4616
  211.5000     6.4555     8.2275   -35.6460     8.0468     0.1300     0.1067    95.7578     2.4734
  212.0000     6.9186     8.5794   -35.6423     8.0324     0.1421     0.1008   100.2773     2.4987
  212.5000     7.4663     8.8232   -35.6394     8.0031     0.1512     0.1068   103.2908     2.4934
  213.0000     8.0020     9.0112   -35.7860     8.0037     0.1603     0.0989   104.9490     2.4957
  213.5000     8.1145     9.2672   -35.7823     8.0043     0.1800     0.1049   105.4022     2.4972
  214.0000     8.1156     9.2697   -35.7794     8.0049     0.1936     0.1001   104.9519     2.4972
  214.5000     8.1731     9.3368   -35.6276     8.0205     0.2027     0.1031   103.8992     2.4973
  215.0000     8.1742     9.4044   -35.6247     8.0361     0.2133     0.1184   102.0934     2.4950
  215.5000     8.1753     9.4724   -35.7713     8.0367     0.2318     0.1211   100.7395     2.4739
  216.0000     8.1200     9.4750   -36.0660     8.0523     0.2549     0.1127    98.7771     2.4656
  216.5000     8.1212     9.4776   -36.3607     8.0377     0.2737     0.1082    96.9774     2.4769
  217.0000     8.1223     9.4141   -36.3570     8.0535     0.2678     0.1042    96.8283     2.4921
  217.5000     8.1234     9.4074   -36.0564     8.0389     0.2663     0.1036    97.2819     2.4997
  218.0000     8.1245     9.3547   -35.9047     8.0397     0.2648     0.1075    97.8858     2.4989
  218.5000     8.1257     9.3573   -35.7530     8.0252     0.2694     0.1081    98.7909     2.4944
  219.0000     8.0707     9.3599   -35.3036     8.0409     0.2755     0.1060    99.9972     2.4914
  219.5000     8.0721     9.4277   -35.3006     8.0414     0.2876     0.1042   101.3541     2.4884
  220.0000     8.0732     9.4303   -35.1290     8.0420     0.2952     0.1018   101.9580     2.4862
  220.5000     8.0184     9.4329   -34.8482     8.0426     0.2982     0.0996   101.9595     2.4854
  221.0000     8.0754     9.4255   -34.6959     8.0432     0.2937     0.0966   101.0573     2.4953
  221.5000     8.0765     9.3086   -34.6929     8.0288     0.2832     0.0920    98.9504     2.5157
  222.0000     8.0776     9.3112   -34.8395     8.0295     0.2637     0.0906    98.0482     2.5218
  222.5000     8.0787     9.3786   -35.1342     8.0452     0.2532     0.0948    98.0447     2.5143
  223.0000     8.1359     9.3156   -35.2801     8.0608     0.2456     0.1017    99.1295     2.5014
  223.5000     8.1370     9.3188   -35.2764     8.0013     0.2410     0.0993   100.7635     2.5060
  224.0000     8.0818     9.2563   -35.5718     7.9567     0.2382     0.0900    99.4096     2.5121
  224.5000     8.0831     9.1313   -35.5682     7.9273     0.2337     0.0789   101.9717     2.5211
  225.0000     7.9732     9.0713   -35.5652     7.9128     0.2278     0.0740   103.7804     2.5355
  225.5000     7.5975     9.0738   -35.4135     7.8984     0.2157     0.0734   103.4806     2.5469
  226.0000     6.9935     8.7670   -35.4105     7.8840     0.1841     0.0995   104.0845     2.5492
  226.5000     6.8509     8.2387   -35.4076     7.8847     0.1434     0.1010   108.0015     2.5091
  227.0000     6.8518     7.5305   -35.2559     7.8853     0.1420     0.1298   111.4669     2.4978
  227.5000     6.9003     7.4283   -35.2529     7.8859     0.1435     0.1268   111.0116     2.4631
  228.0000     6.8537     7.2778   -35.3988     7.8865     0.1013     0.0944   110.0823     2.5092
  228.5000     6.8546     7.3305   -35.2470     7.8871     0.0697     0.1094   109.0075     2.4690
  229.0000     6.5318     7.4867   -35.2440     7.8877     0.0652     0.1181   106.3527     2.4752
  229.5000     6.3107     7.4887   -35.0923     7.8883     0.0607     0.1219   106.2032     2.4700
  230.0000     6.1392     7.3365   -34.9399     7.9339     0.0563     0.1270   105.6026     2.4670
