~VERSION INFORMATION
 VERS.                2.0:   CWLS LOG ASCII STANDARD - VERSION 2.0
 WRAP.                 NO:   ONE LINE PER DEPTH STEP
~WELL INFORMATION
#MNEM.UNIT      DATA TYPE    INFORMATION
#----------   ------------   ------------------------------
 STRT.F           46.0000:   START DEPTH
 STOP.F          670.0000:   STOP DEPTH
 STEP.F            0.5000:   STEP LENGTH
 NULL.          -999.2500:   NO VALUE
 COMP. FENIX & SCISSON INC:   COMPANY
 WELL. TEAPOT #27 62SX 11WI-11:   WELL
 FLD .             TEAPOT:   FIELD
 LOC .      S11 T38N R78W:   LOCATION
 CNTY.            NATRONA:   COUNTY
 STAT.            WYOMING:   STATE
 CTRY. UNITED STATES OF AMERICA:   COUNTRY
 SRVC.      Dresser Atlas:   SERVICE COMPANY
 DATE.        27-JUL-1980:   LOGDATE
 API .       490251084000:   API NUMBER
~CURVE INFORMATION
#MNEM.UNIT       API CODE    CURVE DESCRIPTION
#----------   ------------   ------------------------------
 DEPT.F                  :   
 GRD .GAPI   45 310 01 00:   GAMMA RAY FROM DENSITY LOG
 RHOB.G/C3   45 350 01 00:   BULK DENSITY
 CORR.G/C3   45 356 01 00:   DENSITY CORRECTION
 CALD.IN     45 280 60 00:   CALIPER
 DPOR.DEC    45 890 12 00:   DENSITY POROSITY SANDSTONE
 SPR .MV     07 010 01 00:   SPONTANEOUS POTENTIAL
 SFL .OHMM   07 220 01 00:   SHALLOW FOCUSED LOG RESISTIVITY
 ILD .OHMM   07 120 46 00:   INDUCTION LOG DEEP
 ILM .OHMM   07 120 44 00:   INDUCTION LOG MEDIUM
~PARAMETER INFORMATION
#MNEM.UNIT          VALUE    DESCRIPTION
#----------   ------------   ------------------------------
 PD  .                 GL:   PERMANENT DATUM
 EPD .F              5186:   ELEVATION PERMANENT DATUM
 LMF .                 KB:   LOG MEASURED FROM
 DAPD.F                 5:   FEET ABOVE PERMANENT DATUM
 DMF .                 KB:   DRILLING MEASURED FROM
 EKB .F              5191:   KELLING BUSHING
 EGL .F              5186:   GROUND LEVEL
 DATE.            7-27-80:   RUN DATE
 RUN .                  1:   RUN NUMBER
 DD  .F               660:   DEPTH DRILLER
 DL  .F               663:   DEPTH LOGGER
 BLI .F               661:   BOTTOM LOG INTERVAL
 TLI .F                46:   TOP LOG INTERVAL
 BS  .IN            7.875:   BIT SIZE
 BSD .F               660:   BIT SIZE AT DEPTH
 DFT .           CHEM GEL:   DRILLING FLUID TYPE
 DFD .                9.5:   DRILLING FLUID DENSITY
 DFV .                 50:   DRILLING FLUID VISCOSITY
 DFPH.                 11:   DRILLING FLUID PH
 DFL .                  6:   DRILLING FLUID LOSS
 MSS .           FLOWLINE:   MUD SAMPLE SOURCE
 RMS .OHMM            .08:   RESISTIVITY MUD SAMPLE
 MST .F                70:   MUD SAMPLE TEMPERATURE
 RMC .OHMM            .08:   RESISTIVITY MUD CAKE
 MCST.F                70:   MUD CAKE SAMPLE TEMPERATURE
 MFSS.               MEAS:   MUD FILTRATE SAMPLE SOURCE
 MCSS.               MEAS:   MUD CAKE SAMPLE SOURCE
 RMB .OHMM            .06:   RESISTIVITY MUD AT BHT
 BHT .F                90:   BOTTOM HOLE TEMPERATURE
 TCS .HRS               5:   TIME CURCULATED STOPPED
 MRT .F                90:   MAXIMUM RECORDED TEMPERATURE
 LUN .               6145:   LOGGING UNIT NUMBER
 LUL .              GLTTE:   LOGGING UNIT LOCATION
 ENGI.              HENRY:   RECORDING ENGINEER
 WITN.              AMEND:   WITNESSED BY
 CLNT.            A2DTECH:   CLIENT CODE
 ORIG.       2", 5" PRINT:   ORIGIN OF DATA
 UWI .       490251084000:   UNIQUE WELL ID
 DICO. A2D Technologies, Inc.:   DIGITIZING COMPANY
~OTHER INFORMATION
~A   DEPT      GRD       RHOB       CORR       CALD       DPOR        SPR          SFL        ILD      ILM   
# ...
  593.5000    81.4707     2.3813     0.0198     8.2928     0.1786   -51.8216    21.3305    15.0820    12.2868
  594.0000    80.4818     2.3840     0.0144     8.3235     0.1769   -51.7468    21.0811    14.3998    12.9847
  594.5000    80.6260     2.3862     0.0088     8.3454     0.1750   -51.6749    20.8569    13.9594    13.5214
  595.0000    83.8874     2.3925     0.0086     8.3471     0.1708   -51.5550    20.7075    13.5893    13.8771
  595.5000    85.4254     2.4109     0.0120     8.4217     0.1620   -51.3923    20.5878    13.5192    14.0780
  596.0000    86.6245     2.4108     0.0159     8.4227     0.1607   -51.2298    20.2697    13.4450    14.2304
  596.5000    87.4591     2.4162     0.0198     8.4191     0.1574   -51.0677    19.9169    13.3740    14.1271
  597.0000    87.5200     2.4214     0.0255     8.4158     0.1561   -50.9054    19.7742    13.1675    13.9950
  597.5000    87.1412     2.4061     0.0223     8.4126     0.1639   -50.7401    19.6353    12.7460    13.8645
  598.0000    86.7784     2.3904     0.0182     8.4093     0.1720   -50.4357    19.3566    12.3958    13.7351
  598.5000    87.1532     2.3786     0.0142     8.4066     0.1793   -49.9248    19.1007    12.1352    13.7142
  599.0000    89.3474     2.3912     0.0101     8.3711     0.1720   -49.3100    18.6029    11.9469    13.8297
  599.5000    86.8152     2.4179     0.0083     8.3696     0.1533   -48.5505    18.1430    12.0154    14.0600
  600.0000    85.7205     2.4485     0.0099     8.3746     0.1354   -47.8037    17.5728    12.1180    14.3152
  600.5000    85.5703     2.4584     0.0176     8.3798     0.1314   -47.1879    17.5739    12.4779    14.5642
  601.0000    85.0685     2.4622     0.0175     8.3845     0.1292   -46.9233    18.2515    13.1084    15.2724
  601.5000    84.0723     2.4814     0.0175     8.4098     0.1233   -46.6524    20.3286    13.7708    16.5768
  602.0000    83.5747     2.5144     0.0213     8.4431     0.1058   -46.4849    23.2392    14.4667    18.1715
  602.5000    82.3280     2.5471     0.0282     8.4715     0.0882   -46.4862    26.6015    15.1187    19.8975
  603.0000    80.9642     2.5691     0.0294     8.4892     0.0707   -46.4823    27.5988    15.7763    20.5598
  603.5000    80.2832     2.5677     0.0227     8.5072     0.0655   -46.5108    25.3268    16.2112    18.9018
  604.0000    80.5421     2.5147     0.0155     8.5243     0.0983   -47.0317    21.5509    16.4860    16.5753
  604.5000    81.2852     2.4716     0.0082     8.5203     0.1221   -47.5436    19.0968    16.4860    14.4547
  605.0000    82.8329     2.4286     0.0050     8.5154     0.1459   -48.0543    17.4153    15.7809    12.7416
  605.5000    83.5134     2.4043     0.0041     8.5105     0.1642   -48.3983    17.2621    14.8820    11.8999
  606.0000    83.7260     2.4056     0.0032     8.5060     0.1613   -48.6318    17.6140    14.0372    11.1693
  606.5000    83.9402     2.4109     0.0023     8.4767     0.1597   -48.6087    17.7452    13.2376    10.4836
  607.0000    83.9174     2.4056     0.0015     8.4453     0.1646   -48.5353    17.5515    12.4863    10.1697
  607.5000    82.2076     2.3932     0.0023     8.4159     0.1715   -48.4735    17.4071    11.9579     9.9810
  608.0000    80.4670     2.4116     0.0058     8.3822     0.1596   -48.5476    17.2621    11.5903     9.9388
  608.5000    79.8954     2.4256     0.0099     8.3652     0.1516   -48.6194    17.2621    11.3368    10.6123
  609.0000    79.9845     2.4287     0.0120     8.3652     0.1499   -48.6043    17.2621    11.1154    11.2016
  609.5000    79.7838     2.4269     0.0136     8.3652     0.1517   -48.4164    17.2621    10.8984    11.5919
  610.0000    80.4407     2.4251     0.0153     8.3698     0.1527   -48.1834    17.1460    10.6972    11.7290
  610.5000    81.8000     2.4288     0.0126     8.4032     0.1501   -47.7344    16.8961    10.5758    11.3721
  611.0000    83.3044     2.4392     0.0088     8.4254     0.1443   -47.2920    16.6481    10.4632    11.2016
  611.5000    83.9221     2.4502     0.0054     8.4251     0.1384   -46.8497    16.4005    10.4053    11.2716
  612.0000    84.2711     2.4532     0.0054     8.4252     0.1337   -46.3956    16.2967    10.4371    11.4114
  612.5000    83.2499     2.4439     0.0082     8.4251     0.1412   -46.0649    16.2412    10.4604    11.5529
  613.0000    81.3700     2.4352     0.0114     8.4251     0.1453   -45.7533    16.1853    10.4838    11.6961
  613.5000    79.5096     2.4450     0.0095     8.4251     0.1403   -45.6406    16.0582    10.5027    11.7290
  614.0000    78.9974     2.4703     0.0076     8.4251     0.1291   -45.5731    15.9279    10.4303    11.7658
  614.5000    80.0868     2.4699     0.0090     8.4251     0.1229   -45.5121    15.7987    10.3691    11.9509
  615.0000    82.3621     2.4679     0.0159     8.4251     0.1273   -45.2317    15.6705    10.3114    12.1389
  615.5000    85.0237     2.4741     0.0188     8.4251     0.1217   -44.9174    15.5676    10.3762    12.3299
  616.0000    87.6825     2.4785     0.0153     8.4251     0.1201   -44.9617    15.4949    10.4772    12.5093
  616.5000    89.2837     2.4680     0.0119     8.4251     0.1276   -45.0341    15.4221    10.5792    12.4297
  617.0000    87.6136     2.4580     0.0101     8.4285     0.1326   -45.1049    15.3506    10.6823    12.3138
  617.5000    84.6895     2.4518     0.0122     8.4353     0.1354   -45.1752    15.3151    10.7866    12.1990
  618.0000    82.8682     2.4650     0.0142     8.4420     0.1310   -45.2451    15.4304    10.8967    12.1432
  618.5000    81.5595     2.4695     0.0150     8.4528     0.1257   -45.2985    15.5174    10.9600    12.0959
  619.0000    82.6057     2.4689     0.0135     8.4673     0.1265   -45.2975    15.6048    11.0272    12.0233
  619.5000    85.1364     2.4728     0.0118     8.4817     0.1248   -45.2974    15.6928    11.0947    11.8366
  620.0000    87.0081     2.4778     0.0150     8.4960     0.1219   -45.2974    15.7626    11.1627    11.4480
  620.5000    88.5828     2.4851     0.0211     8.5021     0.1188   -45.2980    15.8061    11.2016    11.1892
  621.0000    89.5892     2.4973     0.0272     8.4942     0.1084   -45.3008    15.8497    11.1576    11.0077
  621.5000    90.4734     2.5050     0.0296     8.4862     0.1048   -45.1793    15.8902    11.1269    10.8287
  622.0000    90.5274     2.5024     0.0296     8.4905     0.1059   -44.9094    15.7630    11.0990    10.6527
  622.5000    88.8219     2.4942     0.0296     8.4973     0.1100   -44.4652    15.6453    10.9995    10.5458
  623.0000    87.0410     2.4918     0.0290     8.5041     0.1100   -44.0233    15.5285    10.9089    10.4675
  623.5000    85.7913     2.4990     0.0284     8.5024     0.1069   -43.5772    15.4126    10.8191    10.3902
  624.0000    86.0870     2.5053     0.0278     8.4993     0.1064   -43.1362    15.3160    10.6088    10.3110
  624.5000    88.1435     2.4995     0.0236     8.4963     0.1076   -43.2099    15.4955    10.3632    10.3124
  625.0000    90.2566     2.4931     0.0187     8.4932     0.1112   -43.3114    15.6518    10.1953    10.3083
  625.5000    92.2896     2.4854     0.0196     8.4902     0.1157   -43.3161    15.7475    10.0857    10.3155
  626.0000    93.1911     2.4781     0.0225     8.4871     0.1203   -43.3150    15.5287     9.9773    10.0652
  626.5000    92.8421     2.4738     0.0255     8.4832     0.1223   -43.2810    15.3170     9.8458     9.9419
  627.0000    91.9057     2.4810     0.0256     8.4698     0.1191   -43.1307    15.1089     9.7024     9.8201
  627.5000    91.7735     2.4943     0.0256     8.4563     0.1110   -42.9845    14.9039     9.5613     9.7576
  628.0000    91.8067     2.4932     0.0256     8.4453     0.1060   -42.9623    14.7208     9.4915     9.9635
  628.5000    92.2474     2.4889     0.0247     8.4485     0.1145   -43.0395    14.5836     9.5794    10.1996
  629.0000    93.8749     2.4971     0.0224     8.4515     0.1123   -43.1139    14.4934     9.6771    10.4444
  629.5000    93.7347     2.5108     0.0227     8.4545     0.1031   -43.0956    14.7993     9.7757    10.7146
