~VERSION INFORMATION
 VERS.                2.0:   CWLS LOG ASCII STANDARD - VERSION 2.0
 WRAP.                 NO:   ONE LINE PER DEPTH STEP
~WELL INFORMATION
#MNEM.UNIT      DATA TYPE    INFORMATION
#----------   ------------   ------------------------------
 STRT.F            0.0000:   START DEPTH
 STOP.F          743.0000:   STOP DEPTH
 STEP.F            0.5000:   STEP LENGTH
 NULL.          -999.2500:   NO VALUE
 COMP. LAWRENCE/ALLISON INC:   COMPANY
 WELL.   NPR 3 #33-16SX11:   WELL
 FLD .                NPR:   FIELD
 LOC .      S11 T38N R78W:   LOCATION
 CNTY.            NATRONA:   COUNTY
 STAT.            WYOMING:   STATE
 CTRY. UNITED STATES OF AMERICA:   COUNTRY
 SRVC.           Gearhart:   SERVICE COMPANY
 DATE.        05-JUN-1986:   LOGDATE
 API .       490251107500:   API NUMBER
~CURVE INFORMATION
#MNEM.UNIT       API CODE    CURVE DESCRIPTION
#----------   ------------   ------------------------------
 DEPT.F                  :   
 GRR .GAPI   07 310 01 00:   GAMMA RAY
 RILD.OHMM   07 120 46 00:   INDUCTION LOG DEEP RESISTIVITY
 RILM.OHMM   07 120 44 00:   INDUCTION LOG MEDIUM RESISTIVITY
 RLL .OHMM   07 220 00 00:   LATEROLOG RESISTIVITY
 SPR .MV     07 010 01 00:   SPONTANEOUS POTENTIAL
~PARAMETER INFORMATION
#MNEM.UNIT          VALUE    DESCRIPTION
#----------   ------------   ------------------------------
 PD  .                 GL:   PERMANENT DATUM
 EPD .F              5175:   ELEVATION PERMANENT DATUM
 LMF .                 KB:   LOG MEASURED FROM
 DMF .                 KB:   DRILLING MEASURED FROM
 EKB .F              5175:   KELLING BUSHING
 EGL .F              5175:   GROUND LEVEL
 DATE.        05-JUN-1986:   RUN DATE
 RUN .                  1:   RUN NUMBER
 DD  .F               736:   DEPTH DRILLER
 DL  .F               744:   DEPTH LOGGER
 BLI .F               743:   BOTTOM LOG INTERVAL
 TLI .F                42:   TOP LOG INTERVAL
 CS  .IN            8.625:   CASING SIZE
 CBD .F                42:   CASING BOTTOM DRILLER
 CBL .F                42:   CASING BOTTOM LOGGER
 BS  .IN            7.875:   BIT SIZE
 BSD .F               736:   BIT SIZE AT DEPTH
 DFT .           KCL- GEL:   DRILLING FLUID TYPE
 DFD .                9.2:   DRILLING FLUID DENSITY
 DFV .                 42:   DRILLING FLUID VISCOSITY
 DFPH.                 11:   DRILLING FLUID PH
 MSS .           FLOWLINE:   MUD SAMPLE SOURCE
 RMS .OHMM            .51:   RESISTIVITY MUD SAMPLE
 MST .F                81:   MUD SAMPLE TEMPERATURE
 RMF .OHMM            .48:   RESISTIVITY MUD FILTRATE SAMPLE
 MFST.F                65:   MUD FILTRATE SAMPLE TEMPERATURE
 RMC .OHMM            .81:   RESISTIVITY MUD CAKE
 MCST.F                66:   MUD CAKE SAMPLE TEMPERATURE
 MFSS.               MEAS:   MUD FILTRATE SAMPLE SOURCE
 MCSS.               MEAS:   MUD CAKE SAMPLE SOURCE
 RMB .OHMM            .47:   RESISTIVITY MUD AT BHT
 BHT .F                90:   BOTTOM HOLE TEMPERATURE
 TCS .HRS            1930:   TIME CURCULATED STOPPED
 TLAB.HRS            2114:   TIME LOGGER AT BOTTOM
 LUN .               7609:   LOGGING UNIT NUMBER
 LUL .           GILLETTE:   LOGGING UNIT LOCATION
 ENGI. WEATHERMON/ JOHNSTON:   RECORDING ENGINEER
 WITN.           LENNINGS:   WITNESSED BY
 CLNT.            A2DTECH:   CLIENT CODE
 ORIG.           5" PRINT:   ORIGIN OF DATA
 UWI .       490251107500:   UNIQUE WELL ID
 DICO. A2D Technologies, Inc.:   DIGITIZING COMPANY
~OTHER INFORMATION
~A    DEPT     GRR       RILD       RILM        RLL        SPR   
# ...
  427.0000    97.5596     7.4263     7.1715     9.9387   -43.8668
  427.5000    95.7358     7.4799     7.1730     9.8015   -44.1732
  428.0000    93.0014     7.4814     7.1744     9.5994   -44.6313
  428.5000    90.8528     7.5353     7.1759     9.4673   -44.3307
  429.0000    91.1740     7.5372     7.1776     9.4689   -43.4239
  429.5000    92.9920     7.5387     7.1791     9.5367   -42.8198
  430.0000    94.8100     7.4874     7.1805     9.6724   -42.8227
  430.5000    96.6281     7.4893     7.2323     9.7416   -42.8256
  431.0000    98.1426     7.4386     7.2844     9.7429   -42.8285
  431.5000    99.6572     7.3862     7.2859     9.7443   -42.8321
  432.0000    96.9221     7.2874     7.2877     9.8143   -42.8350
  432.5000    94.7948     7.2381     7.2892    10.0239   -42.9897
  433.0000    93.5779     7.2400     7.2906    10.1666   -42.9926
  433.5000    92.9680     7.1410     7.2921    10.1679   -42.9955
  434.0000    92.3581     7.0927     7.1924    10.2417   -42.9985
  434.5000    92.0510     7.0417     7.1438    10.4598   -43.0020
  435.0000    91.7446     6.9485     7.0955    10.1724   -43.0049
  435.5000    91.1347     6.8538     7.0476    10.1737   -42.4008
  436.0000    90.8283     6.8072     6.9512    10.2466   -41.6450
  436.5000    90.2184     6.7141     6.8565    10.2553   -41.9743
  437.0000    89.9120     6.6226     6.7123     9.9562   -43.6242
  437.5000    91.1224     6.4867     6.4869     9.4915   -42.8684
  438.0000    92.9404     6.3096     6.2656     9.2955   -42.4153
  438.5000    94.7584     6.1370     5.9264     8.9770   -42.4190
  439.0000    94.4520     5.8047     5.6055     8.6695   -42.4219
  439.5000    93.5387     5.4143     5.4143     8.2561   -41.4689
  440.0000    92.2812     4.9111     5.0669     8.0782   -40.7585
  440.5000    92.0154     4.3803     4.3930     7.5933   -41.6726
  441.0000    93.5292     3.8212     3.9569     7.2820   -42.5860
  441.5000    94.1340     3.4903     3.5891     6.6496   -43.3476
  442.0000    93.2199     3.1881     3.3013     6.1577   -43.6540
  442.5000    92.6100     2.9120     3.1218     5.7403   -43.3534
  443.0000    92.9106     2.6785     2.8723     5.2806   -43.0535
  443.5000    93.5140     2.5313     2.6791     4.9243   -42.7522
  444.0000    94.4215     2.4471     2.4989     4.5884   -42.4523
  444.5000    91.6872     2.4476     2.4136     4.3730   -42.3035
  445.0000    85.9180     2.4310     2.3973     5.0308   -43.2176
  445.5000    81.5965     2.4658     2.4146     5.3241   -43.6757
  446.0000    80.1459     2.5361     2.5010     5.4351   -43.3751
  446.5000    85.9085     2.6905     2.6825     5.8299   -43.0746
  447.0000    90.4580     3.0424     2.9585     6.2533   -42.6221
  447.5000    91.6690     3.3555     3.2859     6.0813   -42.0182
  448.0000    92.2731     3.7529     3.6495     6.5691   -42.1409
  448.5000    93.2635     4.1973     3.9846     7.0667   -43.0867
  449.0000    95.9084     4.5971     4.5653     7.5583   -43.0896
  449.5000    99.5474     5.0115     5.0001     7.8286   -43.1153
  450.0000    98.6522     5.2989     5.2435     7.9957   -41.5784
  450.5000    94.9924     5.4401     5.4232     8.2240   -42.4903
  451.0000    94.6889     5.3665     5.4018     8.2828   -42.6436
  451.5000    98.3308     5.2939     5.3276     8.2840   -41.7346
  452.0000   101.0622     5.1480     5.2131     8.2270   -40.2186
  452.5000   100.4552     4.9709     5.0279     7.8350   -40.8271
  453.0000   100.1517     4.8062     4.8000     7.2049   -42.1943
  453.5000   100.1517     4.6429     4.6036     6.8135   -43.5615
  454.0000   100.4795     4.5165     4.4153     6.9105   -43.5468
  454.5000   102.0779     4.3936     4.2348     6.4442   -42.8061
  455.0000   105.6146     4.3338     4.1766     6.7217   -42.8075
  455.5000   109.5599     4.3051     4.2064     6.8653   -42.8090
  456.0000   107.4355     4.2766     4.2662     7.1108   -42.3553
  456.5000    99.2413     4.3996     4.3876     7.3136   -42.0529
  457.0000    95.2959     4.5575     4.5146     7.5751   -42.6617
  457.5000    93.7785     4.7552     4.6845     7.5762   -42.6632
  458.0000   100.7587     4.9667     4.9428     7.7975   -42.3612
  458.5000   106.2215     5.2832     5.1550     8.0149   -42.2109
  459.0000   109.8757     5.5111     5.4140     8.0723   -42.3642
  459.5000   112.2914     5.7489     5.6071     8.3026   -42.5433
  460.0000   104.7041     6.0389     5.8071     8.6599   -42.5189
  460.5000    97.7238     6.2556     6.0143     9.1598   -42.3686
  461.0000    95.2959     6.4350     6.1855     9.6210   -42.3705
  461.5000    94.6889     6.5735     6.3615     9.8265   -41.7650
  462.0000    95.2959     6.6682     6.4549     9.9664   -40.4004
  462.5000    97.1168     6.6705     6.5436     9.6926   -41.0092
  463.0000    99.8483     6.6263     6.5446     9.4266   -41.6177
  463.5000   101.3657     6.5825     6.5000     9.2320   -42.0744
  464.0000   101.9727     6.4934     6.4554     9.0411   -39.9453
  464.5000   100.4431     6.4055     6.3670     8.9796   -40.4497
  465.0000    99.8483     6.2754     6.2795     8.7942   -41.6240
  465.5000   100.1517     6.2333     6.2365     8.7338   -42.2320
  466.0000    99.2413     6.1067     6.1082     8.6138   -40.4126
  466.5000    96.8134     5.9822     5.9824     8.3772   -41.9319
  467.0000    94.0819     5.8602     5.8975     8.3199   -42.6921
  467.5000    92.5645     5.6610     5.7319     8.4979   -42.8450
  468.0000    93.7785     5.4686     5.5040     8.5587   -42.0881
  468.5000    97.7238     5.2460     5.2789     8.3817   -42.0896
  469.0000   101.3657     5.0648     5.0984     8.3832   -42.0910
  469.5000   104.4006     4.8956     4.8899     8.0960   -41.9252
  470.0000   105.0076     4.8293     4.7228     7.8186   -42.2461
  470.5000   104.7041     4.8314     4.6253     7.7651   -43.3098
  471.0000   104.0971     4.8669     4.5939     7.8757   -43.4630
  471.5000   103.1866     4.9716     4.6592     7.9356   -42.4023
  472.0000   101.9727     5.1142     4.7963     8.1784   -41.9482
  472.5000   101.3657     5.2977     5.0092     8.3914   -41.7979
  473.0000   102.5797     5.4496     5.2855     8.3926   -41.9512
  473.5000   104.0971     5.6059     5.5124     8.4527   -41.4978
  474.0000   102.8832     5.7667     5.7091     8.6938   -41.3475
  474.5000   101.6692     5.9385     5.9127     8.6950   -41.5113
  475.0000   101.9727     6.1522     6.0387     8.9431   -41.8058
  475.5000   104.1822     6.3659     6.1245     9.3279   -42.1110
  476.0000   107.7390     6.5029     6.1682     9.4643   -42.4160
  476.5000   108.6495     6.5507     6.2558     9.7307   -42.7210
  477.0000   108.3460     6.5530     6.3447     9.8695   -42.7225
  477.5000   107.4355     6.5552     6.3900     9.7336   -42.4205
  478.0000   105.6146     6.5574     6.3911     9.4001   -41.9667
  478.5000   103.1866     6.5135     6.4367     9.4014   -41.6647
  479.0000   100.7587     6.5163     6.4376     9.2720   -41.8179
  479.5000    99.5448     6.4731     6.4385     9.0173   -41.9768
  480.0000    98.9378     6.4754     6.4394     9.0818   -42.1245
  480.5000    98.3308     6.4776     6.4403     9.0831   -42.2780
  481.0000    98.3308     6.4803     6.4411     9.2323   -42.4312
  481.5000    99.5448     6.4825     6.3972     9.0856   -42.5841
  482.0000   102.2762     6.4847     6.3981     9.0871   -41.5237
  482.5000   104.7041     6.4870     6.3990     9.2812   -41.0696
  483.0000   103.7936     6.4892     6.4000     9.3476   -41.9819
  483.5000   102.5797     6.4462     6.4009     9.2837   -42.4386
  484.0000   101.6692     6.4484     6.4018     9.3502   -41.8331
  484.5000   100.7587     6.4057     6.4026     9.4833   -41.9878
  485.0000   100.1517     6.3633     6.4035     9.2227   -43.3535
  485.5000   100.4552     6.3655     6.3596     9.1597   -41.8379
  486.0000   102.3085     6.2794     6.3164     8.9709   -41.8394
  486.5000   104.4006     6.1518     6.2297     8.8471   -40.1717
  487.0000   102.2762     6.0681     6.1014     8.9107   -39.5658
  487.5000   100.4552     5.9859     5.9688     9.1010   -40.9334
