~VERSION INFORMATION
 VERS.                2.0:   CWLS LOG ASCII STANDARD - VERSION 2.0
 WRAP.                 NO:   ONE LINE PER DEPTH STEP
~WELL INFORMATION
#MNEM.UNIT      DATA TYPE    INFORMATION
#----------   ------------   ------------------------------
 STRT.F           14.0000:   START DEPTH
 STOP.F          623.5000:   STOP DEPTH
 STEP.F            0.5000:   STEP LENGTH
 NULL.          -999.2500:   NO VALUE
 COMP. LAWRENCE/ALLISON INC:   COMPANY
 WELL.   23-61 STX #10-10:   WELL
 FLD .             TEAPOT:   FIELD
 LOC .      S10 T38N R78W:   LOCATION
 CNTY.            NATRONA:   COUNTY
 STAT.            WYOMING:   STATE
 CTRY. UNITED STATES OF AMERICA:   COUNTRY
 SRVC.           Gearhart:   SERVICE COMPANY
 DATE.        02-JUL-1986:   LOGDATE
 API .       490251107700:   API NUMBER
~CURVE INFORMATION
#MNEM.UNIT       API CODE    CURVE DESCRIPTION
#----------   ------------   ------------------------------
 DEPT.F                  :   
 GRR .GAPI   07 310 01 00:   GAMMA RAY FROM RES. LOG
 RILD.OHMM   07 120 46 00:   INDUCTION LOG DEEP RESISTIVITY
 RILM.OHMM   07 120 44 00:   INDUCTION LOG MEDIUM
~PARAMETER INFORMATION
#MNEM.UNIT          VALUE    DESCRIPTION
#----------   ------------   ------------------------------
 PD  .                 GL:   PERMANENT DATUM
 EPD .F              5251:   ELEVATION PERMANENT DATUM
 LMF .                 KB:   LOG MEASURED FROM
 DAPD.F                 5:   FEET ABOVE PERMANENT DATUM
 DMF .                 KB:   DRILLING MEASURED FROM
 EKB .F              5256:   KELLING BUSHING
 EGL .F              5251:   GROUND LEVEL
 DATE.             7-2-86:   RUN DATE
 RUN .                  1:   RUN NUMBER
 DD  .F               648:   DEPTH DRILLER
 DL  .F               633:   DEPTH LOGGER
 BLI .F               623:   BOTTOM LOG INTERVAL
 TLI .F                15:   TOP LOG INTERVAL
 CS  .IN            8.625:   CASING SIZE
 CBD .F                47:   CASING BOTTOM DRILLER
 CBL .F                47:   CASING BOTTOM LOGGER
 BS  .IN            7.875:   BIT SIZE
 BSD .F               648:   BIT SIZE AT DEPTH
 DFT .               FOAM:   DRILLING FLUID TYPE
 BHT .F                82:   BOTTOM HOLE TEMPERATURE
 TCS .HRS            0930:   TIME CURCULATED STOPPED
 TLAB.HRS            1240:   TIME LOGGER AT BOTTOM
 MRT .F                82:   MAXIMUM RECORDED TEMPERATURE
 LUN .               7609:   LOGGING UNIT NUMBER
 LUL .           GILLETTE:   LOGGING UNIT LOCATION
 ENGI.              BAUER:   RECORDING ENGINEER
 WITN.           JENNINGS:   WITNESSED BY
 CLNT.            A2DTECH:   CLIENT CODE
 ORIG.       2", 5" PRINT:   ORIGIN OF DATA
 UWI .       490251107700:   UNIQUE WELL ID
 DICO. A2D Technologies, Inc.:   DIGITIZING COMPANY
~OTHER INFORMATION
~A   DEPT       GRR      RILD       RILM   
# ...
  105.0000   112.4703     7.6066     7.1627
  105.5000   113.5337     7.7608     7.1872
  106.0000   111.6717     7.9140     7.3094
  106.5000   110.7157     8.0697     7.4537
  107.0000   112.2623     8.2283     7.6008
  107.5000   113.6939     8.3901     7.7494
  108.0000   113.4434     8.5551     7.9332
  108.5000   109.4563     8.6588     8.1195
  109.0000   105.5930     8.7778     8.3102
  109.5000   101.6285     8.8983     8.5053
  110.0000   101.6007     8.9983     8.6463
  110.5000   105.0502     8.9446     8.6693
  111.0000   108.6341     8.8346     8.4542
  111.5000   112.2220     8.6214     8.2757
  112.0000   113.1549     8.4133     8.1009
  112.5000   109.7494     8.2102     7.9300
  113.0000   106.3324     8.1036     7.7626
  113.5000   106.0157     8.0567     7.5988
  114.0000   108.1144     7.9639     7.4384
  114.5000   110.1774     7.8559     7.3422
  115.0000   111.8352     7.7483     7.2695
  115.5000   112.9221     7.6760     7.1914
  116.0000   109.6396     7.7528     7.2551
  116.5000   106.0872     7.8212     7.3454
  117.0000   102.4605     7.8902     7.4369
  117.5000   102.2269     7.9598     7.5296
  118.0000   104.0411     8.0300     7.6234
  118.5000   105.8132     8.1006     7.7183
  119.0000   105.3028     8.1732     7.7963
  119.5000   104.4542     8.2895     7.8662
  120.0000   103.7776     8.4337     7.9367
  120.5000   106.6892     8.5791     8.0079
  121.0000   110.1085     8.7271     8.0797
  121.5000   113.7740     8.8107     8.1467
  122.0000   115.7758     8.9060     8.2075
  122.5000   113.4868     8.9985     8.2687
  123.0000   112.0972     8.9990     8.3303
  123.5000   112.4123     8.9983     8.3924
  124.0000   110.7681     8.9997     8.4290
  124.5000   108.4848     8.8233     8.3797
  125.0000   109.6231     8.7010     8.3451
  125.5000   112.2629     8.5800     8.3105
  126.0000   114.9498     8.4998     8.2762
  126.5000   115.5094     8.4777     8.2419
  127.0000   113.2714     8.4558     8.2078
  127.5000   111.1043     8.4340     8.1739
  128.0000   108.8978     8.4123     8.1401
  128.5000   109.8291     8.3907     8.1063
  129.0000   115.9062     8.3691     8.0729
  129.5000   121.6782     8.3507     8.0444
  130.0000   124.7950     8.3862     8.0786
  130.5000   122.3177     8.4240     8.1150
  131.0000   118.2868     8.4619     8.1516
  131.5000   116.8954     8.5000     8.1882
  132.0000   116.3219     8.5383     8.2251
  132.5000   115.9824     8.5880     8.2730
  133.0000   115.8301     8.5435     8.2302
  133.5000   115.7109     8.4811     8.1701
  134.0000   113.6230     8.4192     8.1103
  134.5000   111.4866     8.3507     8.0516
  135.0000   113.9318     8.3670     7.9969
  135.5000   117.1898     8.3854     7.9440
  136.0000   120.5206     8.4041     7.8958
  136.5000   121.9971     8.4227     7.9576
  137.0000   119.6207     8.4614     8.0161
  137.5000   117.2767     8.5106     8.0751
  138.0000   114.9321     8.5591     8.1202
  138.5000   112.5529     8.6592     8.1551
  139.0000   113.8734     8.8205     8.1912
  139.5000   116.8976     8.9867     8.3168
  140.0000   119.8805     9.0830     8.5121
  140.5000   122.6275     9.1370     8.6686
  141.0000   121.5170     9.1901     8.7806
  141.5000   118.5021     9.2436     8.8930
  142.0000   114.4586     9.3022     8.9528
  142.5000   111.5194     9.3624     9.0006
  143.0000   114.5125     9.4230     9.0484
  143.5000   118.7227     9.4839     9.0965
  144.0000   121.8097     9.5453     9.1449
  144.5000   118.6180     9.6070     9.1936
  145.0000   114.9649     9.6692     9.2425
  145.5000   114.3682     9.7754     9.2543
  146.0000   113.4996     9.9182     9.2535
  146.5000   111.3818    10.0645     9.3567
  147.0000   110.7868    10.1696     9.5491
  147.5000   112.8098    10.2458     9.7453
  148.0000   116.0431    10.3208     9.9096
  148.5000   119.1214    10.3970    10.0021
  149.0000   121.3656    10.4995    10.1152
  149.5000   120.4089    10.6646    10.2735
  150.0000   118.5871    10.8315    10.4343
  150.5000   117.1771    11.0011    10.5976
  151.0000   116.9391    11.1221    10.7142
  151.5000   114.4025    11.2228    10.8112
  152.0000   109.6236    11.3245    10.9092
  152.5000   105.9122    11.4271    11.0080
  153.0000   106.8382    11.5299    11.1077
  153.5000   107.8788    11.5868    11.1610
  154.0000   106.7759    11.6040    11.1784
  154.5000   104.5970    11.6222    11.1959
  155.0000   102.4053    11.6403    11.2134
  155.5000   101.8111    11.6586    11.2310
  156.0000   105.6903    11.6769    11.2486
  156.5000   109.8259    11.6889    11.2598
  157.0000   112.2454    11.5842    11.1591
  157.5000   114.6222    11.4938    11.0722
  158.0000   116.9809    11.3367    10.9209
  158.5000   118.4793    11.1608    10.7515
  159.0000   115.3385    10.9877    10.5848
  159.5000   114.7164    10.8173    10.4206
  160.0000   116.5286    10.6496    10.2590
  160.5000   116.6666    10.5001    10.1439
  161.0000   113.0317    10.3777    10.1007
  161.5000   111.1629    10.2568    10.0578
  162.0000   113.6074    10.1604    10.0150
  162.5000   116.6567    10.1604     9.9724
  163.0000   118.9084    10.1604     9.9084
  163.5000   117.6543    10.1604     9.8291
  164.0000   117.6079    10.1603     9.7504
  164.5000   119.4523    10.1612     9.6723
  165.0000   120.5523    10.1253     9.5948
  165.5000   119.3755    10.0820     9.5180
  166.0000   117.5335    10.0652     9.4291
  166.5000   118.5042    10.0813     9.4698
  167.0000   120.0032    10.0937     9.5189
  167.5000   120.5631    10.1061     9.5688
  168.0000   118.8073    10.1186     9.6188
  168.5000   116.9186    10.1311     9.6692
  169.0000   117.2107    10.1436     9.7196
  169.5000   118.0199    10.1608     9.7878
  170.0000   118.8569    10.0720     9.7020
  170.5000   116.7127     9.9369     9.5809
  171.0000   114.1698     9.7986     9.4808
  171.5000   112.8531     9.6637     9.3827
  172.0000   113.0731     9.5304     9.2873
  172.5000   116.7919     9.3989     9.1479
  173.0000   119.8179     9.2692     8.9291
  173.5000   121.7470     9.0870     8.7156
  174.0000   123.6413     8.9014     8.5072
  174.5000   124.7238     8.7196     8.3038
  175.0000   123.4426     8.5416     8.1052
  175.5000   124.2800     8.3506     7.9696
  176.0000   126.1377     8.3506     7.9933
  176.5000   124.7346     8.3817     8.0402
  177.0000   120.2854     8.4098     8.0876
  177.5000   115.8823     8.4657     8.1588
  178.0000   112.5901     8.5817     8.2839
  178.5000   113.0042     8.6993     8.4106
  179.0000   114.0893     8.8186     8.5392
  179.5000   114.4919     8.9395     8.6697
  180.0000   111.7501     9.0620     8.8022
  180.5000   108.9339     9.1683     8.9986
  181.0000   108.4146     9.1437     8.9854
  181.5000   109.4711     9.1108     8.9614
  182.0000   111.6600     9.0698     8.9374
  182.5000   113.8395     8.9986     8.9135
  183.0000   115.9414     8.9986     8.8896
  183.5000   114.8570     8.9986     8.8659
  184.0000   114.3455     9.0096     8.8320
  184.5000   116.4350     9.0769     8.8465
  185.0000   118.3764     9.1442     8.8726
  185.5000   116.6749     9.2130     8.8992
  186.0000   114.7859     9.2873     8.9481
  186.5000   113.5036     9.4750     9.1274
  187.0000   112.2491     9.6647     9.3103
  187.5000   109.7542     9.8584     9.4968
  188.0000   107.2792    10.0559     9.6871
  188.5000   107.4893    10.2558     9.8797
  189.0000   110.4359    10.2948     9.9172
  189.5000   113.3618    10.3432     9.9638
  190.0000   115.6698    10.3520     9.9724
  190.5000   114.6181    10.1497     9.7993
  191.0000   113.6375    10.0636     9.7339
  191.5000   113.3513     9.9781     9.6689
  192.0000   112.7444     9.8934     9.6043
  192.5000   112.7530     9.8094     9.5402
  193.0000   113.7609     9.7262     9.4765
  193.5000   117.5271     9.6698     9.4132
  194.0000   121.2807     9.6095     9.3504
  194.5000   122.1162     9.5496     9.2880
  195.0000   119.2484     9.5027     9.2260
  195.5000   120.5183     9.4710     9.1644
