~VERSION INFORMATION
 VERS.                2.0:   CWLS LOG ASCII STANDARD - VERSION 2.0
 WRAP.                 NO:   ONE LINE PER DEPTH STEP
~WELL INFORMATION
#MNEM.UNIT      DATA TYPE    INFORMATION
#----------   ------------   ------------------------------
 STRT.F           60.0000:   START DEPTH
 STOP.F         1143.0000:   STOP DEPTH
 STEP.F            0.5000:   STEP LENGTH
 NULL.          -999.2500:   NO VALUE
 COMP. U S NAVY-INTEX OIL:   COMPANY
 WELL.    N.P.R . 3 #63-2:   WELL
 FLD .             TEAPOT:   FIELD
 LOC .       S2 T38N R78W:   LOCATION
 CNTY.            NATRONA:   COUNTY
 STAT.            WYOMING:   STATE
 CTRY. UNITED STATES OF AMERICA:   COUNTRY
 SRVC. Schlumberger Well Surveying Corp:   SERVICE COMPANY
 DATE.        24-MAY-1964:   LOGDATE
 API .       490250645500:   API NUMBER
~CURVE INFORMATION
#MNEM.UNIT       API CODE    CURVE DESCRIPTION
#----------   ------------   ------------------------------
 DEPT.F                  :   
 SPR .MV     05 010 01 00:   SPONTANEOUS POTENTIAL FROM RES.
 ASN .OHMM   05 041 16 00:   AMPLIFIED SHORT NORMAL 16"
 ILD .OHMM   05 120 46 00:   INDUCTION LOG DEEP
 CILD.MMHO   05 110 46 00:   CONDUCTIVITY INDUCTION LOG DEEP
 CALS.IN     60 280 50 00:   CALIPER FROM SONIC LOG
 DT  .US/F   60 520 33 00:   INTERVAL TRANSIT TIME
~PARAMETER INFORMATION
#MNEM.UNIT          VALUE    DESCRIPTION
#----------   ------------   ------------------------------
 PD  .                 GL:   PERMANENT DATUM
 EPD .F              5181:   ELEVATION PERMANENT DATUM
 LMF .                 KB:   LOG MEASURED FROM
 DAPD.F                 5:   FEET ABOVE PERMANENT DATUM
 DMF .                 KB:   DRILLING MEASURED FROM
 EKB .F              5186:   KELLING BUSHING
 EGL .F              5181:   GROUND LEVEL
 DATE.        24-MAY-1964:   RUN DATE
 RUN .                  1:   RUN NUMBER
 DD  .F              1140:   DEPTH DRILLER
 DL  .F              1144:   DEPTH LOGGER
 BLI .F              1143:   BOTTOM LOG INTERVAL
 TLI .F                82:   TOP LOG INTERVAL
 CS  .IN            8.625:   CASING SIZE
 CBD .F                10:   CASING BOTTOM DRILLER
 BS  .IN            7.875:   BIT SIZE
 BSD .F              1140:   BIT SIZE AT DEPTH
 DFT .            GEL/OIL:   DRILLING FLUID TYPE
 DFD .                9.0:   DRILLING FLUID DENSITY
 DFV .                 63:   DRILLING FLUID VISCOSITY
 DFPH.                8.0:   DRILLING FLUID PH
 DFL .                7.6:   DRILLING FLUID LOSS
 MSS .           FLOWLINE:   MUD SAMPLE SOURCE
 RMS .OHMM           0.87:   RESISTIVITY MUD SAMPLE
 MST .F                84:   MUD SAMPLE TEMPERATURE
 RMF .OHMM           0.43:   RESISTIVITY MUD FILTRATE SAMPLE
 MFST.F                84:   MUD FILTRATE SAMPLE TEMPERATURE
 RMC .OHMM           1.52:   RESISTIVITY MUD CAKE
 MCST.F                84:   MUD CAKE SAMPLE TEMPERATURE
 MFSS.                 FP:   MUD FILTRATE SAMPLE SOURCE
 MCSS.                 FP:   MUD CAKE SAMPLE SOURCE
 TCS .HRS               2:   TIME CURCULATED STOPPED
 LUN .               4507:   LOGGING UNIT NUMBER
 LUL .               CSPR:   LOGGING UNIT LOCATION
 ENGI.             DANNER:   RECORDING ENGINEER
 WITN.          JORGENSEN:   WITNESSED BY
 CLNT.            A2DTECH:   CLIENT CODE
 ORIG.       2", 5" PRINT:   ORIGIN OF DATA
 UWI .       490250645500:   UNIQUE WELL ID
 DICO. A2D Technologies, Inc.:   DIGITIZING COMPANY
~OTHER INFORMATION
~A   DEPT      SPR          ASN        ILD      CILD      CALS         DT   
# ...
  840.0000   -43.4760    11.8064     9.3093   107.9067     7.7341    94.2264
  840.5000   -43.4812    12.0540     9.5004   105.0727     7.7343    93.6956
  841.0000   -43.4864    12.2602     9.7082   102.2439     7.7345    93.3182
  841.5000   -43.4917    12.4994     9.9099   100.3012     7.7346    92.9321
  842.0000   -43.4969    12.7936    10.0886    99.0964     7.7348    92.2541
  842.5000   -43.5022    12.9965    10.2102    97.7793     7.7349    91.6289
  843.0000   -43.5074    13.1060    10.3306    97.0332     7.7351    90.2491
  843.5000   -43.5126    13.2995    10.4354    97.0406     7.7503    88.2868
  844.0000   -43.5179    13.4404    10.2853    97.0497     7.7656    87.8868
  844.5000   -43.5231    13.3408    10.2102    97.0557     7.7960    88.3396
  845.0000   -43.5284    13.1371    10.1313    97.8167     7.8263    88.2516
  845.5000   -43.5336    13.0959    10.0104    98.5768     7.8567    88.1887
  846.0000   -43.5389    12.9736     9.9645    99.4278     7.8870    88.6415
  846.5000   -43.5441    12.8314     9.8348   100.0992     7.9023    92.0377
  847.0000   -43.5493    12.8036     9.7975   101.8674     7.9176    91.9623
  847.5000   -43.5546    12.6780     9.6847   103.1252     7.9177    91.4340
  848.0000   -43.5598    12.5262     9.6096   104.7286     7.9179    91.2830
  848.5000   -43.5651    12.4363     9.5345   106.1521     7.9180    91.7358
  849.0000   -43.5703    12.2973     9.5345   106.9137     7.8879    90.9811
  849.5000   -43.5755    12.2208     9.5345   107.9669     7.8578    90.3774
  850.0000   -43.5808    12.2189     9.5345   109.1868     7.8278    90.3805
  850.5000   -43.5860    12.0965     9.5345   109.1943     7.7828    90.4181
  851.0000   -43.5913    12.0490     9.5345   109.2018     7.7529    90.4543
  851.5000   -43.5926    11.9882     9.5346   109.2101     7.7380    90.4552
  852.0000   -43.5904    11.9865     9.6557   108.1324     7.7837    90.4560
  852.5000   -43.5881    11.9846     9.6847   106.9275     7.8747    90.4567
  853.0000   -43.5859    11.9828     9.7598   105.7229     7.9052    90.3818
  853.5000   -43.5836    12.0561     9.6510   105.7932     7.9206    90.1563
  854.0000   -43.5812    12.1288     9.5345   106.2355     7.9209    89.7042
  854.5000   -43.5791    12.1270     9.4841   107.7336     7.9060    89.4784
  855.0000   -43.5769    12.0440     9.3631   109.4130     7.8761    89.8567
  855.5000   -43.5741    11.8981     9.2342   112.2830     7.8463    89.4800
  856.0000   -43.5723    11.7241     9.1962   113.2832     7.8163    89.0279
  856.5000   -43.5699    11.5947     9.0752   114.5561     7.7411    89.6325
  857.0000   -43.5677    11.4793     8.9339   115.7228     7.5904    90.4654
  857.5000   -43.5655    11.2913     8.9083   117.6957     7.6209    90.9321
  858.0000   -43.4123    11.1391     8.7838   118.3445     7.7119    91.4460
  858.5000   -43.4104    11.0370     8.6663   119.6613     7.8028    91.7488
  859.0000   -43.4081    10.9857     8.6336   121.3706     7.8635    91.9760
  859.5000   -43.4059    10.9420     8.5586   121.8222     7.8789    92.1277
  860.0000   -43.3735    10.8321     8.4835   123.0421     7.8792    91.9773
  860.5000   -43.2505    10.8299     8.4084   124.4060     7.8795    91.7516
  861.0000   -43.2485    10.7534     8.3616   124.4127     7.8949    91.8280
  861.5000   -43.0957    10.6765     8.3333   125.1956     7.8952    91.8287
  862.0000   -43.0934    10.6747     8.2583   125.9337     7.8955    91.9050
  862.5000   -43.0535    10.5978     8.2239   126.6943     7.9109    91.9812
  863.0000   -42.9381    10.4458     8.1832   126.7025     7.9112    91.9819
  863.5000   -42.7146    10.3692     8.1832   127.4624     7.9115    92.0581
  864.0000   -42.4819    10.3666     8.1612   127.4699     7.9269    92.2138
  864.5000   -42.3286    10.3287     8.1081   127.4789     7.9272    92.5975
  865.0000   -42.1310    10.2908     8.1081   127.4849     7.9124    92.8907
  865.5000   -41.8726    10.2529     8.1081   127.4929     7.9127    92.9667
  866.0000   -41.9488    10.2150     8.1081   127.1085     7.9131    92.8165
  866.5000   -42.0384    10.1771     8.1081   125.9036     7.9134    93.1948
  867.0000   -42.3174    10.1392     8.1081   124.5042     7.9137    93.4220
  867.5000   -42.5188    10.1013     8.1081   124.5106     7.9140    93.8001
  868.0000   -42.6145    10.0634     8.1832   124.5183     7.8991    91.7631
  868.5000   -42.7628    10.0254     8.1832   126.5665     7.8842    91.8393
  869.0000   -42.7605     9.9875     7.7598   131.3708     7.8544    92.2929
  869.5000   -42.6074     9.9496     7.2790   139.6019     7.8547    92.3691
  870.0000   -42.6054     9.9117     6.9895   143.8261     7.8399    92.6717
  870.5000   -42.4526     9.8738     6.7200   149.4278     7.8402    93.2777
  871.0000   -42.4503     9.4717     6.5315   153.5392     7.8405    94.3578
  871.5000   -42.4481     9.1439     6.4964   157.2967     7.8408    95.7914
  872.0000   -42.2950     8.8160     6.4565   159.9706     7.8411    96.1466
  872.5000   -42.2930     8.4402     6.4565   160.7304     7.8414    96.6001
  873.0000   -42.1400     8.4251     6.5315   160.7379     7.8417    97.4311
  873.5000   -42.1378     8.4250     6.5315   160.7455     7.8420    97.3563
  874.0000   -42.0933     8.5164     6.5315   157.1086     7.8423    97.1307
  874.5000   -41.9825     8.6448     6.5419   153.4787     7.8426    97.0557
  875.0000   -41.9804     8.7844     6.6066   150.9797     7.8277    97.1321
  875.5000   -41.8275     8.8587     6.6817   149.8998     7.8282    97.1329
  876.0000   -41.8249     8.9071     6.7568   149.4877     7.8285    96.5298
  876.5000   -41.8230     8.9640     6.8007   148.9961     7.8288    96.0023
  877.0000   -41.8207     9.0039     6.8318   148.7487     7.8291    96.0030
  877.5000   -41.8185     9.0387     6.9069   148.0051     7.8294    96.1572
  878.0000   -41.8163     9.0623     6.9385   147.2690     7.8146    96.4654
  878.5000   -41.8137     9.0835     7.0595   145.6049     7.8149    96.7117
  879.0000   -41.8118     9.0984     7.1321   142.7574     7.8152    97.1383
  879.5000   -41.8095     9.1412     7.1513   141.5231     7.8155    97.5163
  880.0000   -41.8073     9.2392     7.2823   139.7593     7.8158    97.6680
  880.5000   -41.8050     9.4008     7.3933   137.4423     7.8161    97.7442
  881.0000   -41.8025     9.5166     7.4324   136.5311     7.8164    97.5940
  881.5000   -41.8005     9.6324     7.5075   135.2636     7.8015    97.2929
  882.0000   -41.6475     9.7481     7.5075   135.5522     7.8169    96.9163
  882.5000   -41.6453     9.8772     7.4324   136.7847     7.8172    96.4642
  883.0000   -41.6039     9.8791     7.4324   137.9921     7.8175    96.0876
  883.5000   -41.4900     9.7981     7.3463   139.9649     7.8179    95.8619
  884.0000   -41.2651     9.6866     7.2823   142.0792     7.8182    96.0136
  884.5000   -41.1845     9.5938     7.1793   143.1577     7.8185    96.2453
  885.0000   -41.0312     9.5018     7.0571   145.1306     7.8188    96.5434
  885.5000   -41.0294     9.3940     6.9820   145.8659     7.8191    96.6198
  886.0000   -41.0270     9.2655     6.9820   146.6265     7.8345    96.6205
  886.5000   -41.1755     9.1566     6.9820   146.6347     7.8348    96.5458
  887.0000   -41.3449     9.1265     6.9820   146.6416     7.8502    96.5465
  887.5000   -41.6224     9.1417     6.9851   146.5863     7.8656    96.3208
  888.0000   -41.7711     9.2425     7.1061   145.9036     7.8659    96.0197
  888.5000   -41.9194     9.3694     7.1321   144.9298     7.8662    95.8693
  889.0000   -42.0678     9.5009     7.1321   142.9070     7.8665    95.7946
  889.5000   -42.2164     9.5680     7.1688   142.9142     7.8668    95.5691
  890.0000   -42.2136     9.4733     7.2072   142.1680     7.8671    95.4189
  890.5000   -42.3622     9.3356     7.2072   142.1774     7.8522    95.3442
  891.0000   -42.3600     9.3406     7.2072   142.4498     7.8375    95.1940
  891.5000   -42.3577     9.3504     7.1321   142.9445     7.8378    95.3457
