~VERSION INFORMATION
 VERS.                2.0:   CWLS LOG ASCII STANDARD - VERSION 2.0
 WRAP.                 NO:   ONE LINE PER DEPTH STEP
~WELL INFORMATION
#MNEM.UNIT      DATA TYPE    INFORMATION
#----------   ------------   ------------------------------
 STRT.F           88.0000:   START DEPTH
 STOP.F          893.0000:   STOP DEPTH
 STEP.F            0.5000:   STEP LENGTH
 NULL.          -999.2500:   NO VALUE
 COMP.          U.S. NAVY:   COMPANY
 WELL. RES 3 TEAPOT DOM #24S-35:   WELL
 FLD .        TEAPOT DOME:   FIELD
 LOC .      S35 T39N R78W:   LOCATION
 CNTY.            NATRONA:   COUNTY
 STAT.            WYOMING:   STATE
 CTRY. UNITED STATES OF AMERICA:   COUNTRY
 SRVC.       Schlumberger:   SERVICE COMPANY
 DATE.        26-JUL-1963:   LOGDATE
 API .       490250654800:   API NUMBER
~CURVE INFORMATION
#MNEM.UNIT       API CODE    CURVE DESCRIPTION
#----------   ------------   ------------------------------
 DEPT.F                  :   
 CALS.IN     60 280 50 00:   CALIPER FROM SONIC LOG
 DT  .US/F   60 520 00 00:   INTERVAL TRANSIT TIME
 GR  .GAPI   30 310 01 00:   GAMMA RAY
 ASN .OHMM   05 041 16 00:   AMPLIFIED SHORT NORMAL 16"
 CILD.MMHO   05 110 46 00:   CONDUCTIVITY INDUCTION LOG DEEP
 ILD .OHMM   05 120 46 00:   INDUCTION LOG DEEP
 SPR .MV     05 010 01 00:   SPONTANEOUS POTENTIAL FROM RES.
~PARAMETER INFORMATION
#MNEM.UNIT          VALUE    DESCRIPTION
#----------   ------------   ------------------------------
 PD  .                 GL:   PERMANENT DATUM
 EPD .F              5116:   ELEVATION PERMANENT DATUM
 LMF .                 KB:   LOG MEASURED FROM
 DAPD.F                 5:   FEET ABOVE PERMANENT DATUM
 DMF .                 KB:   DRILLING MEASURED FROM
 EKB .F              5121:   KELLING BUSHING
 EGL .F              5116:   GROUND LEVEL
 DATE.        26-JUL-1963:   RUN DATE
 RUN .                  1:   RUN NUMBER
 DD  .F               900:   DEPTH DRILLER
 DL  .F               894:   DEPTH LOGGER
 BLI .F               893:   BOTTOM LOG INTERVAL
 TLI .F                88:   TOP LOG INTERVAL
 CBD .F                10:   CASING BOTTOM DRILLER
 BS  .IN             6.75:   BIT SIZE
 BSD .F               900:   BIT SIZE AT DEPTH
 DFT .            GEL-OIL:   DRILLING FLUID TYPE
 DFD .                9.5:   DRILLING FLUID DENSITY
 DFV .                 92:   DRILLING FLUID VISCOSITY
 DFPH.                9.5:   DRILLING FLUID PH
 DFL .                5.8:   DRILLING FLUID LOSS
 MSS .           FLOWLINE:   MUD SAMPLE SOURCE
 RMS .OHMM           4.05:   RESISTIVITY MUD SAMPLE
 MST .F                75:   MUD SAMPLE TEMPERATURE
 RMF .OHMM           3.91:   RESISTIVITY MUD FILTRATE SAMPLE
 MFST.F                75:   MUD FILTRATE SAMPLE TEMPERATURE
 RMC .OHMM           3.54:   RESISTIVITY MUD CAKE
 MCST.F                75:   MUD CAKE SAMPLE TEMPERATURE
 MFSS.               MEAS:   MUD FILTRATE SAMPLE SOURCE
 MCSS.               MEAS:   MUD CAKE SAMPLE SOURCE
 TCS .HRS             0.5:   TIME CURCULATED STOPPED
 LUN .               4507:   LOGGING UNIT NUMBER
 LUL .               CSPR:   LOGGING UNIT LOCATION
 ENGI.             KNOBEL:   RECORDING ENGINEER
 WITN.          JORGENSON:   WITNESSED BY
 CLNT.            A2DTECH:   CLIENT CODE
 ORIG.           5" PRINT:   ORIGIN OF DATA
 UWI .       490250654800:   UNIQUE WELL ID
 DICO. A2D Technologies, Inc.:   DIGITIZING COMPANY
~OTHER INFORMATION
~A   DEPT     CALS         DT         GR          ASN      CILD         ILD      SPR   
# ...
  634.0000     6.5986    97.3419  -999.2500     9.8989   118.3916     8.5283   -17.1121
  634.5000     6.7065    97.1044  -999.2500     9.8988   119.1773     8.4485   -17.1235
  635.0000     6.7355    97.6371  -999.2500     9.8986   119.9575     8.3478   -16.9841
  635.5000     6.7206    98.3889  -999.2500     9.8985   120.7378     8.2878   -16.8446
  636.0000     6.6906    98.8388  -999.2500     9.8675   122.2767     8.1737   -16.5544
  636.5000     6.5845    99.0630  -999.2500     9.7923   123.1513     8.1282   -16.5687
  637.0000     6.4936    98.8329  -999.2500     9.7013   123.8426     8.0854   -16.8817
  637.5000     6.4028    98.5281  -999.2500     9.5499   125.3816     8.0430   -17.0440
  638.0000     6.2967    98.1477  -999.2500     9.4590   126.9206     7.9637   -17.2066
  638.5000     6.2362    97.6165  -999.2500     9.4134   126.9423     7.9589   -17.5221
  639.0000     6.2365    96.7834  -999.2500     9.3982   128.4865     7.8791   -17.6844
  639.5000     6.2830    97.0068  -999.2500     9.3526   129.2667     7.7982   -17.8466
  640.0000     6.3131    97.1598  -999.2500     9.3374   131.5644     7.7939   -17.8582
  640.5000     6.3286    97.2485  -999.2500     9.2615   131.5859     7.8662   -17.7186
  641.0000     6.3441    97.2996  -999.2500     9.1858   132.3716     7.8609   -17.7329
  641.5000     6.3900    97.2962  -999.2500     9.1100   133.1518     7.9321   -17.5906
  642.0000     6.4207    97.2932  -999.2500     9.0578   133.1733     7.9268   -17.6049
  642.5000     6.3754    97.2903  -999.2500     9.0038   134.7123     7.9991   -17.6191
  643.0000     6.1477    97.2876  -999.2500     8.9734   134.7344     7.9182   -17.4797
  643.5000     6.0720    97.2845  -999.2500     8.9278   134.7607     7.7628   -17.3374
  644.0000     6.3307    97.2814  -999.2500     8.8520   134.7823     7.6064   -17.3517
  644.5000     6.4222    97.2785  -999.2500     8.8216   135.5625     7.4511   -17.2123
  645.0000     6.5623    97.5019  -999.2500     8.8668   136.3430     7.2958   -17.0729
  645.5000     6.6836    97.5745  -999.2500     8.8364   138.6458     7.1404   -16.9334
  646.0000     6.7271    97.5708  -999.2500     8.7153   140.9435     6.9840   -16.7940
  646.5000     6.7274    97.5678  -999.2500     8.5635   144.0000     6.7531   -16.5066
  647.0000     6.7277    97.3385  -999.2500     8.3973   147.0564     6.5978   -16.3701
  647.5000     6.7280    97.2600  -999.2500     8.2458   150.1182     6.5180   -16.2278
  648.0000     6.7283    97.2571  -999.2500     8.0339   151.6572     6.5136   -16.2421
  648.5000     6.7134    97.3298  -999.2500     7.8219   153.1962     6.5083   -16.1026
  649.0000     6.7137    97.3267  -999.2500     7.7915   153.9764     6.4285   -16.1169
  649.5000     6.7140    97.4747  -999.2500     7.9426   154.7572     6.4242   -16.1283
  650.0000     6.7295    97.6981  -999.2500     8.0787   153.2661     6.4955   -15.9860
  650.5000     6.7295    98.7540  -999.2500     8.1256   150.9929     6.9458   -16.0004
  651.0000     6.7295    98.6776  -999.2500     8.0918   148.7239     7.0940   -16.1612
  651.5000     6.7295    98.7525  -999.2500     8.0635   148.7329     7.2422   -16.1711
  652.0000     6.7295    99.0535  -999.2500     8.0635   147.9813     7.3897   -16.1811
  652.5000     6.7295    99.4301  -999.2500     8.0938   147.2298     7.5379   -16.1935
  653.0000     6.7295    99.7313  -999.2500     8.1543   147.2383     7.6106   -16.0502
  653.5000     6.7295   100.0324  -999.2500     8.1241   147.2459     7.7581   -16.0618
  654.0000     6.7295   100.4845  -999.2500     8.0484   146.4944     7.8308   -15.9216
  654.5000     6.7295   100.6347  -999.2500     8.0182   145.7428     7.9034   -15.7809
  655.0000     6.7447   100.7094  -999.2500     8.0333   144.2326     7.8999   -15.7933
  655.5000     6.7447   100.5577  -999.2500     8.1241   141.9653     7.8970   -15.8033
  656.0000     6.7447   100.4814  -999.2500     8.2602   141.2138     7.8942   -16.2658
  656.5000     6.7447   100.4806  -999.2500     8.3812   139.7035     7.8157   -16.5777
  657.0000     6.7599   100.4044  -999.2500     8.5023   138.9538     7.8122   -16.7407
  657.5000     6.7751   100.4038  -999.2500     8.6082   138.2004     7.7339   -17.0523
  658.0000     6.7903   100.4030  -999.2500     8.6687   138.2094     7.6556   -17.2131
  658.5000     6.7903   100.4779  -999.2500     8.6838   138.2184     7.5770   -16.9214
  659.0000     6.7903   100.5525  -999.2500     8.6082   139.7430     7.4980   -16.7805
  659.5000     6.7599   100.5517  -999.2500     8.4841   141.2676     7.4952   -16.6396
  660.0000     6.7143   100.5610  -999.2500     8.3812   142.0335     7.4923   -16.3479
  660.5000     6.6687   100.8519  -999.2500     8.2753   144.3186     7.4894   -16.2836
  661.0000     6.6687   101.0023  -999.2500     8.1846   145.0845     7.4859   -16.2195
  661.5000     6.6687   100.6241  -999.2500     8.0933   144.3312     7.4830   -16.0799
  662.0000     6.7295   100.3214  -999.2500     8.0182   144.3402     7.4047   -15.7894
  662.5000     6.7557   100.2452  -999.2500     8.0333   143.5257     7.2508   -15.7994
  663.0000     6.7903   100.1690  -999.2500     8.1241   143.5964     7.1717   -15.8118
  663.5000     6.8055   100.2438  -999.2500     8.2451   143.6048     7.0178   -15.8218
  664.0000     6.7903   100.6958  -999.2500     8.3359   144.3707     7.0149   -15.8318
  664.5000     6.7447   101.3814  -999.2500     8.3964   145.1393     7.0121   -15.8417
  665.0000     6.7295   101.5999  -999.2500     8.3661   145.9029     7.0085   -15.8542
  665.5000     6.7295   101.7501  -999.2500     8.3207   145.9105     7.1574   -15.8641
  666.0000     6.7295   101.7493  -999.2500     8.3056   147.4361     7.2301   -15.8741
  666.5000     6.7143   101.7486  -999.2500     8.2753   148.2020     7.3021   -15.8841
  667.0000     6.6687   101.7479  -999.2500     8.2451   148.9681     7.3740   -16.1982
  667.5000     6.6687   101.3698  -999.2500     8.1543   148.9768     7.3712   -16.5098
  668.0000     6.6687   100.9676  -999.2500     8.0313   149.9748     7.4446   -16.5198
  668.5000     6.6687   101.5947  -999.2500     7.9425   150.5086     7.4410   -16.3789
  669.0000     6.6839   101.6694  -999.2500     7.9425   150.5159     7.4381   -16.0694
  669.5000     6.7143   101.4423  -999.2500     7.9123   152.0422     7.4346   -15.7980
  670.0000     6.7295   101.3659  -999.2500     7.8669   152.8081     7.2807   -15.9588
  670.5000     6.7295   101.3652  -999.2500     7.7912   153.5740     7.2023   -15.9687
  671.0000     6.7295   101.4399  -999.2500     7.7307   153.5812     7.1239   -15.9789
  671.5000     6.7295   101.5146  -999.2500     7.7005   156.6251     6.8938   -15.9911
  672.0000     6.7295   101.8158  -999.2500     7.6399   161.1846     6.6643   -16.0011
  672.5000     6.7295   102.2679  -999.2500     7.4130   167.2616     6.3594   -15.8577
  673.0000     6.7295   103.7766  -999.2500     7.3222   174.0973     6.0514   -15.5626
  673.5000     6.7447   106.2705  -999.2500     7.2920   182.0185     5.6732   -15.4277
  674.0000     6.7903   109.9246  -999.2500     7.2163   188.5292     5.5948   -15.2868
  674.5000     6.8055   110.4159  -999.2500     6.4902   191.5713     5.4409   -14.9976
  675.0000     6.8055   109.8867  -999.2500     6.2935   193.8546     5.4381   -14.8567
  675.5000     6.7903   109.5086  -999.2500     6.3086   193.8137     5.5856   -14.7158
  676.0000     6.7295   108.6777  -999.2500     6.2179   193.1102     5.7338   -14.5750
  676.5000     6.7624   107.0165  -999.2500     6.2632   190.8430     5.9575   -14.7383
  677.0000     6.7903   105.6573  -999.2500     6.5053   187.0566     6.1812   -15.0499
  677.5000     6.8055   105.8830  -999.2500     6.7322   182.5114     6.3294   -15.5148
  678.0000     6.7903   106.2596  -999.2500     6.8533   176.4506     6.4777   -15.8264
  678.5000     6.7903   106.8627  -999.2500     6.9138   172.6641     6.5503   -16.1381
  679.0000     6.7903   107.1638  -999.2500     6.9289   168.8777     6.6224   -16.1480
