~VERSION INFORMATION
 VERS.                2.0:   CWLS LOG ASCII STANDARD - VERSION 2.0
 WRAP.                 NO:   ONE LINE PER DEPTH STEP
~WELL INFORMATION
#MNEM.UNIT      DATA TYPE    INFORMATION
#----------   ------------   ------------------------------
 STRT.F           31.0000:   START DEPTH
 STOP.F          662.0000:   STOP DEPTH
 STEP.F            0.5000:   STEP LENGTH
 NULL.          -999.2500:   NO VALUE
 COMP. FENIX & SCISSON INC:   COMPANY
 WELL.   NPR-3 #83SX15-15:   WELL
 FLD .             TEAPOT:   FIELD
 LOC .      S15 T38N R78W:   LOCATION
 CNTY.            NATRONA:   COUNTY
 STAT.            WYOMING:   STATE
 CTRY. UNITED STATES OF AMERICA:   COUNTRY
 SRVC.            Unknown:   SERVICE COMPANY
 DATE.        17-MAY-1978:   LOGDATE
 API .       490251062500:   API NUMBER
~CURVE INFORMATION
#MNEM.UNIT       API CODE    CURVE DESCRIPTION
#----------   ------------   ------------------------------
 DEPT.F                  :   
 SN  .OHMM   07 040 16 00:   SHORT NORMAL 16'
 ILD .OHMM   07 120 46 00:   INDUCTION LOG DEEP
 CALD.IN     45 280 60 00:   CALIPER
 GRD .GAPI   45 310 01 00:   GAMMA RAY FROM DENSITY LOG
 RHOB.G/C3   45 350 01 00:   BULK DENSITY
 DPHI.DEC    45 890 10 00:   DENSITY POROSITY SANDSTONE
 CORR.G/C3   45 356 01 00:   DENSITY CORRECTION
~PARAMETER INFORMATION
#MNEM.UNIT          VALUE    DESCRIPTION
#----------   ------------   ------------------------------
 PD  .                 GL:   PERMANENT DATUM
 EPD .F              5265:   ELEVATION PERMANENT DATUM
 LMF .                 KB:   LOG MEASURED FROM
 DMF .                 KB:   DRILLING MEASURED FROM
 EKB .F              5269:   KELLING BUSHING
 EGL .F              5265:   GROUND LEVEL
 DATE.          5-17-1978:   RUN DATE
 RUN .                  1:   RUN NUMBER
 DD  .F               670:   DEPTH DRILLER
 DL  .F               668:   DEPTH LOGGER
 BLI .F               662:   BOTTOM LOG INTERVAL
 TLI .F                40:   TOP LOG INTERVAL
 CS  .IN            8.625:   CASING SIZE
 CBD .F                40:   CASING BOTTOM DRILLER
 BS  .IN            7.875:   BIT SIZE
 BSD .F               670:   BIT SIZE AT DEPTH
 DFT .                KCL:   DRILLING FLUID TYPE
 DFD .                8.6:   DRILLING FLUID DENSITY
 DFV .                 31:   DRILLING FLUID VISCOSITY
 DFPH.                 10:   DRILLING FLUID PH
 BHT .F                75:   BOTTOM HOLE TEMPERATURE
 TCS .HRS               2:   TIME CURCULATED STOPPED
 MRT .F                75:   MAXIMUM RECORDED TEMPERATURE
 LUN .               3006:   LOGGING UNIT NUMBER
 LUL .                CPR:   LOGGING UNIT LOCATION
 ENGI.             MILLER:   RECORDING ENGINEER
 WITN.           MCGINLEY:   WITNESSED BY
 CLNT.            A2DTECH:   CLIENT CODE
 ORIG.      2" & 5" PRINT:   ORIGIN OF DATA
 UWI .       490251062500:   UNIQUE WELL ID
 DICO. A2D Technologies, Inc.:   DIGITIZING COMPANY
~OTHER INFORMATION
~A   DEPT       SN        ILD       CALD         GRD      RHOB       DPHI       CORR   
# ...
  122.0000     9.6171    13.2749     6.8024    60.7038     2.3241     0.2162     0.0479
  122.5000     9.1840    13.1532     6.7781    61.1112     2.3326     0.2010     0.0534
  123.0000     9.1840    13.5863     6.7517    59.6407     2.3395     0.2051     0.0475
  123.5000     9.1767    14.0045     6.7277    58.1410     2.3315     0.2130     0.0471
  124.0000     9.1691    14.4331     6.7052    57.7734     2.3420     0.2065     0.0507
  124.5000     9.1615    14.8738     6.7709    60.1870     2.3537     0.1952     0.0511
  125.0000     9.1539    15.2416     6.8851    65.2252     2.3571     0.1981     0.0458
  125.5000     9.1463    15.6686     7.0005    69.8456     2.3645     0.1904     0.0478
  126.0000     9.1387    15.8200     7.1001    68.2834     2.3729     0.1862     0.0514
  126.5000     9.1312    15.8123     7.1959    66.5473     2.3772     0.1842     0.0549
  127.0000     9.1236    15.4434     7.2917    66.8074     2.3793     0.1830     0.0584
  127.5000     9.1162    14.7935     7.3786    67.5264     2.3827     0.1808     0.0644
  128.0000     9.1081    14.1386     7.4210    67.4979     2.3906     0.1756     0.0675
  128.5000     9.1045    13.5109     7.4255    64.5439     2.3919     0.1736     0.0607
  129.0000     8.9597    12.9110     7.4396    61.4235     2.3905     0.1737     0.0559
  129.5000     8.7972    12.3378     7.4841    59.9291     2.3942     0.1706     0.0653
  130.0000     8.6391    10.6471     7.5680    63.2020     2.4188     0.1499     0.0749
  130.5000     8.3632     9.7371     7.6524    65.6233     2.4456     0.1266     0.0784
  131.0000     8.0749     9.1445     7.7409    67.1220     2.4656     0.1266     0.0649
  131.5000     7.7965     8.5898     7.7591    68.6222     2.4572     0.1404     0.0404
  132.0000     7.5277     8.0683     7.7590    71.1995     2.4447     0.1450     0.0410
  132.5000     7.2682     7.5783     7.7500    74.9326     2.4441     0.1445     0.0436
  133.0000     7.0175     7.1180     7.7415    75.2550     2.4450     0.1424     0.0501
  133.5000     6.7757     6.9029     7.7044    75.2776     2.4458     0.1402     0.0551
  134.0000     6.5420     6.8396     7.6615    76.4397     2.4451     0.1386     0.0550
  134.5000     6.3538     6.8396     7.5902    77.8881     2.4428     0.1442     0.0550
  135.0000     6.3427     6.7769     7.4823    79.3266     2.4408     0.1464     0.0550
  135.5000     6.3245     6.7769     7.3751    79.0533     2.4388     0.1446     0.0529
  136.0000     6.3064     6.7769     7.2674    77.1644     2.4359     0.1506     0.0438
  136.5000     6.2923     6.7769     7.1599    75.3609     2.4275     0.1582     0.0351
  137.0000     6.2842     6.6658     7.0532    73.6675     2.4188     0.1604     0.0304
  137.5000     6.2761     6.5571     6.9607    71.9540     2.4139     0.1627     0.0291
  138.0000     6.2680     6.4507     6.9006    72.3381     2.4150     0.1637     0.0278
  138.5000     6.2599     6.3459     6.8402    73.4612     2.4171     0.1602     0.0264
  139.0000     6.2519     6.2381     6.7970    73.6604     2.4179     0.1598     0.0247
  139.5000     6.2438     6.2462     6.7835    74.3074     2.4179     0.1594     0.0231
  140.0000     6.2348     6.2563     6.7695    74.9915     2.4179     0.1590     0.0253
  140.5000     6.2216     6.2659     6.7556    75.2317     2.4211     0.1547     0.0287
  141.0000     6.2087     6.2755     6.7418    74.8370     2.4315     0.1490     0.0351
  141.5000     6.1958     6.2850     6.7269    74.5275     2.4408     0.1466     0.0350
  142.0000     6.1829     6.2947     6.7670    75.3335     2.4409     0.1479     0.0351
  142.5000     6.1701     6.3043     6.8313    77.2530     2.4412     0.1490     0.0387
  143.0000     6.1572     6.3139     6.8995    79.1176     2.4464     0.1386     0.0466
  143.5000     6.1445     6.3236     6.9940    80.9956     2.4511     0.1388     0.0506
  144.0000     6.1317     6.3333     7.0947    80.9366     2.4516     0.1390     0.0544
  144.5000     6.1240     6.3429     7.1958    79.5290     2.4538     0.1376     0.0594
  145.0000     6.1546     6.3521     7.2968    77.0868     2.4592     0.1352     0.0665
  145.5000     6.1768     6.3828     7.3978    75.4779     2.4647     0.1326     0.0736
  146.0000     6.1991     6.4154     7.4988    75.6746     2.4688     0.1298     0.0807
  146.5000     6.2214     6.4482     7.6000    76.7044     2.4719     0.1254     0.0842
  147.0000     6.2438     6.4813     7.7008    77.6733     2.4749     0.1202     0.0775
  147.5000     6.2663     6.5146     7.7808    77.6379     2.4743     0.1284     0.0639
  148.0000     6.2889     6.5480     7.7790    77.5550     2.4609     0.1383     0.0505
  148.5000     6.3116     6.5815     7.7752    77.1636     2.4496     0.1415     0.0430
  149.0000     6.3343     6.6153     7.7671    75.5925     2.4491     0.1434     0.0430
  149.5000     6.3571     6.6492     7.7564    74.0675     2.4512     0.1417     0.0441
  150.0000     6.3801     6.6833     7.6996    72.5492     2.4545     0.1358     0.0444
  150.5000     6.4125     6.7176     7.6414    71.0204     2.4577     0.1322     0.0433
  151.0000     6.4003     6.7520     7.5552    70.4294     2.4580     0.1359     0.0422
  151.5000     6.3795     6.7866     7.4636    71.7007     2.4508     0.1396     0.0410
  152.0000     6.3588     6.8215     7.3717    73.3605     2.4457     0.1434     0.0399
  152.5000     6.3382     6.8564     7.2799    73.3745     2.4451     0.1401     0.0391
  153.0000     6.3176     6.8916     7.1881    72.4779     2.4430     0.1451     0.0400
  153.5000     6.2970     6.9029     7.0963    71.5922     2.4340     0.1548     0.0409
  154.0000     6.2766     6.9029     7.0044    71.0937     2.4265     0.1552     0.0417
  154.5000     6.2562     6.9029     6.9123    72.0412     2.4286     0.1531     0.0426
  155.0000     6.2359     6.9029     6.8407    71.3705     2.4325     0.1511     0.0435
  155.5000     6.2156     6.9029     6.8406    71.6703     2.4443     0.1351     0.0443
  156.0000     6.1954     6.9029     6.8990    76.5152     2.4591     0.1309     0.0452
  156.5000     6.1805     6.9029     6.9664    77.0870     2.4710     0.1290     0.0460
  157.0000     6.1806     6.9029     6.9814    75.5655     2.4737     0.1269     0.0469
  157.5000     6.1806     6.9029     6.9291    74.7275     2.4767     0.1228     0.0477
  158.0000     6.1806     6.9042     6.8709    73.0370     2.4767     0.1194     0.0487
  158.5000     6.1803     6.9105     6.8128    71.0726     2.4743     0.1278     0.0505
  159.0000     6.1965     6.9166     6.7536    69.1600     2.4720     0.1273     0.0536
  159.5000     6.2181     6.9228     6.7416    70.7643     2.4720     0.1272     0.0629
  160.0000     6.2398     6.9289     6.7938    73.5508     2.4724     0.1302     0.0778
  160.5000     6.2616     6.9351     6.8573    76.3398     2.4845     0.1157     0.0930
  161.0000     6.2835     6.9412     6.9198    77.9998     2.4983     0.1050     0.0922
  161.5000     6.3055     6.9474     7.0329    76.6921     2.5039     0.1179     0.0718
  162.0000     6.3275     6.9536     7.1682    75.0694     2.4700     0.1282     0.0566
  162.5000     6.3537     6.9596     7.3050    73.8797     2.4668     0.1334     0.0580
  163.0000     6.3463     6.9669     7.4414    74.8252     2.4695     0.1291     0.0764
  163.5000     6.3372     6.9324     7.5624    76.0911     2.4830     0.1182     0.0966
  164.0000     6.3281     6.8935     7.6014    75.9738     2.4969     0.1064     0.1048
  164.5000     6.3191     6.8545     7.6155    75.9394     2.5073     0.0990     0.1009
  165.0000     6.3100     6.8157     7.6417    77.3903     2.5022     0.1075     0.0865
  165.5000     6.3010     6.7772     7.6416    78.7706     2.4940     0.1137     0.0723
  166.0000     6.2919     6.7389     7.6188    75.9884     2.4876     0.1190     0.0605
  166.5000     6.2829     6.7009     7.5751    73.1106     2.4849     0.1185     0.0595
  167.0000     6.2739     6.6630     7.5303    71.8910     2.4837     0.1178     0.0555
