~VERSION INFORMATION
 VERS.                2.0:   CWLS LOG ASCII STANDARD - VERSION 2.0
 WRAP.                 NO:   ONE LINE PER DEPTH STEP
~WELL INFORMATION
#MNEM.UNIT      DATA TYPE    INFORMATION
#----------   ------------   ------------------------------
 STRT.F           80.0000:   START DEPTH
 STOP.F          740.0000:   STOP DEPTH
 STEP.F            0.5000:   STEP LENGTH
 NULL.          -999.2500:   NO VALUE
 COMP. U S NAVY/INTEX OIL CO:   COMPANY
 WELL. NPR 3 TEAPOT DOME #73-S-34:   WELL
 FLD .             TEAPOT:   FIELD
 LOC .      S34 T39N R78W:   LOCATION
 CNTY.            NATRONA:   COUNTY
 STAT.            WYOMING:   STATE
 CTRY. UNITED STATES OF AMERICA:   COUNTRY
 SRVC. Schlumberger Well Surveying Corp:   SERVICE COMPANY
 DATE.        19-FEB-1961:   LOGDATE
 API .       490250655200:   API NUMBER
~CURVE INFORMATION
#MNEM.UNIT       API CODE    CURVE DESCRIPTION
#----------   ------------   ------------------------------
 DEPT.F                  :   
 GR  .CPS    99 310 30 00:   GAMMA RAY FROM PERFORATING FORMATION COLLAR CHART
 SPR .MV     05 010 01 00:   SPONTANEOUS POTENTIAL
 ILD .OHMM   05 120 46 00:   INDUCTION LOG DEEP
 CILD.MMHO   05 110 46 00:   CONDUCTIVITY INDUCTION LOG DEEP
 ASN .OHMM   05 041 16 00:   AMPLIFIED SHORT NORMAL 16"
~PARAMETER INFORMATION
#MNEM.UNIT          VALUE    DESCRIPTION
#----------   ------------   ------------------------------
 LMF .                 KB:   LOG MEASURED FROM
 DMF .                 KB:   DRILLING MEASURED FROM
 EKB .F              5044:   KELLING BUSHING
 EGL .F              5040:   GROUND LEVEL
 DATE.          2-19-1961:   RUN DATE
 RUN .                  1:   RUN NUMBER
 DD  .F               740:   DEPTH DRILLER
 DL  .F               741:   DEPTH LOGGER
 BLI .F               740:   BOTTOM LOG INTERVAL
 TLI .F                80:   TOP LOG INTERVAL
 CBD .F               740:   CASING BOTTOM DRILLER
 CBL .F               741:   CASING BOTTOM LOGGER
 BS  .IN            7.875:   BIT SIZE
 BSD .F               740:   BIT SIZE AT DEPTH
 DFT .       GEL-OIL EMUL:   DRILLING FLUID TYPE
 DFD .                9.2:   DRILLING FLUID DENSITY
 DFV .                 49:   DRILLING FLUID VISCOSITY
 DFPH.                  8:   DRILLING FLUID PH
 DFL .               11.4:   DRILLING FLUID LOSS
 MSS .           FLOWLINE:   MUD SAMPLE SOURCE
 RMS .OHMM            .84:   RESISTIVITY MUD SAMPLE
 MST .F                74:   MUD SAMPLE TEMPERATURE
 RMF .OHMM            .83:   RESISTIVITY MUD FILTRATE SAMPLE
 MFST.F                75:   MUD FILTRATE SAMPLE TEMPERATURE
 RMC .OHMM            .52:   RESISTIVITY MUD CAKE
 MCST.F                74:   MUD CAKE SAMPLE TEMPERATURE
 RMB .OHMM           1.98:   RESISTIVITY MUD AT BHT
 BHT .F                70:   BOTTOM HOLE TEMPERATURE
 TCS .HRS               1:   TIME CURCULATED STOPPED
 MRT .F                70:   MAXIMUM RECORDED TEMPERATURE
 LUN .               2523:   LOGGING UNIT NUMBER
 LUL .               CSPR:   LOGGING UNIT LOCATION
 ENGI.             KNOBEL:   RECORDING ENGINEER
 WITN.          JORGENSEN:   WITNESSED BY
 CLNT.            A2DTECH:   CLIENT CODE
 ORIG.        2" 5" PRINT:   ORIGIN OF DATA
 UWI .       490250655200:   UNIQUE WELL ID
 DICO. A2D Technologies, Inc.:   DIGITIZING COMPANY
~OTHER INFORMATION
~A   DEPT       GR        SPR          ILD      CILD         ASN 
# ...
  690.0000    41.2726   -17.3883    15.2829    65.7840    17.5127
  690.5000    42.0866   -17.8568    14.8081    67.5989    17.4139
  691.0000    38.5522   -17.8210    14.6196    68.7504    17.3294
  691.5000    37.4700   -17.6084    14.6866    69.3091    17.2432
  692.0000    38.8344   -17.3922    14.4174    69.6545    17.1570
  692.5000    35.5107   -17.1757    14.3086    70.0000    17.0797
  693.0000    36.4759   -16.9489    14.5133    70.3455    17.1210
  693.5000    36.4426   -17.1576    14.6949    70.6909    17.1951
  694.0000    32.6709   -17.4847    14.4815    71.0363    17.2687
  694.5000    33.9311   -17.8148    14.2771    69.9487    17.3460
  695.0000    34.2216   -18.1393    14.4704    68.7643    17.4668
  695.5000    32.0997   -18.3272    14.9025    67.5799    17.7140
  696.0000    31.3933   -18.2070    15.3510    66.3955    18.0492
  696.5000    33.7141   -18.0925    15.8023    65.2111    18.3895
  697.0000    36.6353   -17.9734    16.2468    64.0267    18.7297
  697.5000    37.0796   -17.9456    16.5688    62.8423    19.0703
  698.0000    35.3799   -18.1604    16.4906    60.7477    19.4145
  698.5000    36.9873   -18.5722    16.3528    60.1064    19.7584
  699.0000    36.0022   -18.9869    16.2049    61.6947    19.5154
  699.5000    34.8534   -19.1284    15.7961    63.5699    19.1912
  700.0000    37.1931   -19.0159    15.3802    65.4452    18.5584
  700.5000    39.1083   -18.9002    14.9656    67.3204    17.9386
  701.0000    39.2990   -18.7837    14.5515    69.1957    17.3476
  701.5000    37.3964   -18.6675    14.1408    71.0709    17.1036
  702.0000    39.6126   -18.5514    13.7898    72.9462    16.8318
  702.5000    35.2378   -18.4349    13.5853    74.8214    16.6896
  703.0000    36.3034   -18.3174    13.4605    75.5674    16.5826
  703.5000    38.6057   -18.2159    13.5071    75.9420    16.4754
  704.0000    40.1338   -17.9396    13.5505    76.3240    16.3679
  704.5000    37.6541   -17.9934    13.5942    75.8100    16.2603
  705.0000    39.6739   -18.0307    13.6378    75.2856    16.1526
  705.5000    36.5490   -18.0694    13.6251    74.7612    16.0446
  706.0000    36.6759   -18.1079    13.5499    74.2533    15.9425
  706.5000  -999.2500   -18.1445    13.4751    75.5790    15.9396
  707.0000  -999.2500   -18.2625    13.4001    76.3238    15.9394
  707.5000  -999.2500   -18.3938    13.3252    76.9132    15.9008
  708.0000  -999.2500   -18.5254    13.2503    77.4806    15.7145
  708.5000  -999.2500   -18.5131    13.1744    78.0472    15.5333
  709.0000  -999.2500   -18.2672    13.0780    78.6141    15.3524
  709.5000  -999.2500   -18.0283    12.9553    79.1796    15.1722
  710.0000  -999.2500   -17.7880    12.8332    79.7446    14.9908
  710.5000  -999.2500   -17.5441    12.7108    80.3149    14.8890
  711.0000  -999.2500   -17.5928    12.5889    81.5161    14.8597
  711.5000  -999.2500   -17.8089    12.4660    82.1658    14.8312
  712.0000  -999.2500   -18.0228    12.3968    83.0648    14.8103
  712.5000  -999.2500   -18.3714    12.2957    83.9638    14.6728
  713.0000  -999.2500   -18.0551    12.1954    84.8628    14.6380
  713.5000  -999.2500   -17.7202    12.0950    85.7618    14.5955
  714.0000  -999.2500   -17.3799    11.9979    86.6607    14.5524
  714.5000  -999.2500   -17.0988    11.9638    87.5597    14.5083
  715.0000  -999.2500   -17.2582    11.9269    88.3857    14.3749
  715.5000  -999.2500   -17.4473    11.8929    89.1924    14.3803
  716.0000  -999.2500   -17.6313    11.8175    89.8235    14.3821
  716.5000  -999.2500   -17.7266    11.8269    88.6310    14.3831
  717.0000  -999.2500   -17.6945    11.8892    87.9543    14.4077
  717.5000  -999.2500   -17.6639    11.9528    87.2777    14.4328
  718.0000  -999.2500   -17.6330    12.0164    86.6010    14.4578
  718.5000  -999.2500   -17.6022    12.0801    85.9244    14.4828
  719.0000  -999.2500   -17.5715    12.1438    85.2477    14.5077
  719.5000  -999.2500   -17.5394    12.2006    84.6314    14.5327
  720.0000  -999.2500   -17.5701    12.2249    83.5929    14.5578
  720.5000  -999.2500   -17.6243    12.2570    84.9334    14.5850
  721.0000  -999.2500   -17.6796    12.2893    86.8404    14.5236
  721.5000  -999.2500   -17.7348    12.2691    87.1963    14.4315
  722.0000  -999.2500   -17.7899    12.1541    86.1475    14.3388
  722.5000  -999.2500   -17.8454    12.0401    85.3583    14.2462
  723.0000  -999.2500   -17.9003    11.9257    87.4559    14.1535
  723.5000  -999.2500   -17.9368    11.8080    88.4008    14.0596
  724.0000  -999.2500   -17.8675    11.8270    87.3520    13.9730
  724.5000  -999.2500   -17.7995    11.8813    87.1700    14.0704
  725.0000  -999.2500   -17.7319    11.8291    88.2791    14.0701
  725.5000  -999.2500   -17.6639    11.7527    90.0757    14.0705
  726.0000  -999.2500   -17.5949    11.6757    91.0112    14.0721
  726.5000  -999.2500   -17.5403    11.5989    91.9944    13.9601
  727.0000  -999.2500   -17.7450    11.5222    92.9387    13.7871
  727.5000  -999.2500   -17.9566    11.4454    92.2353    13.6096
  728.0000  -999.2500   -18.1663    11.3687    91.5586    13.5955
  728.5000  -999.2500   -18.3623    11.2906    90.8820    13.6606
  729.0000  -999.2500   -18.1377    11.2949    90.2053    13.7293
  729.5000  -999.2500   -17.8141    11.3347    89.5287    13.8618
  730.0000  -999.2500   -17.4868    11.3681    88.7850    13.9051
  730.5000  -999.2500   -17.4297    11.3246    89.6677    13.7540
  731.0000  -999.2500   -17.7839    11.2815    91.4157    13.6184
  731.5000  -999.2500   -18.1338    11.2389    92.9387    13.3263
  732.0000  -999.2500   -17.9592    11.1964    92.3898    13.0273
  732.5000  -999.2500   -17.7522    11.1539    91.9003    12.7217
  733.0000  -999.2500   -17.9407    11.1113    92.7581    13.0615
  733.5000  -999.2500   -18.1691    11.0679    93.8981    13.5162
  734.0000  -999.2500   -18.3683    11.0441    95.0381    14.0647
  734.5000  -999.2500   -18.1150    11.0177    96.1782    13.7067
  735.0000  -999.2500   -17.6937    10.9919    97.0924    13.0930
  735.5000  -999.2500   -17.5369    10.9642    96.0540    12.4773
  736.0000  -999.2500   -17.6264    11.0412    95.6304    12.0161
  736.5000  -999.2500   -17.7223    11.1780    94.9404    12.2057
  737.0000  -999.2500   -17.8173    11.3173    94.2504    12.2974
  737.5000  -999.2500   -17.9174    11.4605    93.5604    12.0883
  738.0000  -999.2500   -17.7131    11.2711    92.8704    11.8957
  738.5000  -999.2500   -17.3655    11.0322    92.1797    11.8741
  739.0000  -999.2500   -17.4769    11.0474    91.4892    11.5553
  739.5000  -999.2500   -17.7004    11.4445    90.8606    11.2381
  740.0000  -999.2500   -17.9337    11.8232  -999.2500    10.9568
