~VERSION INFORMATION
 VERS.                2.0:   CWLS LOG ASCII STANDARD - VERSION 2.0
 WRAP.                 NO:   ONE LINE PER DEPTH STEP
~WELL INFORMATION
#MNEM.UNIT      DATA TYPE    INFORMATION
#----------   ------------   ------------------------------
 STRT.F           34.0000:   START DEPTH
 STOP.F          638.0000:   STOP DEPTH
 STEP.F            0.5000:   STEP LENGTH
 NULL.          -999.2500:   NO VALUE
 COMP. FENIX & SCISSON INC:   COMPANY
 WELL. S N.P.R. #3 #33-34:   WELL
 FLD .             TEAPOT:   FIELD
 LOC .      S34 T39N R78W:   LOCATION
 CNTY.            NATRONA:   COUNTY
 STAT.            WYOMING:   STATE
 CTRY. UNITED STATES OF AMERICA:   COUNTRY
 SRVC.       Schlumberger:   SERVICE COMPANY
 DATE.        18-MAR-1977:   LOGDATE
 API .       490251030400:   API NUMBER
~CURVE INFORMATION
#MNEM.UNIT       API CODE    CURVE DESCRIPTION
#----------   ------------   ------------------------------
 DEPT.F                  :   
 LL8 .OHMM   07 220 08 00:   LATEROLOG-8 RES.
 ILD .OHMM   07 120 46 00:   INDUCTION LOG DEEP
 ILM .OHMM   07 120 44 00:   INDUCTION LOG MEDIUM
 SPR .MV     07 010 01 00:   SPONTANEOUS POTENTIAL
 GRD .GAPI   45 310 01 00:   GAMMA RAY FROM DENSITY LOG
 CALD.IN     45 280 60 00:   CALIPER FROM DENSITY LOG
 RHOB.G/C3   45 350 01 00:   BULK DENSITY
 CORR.G/C3   45 356 01 00:   DENSITY CORRECTION
 DPHI.DEC    45 890 12 00:   DENSITY POROSITY SANDSTONE
~PARAMETER INFORMATION
#MNEM.UNIT          VALUE    DESCRIPTION
#----------   ------------   ------------------------------
 PD  .                 GL:   PERMANENT DATUM
 EPD .F              5081:   ELEVATION PERMANENT DATUM
 LMF .                 KB:   LOG MEASURED FROM
 DAPD.F                 5:   FEET ABOVE PERMANENT DATUM
 DMF .                 KB:   DRILLING MEASURED FROM
 EKB .F              5086:   KELLING BUSHING
 EGL .F              5081:   GROUND LEVEL
 DATE.            3-18-77:   RUN DATE
 RUN .                  1:   RUN NUMBER
 DD  .F               631:   DEPTH DRILLER
 DL  .F               637:   DEPTH LOGGER
 BLI .F               631:   BOTTOM LOG INTERVAL
 TLI .F                45:   TOP LOG INTERVAL
 CS  .IN            8.625:   CASING SIZE
 CBD .F                40:   CASING BOTTOM DRILLER
 CBL .F                45:   CASING BOTTOM LOGGER
 BS  .IN            7.875:   BIT SIZE
 BSD .F               631:   BIT SIZE AT DEPTH
 DFT .            KCL MUD:   DRILLING FLUID TYPE
 DFD .                8.7:   DRILLING FLUID DENSITY
 DFV .                 31:   DRILLING FLUID VISCOSITY
 DFPH.                  8:   DRILLING FLUID PH
 DFL .                8.2:   DRILLING FLUID LOSS
 MSS .                PIT:   MUD SAMPLE SOURCE
 RMS .OHMM            .27:   RESISTIVITY MUD SAMPLE
 MST .F                60:   MUD SAMPLE TEMPERATURE
 RMF .OHMM            .25:   RESISTIVITY MUD FILTRATE SAMPLE
 MFST.F                60:   MUD FILTRATE SAMPLE TEMPERATURE
 MFSS.                  M:   MUD FILTRATE SAMPLE SOURCE
 TCS .HRS            0400:   TIME CURCULATED STOPPED
 TLAB.HRS            0530:   TIME LOGGER AT BOTTOM
 LUN .               7711:   LOGGING UNIT NUMBER
 LUL .               CSPR:   LOGGING UNIT LOCATION
 ENGI.             SAYLER:   RECORDING ENGINEER
 WITN.         STUEBINGER:   WITNESSED BY
 CLNT.            A2DTECH:   CLIENT CODE
 ORIG.        2" 5" PRINT:   ORIGIN OF DATA
 UWI .       490251030400:   UNIQUE WELL ID
 DICO. A2D Technologies, Inc.:   DIGITIZING COMPANY
~OTHER INFORMATION
~A   DEPT      LL8        ILD        ILM        SPR         GRD      CALD       RHOB       CORR       DPHI   
# ...
  435.5000     9.5301     8.6238     8.8514   -45.3679    94.4208     8.5272     2.4783     0.0089     0.1031
  436.0000     9.8230     7.8437     7.7401   -45.4662    92.3212     8.5248     2.4850     0.0053     0.0987
  436.5000    10.0715     7.1346     6.5271   -45.5647    90.6155     8.5225     2.4874     0.0109     0.0966
  437.0000     9.7915     6.4909     5.4998   -45.6618    90.7983     8.5202     2.4859     0.0163     0.0982
  437.5000     8.1315     5.9625     4.9576   -45.7624    94.2321     8.5179     2.4710     0.0217     0.1040
  438.0000     5.5954     5.9941     5.0546   -45.5551    98.3178     8.5155     2.4490     0.0271     0.1124
  438.5000     3.5972     6.0470     5.5809   -45.0242   102.3994     8.5181     2.4269     0.0364     0.1315
  439.0000     4.1262     6.1004     6.1606   -44.4939   106.5279     8.5225     2.4046     0.0635     0.1485
  439.5000     7.2432     6.1542     6.8006   -43.9622   106.9237     8.5269     2.3905     0.0876     0.1563
  440.0000    11.2398     6.2428     7.5071   -43.4341   102.9386     8.5314     2.3815     0.0573     0.1658
  440.5000    10.8263     6.9574     8.2870   -42.9082    97.7327     8.5358     2.3751     0.0094     0.1398
  441.0000    10.4984     7.8922     9.1479   -42.5852    94.9483     8.5403     2.4483     0.0107     0.1065
  441.5000    10.3478     8.9526    10.0664   -42.1695    93.6550     8.5447     2.5011     0.0145     0.0898
  442.0000    10.6207     9.7032    10.4433   -41.9764    93.8501     8.5492     2.5055     0.0183     0.0862
  442.5000    11.2770    10.0664    10.6369   -41.8677    94.0182     8.5536     2.5032     0.0196     0.0864
  443.0000    11.6606    10.0016    10.7351   -41.7655    94.1799     8.5581     2.4992     0.0160     0.0907
  443.5000    10.9866     9.9250    10.8342   -41.6629    94.6119     8.5625     2.4952     0.0113     0.0940
  444.0000    10.7102     9.8831    10.8342   -41.5588    95.1480     8.5670     2.4912     0.0065     0.0966
  444.5000    10.5659    10.6254    11.2398   -41.4619    95.6224     8.5715     2.4872     0.0055     0.0994
  445.0000    10.4235    11.5415    12.1773   -41.1635    95.3505     8.5777     2.4832     0.0136     0.1045
  445.5000    10.3478    12.5366    13.1373   -40.8295    93.6623     8.5886     2.4792     0.0207     0.1065
  446.0000    11.9887    13.6174    14.1729   -40.0672    90.2967     8.5994     2.4730     0.0210     0.1085
  446.5000    13.7678    14.7916    15.2902   -38.8981    84.2332     8.6102     2.4620     0.0214     0.1117
  447.0000    15.8109    16.0669    16.4956   -37.7398    78.2355     8.6210     2.4511     0.0217     0.1161
  447.5000    18.1572    17.4522    17.7960   -36.5756    72.2285     8.6318     2.4403     0.0221     0.1204
  448.0000    20.6118    18.9569    18.1239   -35.4112    66.2217     8.6426     2.4294     0.0231     0.1262
  448.5000    20.9940    20.5914    18.4600   -34.2473    62.0065     8.6534     2.4186     0.0283     0.1351
  449.0000    20.6118    22.3668    18.9759   -33.0834    59.5826     8.6643     2.4074     0.0240     0.1439
  449.5000    18.0227    24.2953    20.2248   -31.9198    57.1610     8.6742     2.3958     0.0176     0.1528
  450.0000    15.3557    26.4219    21.4408   -30.7549    55.2472     8.6769     2.3810     0.0160     0.1678
  450.5000    17.1089    26.0023    22.5953   -29.5820    55.2732     8.6795     2.3513     0.0378     0.1857
  451.0000    21.2161    25.1853    22.5953   -28.3464    56.4145     8.6821     2.3211     0.0326     0.2034
  451.5000    26.9050    24.3213    22.8039   -27.6829    58.1713     8.6848     2.2881     0.0246     0.2197
  452.0000    25.9795    24.3187    23.0144   -27.5178    60.0294     8.6874     2.3103     0.0168     0.2218
  452.5000    24.2462    25.8546    23.2268   -27.4992    61.9003     8.6900     2.3408     0.0115     0.2004
  453.0000    22.5953    27.6233    24.2206   -27.4340    63.7465     8.6927     2.3713     0.0144     0.1698
  453.5000    23.1081    29.5129    25.3615   -27.3714    63.8509     8.6905     2.3696     0.0165     0.1707
  454.0000    23.8475    31.0103    26.5563   -27.3085    62.8135     8.6846     2.3675     0.0165     0.1714
  454.5000    24.6105    32.1524    27.8073   -27.2453    61.4088     8.6787     2.3703     0.0151     0.1699
  455.0000    25.4619    33.3365    29.7664   -27.1823    59.9933     8.6728     2.3731     0.0128     0.1678
  455.5000    30.5917    34.7781    29.7339   -27.1192    59.1758     8.6669     2.3760     0.0104     0.1678
  456.0000    35.9192    36.8046    29.6718   -27.0561    58.7016     8.6609     2.3766     0.0080     0.1666
  456.5000    32.0146    38.9485    29.6098   -26.9931    59.2909     8.6551     2.3763     0.0066     0.1662
  457.0000    28.5345    41.2127    29.5479   -26.9301    60.4052     8.6580     2.3660     0.0097     0.1694
  457.5000    26.1678    43.7841    29.4062   -26.8669    61.5634     8.6672     2.3377     0.0189     0.1844
  458.0000    26.1738    43.7841    28.7371   -26.8040    62.4786     8.6778     2.2946     0.0222     0.2126
  458.5000    25.9923    40.8761    28.0833   -26.7439    62.5330     8.6946     2.2545     0.0164     0.2398
  459.0000    25.8353    38.7813    27.4443   -26.5081    61.1761     8.7111     2.2531     0.0156     0.2408
  459.5000    25.6970    36.7939    26.6550   -26.2048    59.8653     8.7276     2.2551     0.0207     0.2421
  460.0000    24.8821    34.7985    26.6601   -25.9002    58.5184     8.7440     2.2554     0.0227     0.2430
  460.5000    23.8410    34.7985    26.6578   -25.5955    59.1736     8.7605     2.2518     0.0187     0.2424
  461.0000    22.5953    35.4371    26.9688   -25.2911    60.6394     8.7769     2.2560     0.0148     0.2412
  461.5000    24.1334    36.1278    27.3021   -24.9867    62.0936     8.7934     2.2684     0.0110     0.2357
  462.0000    27.2086    36.8320    27.6569   -24.6822    63.5515     8.8099     2.2803     0.0075     0.2254
  462.5000    30.9063    37.5499    27.4931   -24.3778    63.8079     8.8263     2.2864     0.0082     0.2206
  463.0000    30.9025    38.2818    27.2758   -24.0734    62.6264     8.8427     2.2681     0.0114     0.2341
  463.5000    28.4588    39.0279    27.0602   -23.7686    61.4903     8.8592     2.2474     0.0143     0.2445
  464.0000    26.4264    39.2133    26.8465   -23.4638    61.9656     8.8803     2.2256     0.0097     0.2549
  464.5000    26.0927    38.1829    26.6387   -23.1605    62.4664     8.9243     2.2329    -0.0027     0.2598
  465.0000    25.7468    36.8622    26.3979   -22.9445    60.9360     8.9399     2.2445    -0.0019     0.2514
  465.5000    25.2290    35.5872    26.6589   -23.0125    59.5040     8.9525     2.2542     0.0000     0.2449
  466.0000    23.5205    34.7985    28.3850   -23.0734    60.0150     8.9649     2.2502     0.0019     0.2440
  466.5000    21.1861    34.9684    30.2978   -23.1334    60.4508     8.9722     2.2472     0.0037     0.2450
  467.0000    21.9878    35.1197    31.7575   -23.1935    60.8769     8.9725     2.2471     0.0056     0.2454
  467.5000    24.3343    34.1002    31.7540   -23.2545    61.5467     8.9503     2.2546     0.0076     0.2423
  468.0000    26.1735    32.3324    29.8636   -23.3155    62.3228     8.9172     2.2638     0.0142     0.2383
  468.5000    26.1735    32.0023    28.0376   -23.5296    63.0548     8.8837     2.2636     0.0183     0.2357
  469.0000    25.0259    31.9104    26.3277   -23.8967    65.5266     8.8503     2.2640     0.0158     0.2354
  469.5000    23.9038    31.8187    24.7697   -24.2640    68.1833     8.8342     2.2829     0.0128     0.2283
  470.0000    22.8086    31.5997    24.5432   -24.6328    69.9692     8.8369     2.3110     0.0099     0.2118
  470.5000    22.8754    30.8097    24.4311   -25.0013    71.4196     8.8396     2.3393     0.0069     0.1846
  471.0000    22.9425    30.0371    24.1394   -25.3280    72.2260     8.8422     2.3574     0.0066     0.1798
  471.5000    23.0125    29.2823    23.8503   -25.3120    72.3552     8.8448     2.3602     0.0081     0.1778
