~VERSION INFORMATION
 VERS.                2.0:   CWLS LOG ASCII STANDARD - VERSION 2.0
 WRAP.                 NO:   ONE LINE PER DEPTH STEP
~WELL INFORMATION
#MNEM.UNIT      DATA TYPE    INFORMATION
#----------   ------------   ------------------------------
 STRT.F           28.5000:   START DEPTH
 STOP.F          781.0000:   STOP DEPTH
 STEP.F            0.5000:   STEP LENGTH
 NULL.          -999.2500:   NO VALUE
 COMP. FENIX & SCISSON INC:   COMPANY
 WELL. NPR 3 23 SX 14 #23-14:   WELL
 FLD .        TEAPOT DOME:   FIELD
 LOC .      S14 T38N R78W:   LOCATION
 CNTY.            NATRONA:   COUNTY
 STAT.            WYOMING:   STATE
 CTRY. UNITED STATES OF AMERICA:   COUNTRY
 SRVC.            Unknown:   SERVICE COMPANY
 DATE.        13-MAY-1978:   LOGDATE
 API .       490251063400:   API NUMBER
~CURVE INFORMATION
#MNEM.UNIT       API CODE    CURVE DESCRIPTION
#----------   ------------   ------------------------------
 DEPT.F                  :   
 RHOB.G/C3   45 350 01 00:   BULK DENSITY
 DPHI.DEC    45 890 12 00:   DENSITY POROSITY SANDSTONE
 GRD .GAPI   45 310 01 00:   GAMMA RAY FROM DENSITY LOG
 CALD.IN     45 280 60 00:   CALIPER FROM DENSITY LOG
 CORR.G/C3   45 356 01 00:   DENSITY CORRECTION
 SN  .OHMM   05 040 16 00:   SHORT NORMAL 16"
 SPR .MV     05 010 01 00:   SPONTANEOUS POTENTIAL FROM RES.
 ILD .OHMM   05 120 46 00:   INDUCTION LOG DEEP
~PARAMETER INFORMATION
#MNEM.UNIT          VALUE    DESCRIPTION
#----------   ------------   ------------------------------
 PD  .                 GL:   PERMANENT DATUM
 EPD .F              5202:   ELEVATION PERMANENT DATUM
 LMF .                 KB:   LOG MEASURED FROM
 DMF .                 KB:   DRILLING MEASURED FROM
 EKB .F              5206:   KELLING BUSHING
 EGL .F              5202:   GROUND LEVEL
 DATE.          5-13-1978:   RUN DATE
 RUN .                  1:   RUN NUMBER
 DD  .F               785:   DEPTH DRILLER
 DL  .F               776:   DEPTH LOGGER
 BLI .F               770:   BOTTOM LOG INTERVAL
 TLI .F                50:   TOP LOG INTERVAL
 CS  .IN            8.625:   CASING SIZE
 CBD .F                40:   CASING BOTTOM DRILLER
 CBL .F                40:   CASING BOTTOM LOGGER
 BS  .IN            7.875:   BIT SIZE
 BSD .F               785:   BIT SIZE AT DEPTH
 DFT .                KCL:   DRILLING FLUID TYPE
 DFD .                8.6:   DRILLING FLUID DENSITY
 DFV .                 30:   DRILLING FLUID VISCOSITY
 DFPH.                 10:   DRILLING FLUID PH
 DFL .                 14:   DRILLING FLUID LOSS
 MSS .           FLOWLINE:   MUD SAMPLE SOURCE
 RMS .OHMM             .4:   RESISTIVITY MUD SAMPLE
 MST .F                69:   MUD SAMPLE TEMPERATURE
 RMF .OHMM            .36:   RESISTIVITY MUD FILTRATE SAMPLE
 MFST.F                72:   MUD FILTRATE SAMPLE TEMPERATURE
 RMC .OHMM            .56:   RESISTIVITY MUD CAKE
 MCST.F                73:   MUD CAKE SAMPLE TEMPERATURE
 MFSS.               MEAS:   MUD FILTRATE SAMPLE SOURCE
 RMB .OHMM            .35:   RESISTIVITY MUD AT BHT
 BHT .F                79:   BOTTOM HOLE TEMPERATURE
 TCS .HRS               2:   TIME CURCULATED STOPPED
 MRT .F                79:   MAXIMUM RECORDED TEMPERATURE
 LUN .               3006:   LOGGING UNIT NUMBER
 LUL .              CASP.:   LOGGING UNIT LOCATION
 ENGI.             MILLER:   RECORDING ENGINEER
 WITN.           MCGINLEY:   WITNESSED BY
 CLNT.            A2DTECH:   CLIENT CODE
 ORIG.           5" PRINT:   ORIGIN OF DATA
 UWI .       490251063400:   UNIQUE WELL ID
 DICO. A2D Technologies, Inc.:   DIGITIZING COMPANY
~OTHER INFORMATION
~A   DEPT     RHOB       DPHI         GRD      CALD       CORR         SN        SPR        ILD   
# ...
  312.0000     2.4726     0.1122    77.6376     7.3936     0.0312     9.0550   -64.5129     7.4961
  312.5000     2.4680     0.1110    78.1813     7.3104     0.0314     9.0776   -64.5129     7.5647
  313.0000     2.4713     0.1081    77.7204     7.2694     0.0316     9.1002   -64.5132     7.5784
  313.5000     2.4737     0.1062    78.0060     7.2662     0.0318     9.1229   -64.5136     7.6005
  314.0000     2.4643     0.1124    78.2799     7.2636     0.0320     9.1457   -64.5113     7.6226
  314.5000     2.4552     0.1180    78.3957     7.2612     0.0334     9.1690   -64.3760     7.6449
  315.0000     2.4554     0.1236    77.7335     7.2587     0.0360     9.1826   -63.9793     7.6673
  315.5000     2.4501     0.1293    77.5514     7.2563     0.0386     9.0892   -63.5861     7.6896
  316.0000     2.4408     0.1327    77.6150     7.2538     0.0438     9.0214   -63.1887     7.7118
  316.5000     2.4350     0.1182    77.7631     7.2513     0.0533     8.9543   -63.0561     7.6149
  317.0000     2.4473     0.1142    79.1411     7.1963     0.0620     8.8876   -62.9796     7.5203
  317.5000     2.4616     0.1167    81.2335     7.0896     0.0607     8.8514   -63.0023     7.4269
  318.0000     2.4622     0.1191    83.5990     6.9830     0.0538     8.8890   -63.3831     7.3346
  318.5000     2.4569     0.1215    84.9539     6.8764     0.0471     8.9150   -63.7513     7.2435
  319.0000     2.4517     0.1234    83.7931     6.7716     0.0404     8.9336   -64.1226     7.1535
  319.5000     2.4484     0.1211    79.7460     6.6059     0.0412     8.8101   -64.4937     7.0646
  320.0000     2.4514     0.1168    75.9737     6.4380     0.0425     8.6999   -64.3068     6.9768
  320.5000     2.4545     0.1184    78.4491     6.3976     0.0438     8.5911   -64.0764     6.8901
  321.0000     2.4555     0.1217    82.1564     6.5543     0.0451     8.4838   -63.8482     6.8045
  321.5000     2.4530     0.1242    86.2293     6.7101     0.0462     8.3766   -63.6210     6.7190
  322.0000     2.4506     0.1225    86.0454     6.9775     0.0509     8.5320   -63.3937     6.7657
  322.5000     2.4501     0.1145    85.9365     7.2899     0.0630     8.4715   -63.1658     6.8252
  323.0000     2.4636     0.1064    86.1159     7.4070     0.0773     8.3732   -62.9364     6.8851
  323.5000     2.4773     0.0983    86.4763     7.4798     0.0850     8.3000   -62.7360     6.9457
  324.0000     2.4865     0.0948    86.8366     7.5512     0.0888     8.4645   -62.9481     7.0067
  324.5000     2.4957     0.0857    87.0344     7.5859     0.0967     8.6241   -63.1672     7.0683
  325.0000     2.5048     0.0802    86.2996     7.5763     0.1040     8.7866   -63.3843     7.1304
  325.5000     2.5133     0.0922    82.3830     7.5669     0.1000     8.9522   -63.6000     7.1931
  326.0000     2.5085     0.0994    80.8019     7.5576     0.0774     9.1209   -63.8179     7.2563
  326.5000     2.4891     0.0987    79.9271     7.5643     0.0551     9.2675   -63.8167     7.3201
  327.0000     2.4909     0.0971    80.6369     7.6574     0.0472     9.2480   -63.6378     7.3845
  327.5000     2.4939     0.0954    81.0764     7.7318     0.0458     9.2310   -63.4565     7.4494
  328.0000     2.4961     0.0977    81.2894     7.7302     0.0443     9.2140   -63.2749     7.5149
  328.5000     2.4924     0.0998    80.8377     7.7300     0.0498     9.1970   -63.0936     7.5810
  329.0000     2.4887     0.1004    80.9854     7.7300     0.0512     9.1801   -62.9122     7.6477
  329.5000     2.4865     0.1006    81.4306     7.7153     0.0523     9.1632   -62.7299     7.7118
  330.0000     2.4885     0.0983    79.7310     7.6860     0.0534     9.1463   -62.5450     7.6668
  330.5000     2.4905     0.0955    77.6964     7.6559     0.0544     9.1295   -62.6535     7.6140
  331.0000     2.4925     0.0948    78.0581     7.6519     0.0555     9.1127   -62.8041     7.5615
  331.5000     2.4944     0.1004    78.3846     7.6542     0.0525     9.0959   -62.9553     7.5094
  332.0000     2.4901     0.1061    78.2515     7.6567     0.0447     9.0791   -63.1058     7.4577
  332.5000     2.4791     0.1117    77.8708     7.6592     0.0372     9.0624   -63.2562     7.4063
  333.0000     2.4682     0.1173    79.1588     7.6616     0.0320     9.0458   -63.4066     7.3552
  333.5000     2.4572     0.1193    79.9252     7.6641     0.0321     9.0292   -63.5572     7.3046
  334.0000     2.4479     0.1206    78.4330     7.6665     0.0321     9.0162   -63.7073     7.2542
  334.5000     2.4464     0.1204    76.3712     7.6691     0.0320     9.0851   -63.8597     7.2042
  335.0000     2.4490     0.1190    75.5645     7.6507     0.0321     9.1441   -63.8591     7.1653
  335.5000     2.4531     0.1176    77.5634     7.6165     0.0336     9.2036   -63.7692     7.3856
  336.0000     2.4573     0.1162    79.7064     7.5693     0.0400     9.2635   -63.6784     7.5274
  336.5000     2.4614     0.1129    81.6231     7.4815     0.0401     9.3237   -63.5848     7.6719
  337.0000     2.4652     0.1098    79.5100     7.4501     0.0401     9.3844   -63.4039     7.8192
  337.5000     2.4688     0.1068    76.8394     7.4184     0.0407     9.4536   -62.9104     7.9706
  338.0000     2.4724     0.1037    75.9236     7.3753     0.0448     9.5995   -62.4304     8.0880
  338.5000     2.4759     0.1006    75.0737     7.2811     0.0477     9.7477   -61.9517     8.2215
  339.0000     2.4795     0.1019    75.0262     7.1227     0.0446     9.8981   -62.0950     8.3554
  339.5000     2.4812     0.1080    75.4664     6.9513     0.0417    10.0509   -62.2824     8.4917
  340.0000     2.4735     0.1138    76.0973     6.9934     0.0387    10.2060   -62.4669     8.6302
  340.5000     2.4664     0.1148    76.6968     7.0484     0.0361    10.3635   -62.6516     8.7710
  341.0000     2.4643     0.1158    76.8382     7.1058     0.0365    10.5234   -62.7550     8.9140
  341.5000     2.4623     0.1169    78.0279     7.0799     0.0370    10.6858   -62.8091     9.0594
  342.0000     2.4604     0.1180    79.7132     6.8780     0.0374    10.8507   -62.8635     9.2072
  342.5000     2.4584     0.1186    79.9492     6.6748     0.0379    11.0182   -62.9245     9.3574
  343.0000     2.4564     0.1185    78.8582     6.6425     0.0391    11.1882   -62.6069     9.5100
  343.5000     2.4546     0.1181    73.5812     6.6658     0.0434    11.3609   -62.2350     9.6652
  344.0000     2.4528     0.1178    69.5039     6.6894     0.0519    11.4894   -62.1162     9.8228
  344.5000     2.4509     0.1193    69.2562     6.7127     0.0596    11.5722   -62.0980     9.9831
  345.0000     2.4491     0.1253    71.1207     6.7299     0.0658    11.6556   -62.0816    10.1439
  345.5000     2.4473     0.1314    72.8732     6.6977     0.0703    11.7398   -62.0650    10.3516
  346.0000     2.4485     0.1325    72.0810     6.6254     0.0739    11.8261   -62.0482    10.3486
  346.5000     2.4526     0.1257    71.1090     6.5882     0.0863    11.8760   -62.0313    10.2897
  347.0000     2.4510     0.1210    71.2207     6.6321     0.0940    11.5337   -62.0145    10.2153
  347.5000     2.4494     0.1226    71.4292     6.8610     0.0810    11.3221   -61.9977    10.1414
  348.0000     2.4476     0.1251    71.2313     7.0710     0.0685    11.2234   -61.9809    10.0681
  348.5000     2.4458     0.1274    71.0369     7.2243     0.0608    11.1256   -61.9640     9.9953
  349.0000     2.4440     0.1253    70.8427     7.3777     0.0582    11.0351   -61.9468     9.9230
  349.5000     2.4423     0.1217    70.7381     7.5030     0.0605    11.0101   -61.9284     9.8513
  350.0000     2.4479     0.1183    70.9268     7.5477     0.0656    10.9867   -61.9924     9.7801
  350.5000     2.4557     0.1148    71.1924     7.5930     0.0707    10.9633   -62.0652     9.7094
  351.0000     2.4637     0.1083    72.4548     7.6398     0.0749    10.9399   -62.1381     9.6392
  351.5000     2.4717     0.1008    76.6131     7.6500     0.0768    10.8715   -62.2108     9.5695
  352.0000     2.4795     0.0970    77.4622     7.6501     0.0748    10.7889   -62.2835     9.5002
