~VERSION INFORMATION
 VERS.                2.0:   CWLS LOG ASCII STANDARD - VERSION 2.0
 WRAP.                 NO:   ONE LINE PER DEPTH STEP
~WELL INFORMATION
#MNEM.UNIT      DATA TYPE    INFORMATION
#----------   ------------   ------------------------------
 STRT.F           89.0000:   START DEPTH
 STOP.F         2840.5000:   STOP DEPTH
 STEP.F            0.5000:   STEP LENGTH
 NULL.          -999.2500:   NO VALUE
 COMP. U S NAVY/INTEX OIL CO:   COMPANY
 WELL. RES3 TEAPO DOME AX #41-29:   WELL
 FLD .             TEAPOT:   FIELD
 LOC .      S29 T39N R78W:   LOCATION
 CNTY.            NATRONA:   COUNTY
 STAT.            WYOMING:   STATE
 CTRY. UNITED STATES OF AMERICA:   COUNTRY
 SRVC.       Schlumberger:   SERVICE COMPANY
 DATE.        02-JUN-1966:   LOGDATE
 API .       490250945000:   API NUMBER
~CURVE INFORMATION
#MNEM.UNIT       API CODE    CURVE DESCRIPTION
#----------   ------------   ------------------------------
 DEPT.F                  :   
 GRD .GAPI   45 310 01 00:   GAMMA RAY FROM DENSITY LOG
 CALD.IN     45 280 60 00:   CALIPER FROM DENSITY LOG
 DPHI.DEC    45 890 12 00:   DENSITY POROSITY SANDSTONE
 RHOB.G/C3   45 350 01 00:   BULK DENSITY
 CORR.G/C3   45 356 01 00:   DENSITY CORRECTION
 SPR .MV     05 010 01 00:   SPONTANEOUS POTENTIAL FROM RES.
 ASN .OHMM   05 041 16 00:   AMPLIFIED SHORT NORMAL 16"
 ILD .OHMM   05 120 46 00:   INDUCTION LOG DEEP
 CILD.MMHO   05 110 46 00:   CONDUCTIVITY INDUCTION LOG DEEP
~PARAMETER INFORMATION
#MNEM.UNIT          VALUE    DESCRIPTION
#----------   ------------   ------------------------------
 PD  .                 GL:   PERMANENT DATUM
 EPD .F              5007:   ELEVATION PERMANENT DATUM
 LMF .                 KB:   LOG MEASURED FROM
 DAPD.F              10.3:   FEET ABOVE PERMANENT DATUM
 DMF .                 KB:   DRILLING MEASURED FROM
 EKB .F            5017.3:   KELLING BUSHING
 EGL .F              5007:   GROUND LEVEL
 DATE.             6-2-66:   RUN DATE
 RUN .                  1:   RUN NUMBER
 DD  .F              2840:   DEPTH DRILLER
 DL  .F              2838:   DEPTH LOGGER
 BLI .F              2837:   BOTTOM LOG INTERVAL
 TLI .F                88:   TOP LOG INTERVAL
 CS  .IN            10.75:   CASING SIZE
 CBD .F                30:   CASING BOTTOM DRILLER
 BS  .IN            7.875:   BIT SIZE
 BSD .F              2840:   BIT SIZE AT DEPTH
 DFT .  LIGNO-SULFATE LCM:   DRILLING FLUID TYPE
 DFD .                9.9:   DRILLING FLUID DENSITY
 DFV .                 48:   DRILLING FLUID VISCOSITY
 DFPH.                7.6:   DRILLING FLUID PH
 DFL .                8.1:   DRILLING FLUID LOSS
 MSS .         CIRCULATED:   MUD SAMPLE SOURCE
 RMS .OHMM           1.62:   RESISTIVITY MUD SAMPLE
 MST .F                73:   MUD SAMPLE TEMPERATURE
 RMF .OHMM           1.06:   RESISTIVITY MUD FILTRATE SAMPLE
 MFST.F                72:   MUD FILTRATE SAMPLE TEMPERATURE
 MFSS.                 FP:   MUD FILTRATE SAMPLE SOURCE
 RMB .OHMM           1.13:   RESISTIVITY MUD AT BHT
 BHT .F               105:   BOTTOM HOLE TEMPERATURE
 TCS .HRS               2:   TIME CURCULATED STOPPED
 MRT .F               105:   MAXIMUM RECORDED TEMPERATURE
 LUN .               4507:   LOGGING UNIT NUMBER
 LUL .               CSPR:   LOGGING UNIT LOCATION
 ENGI.               HAUG:   RECORDING ENGINEER
 WITN.             TUTTLE:   WITNESSED BY
 CLNT.            A2DTECH:   CLIENT CODE
 ORIG.        2" 5" PRINT:   ORIGIN OF DATA
 UWI .       490250945000:   UNIQUE WELL ID
 DICO. A2D Technologies, Inc.:   DIGITIZING COMPANY
~OTHER INFORMATION
~A   DEPT      GRD       CALD       DPHI       RHOB       CORR        SPR          ASN      ILD        CILD  
# ...
 2753.5000   113.1886     8.5030     0.0995     2.4826     0.0005   -31.1613    10.3357     7.0207   145.8055
 2754.0000   105.8582     8.4564     0.1002     2.4857     0.0076   -31.6698    10.5395     7.5223   136.6063
 2754.5000    93.7929     8.4098     0.0950     2.4972     0.0135   -32.3299    11.0390     8.3033   124.8538
 2755.0000    82.0235     8.3632     0.0900     2.5086     0.0093   -33.5342    12.2378     9.0085   113.0758
 2755.5000    72.2130     8.3165     0.0830     2.5106     0.0108   -34.9838    13.8986    10.1662   101.2817
 2756.0000    67.9851     8.2701     0.0886     2.5035     0.0144   -36.8320    15.7343    11.3809    89.2802
 2756.5000    63.4293     8.2146     0.0855     2.5046     0.0181   -40.7438    18.6939    13.3151    73.9333
 2757.0000    60.4940     8.1558     0.0822     2.5131     0.0232   -44.7189    22.4475    17.4291    59.9651
 2757.5000    58.9948     8.0968     0.0996     2.5029     0.0217   -48.2153    26.1607    21.7417    49.4506
 2758.0000    55.4839     8.0374     0.1226     2.4818     0.0181   -50.6205    29.9005    25.4641    41.4785
 2758.5000    51.9664     7.9626     0.1456     2.4410     0.0536   -52.3483    33.6408    30.1328    34.2058
 2759.0000    51.1486     7.8272     0.1617     2.3976     0.0443   -54.3768    38.0420    34.2620    28.4715
 2759.5000    52.3163     7.6929     0.1748     2.3587     0.0303   -57.4243    39.2496    36.5830    27.2915
 2760.0000    53.7537     7.6728     0.1878     2.3458     0.0159   -60.3478    39.6082    36.2851    26.3174
 2760.5000    54.3945     7.6731     0.1949     2.3325     0.0086   -61.7415    40.2459    35.4754    25.4745
 2761.0000    52.8449     7.6733     0.1985     2.3201     0.0044   -63.0177    40.1243    34.7347    26.6206
 2761.5000    50.0252     7.6733     0.1991     2.3228     0.0070   -63.3327    39.9569    34.0486    27.6307
 2762.0000    48.9991     7.6733     0.1970     2.3256     0.0105   -63.5253    39.7946    33.2419    28.6408
 2762.5000    51.8769     7.6733     0.1984     2.3239     0.0141   -63.6711    39.6322    32.7518    29.6509
 2763.0000    54.8552     7.6733     0.2020     2.3195     0.0109   -64.1060    39.4699    32.1514    30.6610
 2763.5000    57.8411     7.6733     0.2020     2.3187     0.0066   -64.5375    39.3076    32.2460    31.6711
 2764.0000    60.8827     7.6733     0.2006     2.3216     0.0023   -64.3300    39.2108    32.3411    32.4675
 2764.5000    65.4804     7.6733     0.1954     2.3347     0.0049   -64.1917    39.1352    32.6426    31.4993
 2765.0000    71.2928     7.6733     0.1848     2.3477     0.0134   -64.4780    39.1109    33.1722    30.7001
 2765.5000    77.0571     7.6733     0.1741     2.3611     0.0217   -64.6610    39.5302    33.6907    29.9009
 2766.0000    82.8265     7.6733     0.1666     2.3743     0.0241   -64.7876    39.8916    34.1706    29.1017
 2766.5000    88.5920     7.6733     0.1602     2.3879     0.0089   -65.1249    40.2603    34.0859    28.4715
 2767.0000    90.6705     7.6733     0.1566     2.3959    -0.0012   -64.6770    40.6842    33.9266    29.2268
 2767.5000    77.5757     7.6733     0.1574     2.3902     0.0065   -64.3876    40.9428    33.7400    29.8501
 2768.0000    62.3399     7.6733     0.1599     2.3786     0.0137   -64.2100    40.7396    33.5458    30.4735
 2768.5000    54.5701     7.6733     0.1570     2.3671     0.0181   -64.2610    39.6253    33.1763    31.0969
 2769.0000    52.4626     7.6733     0.1840     2.3556     0.0095   -64.5510    38.6223    31.9414    31.9347
 2769.5000    54.8372     7.6733     0.1909     2.3442     0.0067   -64.3845    37.6011    30.4877    33.0891
 2770.0000    57.7790     7.6733     0.1892     2.3391     0.0046   -64.4123    36.5794    28.4719    34.2435
 2770.5000    56.0931     7.6733     0.1840     2.3475     0.0044   -64.5216    35.5557    26.4592    35.4645
 2771.0000    52.7976     7.6733     0.1789     2.3558     0.0081   -64.6375    34.5098    25.8412    37.4226
 2771.5000    51.9801     7.6733     0.1737     2.3638     0.0123   -64.7467    34.0365    25.8723    39.4605
 2772.0000    53.9754     7.6737     0.1648     2.3707     0.0166   -64.8693    33.3170    26.8031    37.7900
 2772.5000    53.7141     7.6744     0.1469     2.4120     0.0156   -64.9155    33.4791    27.9638    35.7698
 2773.0000    55.8783     7.6752     0.1286     2.4478     0.0104   -64.5075    34.0767    29.6094    33.7033
 2773.5000    58.1927     7.6759     0.1104     2.4828     0.0076   -64.0821    35.8096    29.1370    32.4244
 2774.0000    60.5005     7.6766     0.0839     2.5079     0.0153   -63.7598    37.9258    27.9256    34.5855
 2774.5000    62.7969     7.6774     0.1007     2.5026     0.0237   -63.7769    40.5290    26.3276    36.8023
 2775.0000    65.1190     7.6781     0.1332     2.4485     0.0286   -63.5836    40.1826    24.3818    39.0402
 2775.5000    65.0599     7.6788     0.1655     2.3821     0.0162   -62.9961    37.0335    22.5299    42.1144
 2776.0000    63.9701     7.6795     0.1953     2.3283     0.0035   -62.4148    32.9259    20.5686    46.8843
 2776.5000    67.9147     7.6803     0.2076     2.3098     0.0041   -61.7974    28.8874    18.0356    50.6140
 2777.0000    72.8112     7.6810     0.2020     2.3173     0.0121   -61.4589    25.2737    15.0653    60.7483
 2777.5000    77.7104     7.6817     0.1978     2.3232     0.0180   -61.1182    22.1279    13.7007    69.2489
 2778.0000    82.1441     7.6824     0.2023     2.3245     0.0126   -60.6272    20.5295    12.3975    77.7495
 2778.5000    81.8886     7.6832     0.2077     2.3103     0.0068   -60.0511    19.6728    11.6632    86.4136
 2779.0000    73.2508     7.6839     0.2132     2.2969     0.0009   -59.3540    18.7637    11.0782    86.6683
 2779.5000    67.0158     7.6846     0.2154     2.3020     0.0003   -58.9138    17.7323    11.0358    86.9281
 2780.0000    65.0109     7.6854     0.2076     2.3114     0.0043   -58.4721    17.2827    11.0029    87.1878
 2780.5000    64.9197     7.6861     0.2020     2.3209     0.0083   -58.1985    17.1329    10.9903    87.4126
 2781.0000    65.5588     7.6868     0.1963     2.3303     0.0123   -58.2773    17.7059    10.9636    88.7224
 2781.5000    66.1788     7.6875     0.1886     2.3396     0.0163   -57.6856    18.1996    10.9508    89.8768
 2782.0000    66.3252     7.6883     0.1938     2.3424     0.0203   -56.4741    18.9244    10.9230    91.0312
 2782.5000    64.4829     7.6890     0.1910     2.3326     0.0243   -56.3689    18.6134    10.6120    92.1856
 2783.0000    63.7894     7.6897     0.1961     2.3229     0.0282   -57.0892    17.4511    10.2603    93.4066
 2783.5000    66.5082     7.6905     0.2041     2.3133     0.0214   -57.5160    16.2892     9.9154    98.5593
 2784.0000    68.7962     7.6912     0.2085     2.3143     0.0135   -57.3506    15.1498     9.5671   104.0275
 2784.5000    70.5228     7.6919     0.1936     2.3391     0.0184   -57.2287    14.3722     9.2221   109.6074
 2785.0000    71.5608     7.6925     0.1822     2.3521     0.0258   -56.9773    13.4302     8.8588   114.7528
 2785.5000    71.8955     7.6939     0.1824     2.3479     0.0231   -56.1704    12.4867     8.5734   119.0941
 2786.0000    72.1988     7.7178     0.1886     2.3438     0.0132   -55.1427    11.5462     8.2725   123.4272
 2786.5000    73.7185     7.7434     0.1862     2.3406     0.0075   -53.2870    10.8375     8.0187   127.7631
 2787.0000    75.6163     7.7688     0.1875     2.3460     0.0096   -51.4591    10.3259     7.7541   132.1094
 2787.5000    78.8416     7.7942     0.1802     2.3516     0.0125   -49.8754    10.1151     7.5195   136.4642
 2788.0000    82.1811     7.8196     0.1835     2.3416     0.0075   -48.1783    10.0093     7.2819   140.8261
 2788.5000    85.5689     7.8452     0.1890     2.3522     0.0023   -46.2558     9.2791     7.0495   145.1914
 2789.0000    88.9689     7.8578     0.1800     2.3669     0.0050   -44.3043     9.1539     6.8761   149.5592
 2789.5000    93.3312     7.8642     0.1663     2.3822     0.0146   -42.1317     8.8876     6.7088   153.9229
