~VERSION INFORMATION
 VERS.                2.0:   CWLS LOG ASCII STANDARD - VERSION 2.0
 WRAP.                 NO:   ONE LINE PER DEPTH STEP
~WELL INFORMATION
#MNEM.UNIT      DATA TYPE    INFORMATION
#----------   ------------   ------------------------------
 STRT.F           32.0000:   START DEPTH
 STOP.F          662.0000:   STOP DEPTH
 STEP.F            0.5000:   STEP LENGTH
 NULL.          -999.2500:   NO VALUE
 COMP.    FENIX & SCISSON:   COMPANY
 WELL.   NPR 67SX34 #3-34:   WELL
 FLD .             TEAPOT:   FIELD
 LOC .      S34 T39N R78W:   LOCATION
 CNTY.            NATRONA:   COUNTY
 STAT.            WYOMING:   STATE
 CTRY. UNITED STATES OF AMERICA:   COUNTRY
 SRVC.            Unknown:   SERVICE COMPANY
 DATE.        03-SEP-1978:   LOGDATE
 API .       490251070500:   API NUMBER
~CURVE INFORMATION
#MNEM.UNIT       API CODE    CURVE DESCRIPTION
#----------   ------------   ------------------------------
 DEPT.F                  :   
 ILD .OHMM   05 120 46 00:   INDUCTION LOG DEEP
 SN  .OHMM   05 040 00 00:   SHORT NORMAL
 SPR .MV     05 010 01 00:   SPONTANEOUS POTENTIAL FROM RES.
 CALD.IN     45 280 60 00:   CALIPER FROM DENSITY LOG
 DEN .G/C3   45 350 01 00:   COMPENSATED BULK DENSTIY
 DPHI.DEC    45 890 12 00:   DENSITY POROSITY SANDSTONE
 DRHO.G/C3   45 356 01 00:   DENSITY CORRECTION
 GRD .GAPI   45 310 01 00:   GAMMA RAY FROM DENSITY LOG
~PARAMETER INFORMATION
#MNEM.UNIT          VALUE    DESCRIPTION
#----------   ------------   ------------------------------
 PD  .                 GL:   PERMANENT DATUM
 EPD .F              5076:   ELEVATION PERMANENT DATUM
 LMF .                 KB:   LOG MEASURED FROM
 DAPD.F                 4:   FEET ABOVE PERMANENT DATUM
 DMF .                 KB:   DRILLING MEASURED FROM
 EKB .F              5080:   KELLING BUSHING
 EGL .F              5076:   GROUND LEVEL
 DATE.        03-SEP-1978:   RUN DATE
 RUN .                  1:   RUN NUMBER
 DD  .F               660:   DEPTH DRILLER
 DL  .F               662:   DEPTH LOGGER
 BLI .F               662:   BOTTOM LOG INTERVAL
 TLI .F                40:   TOP LOG INTERVAL
 CS  .IN            8.625:   CASING SIZE
 CBD .F                40:   CASING BOTTOM DRILLER
 BS  .IN            7.875:   BIT SIZE
 BSD .F               660:   BIT SIZE AT DEPTH
 DFT .                KCL:   DRILLING FLUID TYPE
 DFD .                9.0:   DRILLING FLUID DENSITY
 DFV .                 34:   DRILLING FLUID VISCOSITY
 MSS .           FLOWLINE:   MUD SAMPLE SOURCE
 RMS .OHMM            1.4:   RESISTIVITY MUD SAMPLE
 MST .F                65:   MUD SAMPLE TEMPERATURE
 RMF .OHMM            3.2:   RESISTIVITY MUD FILTRATE SAMPLE
 MFST.F                77:   MUD FILTRATE SAMPLE TEMPERATURE
 RMC .OHMM            2.1:   RESISTIVITY MUD CAKE
 MCST.F                78:   MUD CAKE SAMPLE TEMPERATURE
 MFSS.               MEAS:   MUD FILTRATE SAMPLE SOURCE
 TCS .HRS               1:   TIME CURCULATED STOPPED
 LUN .               3006:   LOGGING UNIT NUMBER
 LUL .               CASP:   LOGGING UNIT LOCATION
 ENGI.             MILLER:   RECORDING ENGINEER
 WITN.           MCGINLEY:   WITNESSED BY
 CLNT.            A2DTECH:   CLIENT CODE
 ORIG.        2" 5" PRINT:   ORIGIN OF DATA
 UWI .       490251070500:   UNIQUE WELL ID
 DICO. A2D Technologies, Inc.:   DIGITIZING COMPANY
~OTHER INFORMATION
~A   DEPT      ILD         SN        SPR       CALD        DEN       DPHI       DRHO         GRD  
# ...
  396.5000     6.7042     6.8199   -14.6073     7.7880     2.4880     0.1389    -0.0029    87.6229
  397.0000     6.6584     6.8215   -14.4541     7.7884     2.4647     0.1452    -0.0059    86.4593
  397.5000     6.6062     6.8702   -14.1498     7.7888     2.4610     0.1453    -0.0104    85.5666
  398.0000     6.4778     6.8715   -13.9966     7.7893     2.4595     0.1485    -0.0120    87.2073
  398.5000     6.3452     6.8732   -13.8433     7.7897     2.4572     0.1440    -0.0090    90.7852
  399.0000     6.3019     6.8745   -13.9909     7.8051     2.4550     0.1257    -0.0060    89.7438
  399.5000     6.3460     6.9236   -13.8376     7.8205     2.4647     0.1197    -0.0030    87.8078
  400.0000     6.4795     6.9249   -13.6837     7.8061     2.5000     0.1224     0.0075    93.9195
  400.5000     6.6153     6.7817   -14.1327     7.7768     2.4978     0.1278     0.0015    94.3709
  401.0000     6.7074     6.7342   -14.4299     7.7774     2.4903     0.1380    -0.0031    94.3764
  401.5000     6.6612     6.7333   -15.1790     7.7629     2.4767     0.1476    -0.0063    95.4239
  402.0000     6.4795     6.6400   -15.4769     7.7636     2.4640     0.1530    -0.0077    98.4089
  402.5000     6.1620     6.4962   -15.6244     7.7791     2.4527     0.1578    -0.0092    98.2641
  403.0000     5.6818     6.2811   -15.4705     7.7797     2.4429     0.1572    -0.0093    97.2253
  403.5000     5.4509     6.0670   -15.4677     7.8103     2.4422     0.1584    -0.0063    92.6096
  404.0000     5.1933     5.8199   -15.4641     7.8258     2.4445     0.1617     0.0011    91.4217
  404.5000     4.9809     5.6970   -15.4613     7.8413     2.4370     0.1710     0.0086    92.3213
  405.0000     4.8800     5.5819   -15.1577     7.8268     2.4280     0.1845     0.0146    93.6669
  405.5000     4.8800     5.5427   -14.7037     7.8126     2.4196     0.1943     0.0235    94.8635
  406.0000     4.8800     5.5038   -13.6475     7.7833     2.3770     0.1782     0.0355    96.8052
  406.5000     4.9138     5.5413   -13.9454     7.7689     2.4210     0.1593     0.1240    99.4921
  407.0000     4.9823     5.6564   -14.0937     7.7547     2.4461     0.1716     0.0594   100.9867
  407.5000     5.0516     5.8545   -14.2406     7.7553     2.4048     0.1527     0.0233   100.2459
  408.0000     5.0516     5.8134   -14.5564     7.7408     2.4483     0.1608     0.0068    93.9810
  408.5000     5.0168     5.6934   -14.8363     7.7415     2.4468     0.1605    -0.0008    91.9088
  409.0000     5.0168     5.5705   -14.9839     7.7421     2.4423     0.1677    -0.0023    94.2987
  409.5000     4.9823     5.4985   -14.9803     7.7725     2.4371     0.1758    -0.0054    95.6443
  410.0000     4.9479     5.5360   -14.9774     7.7582     2.4251     0.1920    -0.0084    94.1583
  410.5000     4.9479     5.5351   -14.9739     7.7440     2.4005     0.2178    -0.0100    94.3117
  411.0000     4.9479     5.5344   -14.6704     7.7446     2.3575     0.2196    -0.0085    94.9121
  411.5000     4.9138     5.5335   -13.9156     7.7452     2.3470     0.2196    -0.0055    96.8738
  412.0000     4.9138     5.6489   -13.1589     7.7607     2.3515     0.2169     0.0094    97.6034
  412.5000     4.9479     5.8465   -12.8566     7.7762     2.4289     0.1698     0.0679    96.2675
  413.0000     5.0516     6.0512   -12.8538     7.7767     2.4409     0.1266     0.0243    93.1422
  413.5000     5.2744     6.3500   -12.8509     7.7922     2.4359     0.1326     0.0153    92.5493
  414.0000     5.8009     6.4824   -13.4496     7.7480     2.4739     0.1413     0.0092    90.9153
  414.5000     6.1308     6.4367   -13.7468     7.7337     2.4685     0.1422     0.0062    92.1119
  415.0000     6.0885     6.3475   -13.8950     7.7344     2.4657     0.1416     0.0062    93.9046
  415.5000     5.9225     6.3410   -13.5907     7.7350     2.4680     0.1397     0.0046    95.8464
  416.0000     5.7609     6.2155   -13.1368     7.7505     2.4687     0.1365     0.0046    90.6357
  416.5000     5.6426     6.1294   -12.6612     7.7660     2.4702     0.1359     0.0060    90.6400
  417.0000     5.4509     6.0028   -12.2281     7.7815     2.4710     0.1377     0.0075    90.1972
  417.5000     5.2293     5.9197   -12.0749     7.7821     2.4695     0.1410     0.0074    89.6043
  418.0000     5.0867     5.8375   -12.2225     7.7679     2.4627     0.1476     0.0059    90.9510
  418.5000     5.0516     5.7965   -12.0692     7.7834     2.4549     0.1659     0.0043    93.9360
  419.0000     5.0516     5.7559   -11.7649     7.7839     2.4402     0.1797     0.0043    95.6096
  419.5000     5.0516     5.7551   -11.6120     7.7845     2.4140     0.1812     0.0042    97.2244
  420.0000     5.1599     5.7943   -11.4583     7.7851     2.4080     0.1635     0.0112    99.4642
  420.5000     5.3760     5.9557   -11.1549     7.7857     2.4380     0.1479     0.0447    99.7655
  421.0000     5.7212     6.2500   -11.1514     7.7863     2.4470     0.1377     0.0161    95.7471
  421.5000     6.0885     6.7426   -11.1485     7.7721     2.4643     0.1362     0.0026    92.7708
  422.0000     6.4795     7.1803   -11.1457     7.7428     2.4718     0.1383    -0.0020    90.5396
  422.5000     6.9916     7.6334   -11.1428     7.7283     2.4718     0.1392    -0.0020    89.7988
  423.0000     7.3892     7.8463   -11.1393     7.6992     2.4711     0.1392    -0.0036    90.1212
  423.5000     7.4921     8.0095   -11.1365     7.6997     2.4718     0.1367    -0.0021    88.9144
  424.0000     7.3892     7.9533   -11.2847     7.7152     2.4726     0.1359    -0.0022    87.2783
  424.5000     7.2824     7.8973   -11.2812     7.7457     2.4733     0.1392    -0.0022    88.9230
  425.0000     7.1876     7.8963   -11.2776     7.7313     2.4718     0.1374    -0.0038    89.9706
  425.5000     7.1876     7.8409   -11.4258     7.7320     2.4711     0.1347    -0.0038    88.6336
  426.0000     7.1876     7.7859   -11.5734     7.7326     2.4734     0.1314    -0.0023    88.7870
  426.5000     7.1876     7.7310   -11.7203     7.7481     2.4764     0.1281    -0.0009    89.6855
  427.0000     7.1876     7.6768   -11.7173     7.7338     2.4801     0.1260     0.0021    89.0948
  427.5000     7.1876     7.6229   -11.5634     7.7045     2.4861     0.1258     0.0035    88.3539
  428.0000     7.1876     7.6219   -11.1095     7.6901     2.4914     0.1206     0.0035    87.7621
  428.5000     7.1876     7.6209   -10.8059     7.7057     2.4937     0.1254     0.0034    87.6163
  429.0000     7.1876     7.5672   -10.5023     7.7213     2.4929     0.1260     0.0019    88.6650
  429.5000     7.0889     7.5662   -10.4987     7.7070     2.4914     0.1314     0.0018    90.9048
  430.0000     7.0889     7.5652   -10.6470     7.7075     2.4850     0.1371     0.0018    91.3562
  430.5000     7.0889     7.5642   -10.9449     7.6930     2.4734     0.1368     0.0018    87.1084
  431.0000     7.0889     7.6157   -11.0927     7.7087     2.4704     0.1269     0.0032    86.2978
  431.5000     7.1381     7.6144   -11.3896     7.7093     2.4772     0.1290     0.0032    86.8993
  432.0000     7.1876     7.6134   -11.5372     7.7248     2.4840     0.1251     0.0061    90.6294
  432.5000     7.2877     7.6652   -11.6847     7.7404     2.4907     0.1218     0.0076    92.1230
  433.0000     7.3892     7.6640   -11.8316     7.7559     2.4952     0.1194     0.0060    89.5948
  433.5000     7.3383     7.6630   -11.9791     7.7414     2.4998     0.1266     0.0030    85.5753
  434.0000     7.0401     7.6092   -12.1266     7.7421     2.4881     0.1308    -0.0001    83.1952
  434.5000     6.8008     7.4521   -12.2742     7.7427     2.4810     0.1326    -0.0033    82.6044
  435.0000     6.6153     7.1932   -12.4211     7.7582     2.4780     0.1398    -0.0047    79.3301
  435.5000     5.7139     6.8099   -12.2677     7.7588     2.4690     0.1486    -0.0047    78.5882
  436.0000     5.4133     6.3545   -11.9635     7.7595     2.4562     0.1692    -0.0048    78.8916
  436.5000     5.3022     6.0536   -11.6599     7.7302     2.4315     0.1926    -0.0048    81.2805
