~VERSION INFORMATION
 VERS.                2.0:   CWLS LOG ASCII STANDARD - VERSION 2.0
 WRAP.                 NO:   ONE LINE PER DEPTH STEP
~WELL INFORMATION
#MNEM.UNIT      DATA TYPE    INFORMATION
#----------   ------------   ------------------------------
 STRT.F            0.0000:   START DEPTH
 STOP.F          504.0000:   STOP DEPTH
 STEP.F            0.5000:   STEP LENGTH
 NULL.          -999.2500:   NO VALUE
 COMP.   FLUOR DANIEL INC:   COMPANY
 WELL. NAVAL PETROLEUM RESERVE 3 SX-1 #3-10:   WELL
 FLD .          N.P.R. #3:   FIELD
 LOC .      S10 T38N R78W:   LOCATION
 CNTY.            NATRONA:   COUNTY
 STAT.            WYOMING:   STATE
 CTRY. UNITED STATES OF AMERICA:   COUNTRY
 SRVC.      Western Atlas:   SERVICE COMPANY
 DATE.        22-SEP-1994:   LOGDATE
 API .       490252265600:   API NUMBER
~CURVE INFORMATION
#MNEM.UNIT       API CODE    CURVE DESCRIPTION
#----------   ------------   ------------------------------
 DEPT.F                  :   
 GRR .GAPI   07 310 01 00:   GAMMA RAY FROM RES. LOG.
 RILD.OHMM   07 120 46 00:   INDUCTION LOG DEEP RESISTIVITY
 RILM.OHMM   07 120 44 00:   INDUCTION LOG MEDIUM RESISTIVITY
~PARAMETER INFORMATION
#MNEM.UNIT          VALUE    DESCRIPTION
#----------   ------------   ------------------------------
 PD  .                 GL:   PERMANENT DATUM
 EPD .F              5168:   ELEVATION PERMANENT DATUM
 LMF .                 KB:   LOG MEASURED FROM
 DAPD.F                10:   FEET ABOVE PERMANENT DATUM
 DMF .                 KB:   DRILLING MEASURED FROM
 EKB .F              5178:   KELLING BUSHING
 EDF .F              5177:   DRILLING FLOOR
 EGL .F              5168:   GROUND LEVEL
 DATE.        22-SEP-1994:   RUN DATE
 RUN .                  1:   RUN NUMBER
 DD  .F               510:   DEPTH DRILLER
 DL  .F               512:   DEPTH LOGGER
 BLI .F               504:   BOTTOM LOG INTERVAL
 CS  .IN            9.625:   CASING SIZE
 CBD .F                55:   CASING BOTTOM DRILLER
 CBL .F                55:   CASING BOTTOM LOGGER
 BS  .IN             8.75:   BIT SIZE
 BSD .F               510:   BIT SIZE AT DEPTH
 DFT .                AIR:   DRILLING FLUID TYPE
 MRT .F                83:   MAXIMUM RECORDED TEMPERATURE
 LUN .            HL 6530:   LOGGING UNIT NUMBER
 LUL .             CASPER:   LOGGING UNIT LOCATION
 ENGI.      PAT RASMUSSEN:   RECORDING ENGINEER
 WITN.        GARY STRONG:   WITNESSED BY
 CLNT.            A2DTECH:   CLIENT CODE
 ORIG.           5" PRINT:   ORIGIN OF DATA
 UWI .       490252265600:   UNIQUE WELL ID
 DICO. A2D Technologies, Inc.:   DIGITIZING COMPANY
~OTHER INFORMATION
~A    DEPT      GRR      RILD       RILM   
# ...
  364.0000    94.8391    12.4445    12.7943
  364.5000    99.4434    12.3934    12.7417
  365.0000   100.9166    12.2592    12.6042
  365.5000   100.4537    12.0617    12.4009
  366.0000    99.1142    11.8674    12.2010
  366.5000    97.7598    11.6763    12.0044
  367.0000    97.4040    11.4882    11.8110
  367.5000    97.7451    11.3031    11.6208
  368.0000    97.3770    11.1211    11.4336
  368.5000    95.6611    10.9419    11.2494
  369.0000    94.0660    10.7657    11.0682
  369.5000    95.2581    10.5922    10.8899
  370.0000    97.7802    10.4216    10.7145
  370.5000   100.2994    10.2840    10.5730
  371.0000   101.0852    10.2944    10.5837
  371.5000   100.9273    10.3033    10.5928
  372.0000   101.1876    10.3121    10.6019
  372.5000   102.2057    10.3210    10.6110
  373.0000   103.2102    10.3298    10.6201
  373.5000   104.2102    10.3387    10.6292
  374.0000   104.3648    10.3475    10.6383
  374.5000   102.9158    10.3565    10.6475
  375.0000   101.1294    10.3653    10.6566
  375.5000    98.8519    10.3750    10.6665
  376.0000    98.8282    10.3786    10.6702
  376.5000   100.1925    10.2841    10.5731
  377.0000    99.2604    10.2915    10.4762
  377.5000    97.6123    10.0585    10.3396
  378.0000    96.0319     9.8827    10.1305
  378.5000    96.7732     9.7100     9.9310
  379.0000    98.6889     9.5403     9.7346
  379.5000   100.6201     9.3736     9.5420
  380.0000   102.5583     9.2098     9.3532
  380.5000   104.5191     9.0488     9.1681
  381.0000   104.6118     8.8906     8.9867
  381.5000   105.4220     8.7353     8.8088
  382.0000   107.8010     8.5983     8.7086
  382.5000   110.0034     8.5491     8.7284
  383.0000   109.6535     8.6041     8.8154
  383.5000   107.6973     8.7026     8.9033
  384.0000   107.6364     8.7000     9.0364
  384.5000   107.6178     9.3422     9.7914
  385.0000   106.0947    10.0400    10.7775
  385.5000   102.5175    10.7943    11.8628
  386.0000    99.0746    11.6053    13.0575
  386.5000    92.6089    12.5758    14.3725
  387.0000    85.7547    14.0101    15.8199
  387.5000    78.8682    15.5936    17.4130
  388.0000    71.9961    17.3566    19.1666
  388.5000    71.8873    19.1927    20.5011
  389.0000    74.4504    20.9455    21.5341
  389.5000    75.5728    20.5848    21.1717
  390.0000    75.1944    20.0476    20.6117
  390.5000    78.3125    19.5243    20.0724
  391.0000    81.4531    19.0147    19.5491
  391.5000    83.7797    18.7308    19.2399
  392.0000    82.3838    18.6947    19.1658
  392.5000    80.6013    18.6589    19.0921
  393.0000    79.3602    18.6244    19.0186
  393.5000    79.1552    18.5838    18.9454
  394.0000    77.3204    18.2071    18.5466
  394.5000    76.2393    17.6749    18.0045
  395.0000    77.3858    17.1582    17.4781
  395.5000    79.0042    16.6566    16.9672
  396.0000    80.6823    16.1697    16.4712
  396.5000    83.4830    15.6970    15.9897
  397.0000    85.3447    15.2381    15.5223
  397.5000    86.2499    14.7927    15.0686
  398.0000    86.4335    14.6090    14.8814
  398.5000    85.9168    14.6090    14.8814
  399.0000    86.3229    14.6461    14.9192
  399.5000    89.8300    14.6995    14.9737
  400.0000    92.5450    14.7532    15.0284
  400.5000    92.6818    14.8071    15.0833
  401.0000    89.6862    14.8612    15.1383
  401.5000    86.6425    14.9155    15.1936
  402.0000    85.6517    14.9700    15.2491
  402.5000    86.5146    15.0247    15.3049
  403.0000    87.6903    15.0798    15.3610
  403.5000    87.5444    15.1589    15.4416
  404.0000    87.0456    15.1343    15.4165
  404.5000    86.5270    15.0903    15.3717
  405.0000    86.7132    15.0465    15.3270
  405.5000    87.4006    14.9469    15.2190
  406.0000    88.2898    14.7598    15.0115
  406.5000    86.4673    14.5750    14.8068
  407.0000    84.1203    14.3925    14.6049
  407.5000    82.1658    14.2123    14.4058
  408.0000    85.4967    14.0344    14.2093
  408.5000    89.3831    13.8587    14.0156
  409.0000    92.4209    13.6852    13.8245
  409.5000    92.3620    13.5139    13.6360
  410.0000    92.3692    13.3447    13.4500
  410.5000    92.8176    13.1776    13.2666
  411.0000    93.2592    13.0126    13.0857
  411.5000    91.8407    12.8497    12.9073
  412.0000    90.4507    12.6888    12.7313
  412.5000    92.5920    12.5300    12.5577
  413.0000    95.8094    12.3731    12.2527
  413.5000    96.7444    12.1445    12.2603
  414.0000    97.5526    12.1856    12.2581
  414.5000    98.3724    12.2650    12.3318
  415.0000    99.1971    12.3450    12.4353
  415.5000   100.0197    12.4254    12.5397
  416.0000   100.8487    12.5064    12.6449
  416.5000   100.9821    12.5879    12.7510
  417.0000    99.5119    12.6700    12.8580
  417.5000    97.2436    12.7526    12.9659
  418.0000    94.9850    12.8367    13.0760
  418.5000    93.4204    12.8039    13.0427
  419.0000    95.2802    12.7709    13.0090
  419.5000    95.9738    12.7378    12.9754
  420.0000    96.5548    12.7049    12.9418
  420.5000    97.9753    12.6721    12.9085
  421.0000    99.3856    12.6393    12.8750
  421.5000    99.5745    12.6075    12.8426
  422.0000    98.1175    12.5167    12.7498
  422.5000    94.7657    12.4170    12.6486
  423.0000    91.3872    12.3180    12.5477
  423.5000    90.9493    12.2198    12.4477
  424.0000    92.0805    12.1224    12.3485
  424.5000    94.3249    12.0258    12.2500
  425.0000    96.5107    11.9299    12.1524
  425.5000    98.2161    11.8349    12.0555
  426.0000    99.5077    11.7405    11.9594
  426.5000    98.1278    11.6469    11.8641
  427.0000    99.5534    11.5538    11.7696
  427.5000   100.9777    11.4619    11.6758
  428.0000   100.6052    11.3840    11.5963
  428.5000    98.7852    11.5087    11.6710
  429.0000    98.0036    11.7383    11.8076
  429.5000    97.9870    11.9725    12.0173
  430.0000    97.9880    12.2113    12.5900
  430.5000    97.9911    12.4549    13.1901
  431.0000    98.0432    12.7034    13.8187
  431.5000    95.1396    12.9558    14.2166
  432.0000    91.0933    12.9558    13.9397
  432.5000    87.0120    12.9558    13.6712
  433.0000    85.6841    12.8367    13.4091
  433.5000    92.1301    12.6840    13.1527
  434.0000    97.5602    12.5372    12.9012
  434.5000   102.9940    12.3921    12.6545
  435.0000   107.9658    12.2487    12.4126
  435.5000   107.4773    12.1070    12.1753
  436.0000   104.7538    11.9668    12.0159
  436.5000   102.1434    11.8283    11.8695
  437.0000   101.0221    11.6912    11.7250
  437.5000   102.4669    11.5963    11.5962
  438.0000   105.0084    11.5963    11.6241
  438.5000   107.5082    11.5963    11.6503
  439.0000   109.3849    11.5963    11.6763
  439.5000   109.6194    11.5963    11.7022
  440.0000   108.4035    11.5963    11.7282
  440.5000   107.2155    11.5963    11.7542
  441.0000   107.2391    11.5963    11.7803
  441.5000   107.1291    11.5963    11.8064
  442.0000   106.3466    11.5963    11.8326
  442.5000   106.5899    11.5963    11.8589
  443.0000   109.5492    11.5963    11.8851
  443.5000   113.0861    11.5963    11.9222
  444.0000   112.2146    11.5964    11.8754
  444.5000   110.3567    11.5964    11.7978
  445.0000   110.3916    11.5971    11.7207
  445.5000   111.5362    11.5586    11.6441
  446.0000   112.7333    11.4714    11.5681
  446.5000   111.6535    11.3842    11.4925
  447.0000   109.7968    11.2977    11.4174
  447.5000   107.3967    11.2120    11.3427
  448.0000   105.4160    11.1269    11.2686
  448.5000   106.2334    11.0425    11.1950
  449.0000   107.6781    10.9587    11.1218
  449.5000   109.0998    10.8756    11.0492
  450.0000   110.5387    10.7930    10.9769
  450.5000   111.9878    10.7112    10.9052
  451.0000   110.7229    10.6049    10.8027
  451.5000   109.1902    10.4761    10.6714
  452.0000   108.5948    10.3487    10.5417
  452.5000   108.8420    10.2230    10.4136
  453.0000   109.1348     9.9702    10.1561
  453.5000   109.4576     9.6780     9.8585
  454.0000   110.5881     9.3944     9.5696
  454.5000   113.5262     9.1192     9.2892
