~VERSION INFORMATION
 VERS.                2.0:   CWLS LOG ASCII STANDARD - VERSION 2.0
 WRAP.                 NO:   ONE LINE PER DEPTH STEP
~WELL INFORMATION
#MNEM.UNIT      DATA TYPE    INFORMATION
#----------   ------------   ------------------------------
 STRT.F           11.0000:   START DEPTH
 STOP.F          807.0000:   STOP DEPTH
 STEP.F            0.5000:   STEP LENGTH
 NULL.          -999.2500:   NO VALUE
 COMP. BROWN JOHN E&C INC:   COMPANY
 WELL. NPR 3 SHX-34 #77-1-34:   WELL
 FLD .             TEAPOT:   FIELD
 LOC .      S34 T39N R79W:   LOCATION
 CNTY.            NATRONA:   COUNTY
 STAT.            WYOMING:   STATE
 CTRY. UNITED STATES OF AMERICA:   COUNTRY
 SRVC.     Atlas Wireline:   SERVICE COMPANY
 DATE.        07-DEC-1991:   LOGDATE
 API .       490252248000:   API NUMBER
~CURVE INFORMATION
#MNEM.UNIT       API CODE    CURVE DESCRIPTION
#----------   ------------   ------------------------------
 DEPT.F                  :   
 CALD.IN     45 280 60 00:   CALIPER FROM DENSITY LOG
 CORR.G/C3   45 356 01 00:   DENSITY CORRECTION
 DEN .G/C3   45 350 01 00:   COMPENSATED BULK DENSTIY
 GRD .GAPI   45 310 01 00:   GAMMA RAY FROM DENSITY LOG
 PORD.DEC    45 890 12 00:   POROSITY DENSITY SANDSTONE
 GRR .GAPI   07 310 01 00:   GAMMA RAY FROM RESISTIVITY
 RILD.OHMM   07 120 46 00:   RESISTIVITY INDUCTION LOG DEEP
 RILM.OHMM   07 120 44 00:   RESITIVITY INDUCTION LOG MEDIUM
~PARAMETER INFORMATION
#MNEM.UNIT          VALUE    DESCRIPTION
#----------   ------------   ------------------------------
 PD  .                 GL:   PERMANENT DATUM
 EPD .F              5098:   ELEVATION PERMANENT DATUM
 LMF .                 KB:   LOG MEASURED FROM
 DAPD.F                10:   FEET ABOVE PERMANENT DATUM
 DMF .                 KB:   DRILLING MEASURED FROM
 EKB .F              5108:   KELLING BUSHING
 EDF .F              5107:   DRILLING FLOOR
 EGL .F              5098:   GROUND LEVEL
 DATE.        07-DEC-1991:   RUN DATE
 RUN .                  1:   RUN NUMBER
 DD  .F               810:   DEPTH DRILLER
 DL  .F               810:   DEPTH LOGGER
 BLI .F               808:   BOTTOM LOG INTERVAL
 CS  .IN            9.625:   CASING SIZE
 CBD .F                85:   CASING BOTTOM DRILLER
 CBL .F                97:   CASING BOTTOM LOGGER
 BS  .IN             8.75:   BIT SIZE
 BSD .F               810:   BIT SIZE AT DEPTH
 DFT .                AIR:   DRILLING FLUID TYPE
 BHT .F                90:   BOTTOM HOLE TEMPERATURE
 MRT .F                90:   MAXIMUM RECORDED TEMPERATURE
 LUN .            HL 6274:   LOGGING UNIT NUMBER
 LUL .             CASPER:   LOGGING UNIT LOCATION
 ENGI.       P. RASMUSSEN:   RECORDING ENGINEER
 WITN.        GARY STRONG:   WITNESSED BY
 CLNT.            A2DTECH:   CLIENT CODE
 ORIG.           5" PRINT:   ORIGIN OF DATA
 UWI .       490252248000:   UNIQUE WELL ID
 DICO. A2D Technologies, Inc.:   DIGITIZING COMPANY
~OTHER INFORMATION
~A   DEPT     CALD       CORR        DEN        GRD       PORD         GRR      RILD       RILM   
# ...
   92.0000  -999.2500  -999.2500  -999.2500  -999.2500  -999.2500    48.4437  -999.2500  -999.2500
   92.5000  -999.2500  -999.2500  -999.2500  -999.2500  -999.2500    46.9365  -999.2500  -999.2500
   93.0000  -999.2500  -999.2500  -999.2500  -999.2500  -999.2500    45.7295  -999.2500  -999.2500
   93.5000  -999.2500  -999.2500  -999.2500  -999.2500  -999.2500    45.7237  -999.2500  -999.2500
   94.0000  -999.2500  -999.2500  -999.2500  -999.2500  -999.2500    43.3143  -999.2500  -999.2500
   94.5000  -999.2500  -999.2500  -999.2500  -999.2500  -999.2500    40.9061  -999.2500  -999.2500
   95.0000  -999.2500  -999.2500  -999.2500  -999.2500  -999.2500    40.6016  -999.2500  -999.2500
   95.5000  -999.2500  -999.2500  -999.2500  -999.2500  -999.2500    45.0989  -999.2500  -999.2500
   96.0000  -999.2500  -999.2500  -999.2500  -999.2500  -999.2500    53.6616  -999.2500  -999.2500
   96.5000  -999.2500  -999.2500  -999.2500  -999.2500  -999.2500    67.3083  -999.2500  -999.2500
   97.0000  -999.2500  -999.2500  -999.2500  -999.2500  -999.2500    83.5188     0.7895    17.0364
   97.5000  -999.2500  -999.2500  -999.2500  -999.2500  -999.2500    87.7172     0.6894     2.2145
   98.0000  -999.2500  -999.2500  -999.2500  -999.2500  -999.2500    89.5133     0.7858     1.7927
   98.5000  -999.2500  -999.2500  -999.2500  -999.2500  -999.2500    91.9500     2.3875     1.9737
   99.0000  -999.2500  -999.2500  -999.2500  -999.2500  -999.2500    95.5065     5.5246     2.2348
   99.5000  -999.2500  -999.2500  -999.2500  -999.2500  -999.2500    97.9031     9.4910     2.4786
  100.0000  -999.2500  -999.2500  -999.2500   153.4535  -999.2500    95.7953    12.5923     2.8065
  100.5000  -999.2500  -999.2500  -999.2500   152.2424  -999.2500    93.0869     5.5353     3.1342
  101.0000  -999.2500  -999.2500  -999.2500   138.4202  -999.2500    92.4805     4.1405     3.1993
  101.5000  -999.2500  -999.2500  -999.2500   112.5839  -999.2500    93.6746     3.8100     3.1537
  102.0000  -999.2500  -999.2500  -999.2500    94.2571  -999.2500    99.6749     3.7565     3.1107
  102.5000  -999.2500  -999.2500  -999.2500    90.9454  -999.2500    99.9709     3.7294     3.1753
  103.0000  -999.2500  -999.2500  -999.2500    90.9370  -999.2500    99.0629     3.6742     3.2411
  103.5000  -999.2500  -999.2500  -999.2500    96.9325  -999.2500    97.8559     3.5264     3.2631
  104.0000  -999.2500  -999.2500  -999.2500   108.3355  -999.2500    97.2482     3.3358     3.2622
  104.5000  -999.2500  -999.2500  -999.2500   114.9337  -999.2500    96.6419     3.0484     3.0437
  105.0000  -999.2500  -999.2500  -999.2500   120.6310  -999.2500    96.0356     2.7099     2.6869
  105.5000  -999.2500  -999.2500  -999.2500   117.3172  -999.2500    91.8256     2.3596     2.4365
  106.0000  -999.2500  -999.2500  -999.2500   116.1076  -999.2500    89.4174     2.2320     2.2438
  106.5000  -999.2500  -999.2500  -999.2500   120.6336  -999.2500    89.4104     2.1702     2.1973
  107.0000  -999.2500  -999.2500  -999.2500   129.3018  -999.2500    91.5067     2.1721     2.1817
  107.5000  -999.2500  -999.2500  -999.2500   133.4976  -999.2500    93.6031     2.2296     2.2116
  108.0000  -999.2500  -999.2500  -999.2500   133.8298  -999.2500    93.9380     2.3072     2.3695
  108.5000  -999.2500  -999.2500  -999.2500   128.6739  -999.2500    91.1492     2.4713     2.5386
  109.0000  -999.2500  -999.2500  -999.2500   122.3592  -999.2500    89.0800     2.6470     2.7961
  109.5000     8.1352  -999.2500  -999.2500   117.5460  -999.2500    89.6749     2.7964     3.1507
  110.0000     9.6072  -999.2500  -999.2500   116.3363  -999.2500    95.6752     3.0369     3.5356
  110.5000     9.5919  -999.2500  -999.2500   122.0315  -999.2500    98.3724     3.5402     3.8407
  111.0000     9.5766  -999.2500  -999.2500   128.0291  -999.2500    95.0230     3.9179     4.1721
  111.5000     9.5763  -999.2500  -999.2500   132.2249  -999.2500    91.1522     4.1677     4.3480
  112.0000     9.5910  -999.2500  -999.2500   128.7527  -999.2500    89.3446     4.2833     4.4079
  112.5000     9.5907  -999.2500  -999.2500   123.7976  -999.2500    92.9423     4.4014     4.4068
  113.0000     9.6054  -999.2500  -999.2500   122.5880  -999.2500    95.3389     4.4000     4.4059
  113.5000     9.6201  -999.2500  -999.2500   123.7807  -999.2500    95.9339     4.3985     4.4023
  114.0000     9.6048    -1.4792  -999.2500   125.5720     0.3940    95.9279     4.3970     4.2837
  114.5000     9.5895    -0.7948     2.1128   126.7669     0.3940    94.3894     4.3291     4.1660
  115.0000     9.5892    -0.0190     2.2264   127.9576     0.1962    92.9118     4.1576     4.0516
  115.5000     9.5889     0.0140     2.3236   128.5498     0.1974    95.0081     3.8257     3.8328
  116.0000     9.5736     0.0139     2.3213   129.4402     0.1996    98.3056     3.4482     3.4784
  116.5000     9.5733     0.0109     2.3158   129.7342     0.2017    99.5024     3.1950     3.1135
  117.0000     9.5730     0.0049     2.3085   129.7236     0.2080    99.1948     2.8797     2.8257
  117.5000     9.5877     0.0003     2.2979   134.5179     0.2155   100.9908     2.7429     2.7272
  118.0000     9.5874    -0.0058     2.2723   147.1221     0.2260   104.6006     2.7044     2.7097
  118.5000     9.6021    -0.0073     2.2181   150.7173     0.2691   109.1732     2.7410     2.7469
  119.0000     9.6018     0.0092     2.1752   151.3095     0.2878   110.8833     2.7782     2.7846
  119.5000     9.6015     0.0260     2.1609   149.4972     0.2995   106.0712     2.8548     2.8620
  120.0000     9.6012     0.0392     2.1610   142.2816     0.2970   100.9603     2.9746     2.9621
  120.5000     9.6008     0.0346     2.2000   138.0690     0.2860    96.4500     3.1208     3.1299
  121.0000     9.6006     0.0165     2.2729   135.0555     0.2426    94.0417     3.3428     3.3073
  121.5000     9.6003     0.0060     2.2947   136.8488     0.2181    92.2341     3.5315     3.5244
  122.0000     9.6000     0.0134     2.3022   140.4440     0.2110    91.3274     3.6809     3.7183
  122.5000     9.5996     0.0194     2.3075   144.4144     0.2065    94.9237     3.8336     3.8748
  123.0000     9.5994     0.0284     2.3165   146.4332     0.2011    98.5215     3.9397     3.9827
  123.5000     9.5991     0.0314     2.3293   135.0113     0.1930   100.6178     4.0486     4.0936
  124.0000     9.5988     0.0253     2.3360   127.7957     0.1903   101.2141     4.1320     4.0928
  124.5000     9.5985     0.0222     2.3367   124.7821     0.1902    98.5041     4.1306     4.0919
  125.0000     9.5982     0.0282     2.3352   124.1731     0.1912    97.2971     4.1292     4.0349
  125.5000     9.5979     0.0297     2.3344   125.3659     0.1921    99.9939     4.0712     4.0341
  126.0000     9.5976     0.0266     2.3322   126.8789     0.1924   102.0902     3.9590     4.0053
  126.5000     9.5973     0.0205     2.3291   127.7515     0.1936   101.4824     3.8495     3.9223
  127.0000     9.5970     0.0145     2.3276   125.9392     0.1951   101.1777     3.6415     3.7621
  127.5000     9.5967     0.0084     2.3276   123.5284     0.1954   100.2695     3.4685     3.5101
  128.0000     9.5964     0.0069     2.3291   121.1154     0.1942    96.9604     3.2138     3.2299
  128.5000     9.5961     0.0098     2.3320   123.2091     0.1930    92.7504     3.0191     3.0344
  129.0000     9.5958     0.0128     2.3289   130.4079     0.1939    90.9428     2.9157     2.8899
  129.5000     9.5954     0.0158     2.2974   139.2284     0.2015    94.5445     2.8748     2.7671
  130.0000     9.5952     0.0368     2.2439   146.3070     0.2571   100.3604     2.8344     2.7149
  130.5000     9.5949     0.0774     2.1995   136.3866     0.2754   102.9373     2.7943     2.7712
  131.0000     9.5946     0.0954     2.1611   127.0689     0.2949   102.0292     2.7551     2.8485
  131.5000     9.5943     0.0908     2.1596   115.6469     0.3004    94.5158     2.7164     2.8876
  132.0000     9.5940     0.0366     2.1964   110.2331     0.2763    88.5040     2.6783     2.8081
