~VERSION INFORMATION
 VERS.                2.0:   CWLS LOG ASCII STANDARD - VERSION 2.0
 WRAP.                 NO:   ONE LINE PER DEPTH STEP
~WELL INFORMATION
#MNEM.UNIT      DATA TYPE    INFORMATION
#----------   ------------   ------------------------------
 STRT.F           82.0000:   START DEPTH
 STOP.F          750.0000:   STOP DEPTH
 STEP.F            0.5000:   STEP LENGTH
 NULL.          -999.2500:   NO VALUE
 COMP. U S NAVY/INTEX OIL CO:   COMPANY
 WELL.      GOVT #18-S-35:   WELL
 FLD .             TEAPOT:   FIELD
 LOC .      S35 T39N R78W:   LOCATION
 CNTY.            NATRONA:   COUNTY
 STAT.            WYOMING:   STATE
 CTRY. UNITED STATES OF AMERICA:   COUNTRY
 SRVC. Schlumberger Well Surveying Corp:   SERVICE COMPANY
 DATE.        19-JUL-1962:   LOGDATE
 API .       490250649300:   API NUMBER
~CURVE INFORMATION
#MNEM.UNIT       API CODE    CURVE DESCRIPTION
#----------   ------------   ------------------------------
 DEPT.F                  :   
 SPR .MV     05 010 01 00:   SPONTANEOUS POTENTIAL
 ILD .OHMM   05 120 46 00:   INDUCTION LOG DEEP
 CILD.MMHO   05 110 46 00:   CONDUCTIVITY INDUCTION LOG DEEP
 ASN .OHMM   05 041 16 00:   AMPLIFIED SHORT NORMAL 16"
 NEUT.NAPI   35 330 01 00:   NEUTRON GAMMA RAY
~PARAMETER INFORMATION
#MNEM.UNIT          VALUE    DESCRIPTION
#----------   ------------   ------------------------------
 PD  .                 GL:   PERMANENT DATUM
 EPD .F              5107:   ELEVATION PERMANENT DATUM
 LMF .                 KB:   LOG MEASURED FROM
 DAPD.F                 5:   FEET ABOVE PERMANENT DATUM
 DMF .                 KB:   DRILLING MEASURED FROM
 EKB .F              5112:   KELLING BUSHING
 EGL .F              5107:   GROUND LEVEL
 DATE.            7-19-62:   RUN DATE
 RUN .                  1:   RUN NUMBER
 DD  .F               745:   DEPTH DRILLER
 DL  .F               745:   DEPTH LOGGER
 BLI .F               744:   BOTTOM LOG INTERVAL
 TLI .F                80:   TOP LOG INTERVAL
 BS  .IN             6.75:   BIT SIZE
 BSD .F               745:   BIT SIZE AT DEPTH
 DFT .       OIL EMULSION:   DRILLING FLUID TYPE
 DFD .                 10:   DRILLING FLUID DENSITY
 DFV .                 46:   DRILLING FLUID VISCOSITY
 DFL .                2.9:   DRILLING FLUID LOSS
 RMS .OHMM           3.75:   RESISTIVITY MUD SAMPLE
 MST .F                87:   MUD SAMPLE TEMPERATURE
 RMF .OHMM           2.65:   RESISTIVITY MUD FILTRATE SAMPLE
 MFST.F                87:   MUD FILTRATE SAMPLE TEMPERATURE
 RMC .OHMM           3.54:   RESISTIVITY MUD CAKE
 MCST.F                87:   MUD CAKE SAMPLE TEMPERATURE
 TCS .HRS              .5:   TIME CURCULATED STOPPED
 LUN .               2503:   LOGGING UNIT NUMBER
 LUL .             CASPER:   LOGGING UNIT LOCATION
 ENGI.             DANNER:   RECORDING ENGINEER
 WITN.          JORGENSEN:   WITNESSED BY
 CLNT.            A2DTECH:   CLIENT CODE
 ORIG.       2", 5" PRINT:   ORIGIN OF DATA
 UWI .       490250649300:   UNIQUE WELL ID
 DICO. A2D Technologies, Inc.:   DIGITIZING COMPANY
~OTHER INFORMATION
~A   DEPT      SPR          ILD      CILD         ASN     NEUT   
# ...
  631.0000   -75.3273    15.1903    57.4384    17.2157  -239.5020
  631.5000   -75.8566    15.2296    57.2866    17.2401  -238.6098
  632.0000   -76.3507    15.4785    57.1348    17.2635  -251.3802
  632.5000   -76.4014    15.7170    57.0083    17.2903  -222.3643
  633.0000   -76.4381    15.9637    54.2222    17.4074  -192.7332
  633.5000   -76.4768    16.4412    51.6513    17.6443  -195.5161
  634.0000   -76.5168    17.1771    49.2571    18.1823  -179.5906
  634.5000   -76.5656    17.9114    46.8664    18.7851  -172.0661
  635.0000   -76.2548    18.6459    44.4758    19.4924  -203.3893
  635.5000   -75.7929    19.3843    42.6183    20.2026  -141.7522
  636.0000   -74.7376    19.7129    41.9100    20.9061   -93.9320
  636.5000   -73.6802    19.7902    41.2016    21.3273   -95.2471
  637.0000   -72.6425    19.6794    41.7357    21.0547  -123.9961
  637.5000   -72.0024    19.4920    43.6675    21.2932  -127.8694
  638.0000   -72.9237    18.8088    46.1450    20.6285  -123.0464
  638.5000   -74.2931    17.7768    49.5002    19.7200  -131.1795
  639.0000   -75.5632    16.7391    52.8555    18.8136  -111.5675
  639.5000   -76.0157    15.6779    56.2107    17.9042  -135.8091
  640.0000   -76.4337    15.3320    57.6445    17.0602  -160.3029
  640.5000   -76.6008    15.0963    58.5299    16.4500  -140.8122
  641.0000   -75.6883    14.8626    59.4153    16.1634  -205.3136
  641.5000   -74.7896    14.6219    60.3007    15.8415  -184.2172
  642.0000   -74.7995    14.3708    61.1862    15.5244  -276.6065
  642.5000   -74.8700    14.1172    62.0716    15.3299  -198.1037
  643.0000   -74.9348    13.8642    62.9571    15.1600  -246.6616
  643.5000   -74.9988    13.6462    63.8483    14.9900  -224.0308
  644.0000   -75.0622    13.6058    64.0125    14.8196  -172.0961
  644.5000   -75.1279    13.5608    63.9014    14.6657  -181.5369
  645.0000   -75.0205    13.5982    63.7711    14.6442  -183.9488
  645.5000   -74.8120    13.6429    63.6416    14.6243  -140.7941
  646.0000   -74.6007    13.6873    63.5120    14.6042  -188.5854
  646.5000   -74.3794    13.7316    63.3824    14.5838  -230.3652
  647.0000   -74.5938    13.7759    63.2528    14.5502  -262.9204
  647.5000   -74.9097    13.8204    63.1233    14.4467  -232.0513
  648.0000   -75.2311    13.8607    63.0040    14.3438  -193.7302
  648.5000   -75.5332    13.8609    63.2426    14.2409  -156.0080
  649.0000   -75.0940    13.8621    63.4636    14.1380  -128.3951
  649.5000   -74.6075    13.7522    63.6846    14.0354  -161.3259
  650.0000   -74.1241    13.5782    63.9056    13.9476  -128.8640
  650.5000   -73.6456    13.4026    64.2663    13.8940  -172.7089
  651.0000   -73.2777    13.2266    64.7568    13.8020  -172.9031
  651.5000   -73.1197    13.0972    65.2473    13.6358  -125.3382
  652.0000   -72.9713    12.9976    65.7378    13.4706  -138.3968
  652.5000   -72.4409    12.8987    66.2283    13.3041  -165.5458
  653.0000   -71.8773    12.7998    66.7188    13.2073  -208.8343
  653.5000   -71.4392    12.7008    67.2092    13.1371  -222.5179
  654.0000   -71.2168    12.6019    67.6997    13.0676  -216.8658
  654.5000   -70.9846    12.5021    68.1902    12.9979  -265.2557
  655.0000   -70.7371    12.3951    68.6807    12.9281  -227.8833
  655.5000   -70.4771    12.2773    69.1712    12.8550  -218.4968
  656.0000   -70.4220    12.1598    69.6617    12.7404  -182.3557
  656.5000   -70.9665    12.0420    70.2813    12.6184  -214.7767
  657.0000   -71.4847    11.9243    71.4624    12.4962  -192.4570
  657.5000   -71.2580    11.8065    72.6436    12.3739  -126.1846
  658.0000   -70.4192    11.6888    73.8260    12.2516  -167.7561
  658.5000   -69.5920    11.5674    75.0068    12.1404  -204.1658
  659.0000   -68.8824    11.5536    76.1882    12.1155  -166.6539
  659.5000   -68.2391    11.5734    77.0256    12.0881  -131.1104
  660.0000   -67.6914    11.5938    76.5985    12.0611  -136.6034
  660.5000   -67.7050    11.6140    76.1714    12.0664  -139.9471
  661.0000   -67.7063    11.6338    75.7443    12.1084  -125.9447
  661.5000   -67.7065    11.7102    75.3172    12.1501   -89.4373
  662.0000   -67.6939    11.8308    74.8901    12.1920   -81.5100
  662.5000   -67.6054    11.9454    74.4631    12.2339   -69.3810
  663.0000   -67.5153    11.9957    74.0360    12.2757   -79.3291
  663.5000   -67.5975    12.0431    73.6089    12.3176  -240.2560
  664.0000   -67.6942    12.0908    73.1818    12.3595  -204.4667
  664.5000   -67.1320    12.1414    73.2868    12.4015  -243.8330
  665.0000   -66.5121    12.0560    73.5484    12.4449  -202.3496
  665.5000   -65.8840    11.9429    73.8100    12.4059  -131.0789
  666.0000   -65.8777    11.8294    74.0927    12.3503  -147.2475
  666.5000   -66.1031    11.7163    75.0544    12.2115  -119.8331
  667.0000   -66.0109    11.6031    76.1008    12.0620   -64.8850
  667.5000   -65.8986    11.4900    77.1472    11.9299  -103.5681
  668.0000   -65.7857    11.3757    78.1950    11.8655  -168.4670
  668.5000   -65.6728    11.3326    79.1357    11.8002   -78.4437
  669.0000   -65.5611    11.3201    79.1351    11.7349   -92.6628
  669.5000   -65.5048    11.3081    79.1331    11.6690   -35.6861
  670.0000   -65.5747    11.2959    79.1331    11.6545   -47.7696
  670.5000   -65.6424    11.2838    79.1331    11.6721   -52.8609
  671.0000   -65.7103    11.2716    79.1331    11.6905   -41.0807
  671.5000   -65.7782    11.2594    79.1331    11.7088   -98.2207
  672.0000   -65.8457    11.2473    79.0963    11.7270   -86.2165
  672.5000   -65.8955    11.2399    78.9937    11.7453  -113.0429
  673.0000   -65.8941    11.2399    78.8911    11.7635   -90.7464
  673.5000   -65.9600    11.2399    78.7885    11.7818  -105.2255
  674.0000   -66.3963    11.2399    78.6860    11.8000  -129.1756
  674.5000   -66.8329    11.2399    78.5834    11.8183  -118.2091
  675.0000   -67.2828    11.2399    78.4808    11.8365  -189.2635
  675.5000   -67.4259    11.2399    78.3782    11.8548  -136.2829
  676.0000   -67.5549    11.2399    78.2756    11.8730  -200.0415
  676.5000   -67.6916    11.2399    78.1730    11.8913  -169.3133
  677.0000   -67.5312    11.2400    78.4674    11.9096  -160.1134
  677.5000   -67.3208    11.2404    79.1105    11.9285  -169.5701
  678.0000   -67.1099    11.2375    79.7550    11.9424  -117.2765
  678.5000   -66.9000    11.1678    80.3992    11.8614  -138.2487
  679.0000   -66.6931    11.0967    81.0431    11.7782  -147.6199
  679.5000   -66.4763    11.0259    81.6870    11.6955  -141.5406
  680.0000   -65.9729    10.9552    82.3310    11.6129  -118.2755
  680.5000   -65.4856    10.8845    82.9749    11.5303   -65.9431
  681.0000   -64.9735    10.8135    83.6188    11.4478   -91.2023
  681.5000   -64.4553    10.7433    84.2627    11.3615  -132.3057
  682.0000   -63.5550    10.7113    84.9066    11.3407  -137.8473
  682.5000   -62.4917    10.6643    85.5506    11.3404  -130.1597
  683.0000   -62.0917    10.6214    86.1895    11.3401  -130.2700
  683.5000   -61.8726    10.5455    86.3653    11.3437  -105.2242
  684.0000   -61.8698    10.4701    86.5396    11.4220   -99.8368
  684.5000   -61.8709    10.3951    86.7141    11.5004   -27.7199
  685.0000   -61.8714    10.3530    86.8884    11.5790   -73.2228
  685.5000   -61.8700    10.5097    87.0628    11.7066   -92.1835
  686.0000   -61.9678    10.6631    86.6028    12.0704   -87.3083
  686.5000   -62.1130    10.8014    83.9869    12.4317  -127.3546
  687.0000   -62.2835    11.3701    80.0893    12.8585  -173.7683
  687.5000   -63.1502    11.9786    74.9608    13.7396  -215.1598
  688.0000   -64.0695    13.0334    68.5663    14.6331  -285.7314
  688.5000   -64.9287    14.4126    62.1718    15.5058  -335.0204
  689.0000   -66.9534    15.7995    55.7773    17.1815  -307.1134
  689.5000   -69.3699    17.3233    49.3828    18.9924  -318.1384
  690.0000   -73.3193    19.4886    43.3020    20.8049  -317.0502
  690.5000   -77.2298    21.5800    39.2327    22.6171  -327.5385
  691.0000   -79.0836    23.6807    35.1635    24.4277  -306.4586
  691.5000   -80.5816    25.1553    31.0899    25.8102  -284.8962
