~VERSION INFORMATION
 VERS.                2.0:   CWLS LOG ASCII STANDARD - VERSION 2.0
 WRAP.                 NO:   ONE LINE PER DEPTH STEP
~WELL INFORMATION
#MNEM.UNIT      DATA TYPE    INFORMATION
#----------   ------------   ------------------------------
 STRT.F           11.5000:   START DEPTH
 STOP.F          697.0000:   STOP DEPTH
 STEP.F            0.5000:   STEP LENGTH
 NULL.          -999.2500:   NO VALUE
 COMP. FENIX & SCISSON INC:   COMPANY
 WELL.    NPR3 SX-2 #12-2:   WELL
 FLD .             TEAPOT:   FIELD
 LOC .       S2 T38N R78W:   LOCATION
 CNTY.            NATRONA:   COUNTY
 STAT.            WYOMING:   STATE
 CTRY. UNITED STATES OF AMERICA:   COUNTRY
 SRVC.           BIRDWELL:   SERVICE COMPANY
 DATE.        13-JAN-1978:   LOGDATE
 API .       490251055000:   API NUMBER
~CURVE INFORMATION
#MNEM.UNIT       API CODE    CURVE DESCRIPTION
#----------   ------------   ------------------------------
 DEPT.F                  :   
 CALD.IN     45 280 60 00:   CALIPER FROM DENSITY LOG
 CORR.G/C3   45 356 01 00:   DENSITY CORRECTION
 RHOB.G/C3   45 350 01 00:   BULK DENSITY
 GRD .GAPI   45 310 01 00:   GAMMA RAY FROM DENSITY LOG
 DPHI.DEC    45 890 12 00:   DENSITY POROSITY SANDSTONE
 ILD .OHMM   05 120 46 00:   INDUCTION LOG DEEP
 SN  .OHMM   05 040 16 00:   SHORT NORMAL 16"
 SPR .MV     05 010 01 00:   SPONTANEOUS POTENTIAL FROM RES.
~PARAMETER INFORMATION
#MNEM.UNIT          VALUE    DESCRIPTION
#----------   ------------   ------------------------------
 PD  .                 GL:   PERMANENT DATUM
 EPD .F              5094:   ELEVATION PERMANENT DATUM
 LMF .                 KB:   LOG MEASURED FROM
 DAPD.F                 4:   FEET ABOVE PERMANENT DATUM
 DMF .                 KB:   DRILLING MEASURED FROM
 EKB .F              5098:   KELLING BUSHING
 EGL .F              5094:   GROUND LEVEL
 DATE.        13-JAN-1978:   RUN DATE
 RUN .                  1:   RUN NUMBER
 DD  .F               695:   DEPTH DRILLER
 DL  .F               697:   DEPTH LOGGER
 BLI .F               692:   BOTTOM LOG INTERVAL
 TLI .F                30:   TOP LOG INTERVAL
 CS  .IN            8.625:   CASING SIZE
 CBD .F                35:   CASING BOTTOM DRILLER
 CBL .F                35:   CASING BOTTOM LOGGER
 BS  .IN            7.875:   BIT SIZE
 BSD .F               695:   BIT SIZE AT DEPTH
 DFT .                KCL:   DRILLING FLUID TYPE
 DFD .                8.6:   DRILLING FLUID DENSITY
 DFV .                 32:   DRILLING FLUID VISCOSITY
 DFPH.                9.5:   DRILLING FLUID PH
 DFL .                 12:   DRILLING FLUID LOSS
 MSS .           FLOWLINE:   MUD SAMPLE SOURCE
 RMS .OHMM            0.3:   RESISTIVITY MUD SAMPLE
 MST .F                59:   MUD SAMPLE TEMPERATURE
 RMF .OHMM           0.24:   RESISTIVITY MUD FILTRATE SAMPLE
 MFST.F                70:   MUD FILTRATE SAMPLE TEMPERATURE
 RMC .OHMM           0.56:   RESISTIVITY MUD CAKE
 MCST.F                63:   MUD CAKE SAMPLE TEMPERATURE
 MFSS.               MEAS:   MUD FILTRATE SAMPLE SOURCE
 MCSS.               MEAS:   MUD CAKE SAMPLE SOURCE
 RMB .OHMM           0.26:   RESISTIVITY MUD AT BHT
 BHT .F                72:   BOTTOM HOLE TEMPERATURE
 TCS .HRS               2:   TIME CURCULATED STOPPED
 MRT .F                72:   MAXIMUM RECORDED TEMPERATURE
 LUN .               2958:   LOGGING UNIT NUMBER
 LUL .             CASPER:   LOGGING UNIT LOCATION
 ENGI.           MARTINEZ:   RECORDING ENGINEER
 WITN.       MR. MCGINLEY:   WITNESSED BY
 CLNT.            A2DTECH:   CLIENT CODE
 ORIG.           5" PRINT:   ORIGIN OF DATA
 UWI .       490251055000:   UNIQUE WELL ID
 DICO. A2D Technologies, Inc.:   DIGITIZING COMPANY
~OTHER INFORMATION
~A   DEPT     CALD       CORR       RHOB         GRD      DPHI        ILD         SN        SPR   
# ...
  295.0000     8.5684     0.0949     2.5098    78.7692     0.0875    14.4507    14.0587   -19.7885
  295.5000     8.5680     0.0934     2.5106    76.6729     0.0884    14.6519    14.0577   -19.7885
  296.0000     8.5675     0.0948     2.5136    78.1803     0.0872    14.8560    13.9597   -19.7885
  296.5000     8.5821     0.0933     2.5188    80.7427     0.0848    14.9590    13.9588   -19.7885
  297.0000     8.5816     0.0873     2.5233    81.6455     0.0818    14.9763    13.9578   -19.7885
  297.5000     8.5892     0.0782     2.5270    81.2009     0.0788    14.9590    13.9569   -19.7885
  298.0000     8.5958     0.0587     2.5198    81.2082     0.0935    14.8560    13.9559   -19.9396
  298.5000     8.5953     0.0256     2.4810    82.5655     0.1049    14.8560    13.9550   -19.9396
  299.0000     8.6100     0.0136     2.4720    84.8236     0.1103    14.8560    13.8577   -19.9396
  299.5000     8.6094     0.0376     2.4678    89.6343     0.1119    14.7536    13.8566   -19.7885
  300.0000     8.6090     0.0631     2.4663    93.9945     0.1110    14.6519    13.6651   -19.7885
  300.5000     8.5935     0.0815     2.4715    93.7001     0.1085    14.4507    13.5698   -19.7885
  301.0000     8.5895     0.0992     2.4775    90.5528     0.1053    14.3511    13.2899   -19.8078
  301.5000     8.5852     0.1142     2.4850    86.8049     0.1011    14.1540    13.0158   -19.8730
  302.0000     8.5809     0.1247     2.5030    80.9129     0.1005    13.9596    12.7473   -19.9382
  302.5000     8.5766     0.1122     2.5000    78.8587     0.1002    13.8555    12.5711   -20.0034
  303.0000     8.5723     0.0888     2.4903    81.1183     0.1023    13.5788    12.4835   -20.0813
  303.5000     8.5681     0.0768     2.4768    83.9770     0.1062    13.3000    12.3965   -20.0798
  304.0000     8.5638     0.0723     2.4618    87.1360     0.1110    12.9372    12.3101   -20.0783
  304.5000     8.5763     0.0753     2.4572    87.8911     0.1149    12.6716    12.3073   -19.9258
  305.0000     8.5910     0.0784     2.4600    84.8386     0.1146    12.4976    12.2235   -19.9243
  305.5000     8.5907     0.0829     2.4753    81.4463     0.1110    12.3259    12.2226   -19.9228
  306.0000     8.5904     0.0874     2.4828    78.5468     0.1020    12.2410    12.2216   -19.9214
  306.5000     8.5901     0.0890     2.4813    75.5453     0.0984    12.2410    12.1365   -19.7688
  307.0000     8.5898     0.0830     2.4790    74.7957     0.1047    12.1566    12.1303   -19.9184
  307.5000     8.5744     0.0800     2.4813    75.5483     0.1086    12.1538    12.1229   -19.9169
  308.0000     8.5741     0.0801     2.4895    78.5527     0.1059    12.1477    12.1155   -19.9154
  308.5000     8.5738     0.0816     2.5015    83.0587     0.1000    12.1416    12.1081   -20.2161
  309.0000     8.5735     0.0831     2.5007    85.0121     0.0952    12.1355    12.1006   -20.6674
  309.5000     8.5732     0.0787     2.4955    85.1638     0.0951    12.1294    12.0932   -20.9684
  310.0000     8.5729     0.0742     2.4895    84.1142     0.0998    12.1233    12.0858   -21.4197
  310.5000     8.5726     0.0727     2.4834    83.6652     0.1049    12.1172    12.0784   -21.7204
  311.0000     8.5723     0.0757     2.4789    84.2673     0.1078    12.1103    12.0735   -22.0210
  311.5000     8.5570     0.0818     2.4753    85.4760     0.1090    12.1886    12.0838   -22.1710
  312.0000     8.5417     0.0908     2.4760    86.7007     0.1084    12.1828    11.9837   -22.3202
  312.5000     8.5414     0.1014     2.4813    87.7503     0.1045    12.0932    11.8978   -22.3187
  313.0000     8.5411     0.1149     2.4895    88.6279     0.0976    12.0042    11.7244   -22.4683
  313.5000     8.5407     0.1239     2.4918    89.0798     0.0946    11.7522    11.5599   -22.4668
  314.0000     8.5554     0.1207     2.4865    88.3302     0.0952    11.4262    11.3248   -22.3139
  314.5000     8.5551     0.1099     2.4828    88.6323     0.1018    11.1092    11.1660   -22.3124
  315.0000     8.5699     0.0985     2.4858    89.8350     0.1073    10.8684    10.9334   -22.3109
  315.5000     8.5696     0.0970     2.4792    90.4371     0.1091    10.6465    10.7057   -22.3095
  316.0000     8.5793     0.0986     2.4685    90.4386     0.1151    10.5681    10.4828   -22.4594
  316.5000     8.5841     0.1016     2.4571    90.2895     0.1160    10.4903    10.3358   -22.6090
  317.0000     8.5837     0.1076     2.4513    89.9911     0.1121    10.4854    10.2617   -22.6071
  317.5000     8.5985     0.1107     2.4723    89.8423     0.1072    10.5532    10.1888   -22.6057
  318.0000     8.5982     0.1092     2.4783    89.9940     0.1082    10.6214    10.3274   -22.6042
  318.5000     8.5979     0.1107     2.4715    92.7894     0.1109    10.6903    10.5413   -22.7538
  319.0000     8.6001     0.1168     2.4648    99.0961     0.1154    10.7592    10.6883   -22.7523
  319.5000     8.6123     0.1244     2.4633    98.5574     0.1166    10.9038    10.9067   -22.7508
  320.0000     8.6271     0.1290     2.4708    95.4057     0.1106    10.9743    10.9796   -22.7490
  320.5000     8.6267     0.1364     2.4753    94.8062     0.1088    11.0452    11.0529   -22.7475
  321.0000     8.6415     0.1394     2.4730    94.2074     0.1112    11.0387    11.1259   -22.8974
  321.5000     8.6412     0.1394     2.4668    93.4581     0.1173    11.1114    11.1229   -22.8956
  322.0000     8.6560     0.1410     2.4580    92.1083     0.1215    11.1048    11.1979   -22.8941
  322.5000     8.6556     0.1545     2.4489    90.3079     0.1226    11.0996    11.1941   -22.8926
  323.0000     8.6553     0.1801     2.4445    89.2584     0.1190    11.0179    11.1910   -23.0426
  323.5000     8.6400     0.2221     2.4640    89.1093     0.1133    11.0127    11.2665   -23.0407
  324.0000     8.6547     0.2657     2.4835    90.4625     0.1094    11.0839    11.2627   -22.8882
  324.5000     8.6544     0.2838     2.5150    90.7643     0.0860    11.0786    11.2957   -22.8867
  325.0000     8.6541     0.2838     2.5232    90.4655     0.0779    11.0732    11.3348   -22.7215
  325.5000     8.6387     0.2497     2.5052    90.9394     0.1068    11.0669    11.3316   -22.4302
  326.0000     8.6384     0.2659     2.4828    95.5156     0.1097    11.0617    11.3285   -22.2777
  326.5000     8.6382     0.3019     2.5037    99.4793     0.0762    10.9803    11.3248   -21.9741
  327.0000     8.6379     0.3109     2.5345   100.6819     0.0689    10.8995    11.2436   -21.9726
  327.5000     8.6376     0.2960     2.5450   100.0828     0.0604    10.8192    11.1630   -21.9712
  328.0000     8.6222     0.2915     2.5622    99.3335     0.0357    10.8144    11.0829   -22.1211
  328.5000     8.6219     0.2735     2.6474    98.4341     0.0678    10.8092    11.0034   -22.2703
  329.0000     8.6066     0.2315     2.6019    98.2851     0.0909    10.8039    11.0004   -22.2688
  329.5000     8.6063     0.1564     2.5397   100.3890     0.0936    10.7243    10.9975   -22.4184
  330.0000     8.6060     0.1324     2.5097   102.7929     0.0933    10.7191    10.9945   -22.4169
  330.5000     8.6057     0.1385     2.5127   103.3946     0.0918    10.6392    10.9156   -22.5665
  331.0000     8.6054     0.1445     2.5135    99.6427     0.0897    10.6342    10.8374   -22.5647
  331.5000     8.6051     0.1460     2.5030    96.0406     0.0855    10.5566    10.8344   -22.5632
  332.0000     8.6048     0.1401     2.5045    95.1411     0.0813    10.5510    10.8314   -22.5617
  332.5000     8.6045     0.1311     2.5150    96.2539     0.0789    10.4733    10.8278   -22.5602
  333.0000     8.6042     0.1221     2.5195    98.6757     0.0967    10.4684    10.8249   -22.7102
  333.5000     8.6190     0.1131     2.5090    99.3501     0.0973    10.4634    10.8219   -22.8598
  334.0000     8.6186     0.0951     2.4955    99.8021     0.0970    10.4585    10.8190   -23.0094
  334.5000     8.6183     0.0862     2.4879   103.1068     0.0985    10.4534    10.7414   -23.1586
  335.0000     8.6180     0.0847     2.4858   103.5584     0.1015    10.4474    10.7385   -23.3082
