~VERSION INFORMATION
 VERS.                2.0:   CWLS LOG ASCII STANDARD - VERSION 2.0
 WRAP.                 NO:   ONE LINE PER DEPTH STEP
~WELL INFORMATION
#MNEM.UNIT      DATA TYPE    INFORMATION
#----------   ------------   ------------------------------
 STRT.F          906.5000:   START DEPTH
 STOP.F         2710.5000:   STOP DEPTH
 STEP.F            0.5000:   STEP LENGTH
 NULL.          -999.2500:   NO VALUE
 COMP.   FLUOR DANIEL INC:   COMPANY
 WELL. NAVAL PETROLEUM RESERVE 3 X-4 #77-4:   WELL
 FLD .             TEAPOT:   FIELD
 LOC .       S4 T38N R78W:   LOCATION
 CNTY.            NATRONA:   COUNTY
 STAT.            WYOMING:   STATE
 CTRY. UNITED STATES OF AMERICA:   COUNTRY
 SRVC.            Unknown:   SERVICE COMPANY
 DATE.        21-JUN-1995:   LOGDATE
 API .       490252273600:   API NUMBER
~CURVE INFORMATION
#MNEM.UNIT       API CODE    CURVE DESCRIPTION
#----------   ------------   ------------------------------
 DEPT.F                  :   
 TGAS.UNITS  91 830 01 00:   TOTAL GAS FROM HOTWIRE
 ROP .MIN/FT 91 810 01 00:   RAT OF DRILLING PENETRATION
~PARAMETER INFORMATION
#MNEM.UNIT          VALUE    DESCRIPTION
#----------   ------------   ------------------------------
 EKB .F              5291:   KELLING BUSHING
 EGL .F              5281:   GROUND LEVEL
 DATE.            6-21-95:   RUN DATE
 DD  .F              2711:   DEPTH DRILLER
 CBD .F               893:   CASING BOTTOM DRILLER
 ENGI.               HUSK:   RECORDING ENGINEER
 WITN.              TOWER:   WITNESSED BY
 CLNT.            A2DTECH:   CLIENT CODE
 ORIG.           5" PRINT:   ORIGIN OF DATA
 UWI .       490252273600:   UNIQUE WELL ID
 DICO. A2D Technologies, Inc.:   DIGITIZING COMPANY
~OTHER INFORMATION
~A   DEPT      TGAS         ROP 
# ...
 2121.5000   235.2792     0.4553
 2122.0000   235.2815     0.4580
 2122.5000   235.2837     0.4607
 2123.0000   235.2859     0.4633
 2123.5000   235.2882     0.4660
 2124.0000   235.2904     0.4687
 2124.5000   235.2926     0.4714
 2125.0000   235.2948     0.4741
 2125.5000   235.2971     0.4767
 2126.0000   235.2993     0.4794
 2126.5000   235.3015     0.4821
 2127.0000   235.3038     0.4848
 2127.5000   235.3060     0.4875
 2128.0000   235.3082     0.4901
 2128.5000   235.3105     0.4928
 2129.0000   235.3127     0.4955
 2129.5000   235.3149     0.4986
 2130.0000   235.3172     0.9298
 2130.5000   235.3194     0.9640
 2131.0000   235.3216     0.9757
 2131.5000   235.3239     0.9760
 2132.0000   235.3261     0.9876
 2132.5000   235.3283     1.4867
 2133.0000   235.3306     1.4983
 2133.5000   235.3328     1.5213
 2134.0000   235.3350     1.2722
 2134.5000   235.3372     1.2838
 2135.0000   235.3395     1.2954
 2135.5000   235.3417     1.2957
 2136.0000   235.3439     1.2960
 2136.5000   235.3462     1.2962
 2137.0000   235.3484     1.2965
 2137.5000   235.3506     1.2968
 2138.0000   235.3529     1.2064
 2138.5000   235.3551     0.9572
 2139.0000   235.3573     0.9575
 2139.5000   235.3596     0.9578
 2140.0000   235.3618     0.9581
 2140.5000   235.3640     0.9627
 2141.0000   235.3663     0.9683
 2141.5000   235.3685     0.9738
 2142.0000   235.3707     0.9794
 2142.5000   235.3730     0.9849
 2143.0000   235.3752     0.9905
 2143.5000   235.3774     0.9960
 2144.0000   235.3797     1.0016
 2144.5000   235.3819     1.0071
 2145.0000   235.3841     1.0127
 2145.5000   235.3864     1.0182
 2146.0000   235.3886     1.2494
 2146.5000   235.3908     1.2491
 2147.0000   235.3930     1.2489
 2147.5000   235.3953     1.2599
 2148.0000   235.3975     1.2438
 2148.5000   235.3997     0.9759
 2149.0000   235.4020     0.9983
 2149.5000   235.4042     0.9980
 2150.0000   235.4064     0.9977
 2150.5000   235.4087     0.5892
 2151.0000   235.4109     0.5890
 2151.5000   235.4131     0.5887
 2152.0000   235.4154     0.5884
 2152.5000   235.4176     0.5881
 2153.0000   235.4198     0.5993
 2153.5000   235.4221     0.6103
 2154.0000   235.4243     0.6440
 2154.5000   235.4265     0.7231
 2155.0000   235.4287     0.7341
 2155.5000   235.4310     0.7338
 2156.0000   235.4332     0.7448
 2156.5000   235.4354     0.7446
 2157.0000   235.4377     0.7443
 2157.5000   235.4399     0.7668
 2158.0000   235.4421     1.0046
 2158.5000   235.4444     1.0156
 2159.0000   235.4466     1.0153
 2159.5000   235.4488     1.0264
 2160.0000   235.4511     1.0374
 2160.5000   235.4533     1.0371
 2161.0000   235.4555     1.0368
 2161.5000   235.4578     1.0365
 2162.0000   235.4600     1.6826
 2162.5000   235.4622     1.6822
 2163.0000   235.4644     1.6819
 2163.5000   235.4667     1.6930
 2164.0000   235.4689     2.2597
 2164.5000   235.4711     2.2593
 2165.0000   235.4734     2.2591
 2165.5000   235.4756     2.2588
 2166.0000   235.4778     2.1373
 2166.5000   235.4801     1.4418
 2167.0000   235.4823     1.4642
 2167.5000   235.4845     1.4866
 2168.0000   235.4868     1.2709
 2168.5000   235.4890     1.2707
 2169.0000   235.4912     1.2818
 2169.5000   235.4935     1.2814
 2170.0000   235.4957     1.2472
 2170.5000   235.4979     0.9408
 2171.0000   235.5002     0.9405
 2171.5000   235.5024     0.9515
 2172.0000   235.5046     0.7358
 2172.5000   235.5069     0.7582
 2173.0000   235.5091     0.7806
 2173.5000   235.5113     0.7803
 2174.0000   235.5135     0.9841
 2174.5000   235.5158     0.9952
 2175.0000   235.5180     1.0176
 2175.5000   235.5202     1.0286
 2176.0000   235.5225     1.2551
 2176.5000   235.5247     1.2548
 2177.0000   235.5269     1.2659
 2177.5000   235.5292     1.2769
 2178.0000   235.5314     1.2880
 2178.5000   235.5336     1.2991
 2179.0000   235.5359     1.4915
 2179.5000   235.5381     1.5026
 2180.0000   235.5403     1.5022
 2180.5000   235.5426     1.2407
 2181.0000   235.5448     1.2511
 2181.5000   235.5470     1.2616
 2182.0000   235.5493     0.7264
 2182.5000   235.5515     0.7157
 2183.0000   235.5537     0.7147
 2183.5000   235.5560     0.7138
 2184.0000   235.5582     0.7130
 2184.5000   235.5604     0.7235
 2185.0000   235.5627     0.7226
 2185.5000   235.5649     0.7218
 2186.0000   235.5671     0.7210
 2186.5000   235.5693     0.9811
 2187.0000   235.5716     0.9687
 2187.5000   235.5738     0.9679
 2188.0000   235.5760     0.9670
 2188.5000   235.5783     1.2158
 2189.0000   235.5805     1.2263
 2189.5000   235.5827     1.2368
 2190.0000   235.5850     1.2358
 2190.5000   235.5872     0.9288
 2191.0000   235.5894     0.9395
 2191.5000   235.5917     0.9498
 2192.0000   235.5939     0.9605
 2192.5000   235.5961     0.9708
 2193.0000   235.5984     0.9813
 2193.5000   235.6006     0.9804
 2194.0000   235.6028     0.9909
 2194.5000   235.6050     1.4549
 2195.0000   235.6073     1.4654
 2195.5000   235.6095     1.4759
 2196.0000   235.6117     1.4751
 2196.5000   235.6140     1.4742
 2197.0000   235.6162     1.4847
 2197.5000   235.6184     1.4838
 2198.0000   235.6207     0.9046
 2198.5000   235.6229     0.9037
 2199.0000   235.6251     0.9029
 2199.5000   235.6274     0.9136
 2200.0000   235.6298     0.9241
 2200.5000   235.5784     0.9216
 2201.0000   235.5224     0.9189
 2201.5000   235.4664     0.9161
 2202.0000   235.4105     0.9134
 2202.5000   235.3545     1.2184
 2203.0000   235.2985     1.2182
 2203.5000   235.2425     1.2295
 2204.0000   235.1866     1.2408
 2204.5000   235.1306     0.9459
 2205.0000   235.0746     0.9571
 2205.5000   235.0187     0.9684
 2206.0000   234.9627     0.9796
 2206.5000   234.9067     1.4103
 2207.0000   234.8508     1.4329
 2207.5000   234.7948     1.4442
 2208.0000   234.7388     1.4441
 2208.5000   234.6828     1.4440
 2209.0000   234.6269     1.4439
 2209.5000   234.5709     1.4438
 2210.0000   234.5149     1.1716
 2210.5000   234.4590     1.1828
 2211.0000   234.4030     1.1941
 2211.5000   234.3470     1.2167
 2212.0000   234.2910     1.2165
 2212.5000   234.2351     1.4886
 2213.0000   234.1791     1.5112
 2213.5000   234.1231     1.5224
 2214.0000   234.0672     1.4996
 2214.5000   234.0112     0.7626
 2215.0000   233.9552     0.7625
 2215.5000   233.8992     0.7851
 2216.0000   233.8433     0.9890
 2216.5000   233.7873     0.9889
 2217.0000   233.7313     0.9888
 2217.5000   233.6754     0.9887
 2218.0000   233.6194     0.9887
 2218.5000   233.5634     0.9886
 2219.0000   233.5074     0.9885
 2219.5000   233.4515     0.9884
 2220.0000   233.3955     1.1924
 2220.5000   233.3395     1.2161
 2221.0000   233.2836     1.2375
 2221.5000   233.2276     1.2601
 2222.0000   233.1716     1.2714
 2222.5000   233.1157     2.2350
 2223.0000   233.0597     2.2575
 2223.5000   233.0037     2.2575
 2224.0000   232.9477     1.8719
 2224.5000   232.8918     1.7584
 2225.0000   232.8273     1.7697
 2225.5000   232.7725     1.7809
 2226.0000   232.7177     1.5200
 2226.5000   232.6629     1.5313
 2227.0000   232.6082     1.5312
 2227.5000   232.5534     1.4971
 2228.0000   233.0597     1.2702
 2228.5000   235.2426     1.2701
 2229.0000   236.8667     1.2814
 2229.5000   237.3716     1.2926
 2230.0000   237.3032     1.5306
 2230.5000   236.1290     1.5305
 2231.0000   234.3951     1.5304
 2231.5000   233.2210     1.5303
 2232.0000   232.0468     1.5416
 2232.5000   230.3129     1.5415
 2233.0000   230.2581     1.5527
 2233.5000   230.2034     1.5526
 2234.0000   230.1486     2.0741
 2234.5000   230.0933     2.0967
 2235.0000   230.6674     2.1192
 2235.5000   231.6497     2.1316
 2236.0000   232.1546     2.4932
 2236.5000   232.0998     2.5044
 2237.0000   232.0450     2.5043
 2237.5000   232.5637     2.4816
 2238.0000   233.0549     2.2434
 2238.5000   233.0001     2.2546
 2239.0000   232.8495     2.2659
 2239.5000   232.8918     2.2658
 2240.0000   232.8358     2.1183
 2240.5000   231.6931     1.9821
 2241.0000   231.1057     2.0047
 2241.5000   231.0830     1.7779
 2242.0000   230.5006     1.5057
 2242.5000   231.0433     1.5283
