~VERSION INFORMATION
 VERS.                2.0:   CWLS LOG ASCII STANDARD - VERSION 2.0
 WRAP.                 NO:   ONE LINE PER DEPTH STEP
~WELL INFORMATION
#MNEM.UNIT      DATA TYPE    INFORMATION
#----------   ------------   ------------------------------
 STRT.F            0.5000:   START DEPTH
 STOP.F         3087.0000:   STOP DEPTH
 STEP.F            0.5000:   STEP LENGTH
 NULL.          -999.2500:   NO VALUE
 COMP. DEPARTMENT OF ENERGY:   COMPANY
 WELL.    NPR-3 #201-A-29:   WELL
 FLD . TEAPOT NAVAL RESERVE:   FIELD
 LOC .      S29 T39N R78W:   LOCATION
 CNTY.            NATRONA:   COUNTY
 STAT.            WYOMING:   STATE
 CTRY. UNITED STATES OF AMERICA:   COUNTRY
 SRVC.      NL McCullough:   SERVICE COMPANY
 DATE.        24-JUN-1965:   LOGDATE
 API .       490251144400:   API NUMBER
~CURVE INFORMATION
#MNEM.UNIT       API CODE    CURVE DESCRIPTION
#----------   ------------   ------------------------------
 DEPT.F                  :   
 GRR .GAPI   30 310 01 00:   GAMMA RAY
 CALI.IN     30 280 01 00:   CALIPER
~PARAMETER INFORMATION
#MNEM.UNIT          VALUE    DESCRIPTION
#----------   ------------   ------------------------------
 PD  .                 GL:   PERMANENT DATUM
 LMF .                 GL:   LOG MEASURED FROM
 EDF .F              5012:   DRILLING FLOOR
 DATE.        24-JUN-1965:   RUN DATE
 RUN .                  1:   RUN NUMBER
 DD  .F              2782:   DEPTH DRILLER
 DL  .F              2772:   DEPTH LOGGER
 BLI .F              2770:   BOTTOM LOG INTERVAL
 TLI .F              2300:   TOP LOG INTERVAL
 CS  .IN            6.625:   CASING SIZE
 CBD .F              2756:   CASING BOTTOM DRILLER
 ENGI.         COWLTHORPE:   RECORDING ENGINEER
 WITN.             HUDSON:   WITNESSED BY
 CLNT.            A2DTECH:   CLIENT CODE
 ORIG.           5" PRINT:   ORIGIN OF DATA
 UWI .       490251144400:   UNIQUE WELL ID
 DICO. A2D Technologies, Inc.:   DIGITIZING COMPANY
~OTHER INFORMATION
~A    DEPT     GRR         CALI 
# ...
 2673.5000    52.6362     6.7442
 2674.0000    53.0993     6.7442
 2674.5000    50.8548     6.7442
 2675.0000    50.5454     6.7442
 2675.5000    50.3091     6.7442
 2676.0000    48.2176     6.7442
 2676.5000    52.4233     6.7442
 2677.0000    51.0796     6.7442
 2677.5000    54.6272     6.7442
 2678.0000    52.5930     6.7442
 2678.5000    55.4373     6.7442
 2679.0000    57.2562     6.7442
 2679.5000    56.2695     6.7442
 2680.0000    54.9638     6.7442
 2680.5000    54.2981     6.7442
 2681.0000    54.0964     6.7442
 2681.5000    52.9673     6.7442
 2682.0000    50.0418     6.7442
 2682.5000    52.4295     6.7442
 2683.0000    52.3536     6.7442
 2683.5000    54.5909     6.7442
 2684.0000    52.7032     6.7442
 2684.5000    51.1420     6.7442
 2685.0000    49.5451     6.7442
 2685.5000    48.0212     6.7442
 2686.0000    50.4575     6.7442
 2686.5000    51.5932     6.7442
 2687.0000    52.4371     6.7442
 2687.5000    55.3780     6.7442
 2688.0000    53.3245     6.7442
 2688.5000    52.0232     6.7442
 2689.0000    52.4116     6.7442
 2689.5000    52.7584     6.7442
 2690.0000    52.4272     6.7442
 2690.5000    52.0466     6.7442
 2691.0000    50.8692     6.7442
 2691.5000    49.5044     6.7442
 2692.0000    50.3198     6.7442
 2692.5000    48.6836     6.7442
 2693.0000    51.4941     6.7442
 2693.5000    51.3477     6.7442
 2694.0000    50.9668     6.7442
 2694.5000    50.4693     6.7442
 2695.0000    50.7846     6.7442
 2695.5000    50.4669     6.7443
 2696.0000    51.5542     6.7464
 2696.5000    51.6460     6.7485
 2697.0000    51.3301     6.7506
 2697.5000    54.8790     6.7527
 2698.0000    51.9135     6.7548
 2698.5000    54.0217     6.7569
 2699.0000    50.4620     6.7590
 2699.5000    53.0302     6.7611
 2700.0000    53.5378     6.7632
 2700.5000    57.8699     6.7634
 2701.0000    56.3255     6.7618
 2701.5000    57.1647     6.7603
 2702.0000    56.4275     6.7587
 2702.5000    55.6786     6.7571
 2703.0000    54.8768     6.7556
 2703.5000    54.4982     6.7540
 2704.0000    53.8654     6.7524
 2704.5000    55.1362     6.7509
 2705.0000    59.1091     6.7493
 2705.5000    55.4412     6.7477
 2706.0000    52.2049     6.7461
 2706.5000    55.2930     6.7442
 2707.0000    57.6266     6.7585
 2707.5000    53.9360     6.7767
 2708.0000    54.6858     6.7950
 2708.5000    54.2809     6.8131
 2709.0000    54.3246     6.8233
 2709.5000    54.7600     6.8207
 2710.0000    54.9436     6.8184
 2710.5000    52.9320     6.8160
 2711.0000    51.7598     6.8136
 2711.5000    55.8025     6.8112
 2712.0000    53.6494     6.8088
 2712.5000    54.0067     6.8064
 2713.0000    53.0491     6.8041
 2713.5000    53.9057     6.8015
 2714.0000    54.5927     6.7990
 2714.5000    54.5137     6.7965
 2715.0000    53.9153     6.7940
 2715.5000    54.0971     6.7915
 2716.0000    54.6766     6.7889
 2716.5000    55.8633     6.7864
 2717.0000    56.9297     6.7844
 2717.5000    56.2550     6.7869
 2718.0000    55.6311     6.7893
 2718.5000    56.2218     6.7918
 2719.0000    56.9951     6.7942
 2719.5000    57.3668     6.7967
 2720.0000    57.5870     6.7991
 2720.5000    58.6364     6.8016
 2721.0000    59.0929     6.8040
 2721.5000    61.6720     6.8032
 2722.0000    60.7145     6.8021
 2722.5000    56.0736     6.8011
 2723.0000    59.0588     6.8000
 2723.5000    60.8222     6.7990
 2724.0000    60.3452     6.7980
 2724.5000    60.2016     6.7969
 2725.0000    59.8787     6.7959
 2725.5000    56.6139     6.7949
 2726.0000    55.7379     6.7938
 2726.5000    55.8001     6.7928
 2727.0000    57.8007     6.7918
 2727.5000    59.1517     6.7907
 2728.0000    58.8179     6.7897
 2728.5000    59.4174     6.7887
 2729.0000    58.4381     6.7876
 2729.5000    58.1686     6.7866
 2730.0000    58.3621     6.7856
 2730.5000    59.0351     6.7845
 2731.0000    59.2934     6.7848
 2731.5000    59.5584     6.7858
 2732.0000    59.7540     6.7867
 2732.5000    59.5327     6.7877
 2733.0000    59.3110     6.7886
 2733.5000    59.7051     6.7895
 2734.0000    60.5110     6.7905
 2734.5000    60.4695     6.7914
 2735.0000    57.7108     6.7924
 2735.5000    61.0401     6.7933
 2736.0000    58.2795     6.7943
 2736.5000    58.8346     6.7952
 2737.0000    60.8783     6.7962
 2737.5000    57.9050     6.7971
 2738.0000    61.2904     6.7981
 2738.5000    60.9578     6.7990
 2739.0000    62.9718     6.8000
 2739.5000    58.0031     6.8009
 2740.0000    61.2495     6.8019
 2740.5000    57.0280     6.8028
 2741.0000    60.5735     6.8038
 2741.5000    60.9437     6.8041
 2742.0000    60.9984     6.8042
 2742.5000    58.0993     6.8042
 2743.0000    59.5932     6.8042
 2743.5000    61.2107     6.8042
 2744.0000    58.5681     6.8042
 2744.5000    57.9051     6.8042
 2745.0000    55.4738     6.8042
 2745.5000    53.1842     6.8042
 2746.0000    56.4996     6.8042
 2746.5000    59.3753     6.8042
 2747.0000    59.2187     6.8042
 2747.5000    61.7720     6.8042
 2748.0000    63.1249     6.8042
 2748.5000    60.5423     6.8042
 2749.0000    57.9188     6.8042
 2749.5000    55.6676     6.8042
 2750.0000    54.1502     6.8042
 2750.5000    62.8297     6.8042
 2751.0000    59.7943     6.8042
 2751.5000    60.6153     6.8042
 2752.0000    60.2102     6.8042
 2752.5000    59.0537     6.8042
 2753.0000    57.6746     6.8041
 2753.5000    56.3787     6.8040
 2754.0000    55.7786     6.8042
 2754.5000    55.0814     6.8448
 2755.0000    55.3433     6.8439
 2755.5000    56.0113     6.8437
 2756.0000    54.9843     6.8442
 2756.5000    53.1234     6.8990
 2757.0000    54.8276     7.3196
 2757.5000    53.9812     8.0367
 2758.0000    52.7695    10.0379
 2758.5000    52.5030    13.6424
 2759.0000    52.5058    17.3554
 2759.5000    52.7966    21.0994
 2760.0000    51.8321    22.8358
 2760.5000    48.5128    24.8721
 2761.0000    47.4713    23.8209
 2761.5000    45.9625    24.1021
 2762.0000    44.4551    24.2443
 2762.5000    44.1391    22.6775
 2763.0000    45.6251    17.2879
 2763.5000    47.2926    14.2112
 2764.0000    48.9498    15.6516
 2764.5000    49.9828    18.0943
 2765.0000    50.3864    20.8988
 2765.5000    50.6793    21.3198
 2766.0000    53.6940    22.4351
 2766.5000    52.3573    22.7246
 2767.0000    52.8860    23.1504
 2767.5000    50.5516    25.5129
 2768.0000    49.1077    25.0245
 2768.5000    47.7725    25.2078
 2769.0000    46.3672    19.8298
 2769.5000    45.0289    18.2893
 2770.0000    44.3094    12.0061
 2770.5000    43.8116    11.0177
 2771.0000    43.8010    11.0177
 2771.5000    44.5621    11.0348
 2772.0000    44.6525    12.0739
 2772.5000    44.1737    12.0384
 2773.0000    44.7264    12.0318
 2773.5000    45.2379    12.0244
 2774.0000    44.0288    12.0199
 2774.5000    43.4327    12.0157
 2775.0000    43.8085    12.0115
 2775.5000    43.8209    12.0074
 2776.0000    43.8205    12.0032
 2776.5000    42.9709    11.9991
 2777.0000    44.4978  -999.2500
 2777.5000    44.6218  -999.2500
 2778.0000    44.1577  -999.2500
 2778.5000    45.7733  -999.2500
 2779.0000    45.8765  -999.2500
 2779.5000    46.0953  -999.2500
 2780.0000    46.7253  -999.2500
 2780.5000    46.9786  -999.2500
 2781.0000    46.9839  -999.2500
 2781.5000    46.9862  -999.2500
 2782.0000    46.9723  -999.2500
 2782.5000    46.5330  -999.2500
 2783.0000    46.0610  -999.2500
 2783.5000    45.8654  -999.2500
 2784.0000    45.8569  -999.2500
 2784.5000    46.5620  -999.2500
 2785.0000    47.7735  -999.2500
 2785.5000    47.5371  -999.2500
 2786.0000    47.8200  -999.2500
 2786.5000    49.5532  -999.2500
 2787.0000    49.3856  -999.2500
 2787.5000    49.2809  -999.2500
 2788.0000    48.6040  -999.2500
 2788.5000    47.9404  -999.2500
 2789.0000    47.4145  -999.2500
 2789.5000    45.4576  -999.2500
 2790.0000    43.0910  -999.2500
 2790.5000    42.1350  -999.2500
 2791.0000    43.9637  -999.2500
 2791.5000    45.9816  -999.2500
 2792.0000    47.5273  -999.2500
 2792.5000    47.1395  -999.2500
 2793.0000    47.6946  -999.2500
 2793.5000    49.1176  -999.2500
 2794.0000    48.5989  -999.2500
 2794.5000    49.8475  -999.2500
