~VERSION INFORMATION
 VERS.                2.0:   CWLS LOG ASCII STANDARD - VERSION 2.0
 WRAP.                 NO:   ONE LINE PER DEPTH STEP
~WELL INFORMATION
#MNEM.UNIT      DATA TYPE    INFORMATION
#----------   ------------   ------------------------------
 STRT.F          376.0000:   START DEPTH
 STOP.F         2400.0000:   STOP DEPTH
 STEP.F            0.5000:   STEP LENGTH
 NULL.          -999.2500:   NO VALUE
 COMP. LAWRENCE/ALLISON INC:   COMPANY
 WELL.        55 X #15-15:   WELL
 FLD .            WILDCAT:   FIELD
 LOC .      S15 T38N R78W:   LOCATION
 CNTY.            NATRONA:   COUNTY
 STAT.            WYOMING:   STATE
 CTRY. UNITED STATES OF AMERICA:   COUNTRY
 SRVC.            Unknown:   SERVICE COMPANY
 DATE.        12-APR-1988:   LOGDATE
 API .       490251119800:   API NUMBER
~CURVE INFORMATION
#MNEM.UNIT       API CODE    CURVE DESCRIPTION
#----------   ------------   ------------------------------
 DEPT.F                  :   
 GR  .GAPI   30 310 01 00:   GAMMA RAY
 TGAS.UNITS  91 830 01 00:   TOTAL GAS UNIT
 ROP .FT/HR  91 810 01 00:   RATE OF DRILLING PENETRATION
~PARAMETER INFORMATION
#MNEM.UNIT          VALUE    DESCRIPTION
#----------   ------------   ------------------------------
 PD  .                 GL:   PERMANENT DATUM
 EPD .F              5293:   ELEVATION PERMANENT DATUM
 LMF .                 GL:   LOG MEASURED FROM
 DMF .                 KB:   DRILLING MEASURED FROM
 EKB .F              5304:   KELLING BUSHING
 EGL .F              5293:   GROUND LEVEL
 DATE.        12-APR-1988:   RUN DATE
 RUN .                  1:   RUN NUMBER
 DD  .F              2400:   DEPTH DRILLER
 DL  .F               851:   DEPTH LOGGER
 BLI .F               846:   BOTTOM LOG INTERVAL
 TLI .F               372:   TOP LOG INTERVAL
 CS  .IN                7:   CASING SIZE
 CBL .F               890:   CASING BOTTOM LOGGER
 BSD .F              2400:   BIT SIZE AT DEPTH
 DFT .              WATER:   DRILLING FLUID TYPE
 TCS .HRS               1:   TIME CURCULATED STOPPED
 ENGI.          BANGERTER:   RECORDING ENGINEER
 WITN.             NORHAN:   WITNESSED BY
 CLNT.            A2DTECH:   CLIENT CODE
 ORIG.           5" PRINT:   ORIGIN OF DATA
 UWI .       490251119800:   UNIQUE WELL ID
 DICO. A2D Technologies, Inc.:   DIGITIZING COMPANY
~OTHER INFORMATION
~A   DEPT        GR      TGAS        ROP   
# ...
 1832.0000  -999.2500     5.0179     0.3974
 1832.5000  -999.2500     5.0305     0.3979
 1833.0000  -999.2500     5.0440     0.3983
 1833.5000  -999.2500     5.0570     0.3988
 1834.0000  -999.2500     4.6910     0.3992
 1834.5000  -999.2500     4.7046     0.3997
 1835.0000  -999.2500     4.3381     0.4002
 1835.5000  -999.2500     4.3544     0.4007
 1836.0000  -999.2500     4.3674     0.4106
 1836.5000  -999.2500     4.3804     0.4393
 1837.0000  -999.2500     4.3935     0.4963
 1837.5000  -999.2500     4.4065     0.5344
 1838.0000  -999.2500     4.4195     0.5067
 1838.5000  -999.2500     4.4325     0.4695
 1839.0000  -999.2500     4.4455     0.3946
 1839.5000  -999.2500     4.4586     0.3855
 1840.0000  -999.2500     4.4716     0.3955
 1840.5000  -999.2500     4.4848     0.3960
 1841.0000  -999.2500     4.4981     0.4153
 1841.5000  -999.2500     4.5139     0.4157
 1842.0000  -999.2500     4.5269     0.4256
 1842.5000  -999.2500     4.5399     0.4261
 1843.0000  -999.2500     4.5512     0.4266
 1843.5000  -999.2500     4.5660     0.4270
 1844.0000  -999.2500     4.5790     0.4276
 1844.5000  -999.2500     4.5920     0.4280
 1845.0000  -999.2500     4.6050     0.4190
 1845.5000  -999.2500     4.6180     0.4195
 1846.0000  -999.2500     4.6311     0.4011
 1846.5000  -999.2500     4.6441     0.4017
 1847.0000  -999.2500     4.6573     0.3926
 1847.5000  -999.2500     4.5047     0.3932
 1848.0000  -999.2500     4.6838     0.3937
 1848.5000  -999.2500     4.6994     0.4035
 1849.0000  -999.2500     4.7124     0.4134
 1849.5000  -999.2500     4.7254     0.4233
 1850.0000  -999.2500     4.7385     0.4238
 1850.5000  -999.2500     4.7515     0.4242
 1851.0000  -999.2500     4.7634     0.4247
 1851.5000  -999.2500     4.7775     0.4252
 1852.0000  -999.2500     4.7905     0.4256
 1852.5000  -999.2500     4.8036     0.4261
 1853.0000  -999.2500     4.8166     0.4360
 1853.5000  -999.2500     4.8297     0.4364
 1854.0000  -999.2500     4.8429     0.4369
 1854.5000  -999.2500     4.8894     0.4374
 1855.0000  -999.2500     5.2509     0.4379
 1855.5000  -999.2500     5.2639     0.4384
 1856.0000  -999.2500     5.6558     0.4388
 1856.5000  -999.2500     5.6689     0.4393
 1857.0000  -999.2500     5.6819     0.4398
 1857.5000  -999.2500     5.3127     0.4402
 1858.0000  -999.2500     4.9468     0.4407
 1858.5000  -999.2500     4.5808     0.4412
 1859.0000  -999.2500     4.5971     0.4416
 1859.5000  -999.2500     4.2309     0.4421
 1860.0000  -999.2500     3.8653     0.4426
 1860.5000  -999.2500     3.4993     0.4430
 1861.0000  -999.2500     3.5128     0.4435
 1861.5000  -999.2500     3.9076     0.4440
 1862.0000  -999.2500     3.5416     0.4444
 1862.5000  -999.2500     3.5547     0.4450
 1863.0000  -999.2500     3.5677     0.4455
 1863.5000  -999.2500     3.1985     0.4459
 1864.0000  -999.2500     2.8358     0.4464
 1864.5000  -999.2500     2.8488     0.4469
 1865.0000  -999.2500     2.8619     0.4379
 1865.5000  -999.2500     2.8749     0.4478
 1866.0000  -999.2500     2.8879     0.4482
 1866.5000  -999.2500     2.9009     0.4487
 1867.0000  -999.2500     2.9141     0.4492
 1867.5000  -999.2500     2.9274     0.4496
 1868.0000  -999.2500     2.9432     0.4501
 1868.5000  -999.2500     2.9563     0.4506
 1869.0000  -999.2500     2.9693     0.4605
 1869.5000  -999.2500     2.9823     0.4609
 1870.0000  -999.2500     2.9953     0.4615
 1870.5000  -999.2500     3.0083     0.4619
 1871.0000  -999.2500     3.0213     0.4623
 1871.5000  -999.2500     3.0344     0.4629
 1872.0000  -999.2500     3.0474     0.4633
 1872.5000  -999.2500     3.0604     0.4638
 1873.0000  -999.2500     3.0734     0.4643
 1873.5000  -999.2500     3.0865     0.4647
 1874.0000  -999.2500     2.7205     0.4557
 1874.5000  -999.2500     2.7341     0.4467
 1875.0000  -999.2500     2.3709     0.4473
 1875.5000  -999.2500     2.3839     0.4383
 1876.0000  -999.2500     2.0147     0.4388
 1876.5000  -999.2500     2.0310     0.4393
 1877.0000  -999.2500     2.0440     0.4400
 1877.5000  -999.2500     2.0570     0.4496
 1878.0000  -999.2500     2.4490     0.4501
 1878.5000  -999.2500     2.4620     0.4506
 1879.0000  -999.2500     2.4750     0.4511
 1879.5000  -999.2500     2.4880     0.4515
 1880.0000  -999.2500     3.5628     0.4520
 1880.5000  -999.2500     3.5678     0.4525
 1881.0000  -999.2500     3.5740     0.4530
 1881.5000  -999.2500     3.5796     0.4565
 1882.0000  -999.2500     3.5851     0.4633
 1882.5000  -999.2500     3.5907     0.4638
 1883.0000  -999.2500     3.5963     0.4642
 1883.5000  -999.2500     3.6019     0.4647
 1884.0000  -999.2500     3.6076     0.4557
 1884.5000  -999.2500     3.6144     0.4562
 1885.0000  -999.2500     3.6200     0.4473
 1885.5000  -999.2500     3.2466     0.4383
 1886.0000  -999.2500     3.2522     0.4389
 1886.5000  -999.2500     3.6360     0.4393
 1887.0000  -999.2500     3.6423     0.4398
 1887.5000  -999.2500     3.6478     0.4403
 1888.0000  -999.2500     3.2731     0.4407
 1888.5000  -999.2500     3.2800     0.4412
 1889.0000  -999.2500     3.2856     0.4417
 1889.5000  -999.2500     3.2912     0.4421
 1890.0000  -999.2500     3.2968     0.4331
 1890.5000  -999.2500     3.3025     0.4336
 1891.0000  -999.2500     3.3093     0.4341
 1891.5000  -999.2500     3.6938     0.4346
 1892.0000  -999.2500     3.6994     0.4350
 1892.5000  -999.2500     3.7050     0.4355
 1893.0000  -999.2500     3.7105     0.4360
 1893.5000  -999.2500     3.7161     0.4270
 1894.0000  -999.2500     3.7217     0.4276
 1894.5000  -999.2500     3.7272     0.4280
 1895.0000  -999.2500     3.7328     0.4285
 1895.5000  -999.2500     3.7384     0.4290
 1896.0000  -999.2500     3.7440     0.4294
 1896.5000  -999.2500     3.7497     0.4299
 1897.0000  -999.2500     3.3776     0.4304
 1897.5000  -999.2500     3.3831     0.4402
 1898.0000  -999.2500     3.3887     0.4312
 1898.5000  -999.2500     3.3943     0.4318
 1899.0000  -999.2500     3.3998     0.4322
 1899.5000  -999.2500     3.7844     0.4327
 1900.0000  -999.2500     3.7899     0.4331
 1900.5000  -999.2500     3.7955     0.4431
 1901.0000  -999.2500     3.8008     0.4437
 1901.5000  -999.2500     3.8067     0.4348
 1902.0000  -999.2500     3.8122     0.4355
 1902.5000  -999.2500     3.8179     0.4172
 1903.0000  -999.2500     3.8236     0.4084
 1903.5000  -999.2500     3.8303     0.3994
 1904.0000  -999.2500     3.8359     0.4001
 1904.5000  -999.2500     3.8415     0.4006
 1905.0000  -999.2500     3.8471     0.4012
 1905.5000  -999.2500     3.8526     0.3922
 1906.0000  -999.2500     3.8582     0.3929
 1906.5000  -999.2500     3.8638     0.3840
 1907.0000  -999.2500     3.8693     0.3846
 1907.5000  -999.2500     3.8749     0.3851
 1908.0000  -999.2500     3.8805     0.3763
 1908.5000  -999.2500     3.8861     0.3768
 1909.0000  -999.2500     3.8918     0.3774
 1909.5000  -999.2500     3.8986     0.3781
 1910.0000  -999.2500     3.9042     0.3692
 1910.5000  -999.2500     3.5294     0.3697
 1911.0000  -999.2500     3.5364     0.3703
 1911.5000  -999.2500     3.5420     0.3708
 1912.0000  -999.2500     3.5475     0.3714
 1912.5000  -999.2500     3.5531     0.3719
 1913.0000  -999.2500     3.1783     0.3725
 1913.5000  -999.2500     3.1853     0.3731
 1914.0000  -999.2500     3.1909     0.3737
 1914.5000  -999.2500     3.1964     0.3742
 1915.0000  -999.2500     3.2021     0.3748
 1915.5000  -999.2500     3.2078     0.3753
 1916.0000  -999.2500     3.2146     0.3853
 1916.5000  -999.2500     3.2201     0.3764
 1917.0000  -999.2500     3.2257     0.3866
 1917.5000  -999.2500     3.2313     0.3871
 1918.0000  -999.2500     3.2368     0.3877
 1918.5000  -999.2500     3.2424     0.3882
 1919.0000  -999.2500     3.2480     0.3888
 1919.5000  -999.2500     3.2536     0.3893
 1920.0000  -999.2500     3.2591     0.3899
 1920.5000  -999.2500     3.6437     0.3904
 1921.0000  -999.2500     3.6595     0.3910
 1921.5000  -999.2500     4.0339     0.3916
 1922.0000  -999.2500     4.0407     0.3921
 1922.5000  -999.2500     4.0463     0.3927
