~VERSION INFORMATION
 VERS.                2.0:   CWLS LOG ASCII STANDARD - VERSION 2.0
 WRAP.                 NO:   ONE LINE PER DEPTH STEP
~WELL INFORMATION
#MNEM.UNIT      DATA TYPE    INFORMATION
#----------   ------------   ------------------------------
 STRT.F           20.0000:   START DEPTH
 STOP.F          744.0000:   STOP DEPTH
 STEP.F            0.5000:   STEP LENGTH
 NULL.          -999.2500:   NO VALUE
 COMP. FENIX & SCISSON INCORP.:   COMPANY
 WELL.          SX #53-15:   WELL
 FLD .             TEAPOT:   FIELD
 LOC .      S15 T38N R78W:   LOCATION
 CNTY.            NATRONA:   COUNTY
 STAT.            WYOMING:   STATE
 CTRY. UNITED STATES OF AMERICA:   COUNTRY
 SRVC.              Welex:   SERVICE COMPANY
 DATE.        02-MAR-1977:   LOGDATE
 API .       490251030000:   API NUMBER
~CURVE INFORMATION
#MNEM.UNIT       API CODE    CURVE DESCRIPTION
#----------   ------------   ------------------------------
 DEPT.F                  :   
 SGRD.OHMM   07 220 05 00:   SHALLOW RESISTIVITY
 ILD .OHMM   07 120 46 00:   INDUCTION LOG DEEP
 ILM .OHMM   07 120 44 00:   INDUCTION LOG MEDIUM
 SPR .MV     07 010 01 00:   SPONTANEOUS POTENTIAL
 GRD .GAPI   45 310 01 00:   GAMMA RAY FROM DENSITY LOG
 CALD.IN     45 280 60 00:   CALIPER
 RHOB.G/C3   45 350 01 00:   BULK DENSITY
 DPHI.DEC    45 890 10 00:   DENSITY POROSITY SANDSTONE
 CORR.G/C3   45 356 01 00:   DENSITY CORRECTION
~PARAMETER INFORMATION
#MNEM.UNIT          VALUE    DESCRIPTION
#----------   ------------   ------------------------------
 PD  .                 GL:   PERMANENT DATUM
 EPD .F              5253:   ELEVATION PERMANENT DATUM
 LMF .                 GL:   LOG MEASURED FROM
 DMF .                 GL:   DRILLING MEASURED FROM
 EGL .F              5253:   GROUND LEVEL
 DATE.             3-2-77:   RUN DATE
 RUN .                  1:   RUN NUMBER
 DD  .F               750:   DEPTH DRILLER
 DL  .F               747:   DEPTH LOGGER
 BLI .F               745:   BOTTOM LOG INTERVAL
 TLI .F                44:   TOP LOG INTERVAL
 CS  .IN            8.625:   CASING SIZE
 CBD .F                40:   CASING BOTTOM DRILLER
 CBL .F                44:   CASING BOTTOM LOGGER
 BS  .IN            7.875:   BIT SIZE
 BSD .F               750:   BIT SIZE AT DEPTH
 DFT .           CHEM-GEL:   DRILLING FLUID TYPE
 MSS .          FLOW LINE:   MUD SAMPLE SOURCE
 RMS .OHMM           .425:   RESISTIVITY MUD SAMPLE
 MST .F                56:   MUD SAMPLE TEMPERATURE
 RMF .OHMM           .436:   RESISTIVITY MUD FILTRATE SAMPLE
 MFST.F                56:   MUD FILTRATE SAMPLE TEMPERATURE
 RMC .OHMM           .712:   RESISTIVITY MUD CAKE
 MCST.F                56:   MUD CAKE SAMPLE TEMPERATURE
 MFSS.           MEASURED:   MUD FILTRATE SAMPLE SOURCE
 MCSS.           MEASURED:   MUD CAKE SAMPLE SOURCE
 RMB .OHMM            .35:   RESISTIVITY MUD AT BHT
 BHT .F                68:   BOTTOM HOLE TEMPERATURE
 TCS .HRS               2:   TIME CURCULATED STOPPED
 MRT .F                68:   MAXIMUM RECORDED TEMPERATURE
 LUN .               8611:   LOGGING UNIT NUMBER
 LUL .           GILLETTE:   LOGGING UNIT LOCATION
 ENGI.          D. LAWSON:   RECORDING ENGINEER
 WITN.           S. BURKE:   WITNESSED BY
 CLNT.            A2DTECH:   CLIENT CODE
 ORIG.        2" 5" PRINT:   ORIGIN OF DATA
 UWI .       490251030000:   UNIQUE WELL ID
 DICO. A2D Technologies, Inc.:   DIGITIZING COMPANY
~OTHER INFORMATION
~A   DEPT     SGRD        ILD        ILM        SPR         GRD      CALD         RHOB       DPHI      CORR  
# ...
  494.5000    10.8503     7.3333     7.8493   -29.7987   139.3391     8.3125     2.4522     0.1159     0.0611
  495.0000    10.8397     7.2951     7.7639   -29.8052   142.2041     8.2669     2.4445     0.1197     0.0589
  495.5000    10.9549     7.2571     7.6794   -29.8117   144.7428     8.2501     2.4456     0.1185     0.0568
  496.0000    11.0431     7.2193     7.3001   -29.8182   145.2654     8.2333     2.4484     0.1172     0.0545
  496.5000    11.1309     7.1818     6.6869   -29.8247   144.2268     8.2169     2.4511     0.1173     0.0523
  497.0000    11.2427     7.1446     6.2454   -29.8312   145.2831     8.2005     2.4506     0.1177     0.0497
  497.5000    10.9033     7.1070     6.0880   -29.8377   145.0847     8.1840     2.4527     0.1165     0.0518
  498.0000    10.4478     6.9036     5.9858   -29.8442   145.7250     8.1676     2.4569     0.1150     0.0551
  498.5000     9.8810     6.6410     5.9345   -29.8507   146.2737     8.1511     2.4612     0.1134     0.0583
  499.0000     9.9556     6.3883     5.8836   -29.8572   145.8188     8.1341     2.4616     0.1118     0.0599
  499.5000    10.0908     6.1452     5.7356   -29.8637   146.2843     8.1300     2.4607     0.1124     0.0599
  500.0000    10.2301     5.9114     5.3783   -29.8702   145.9353     8.1296     2.4570     0.1138     0.0599
  500.5000    10.3521     5.6865     5.0434   -29.8767   141.2881     8.1307     2.4449     0.1190     0.0599
  501.0000     8.7416     5.4698     4.7292   -29.8832   139.9958     8.1608     2.4331     0.1248     0.0599
  501.5000     6.6202     5.2603     4.3554   -29.8897   137.3001     8.2840     2.4208     0.1307     0.0599
  502.0000     4.9094     5.0470     4.5358   -29.8962   132.3292     8.4035     2.4175     0.1365     0.0599
  502.5000     7.0821     5.1931     4.9034   -29.9027   130.8899     8.4773     2.4326     0.1296     0.0599
  503.0000     9.9841     5.3560     5.3007   -29.9091   132.3735     8.4949     2.4504     0.1190     0.0606
  503.5000    10.0314     5.5240     5.7287   -29.9156   135.2430     8.5126     2.4680     0.1084     0.0618
  504.0000    10.0789     5.6973     6.1452   -29.9221   138.4973     8.5299     2.4780     0.1022     0.0630
  504.5000    10.1267     5.8760     6.2580   -29.9287   137.1329     8.5472     2.4812     0.0987     0.0639
  505.0000    10.1747     6.0606     6.3783   -29.9352   134.6585     8.5645     2.4803     0.0984     0.0629
  505.5000    10.2229     6.2501     6.5003   -29.9402   131.7184     8.5818     2.4732     0.1025     0.0619
  506.0000    10.2713     6.4087     6.6532   -29.9355   130.5391     8.5990     2.4665     0.1086     0.0610
  506.5000    10.3200     6.4188     6.5561   -29.9308   131.4865     8.6032     2.4706     0.1055     0.0600
  507.0000    10.3689     6.1048     6.3897   -29.9262   132.5592     8.5838     2.4753     0.1024     0.0590
  507.5000    10.4180     5.8686     6.2285   -29.9216   133.9931     8.5648     2.4799     0.1002     0.0580
  508.0000    10.4479     5.6414     6.0668   -29.9170   137.1975     8.5457     2.4755     0.1035     0.0571
  508.5000     9.4476     5.4230     5.5021   -29.9124   141.0236     8.5267     2.4705     0.1080     0.0561
  509.0000     8.6902     5.2119     4.9856   -29.9078   141.2018     8.5101     2.4636     0.1125     0.0551
  509.5000     5.8705     5.0942     4.4380   -29.9032   140.2126     8.5164     2.4429     0.1169     0.0541
  510.0000     4.0089     5.1489     4.6519   -29.8986   137.7998     8.5235     2.4331     0.1214     0.0539
  510.5000     6.2398     5.1892     4.9269   -29.8940   135.3662     8.5304     2.4596     0.1118     0.0549
  511.0000    10.3521     5.2296     5.1922   -29.8894   132.9669     8.5411     2.4996     0.1006     0.0589
  511.5000     9.8329     5.2702     5.4280   -29.8848   132.4990     8.5514     2.5139     0.0828     0.0628
  512.0000     9.2689     5.3770     5.6749   -29.8802   134.6566     8.5617     2.5095     0.0840     0.0667
  512.5000    10.1632     5.5920     5.9331   -29.8756   136.9005     8.5720     2.5054     0.0833     0.0706
  513.0000     7.2897     5.8156     6.2028   -29.8710   137.5934     8.5820     2.5115     0.0822     0.0745
  513.5000     8.9766     6.0481     6.4996   -29.8664   134.4666     8.5855     2.5001     0.0844     0.0727
  514.0000    10.6973     6.2899     6.8288   -29.8618   131.8968     8.5629     2.4863     0.0956     0.0678
  514.5000    10.8156     6.5413     7.1748   -29.8572   129.7188     8.5409     2.4733     0.1066     0.0628
  515.0000    10.9355     6.8029     7.5382   -29.8526   129.5420     8.5189     2.4662     0.1104     0.0606
  515.5000    11.0568     7.0748     7.9201   -29.8480   130.1848     8.4969     2.4588     0.1138     0.0591
  516.0000    11.1795     7.2333     8.3213   -29.8434   131.0179     8.4755     2.4514     0.1159     0.0575
  516.5000    11.3034     7.3814     8.5707   -29.8388   131.8405     8.4391     2.4495     0.1182     0.0559
  517.0000    11.4288     7.5325     8.7041   -29.8342   132.0204     8.3997     2.4478     0.1189     0.0546
  517.5000    11.5556     7.6867     8.8396   -29.8296   132.1724     8.3600     2.4460     0.1190     0.0532
  518.0000    11.6689     7.8441     9.1784   -29.8250   132.3298     8.3205     2.4481     0.1179     0.0519
  518.5000    11.6427     8.0047    10.0700   -29.8204   132.5913     8.2807     2.4532     0.1156     0.0505
  519.0000    11.6193     8.1476     9.6291   -29.8158   133.5760     8.2398     2.4601     0.1123     0.0504
  519.5000    11.5959     8.0958     9.1729   -29.8111   133.3746     8.1973     2.4752     0.1050     0.0521
  520.0000    11.5726     8.0405     8.7384   -29.8065   132.0589     8.1345     2.4913     0.0961     0.0538
  520.5000    11.5619     7.9855     8.2200   -29.8019   130.7454     8.0866     2.4969     0.0900     0.0555
  521.0000    11.7068     7.9309     8.2270   -29.7973   129.4222     8.0784     2.5014     0.0873     0.0572
  521.5000    11.8158     7.8766     8.2336   -29.7927   128.0361     8.0694     2.5109     0.0805     0.0589
  522.0000    11.9258     7.8473     8.2405   -29.7881   128.2702     8.0603     2.5199     0.0715     0.0606
  522.5000    12.0368     7.8383     8.2468   -29.7835   129.1442     8.0513     2.5262     0.0738     0.0615
  523.0000    12.1068     7.8290     8.2532   -29.7789   129.9046     8.0424     2.5075     0.0835     0.0595
  523.5000    11.5885     7.8197     8.2596   -29.7743   129.6849     8.0335     2.4921     0.0940     0.0576
  524.0000    11.2252     7.8105     8.2660   -29.7697   128.3598     8.0456     2.4784     0.0995     0.0557
  524.5000    10.9403     7.8013     8.2723   -29.7651   127.0763     8.0807     2.4724     0.1039     0.0538
  525.0000    11.4751     7.7920     8.2787   -29.7605   125.8061     8.1704     2.4663     0.1084     0.0569
  525.5000    11.9436     7.7809     8.2850   -29.7559   124.5292     8.2662     2.4619     0.1097     0.0606
  526.0000    12.4311     7.8483     8.2952   -29.7513   123.2840     8.4124     2.4671     0.1090     0.0643
  526.5000    13.0326     7.9327     8.3059   -29.7467   123.2305     8.5171     2.4720     0.1057     0.0680
  527.0000    12.8929     7.9989     8.2230   -29.7421   123.6780     8.5303     2.4769     0.1022     0.0717
  527.5000    12.6774     7.7025     7.8421   -29.7375   126.2766     8.5301     2.4818     0.0988     0.0754
  528.0000    12.5612     7.4682     7.2709   -29.7329   129.0272     8.5300     2.4832     0.0974     0.0779
  528.5000    12.9848     7.2411     6.6271   -29.7283   131.7762     8.5300     2.4764     0.1006     0.0778
  529.0000    13.1894     7.0209     6.0398   -29.7237   134.5319     8.5300     2.4663     0.1096     0.0736
  529.5000    10.1963     6.8073     5.5073   -29.7191   137.3538     8.5300     2.4448     0.1186     0.0690
  530.0000     6.4914     6.5999     5.1428   -29.7145   137.9983     8.5300     2.4158     0.1277     0.0645
  530.5000     4.6029     6.3962     5.6776   -29.7099   133.7868     8.5300     2.3869     0.1367     0.0599
