~VERSION INFORMATION
 VERS.                2.0:   CWLS LOG ASCII STANDARD - VERSION 2.0
 WRAP.                 NO:   ONE LINE PER DEPTH STEP
~WELL INFORMATION
#MNEM.UNIT      DATA TYPE    INFORMATION
#----------   ------------   ------------------------------
 STRT.F            0.0000:   START DEPTH
 STOP.F          497.0000:   STOP DEPTH
 STEP.F            0.5000:   STEP LENGTH
 NULL.          -999.2500:   NO VALUE
 COMP. LAWRENCE/ALLISON INC:   COMPANY
 WELL.   73-66 STX #10-10:   WELL
 FLD .             TEAPOT:   FIELD
 LOC .      S10 T38N R78W:   LOCATION
 CNTY.            NATRONA:   COUNTY
 STAT.            WYOMING:   STATE
 CTRY. UNITED STATES OF AMERICA:   COUNTRY
 SRVC.           Gearhart:   SERVICE COMPANY
 DATE.        15-JUN-1987:   LOGDATE
 API .       490251112900:   API NUMBER
~CURVE INFORMATION
#MNEM.UNIT       API CODE    CURVE DESCRIPTION
#----------   ------------   ------------------------------
 DEPT.F                  :   
 RILD.OHMM   07 120 46 00:   INDUCTION LOG DEEP RESISTIVITY
 RILM.OHMM   07 120 44 00:   INDUCTION LOG MEDIUM RESISTIVITY
 GRR .GAPI   07 310 01 00:   GAMMA RAY FROM RES. LOG.
~PARAMETER INFORMATION
#MNEM.UNIT          VALUE    DESCRIPTION
#----------   ------------   ------------------------------
 PD  .                 GL:   PERMANENT DATUM
 EPD .F              5174:   ELEVATION PERMANENT DATUM
 LMF .                 KB:   LOG MEASURED FROM
 DAPD.F                 8:   FEET ABOVE PERMANENT DATUM
 DMF .                 KB:   DRILLING MEASURED FROM
 EKB .F              5182:   KELLING BUSHING
 EDF .F              5180:   DRILLING FLOOR
 EGL .F              5174:   GROUND LEVEL
 DATE.            6-15-87:   RUN DATE
 RUN .                  1:   RUN NUMBER
 DD  .F               550:   DEPTH DRILLER
 DL  .F               505:   DEPTH LOGGER
 BLI .F               502:   BOTTOM LOG INTERVAL
 TLI .F                41:   TOP LOG INTERVAL
 CS  .IN            8.625:   CASING SIZE
 CBD .F                47:   CASING BOTTOM DRILLER
 CBL .F                41:   CASING BOTTOM LOGGER
 BS  .IN            7.875:   BIT SIZE
 BSD .F               550:   BIT SIZE AT DEPTH
 DFT .               FOAM:   DRILLING FLUID TYPE
 TCS .HRS            1715:   TIME CURCULATED STOPPED
 TLAB.HRS            2144:   TIME LOGGER AT BOTTOM
 LUN .               7597:   LOGGING UNIT NUMBER
 LUL .           GILLETTE:   LOGGING UNIT LOCATION
 ENGI.             SLATKY:   RECORDING ENGINEER
 WITN.             STRONG:   WITNESSED BY
 CLNT.            A2DTECH:   CLIENT CODE
 ORIG.     1", 2.5" PRINT:   ORIGIN OF DATA
 UWI .       490251112900:   UNIQUE WELL ID
 DICO. A2D Technologies, Inc.:   DIGITIZING COMPANY
~OTHER INFORMATION
~A    DEPT    RILD       RILM         GRR  
# ...
   91.0000     6.1698     6.3277    93.5679
   91.5000     6.2551     6.4271    92.2963
   92.0000     6.3416     6.5280    90.7333
   92.5000     6.4293     6.6304    91.4855
   93.0000     6.5182     6.7344    93.5689
   93.5000     6.6083     6.8400    95.8009
   94.0000     6.6997     6.9473    93.6886
   94.5000     6.8047     7.0563    91.2563
   95.0000     6.9178     7.1670    88.9635
   95.5000     7.0327     7.2794    91.6483
   96.0000     7.1496     7.3937    93.9052
   96.5000     7.2684     7.5096    96.4983
   97.0000     7.3892     7.6594    94.1955
   97.5000     7.5194     7.6508    91.3608
   98.0000     7.4974     7.6254    91.4580
   98.5000     7.4741     7.6000    92.0061
   99.0000     7.4508     7.5747    92.6238
   99.5000     7.4277     7.5494    93.1695
  100.0000     7.4046     7.5194    93.7219
  100.5000     7.3818     7.5793    94.2859
  101.0000     7.4990     7.7287    94.9378
  101.5000     7.6167     7.8810    94.6173
  102.0000     7.7054     8.0363    93.0099
  102.5000     7.7777     8.1947    91.4978
  103.0000     7.9099     8.3560    89.9975
  103.5000     8.0749     8.5208    88.4698
  104.0000     8.2435     8.6888    87.6018
  104.5000     8.4155     8.8600    87.1791
  105.0000     8.5911     9.0346    87.5789
  105.5000     8.7704     9.2127    87.6540
  106.0000     8.9535     9.3942    89.5928
  106.5000     9.1403     9.5794    92.7654
  107.0000     9.3311     9.7681    94.7319
  107.5000     9.5258     9.9606    94.9635
  108.0000     9.7246    10.1569    92.0242
  108.5000     9.9275    10.3571    88.8599
  109.0000    10.1347    10.5612    86.9220
  109.5000    10.3462    10.7693    85.8091
  110.0000    10.5622    10.9816    86.0339
  110.5000    10.7826    11.1980    86.6902
  111.0000    11.0076    11.4187    87.4507
  111.5000    11.2373    11.6437    88.0029
  112.0000    11.4719    11.8732    88.5646
  112.5000    11.7113    12.1072    85.4376
  113.0000    11.9284    12.3457    84.8288
  113.5000    12.1506    12.6075    86.4949
  114.0000    12.0792    12.3769    88.2598
  114.5000    11.9457    12.3693    89.1681
  115.0000    11.8136    12.3844    87.7315
  115.5000    11.6830    12.3815    86.4940
  116.0000    11.5538    12.2290    86.9024
  116.5000    11.4261    12.1231    87.6217
  117.0000    11.2997    12.0175    87.6817
  117.5000    11.1748    11.9126    85.8424
  118.0000    11.0794    11.8087    83.8108
  118.5000    11.0794    11.7102    81.7069
  119.0000    11.0794    11.6470    83.0799
  119.5000    11.0794    11.5867    84.7042
  120.0000    11.0794    11.5267    85.9848
  120.5000    11.0794    11.4961    86.8704
  121.0000    11.0794    11.6030    86.3166
  121.5000    11.0794    11.7020    84.3413
  122.0000    11.0794    11.8018    82.6085
  122.5000    11.0368    11.9024    80.9291
  123.0000    10.9907    11.7717    81.8485
  123.5000    10.9445    11.5642    82.9761
  124.0000    10.8980    11.3603    81.8350
  124.5000    10.7313    11.1600    80.2616
  125.0000    10.4825    10.9632    81.7841
  125.5000    10.2394    10.7699    85.3776
  126.0000    10.0931    10.5800    89.3121
  126.5000    10.0701    10.3934    89.9011
  127.0000    10.0472    10.2909    90.5462
  127.5000    10.0243    10.2909    91.0165
  128.0000    10.0015    10.2909    90.7984
  128.5000     9.9787    10.2909    89.9382
  129.0000     9.9560    10.2909    88.8666
  129.5000     9.9334    10.2180    87.8839
  130.0000     9.9108    10.0890    85.9860
  130.5000     9.8883    10.0970    84.1557
  131.0000     9.8658    10.0773    82.3721
  131.5000     9.8433    10.0641    80.8459
  132.0000     9.8210    10.0529    82.0333
  132.5000     9.7987    10.0427    83.2010
  133.0000     9.7763    10.0317    84.1014
  133.5000     9.7541    10.0206    84.2928
  134.0000     9.7368    10.0097    84.6622
  134.5000     9.7367     9.9988    84.1976
  135.0000     9.7361     9.9880    82.9732
  135.5000     9.7360     9.9769    81.8830
  136.0000     9.7361     9.9658    80.7478
  136.5000     9.7352     9.9551    80.3432
  137.0000     9.7344     9.9438    79.9800
  137.5000     9.7357     9.9318    80.9275
  138.0000     9.6094     9.9231    82.4170
  138.5000     9.4316     9.9179    84.7690
  139.0000     9.2257     9.8318    86.9643
  139.5000     9.0128     9.5769    89.3816
  140.0000     8.8048     9.3286    89.4507
  140.5000     8.6016     9.0868    88.1766
  141.0000     8.4031     8.8512    86.8164
  141.5000     8.2091     8.6217    85.3883
  142.0000     8.0955     8.4000    84.6570
  142.5000     8.1868     8.4794    84.1156
  143.0000     8.2783     8.5590    84.6463
  143.5000     8.3708     8.6393    86.3033
  144.0000     8.4644     8.7203    88.4277
  144.5000     8.5591     8.8022    91.0195
  145.0000     8.6548     8.8848    93.6525
  145.5000     8.7515     8.9681    93.3635
  146.0000     8.8696     9.0436    91.8058
  146.5000     8.8489     9.0436    90.1138
  147.0000     8.8077     9.0436    90.2248
  147.5000     8.7667     9.0436    91.6522
  148.0000     8.7258     9.0436    92.6293
  148.5000     8.9100     9.4576    90.9279
  149.0000     9.1739     9.9048    89.5170
  149.5000     9.5585     9.8902    87.9571
  150.0000     9.5417     9.8499    87.3863
  150.5000     9.4572     9.8101    88.6250
  151.0000     9.3736     9.7712    90.2483
  151.5000     9.2906     9.7361    91.7495
  152.0000     9.2084     9.5510    93.3628
  152.5000     9.1269     9.3831    90.9651
  153.0000     9.0436     9.2129    88.1943
  153.5000     9.0441     9.2531    88.2550
  154.0000     9.0440     9.2957    91.0974
  154.5000     9.0438     9.3385    94.0670
  155.0000     9.0436     9.3814    92.7064
  155.5000     9.0499     9.4246    90.5507
  156.0000     9.0715     9.4680    88.5470
  156.5000     9.0931     9.5115    88.1078
  157.0000     9.1149     9.5553    88.5913
  157.5000     9.1362     9.5993    88.4694
  158.0000     9.1581     9.6434    87.2061
  158.5000     9.1817     9.6878    85.8970
  159.0000     9.2099     9.7365    84.5759
  159.5000     9.1677     9.7365    83.2246
  160.0000     9.0739     9.5430    82.7449
  160.5000     8.9812     9.3748    84.3227
  161.0000     8.8885     9.2156    85.8177
  161.5000     8.7986     9.0801    87.3733
  162.0000     8.7158     8.8670    88.9585
  162.5000     8.4193     8.6583    89.5928
  163.0000     8.2220     8.4543    89.6453
  163.5000     8.0293     8.2552    88.7062
  164.0000     7.8411     8.0612    87.1958
  164.5000     7.6287     7.8720    85.6291
  165.0000     7.4153     7.6878    85.4201
  165.5000     7.2073     7.5076    85.1876
  166.0000     6.9848     7.3316    85.0457
  166.5000     6.7612     7.1417    84.8866
  167.0000     6.8318     7.2012    84.4494
  167.5000     6.9719     7.3218    83.1874
  168.0000     7.1150     7.4444    82.6866
  168.5000     7.2613     7.5690    84.0782
  169.0000     7.4107     7.6957    85.4142
  169.5000     7.5629     7.8245    86.7764
  170.0000     7.7182     7.9555    87.9608
  170.5000     7.8767     8.0955    88.8297
  171.0000     7.9475     8.0955    90.1602
  171.5000     7.9475     8.0955    91.4400
  172.0000     7.9475     8.0955    90.8223
  172.5000     7.9486     8.0955    87.2885
  173.0000     7.9380     8.0955    86.1098
  173.5000     7.9006     8.0955    84.7769
  174.0000     7.8633     8.0955    84.3588
  174.5000     7.8261     8.0955    83.9424
  175.0000     7.7041     7.8599    83.9699
  175.5000     7.4544     7.5194    83.7891
  176.0000     7.2126     7.2010    85.3322
  176.5000     6.9803     6.8364    88.0111
  177.0000     6.7548     6.4903    90.4030
  177.5000     6.4924     6.1617    92.8710
  178.0000     6.1550     5.8498    92.7701
  178.5000     5.8351     5.5536    90.3251
  179.0000     5.6030     5.2725    87.2125
  179.5000     5.6326     5.0055    84.1448
  180.0000     5.6624     4.8283    84.9613
  180.5000     5.6923     5.0603    86.0576
  181.0000     5.7788     5.3603    87.3535
  181.5000     5.8895     5.6781    88.5014
