~VERSION INFORMATION
 VERS.                2.0:   CWLS LOG ASCII STANDARD - VERSION 2.0
 WRAP.                 NO:   ONE LINE PER DEPTH STEP
~WELL INFORMATION
#MNEM.UNIT      DATA TYPE    INFORMATION
#----------   ------------   ------------------------------
 STRT.F           80.0000:   START DEPTH
 STOP.F          930.0000:   STOP DEPTH
 STEP.F            0.5000:   STEP LENGTH
 NULL.          -999.2500:   NO VALUE
 COMP. U S NAVY-INTEX OIL:   COMPANY
 WELL. RES 3 TEAPOT DOM #56-S-2:   WELL
 FLD .             TEAPOT:   FIELD
 LOC .       S2 T38N R78W:   LOCATION
 CNTY.            NATRONA:   COUNTY
 STAT.            WYOMING:   STATE
 CTRY. UNITED STATES OF AMERICA:   COUNTRY
 SRVC.       Schlumberger:   SERVICE COMPANY
 DATE.        24-JUN-1962:   LOGDATE
 API .       490250641900:   API NUMBER
~CURVE INFORMATION
#MNEM.UNIT       API CODE    CURVE DESCRIPTION
#----------   ------------   ------------------------------
 DEPT.F                  :   
 ASN .OHMM   05 041 16 00:   AMPLIFIED SHORT NORMAL 16"
 ILD .OHMM   05 120 46 00:   INDUCTION LOG DEEP
 CILD.MMHO   05 110 46 00:   CONDUCTIVITY INDUCTION LOG DEEP
 SPR .MV     05 010 01 00:   SPONTANEOUS POTENTIAL FROM RES.
 GR  .GAPI   30 310 01 00:   GAMMA RAY
~PARAMETER INFORMATION
#MNEM.UNIT          VALUE    DESCRIPTION
#----------   ------------   ------------------------------
 PD  .                 KB:   PERMANENT DATUM
 LMF .                 KB:   LOG MEASURED FROM
 DMF .                 KB:   DRILLING MEASURED FROM
 EKB .F              5179:   KELLING BUSHING
 EGL .F              5174:   GROUND LEVEL
 DATE.        24-JUN-1962:   RUN DATE
 RUN .                  1:   RUN NUMBER
 DD  .F               942:   DEPTH DRILLER
 DL  .F               931:   DEPTH LOGGER
 BLI .F               930:   BOTTOM LOG INTERVAL
 TLI .F                80:   TOP LOG INTERVAL
 BS  .IN             6.75:   BIT SIZE
 BSD .F               942:   BIT SIZE AT DEPTH
 DFT .       OIL EMULSION:   DRILLING FLUID TYPE
 DFD .                9.9:   DRILLING FLUID DENSITY
 DFV .                 55:   DRILLING FLUID VISCOSITY
 DFL .                3.7:   DRILLING FLUID LOSS
 RMS .OHMM            4.2:   RESISTIVITY MUD SAMPLE
 MST .F                79:   MUD SAMPLE TEMPERATURE
 RMF .OHMM            3.7:   RESISTIVITY MUD FILTRATE SAMPLE
 MFST.F                79:   MUD FILTRATE SAMPLE TEMPERATURE
 RMC .OHMM            4.0:   RESISTIVITY MUD CAKE
 MCST.F                79:   MUD CAKE SAMPLE TEMPERATURE
 TCS .HRS               1:   TIME CURCULATED STOPPED
 LUN .               2503:   LOGGING UNIT NUMBER
 LUL .               CSPR:   LOGGING UNIT LOCATION
 ENGI.             DANNER:   RECORDING ENGINEER
 WITN.          JORGENSEN:   WITNESSED BY
 CLNT.            A2DTECH:   CLIENT CODE
 ORIG.           5" PRINT:   ORIGIN OF DATA
 UWI .       490250641900:   UNIQUE WELL ID
 DICO. A2D Technologies, Inc.:   DIGITIZING COMPANY
~OTHER INFORMATION
~A   DEPT        ASN        ILD      CILD       SPR         GR   
# ...
  873.0000    10.7098    10.8733    97.5099   -62.8156    47.0692
  873.5000    10.7144    10.7262    98.2483   -62.5077    42.8508
  874.0000    10.6425    10.5790    98.9830   -62.0503    37.4276
  874.5000    10.5715    10.5075    98.9642   -61.5930    38.4804
  875.0000    10.4266    10.5106    98.9493   -61.7340    42.3945
  875.5000    10.4303    10.3635    99.6877   -61.7246    33.9593
  876.0000    10.3584    10.2914    99.6690   -61.1178    26.7289
  876.5000    10.3630    10.2944   100.4074   -60.3615    22.3072
  877.0000    10.2911    10.2974   100.3887   -60.2031    21.7560
  877.5000    10.2957    10.2253   100.3737   -60.1942    20.1857
  878.0000    10.2247    10.2282   100.3587   -60.1853    21.3012
  878.5000    10.2284    10.1562    99.5941   -60.3259    17.0828
  879.0000    10.2322    10.1591    99.5792   -60.6189    20.0934
  879.5000    10.3106    10.2372    99.5642   -61.0554    24.4593
  880.0000    10.5386    10.2453    99.5492   -61.3454    30.0301
  880.5000    10.7665    10.3184    99.5343   -61.6488    41.7856
  881.0000    10.9197    10.4048    99.5193   -62.0750    45.5392
  881.5000    11.0729    10.6246    98.7547   -62.2156    41.6219
  882.0000    11.3008    10.9945    97.9901   -62.3561    27.7650
  882.5000    11.5287    11.5412    95.7263   -62.3193    20.2333
  883.0000    11.7567    12.0602    93.4624   -61.8876    21.7379
  883.5000    12.1341    12.8139    89.6993   -61.8787    21.7364
  884.0000    13.7073    13.5676    79.1896   -62.3182    17.6686
  884.5000    14.6079    14.6967    73.1776   -63.8041    14.2032
  885.0000    15.6579    15.9760    66.4160   -65.9729    13.1475
  885.5000    17.2312    17.3303    60.4041   -68.5702     7.1219
  886.0000    18.9539    18.7638    54.3921   -70.8035     1.3975
  886.5000    22.0222    20.5838    49.1298   -76.7736     1.3082
  887.0000    25.2396    22.3693    41.6185   -75.8679    13.7439
  887.5000    27.1866    22.4475    40.1043   -74.5136    23.5316
  888.0000    28.1610    22.4505    39.3397   -71.3657    24.7349
  888.5000    26.7456    22.1142    40.0744   -67.0220    18.8599
  889.0000    25.4040    21.0707    43.0579   -65.3423    16.7500
  889.5000    24.5109    19.4917    46.7911   -66.1073    17.2003
  890.0000    22.7956    18.8587    50.5242   -68.7889    21.5663
  890.5000    20.6316    17.8114    52.7581   -71.4706    31.9839
  891.0000    19.8126    16.9135    54.9921   -72.5082    27.1792
  891.5000    19.7415    16.6905    57.9756   -72.4991    22.2848
  892.0000    19.5210    16.6184    60.2099   -71.8923    16.2892
  892.5000    19.1520    16.4720    60.1945   -70.2391    20.2907
  893.0000    18.8568    16.1747    59.4299   -70.0807    27.4171
  893.5000    18.3373    15.7844    60.1646   -70.2213    35.5618
  894.0000    17.4442    15.3175    65.3970   -70.2123    25.4699
  894.5000    16.9247    15.0568    65.3820   -70.3529    33.9699
  895.0000    16.9284    14.9847    65.3671   -70.4935    28.1517
  895.5000    17.2311    14.9884    64.6025   -70.4290    20.4930
  896.0000    17.2348    15.0665    64.5875   -68.2732    16.5301
  896.5000    17.3133    15.1445    63.8229   -67.1779    11.7577
  897.0000    17.4665    15.4478    63.0583   -67.1400    18.0812
  897.5000    17.1712    15.6009    63.0434   -66.8592    19.8869
  898.0000    16.8013    15.7541    62.2788   -67.2502    27.1143
  898.5000    17.2534    15.9823    62.2638   -68.9356    34.9441
  899.0000    17.7803    16.0603    62.2488   -70.5710    42.0209
  899.5000    17.3356    15.9875    62.2339   -70.2630    40.9652
  900.0000    16.4425    15.8832    61.4693   -69.9552    45.7830
  900.5000    16.7496    15.6886    62.2039   -69.1886    40.8116
  901.0000    17.1973    15.4941    62.1890   -68.2958    35.5390
  901.5000    16.8229    15.2995    63.6732   -66.3450    42.3147
  902.0000    16.3364    15.0150    64.4079   -66.4869    37.4939
  902.5000    15.8894    14.8649    65.1677   -66.4793    42.6127
  903.0000    14.8685    14.6396    66.6268   -65.8739    51.1956
  903.5000    15.1233    14.4144    67.3962   -65.8663    43.3627
  904.0000    15.2137    14.0390    69.5954   -66.6080    42.7588
  904.5000    15.0291    13.6637    71.0797   -66.4491  -999.2500
  905.0000    13.8647    13.4384    73.3632   -66.1426  -999.2500
  905.5000    13.7928    13.2132    75.6025   -66.1350  -999.2500
  906.0000    13.7974    12.9580    78.5310   -66.1274  -999.2500
  906.5000    13.6517    12.6877    80.0799   -65.6714  -999.2500
  907.0000    13.4312    12.6877    81.4996   -64.9165  -999.2500
  907.5000    13.2107    12.6877    81.4842   -63.4141  -999.2500
  908.0000    13.0649    12.6126    81.4693   -63.5579  -999.2500
  908.5000    12.9182    12.6126    81.4543   -63.6998  -999.2500
  909.0000    12.7725    12.6126    81.4393   -63.6921  -999.2500
  909.5000    12.6276    12.5375    81.4243   -63.6846  -999.2500
  910.0000    12.4809    12.4625    82.1594   -63.8266  -999.2500
  910.5000    12.4099    12.4625    82.8941   -63.6696  -999.2500
  911.0000    12.3389    12.4625    83.6287   -63.6620  -999.2500
  911.5000    12.3436    12.3874    83.7280   -63.3555  -999.2500
  912.0000    12.2716    12.3123    84.3484   -62.7500  -999.2500
  912.5000    12.2015    12.2372    85.0831   -62.4435  -999.2500
  913.0000    12.2052    12.0871    85.8177   -62.4359  -999.2500
  913.5000    12.0585    12.0120    86.5524   -62.4283  -999.2500
  914.0000    11.9875    11.8619    87.2871   -62.4208  -999.2500
  914.5000    11.9165    11.7818    88.0217   -62.4132  -999.2500
  915.0000    11.6969    11.6365    88.7564   -62.2562  -999.2500
  915.5000    11.6250    11.5616    89.4910   -62.0991  -999.2500
  916.0000    11.5540    11.4865    90.2257   -61.4960  -999.2500
  916.5000    11.4829    11.4114    90.2070   -60.7393  -999.2500
  917.0000    11.4876    11.3363    90.9454   -60.2833  -999.2500
  917.5000    11.4913    11.3363    90.9267   -59.5284  -999.2500
  918.0000    11.4950    11.2613    91.6651   -59.5208  -999.2500
  918.5000    11.4987    11.2613    92.3997   -59.5132  -999.2500
  919.0000    11.5025    11.2613    92.3810   -59.5057  -999.2500
  919.5000    11.4305    11.2613    92.3661   -59.4981  -999.2500
  920.0000    11.3604    11.2613    92.3511   -59.4905  -999.2500
  920.5000    11.2894    11.2613    92.3361   -59.4829  -999.2500
  921.0000    11.2183    11.2462    92.3211   -59.4754  -999.2500
  921.5000    11.1467    11.1862    92.3062   -59.4694  -999.2500
  922.0000    11.1511    11.1862    92.2912   -59.4618  -999.2500
  922.5000    11.0800    11.1862    92.2762   -59.4544  -999.2500
  923.0000    11.0838    11.1862    91.5117   -59.2974  -999.2500
  923.5000    11.1622    11.1862    91.4967   -59.1405  -999.2500
  924.0000    11.2407    11.1862    91.4817   -59.1329  -999.2500
  924.5000    11.2444    11.1862  -999.2500   -59.1253  -999.2500
  925.0000    11.2481    11.1111  -999.2500   -59.1178  -999.2500
  925.5000    11.3266    11.1111  -999.2500   -58.9607  -999.2500
  926.0000    11.3303    11.1111  -999.2500   -58.9532  -999.2500
  926.5000    11.3341    11.1111  -999.2500   -58.7961  -999.2500
  927.0000    11.3378    11.1111  -999.2500   -58.6391  -999.2500
  927.5000    11.3418    11.0360  -999.2500   -58.4820  -999.2500
  928.0000    11.3543    11.1111  -999.2500   -58.3250  -999.2500
  928.5000    11.3489    11.1111  -999.2500   -58.1679  -999.2500
  929.0000    11.3527    11.1111  -999.2500   -58.0109  -999.2500
  929.5000    11.2816    11.1111  -999.2500   -57.8538  -999.2500
  930.0000    11.2862    11.1111  -999.2500   -57.8463  -999.2500
