~VERSION INFORMATION
 VERS.                2.0:   CWLS LOG ASCII STANDARD - VERSION 2.0
 WRAP.                 NO:   ONE LINE PER DEPTH STEP
~WELL INFORMATION
#MNEM.UNIT      DATA TYPE    INFORMATION
#----------   ------------   ------------------------------
 STRT.F           12.0000:   START DEPTH
 STOP.F          510.0000:   STOP DEPTH
 STEP.F            0.5000:   STEP LENGTH
 NULL.          -999.2500:   NO VALUE
 COMP. LAWRENCE-ALLISON &AS:   COMPANY
 WELL. NPR 3 #51-41SX10UP4:   WELL
 FLD .            NATRONA:   FIELD
 LOC .      S10 T38N R78W:   LOCATION
 CNTY.            NATRONA:   COUNTY
 STAT.            WYOMING:   STATE
 CTRY. UNITED STATES OF AMERICA:   COUNTRY
 SRVC.      Dresser Atlas:   SERVICE COMPANY
 DATE.        15-DEC-1984:   LOGDATE
 API .       490251100000:   API NUMBER
~CURVE INFORMATION
#MNEM.UNIT       API CODE    CURVE DESCRIPTION
#----------   ------------   ------------------------------
 DEPT.F                  :   
 RD  .OHMM   11 220 10 00:   RESISTIVITY DEEP
 RS  .OHMM   11 220 09 00:   RESISTIVITY SHALLOW
 SPR .MV     11 010 01 00:   SPONTANEOUS POTENTIAL FROM RES.
 DT  .US/F   60 520 00 00:   INTERVAL TRANSIT TIME
 CALD.IN     45 280 60 00:   CALIPER FROM DENSITY LOG
 CNC .DEC    42 890 00 00:   NEUTRON POROSITY
 CORR.G/C3   45 356 01 00:   DENSITY CORRECTION
 GRD .GAPI   45 310 01 00:   GAMMA RAY FROM DENSITY LOG
 PORD.DEC    45 890 00 00:   POROSITY DENSITY
 RHOB.G/C3   45 350 01 00:   BULK DENSITY
~PARAMETER INFORMATION
#MNEM.UNIT          VALUE    DESCRIPTION
#----------   ------------   ------------------------------
 PD  .                 GL:   PERMANENT DATUM
 EPD .F              5207:   ELEVATION PERMANENT DATUM
 LMF .                 GL:   LOG MEASURED FROM
 DMF .                 GL:   DRILLING MEASURED FROM
 EGL .F              5207:   GROUND LEVEL
 DATE.        15-DEC-1984:   RUN DATE
 RUN .                  1:   RUN NUMBER
 DD  .F               515:   DEPTH DRILLER
 DL  .F               511:   DEPTH LOGGER
 BLI .F               510:   BOTTOM LOG INTERVAL
 TLI .F                20:   TOP LOG INTERVAL
 CS  .IN            8.625:   CASING SIZE
 CBD .F                20:   CASING BOTTOM DRILLER
 CBL .F                20:   CASING BOTTOM LOGGER
 BS  .IN            7.875:   BIT SIZE
 BSD .F               515:   BIT SIZE AT DEPTH
 DFT .          KCL/WATER:   DRILLING FLUID TYPE
 MSS .           FLOWLINE:   MUD SAMPLE SOURCE
 RMS .OHMM           .129:   RESISTIVITY MUD SAMPLE
 MST .F                94:   MUD SAMPLE TEMPERATURE
 RMF .OHMM            .10:   RESISTIVITY MUD FILTRATE SAMPLE
 MFST.F                94:   MUD FILTRATE SAMPLE TEMPERATURE
 RMC .OHMM            .16:   RESISTIVITY MUD CAKE
 MCST.F                94:   MUD CAKE SAMPLE TEMPERATURE
 MFSS.               CALC:   MUD FILTRATE SAMPLE SOURCE
 MCSS.               CALC:   MUD CAKE SAMPLE SOURCE
 TCS .HRS               2:   TIME CURCULATED STOPPED
 MRT .F               100:   MAXIMUM RECORDED TEMPERATURE
 LUN .               6270:   LOGGING UNIT NUMBER
 LUL .                 FM:   LOGGING UNIT LOCATION
 ENGI.            LEBSOCK:   RECORDING ENGINEER
 WITN.          DAN LUERS:   WITNESSED BY
 CLNT.            A2DTECH:   CLIENT CODE
 ORIG.           5" PRINT:   ORIGIN OF DATA
 UWI .       490251100000:   UNIQUE WELL ID
 DICO. A2D Technologies, Inc.:   DIGITIZING COMPANY
~OTHER INFORMATION
~A   DEPT       RD         RS        SPR         DT       CALD          CNC     CORR         GRD      PORD       RHOB   
# ...
   79.0000 24650.8223    25.5527   -68.1094   109.5252     7.8298     0.2770     0.0055   108.2035     0.1316     2.4610
   79.5000 24671.4180    25.7401   -68.5518   108.4013     7.8303     0.2782    -0.0049   104.7016     0.1280     2.4731
   80.0000 24687.9082    25.7504   -69.1421   106.8230     7.8309     0.2927     0.0178   101.7501     0.1157     2.4897
   80.5000 24704.9590    25.5833   -69.2882   105.3201     7.8315     0.2973     0.0134   102.6504     0.1114     2.4900
   81.0000 24725.0508    25.4176   -69.4351   105.1757     7.8172     0.2901     0.0105   105.3286     0.1165     2.4808
   81.5000 24741.5762    25.4304   -69.1375   105.7122     7.8030     0.2877     0.0136   108.3030     0.1249     2.4667
   82.0000 24758.1133    25.4406   -68.1005   106.5489     7.8037     0.2880     0.0318   110.6848     0.1291     2.4615
   82.5000 24774.6602    25.4508   -67.5074   106.5555     7.8042     0.2831     0.0560   114.2519     0.1294     2.4601
   83.0000 24791.2188    25.4610   -67.8195   106.5620     7.8048     0.2702     0.0577   113.5131     0.1303     2.4587
   83.5000 24807.7891    25.4712   -67.9483   106.5686     7.8054     0.2672     0.0545   107.7591     0.1326     2.4528
   84.0000 24824.6484    25.4815   -67.9465   106.5751     7.8060     0.2774     0.0323   103.0299     0.1386     2.4477
   84.5000 24845.1133    25.4917   -68.2410   106.5819     7.8065     0.2797     0.0189   100.3718     0.1380     2.4492
   85.0000 24861.7188    25.5022   -68.0916   106.5144     7.8220     0.2743     0.0145   101.4232     0.1365     2.4531
   85.5000 24878.3359    25.5147   -67.9423   106.2945     7.8226     0.2674     0.0131   102.4717     0.1337     2.4584
   86.0000 24894.9648    25.5250   -67.3491   106.2256     7.8381     0.2818     0.0057   103.6683     0.1301     2.4600
   86.5000 24740.1973    25.5352   -67.0515   106.0041     7.8237     0.2970     0.0013   104.8652     0.1325     2.4549
   87.0000 24756.7344    25.5454   -67.0501   106.1633     7.8392     0.3007    -0.0062   103.9904     0.1394     2.4474
   87.5000 24602.8281    25.5557   -66.7528   106.3208     7.8398     0.3097    -0.0108   100.2982     0.1408     2.4415
   88.0000 24619.2715    25.5659   -66.7514   106.6294     7.8404     0.3162    -0.0089    98.9735     0.1420     2.4394
   88.5000 24297.8789    25.5762   -66.7499   106.7883     7.8411     0.3032     0.0093    99.7286     0.1435     2.4357
   89.0000 24318.1816    25.5868   -66.4526   106.9458     7.8416     0.2921     0.0094   103.4437     0.1468     2.4268
   89.5000 24334.4355    25.5993   -66.1553   107.2543     7.8422     0.2969     0.0095   107.8996     0.1534     2.4231
   90.0000 24519.4062    25.6096   -66.1536   107.1099     7.8278     0.2982     0.0021   111.9111     0.1551     2.4233
   90.5000 24876.9492    25.6199   -66.4480   106.9653     7.8285     0.2896    -0.0143   107.7451     0.1515     2.4271
   91.0000 24893.5762    25.6301   -67.0383   106.8191     7.8142     0.2836    -0.0138   102.7508     0.1461     2.4354
   91.5000 24738.8223    25.6404   -67.3331   106.9047     7.8148     0.2860    -0.0035   103.2067     0.1443     2.4363
   92.0000 24931.0273    26.1876   -67.9230   106.8358     7.8154     0.2884     0.0041   102.0330     0.1460     2.4356
   92.5000 24771.9023    26.3796   -67.9216   106.6898     7.8309     0.2896    -0.0078   102.0444     0.1466     2.4364
   93.0000 24622.0117    26.2086   -67.4760   106.1697     7.8464     0.2907    -0.0032   103.2612     0.1430     2.4485
   93.5000 24638.4688    26.4034   -67.0308   105.1951     7.8469     0.2874     0.0090   103.1073     0.1359     2.4591
   94.0000 24654.9375    26.4140   -66.1418   103.2394     7.8475     0.2778     0.0227    98.8225     0.1273     2.4682
   94.5000 24842.3457    26.4246   -65.1049   103.0950     7.8481     0.2803     0.0245    98.2413     0.1225     2.4758
   95.0000 24858.9512    26.2507   -64.3638   103.1032     7.8017     0.2810     0.0289    98.2528     0.1177     2.4834
   95.5000 24704.4062    26.4458   -63.7707   103.1097     7.7899     0.2627     0.0456    99.1532     0.1128     2.4895
   96.0000 24725.0488    26.4564   -63.7692   102.9654     7.8351     0.2516     0.0834   104.4980     0.1104     2.4940
   96.5000 24912.9922    26.4673   -63.7675   102.7455     7.8505     0.2588     0.0775   106.5837     0.1092     2.4956
   97.0000 24753.9766    26.4803   -64.2099   102.2992     7.8510     0.2713     0.0610   105.7090     0.1095     2.4942
   97.5000 24600.0879    26.4909   -64.3567   101.6265     7.8516     0.2677     0.0536   100.3871     0.1103     2.4920
   98.0000 24620.6426    26.5016   -64.3549   100.7215     7.8522     0.2617     0.0359    93.2875     0.1133     2.4883
   98.5000 24637.0977    26.5122   -64.3535    99.6035     7.8380     0.2659     0.0117    90.6323     0.1202     2.4802
   99.0000 24653.8418    26.5228   -64.9438    98.0252     7.8237     0.2682     0.0058    89.1622     0.1247     2.4691
   99.5000 24674.1660    26.3509   -64.9420    94.6355     7.7946     0.2580     0.0240    88.5807     0.1271     2.4677
  100.0000 22884.9062    26.3615   -64.9406    92.6043     7.7779     0.2532     0.0512    90.2222     0.1246     2.4813
  100.5000 19809.3750    26.3724   -64.4954    92.3074     7.7784     0.2739     0.0558    94.2242     0.1162     2.4844
  101.0000 15039.0684    26.2011   -64.3464    92.6174     7.8086     0.2748     0.0304    95.7295     0.1162     2.4829
  101.5000  9674.0225    25.8548   -64.9367    93.4785     7.8240     0.2686    -0.0178    95.7410     0.1188     2.4770
  102.0000  4227.4370    24.4752   -65.0828    94.7454     7.8394     0.2729    -0.0025    96.3450     0.1266     2.4644
  102.5000  1326.2911    20.1810   -64.9334    95.5066     7.8252     0.2894     0.0036    97.0973     0.1341     2.4525
  103.0000   699.0065    15.7460   -64.9317    96.2679     7.8407     0.2722     0.0068    97.4050     0.1359     2.4556
  103.5000   389.0047    12.6297   -64.3385    96.5261     7.8413     0.2484     0.0250    96.9719     0.1334     2.4594
  104.0000   221.0162    12.4615   -64.3371    96.8664     7.8418     0.2367     0.0281    93.4044     0.1283     2.4610
  104.5000    87.0909    14.1837   -64.1878    97.6266     7.8424     0.2348     0.0252    92.1062     0.1340     2.4513
  105.0000    63.8832    15.4060   -64.3343    98.5366     7.8280     0.2410     0.0097    91.6732     0.1397     2.4379
  105.5000    64.8238    16.3089   -64.4833    98.9938     7.8436     0.2528    -0.0182    91.6876     0.1465     2.4358
  106.0000    63.1202    16.9999   -64.6169    98.6951     7.8293     0.2684    -0.0287    91.6990     0.1471     2.4368
  106.5000    55.4043    16.2107   -64.7506    98.7006     7.8300     0.2791     0.0016    92.1550     0.1459     2.4404
  107.0000    39.5333    14.6275   -64.7327    98.7804     7.8306     0.2824     0.0378    94.5368     0.1411     2.4486
  107.5000    34.7007    13.6625   -65.0143    99.0239     7.8312     0.2547     0.0560    98.2520     0.1374     2.4539
  108.0000    30.6698    13.2094   -65.2959    99.4694     7.8466     0.2466     0.0336    98.8561     0.1338     2.4555
  108.5000    28.4494    13.3118   -64.8373    99.7002     7.8471     0.2548     0.0201    95.3149     0.1335     2.4526
  109.0000    28.8996    13.5101   -64.8200    99.9309     7.8477     0.2609     0.0187    95.4745     0.1373     2.4481
  109.5000    29.2986    13.5208   -65.2531   100.2372     7.8483     0.2621     0.0143    97.8563     0.1409     2.4437
  110.0000    29.3220    13.5316   -65.2353   100.2415     7.8490     0.2585     0.0145   101.8678     0.1445     2.4423
  110.5000    29.3454    13.7307   -65.3725   100.0205     7.8496     0.2428     0.0146    98.9163     0.1409     2.4516
  111.0000    29.3688    13.9327   -65.3547    99.7230     7.8501     0.2368     0.0087    94.1871     0.1300     2.4622
  111.5000    29.3922    13.9440   -65.3402    99.3500     7.8358     0.2392     0.0013    89.7541     0.1267     2.4658
  112.0000    29.4162    13.9577   -65.4740    98.1468     7.8365     0.2562    -0.0031    89.4693     0.1261     2.4626
