~VERSION INFORMATION
 VERS.                2.0:   CWLS LOG ASCII STANDARD - VERSION 2.0
 WRAP.                 NO:   ONE LINE PER DEPTH STEP
~WELL INFORMATION
#MNEM.UNIT      DATA TYPE    INFORMATION
#----------   ------------   ------------------------------
 STRT.F           11.5000:   START DEPTH
 STOP.F          697.0000:   STOP DEPTH
 STEP.F            0.5000:   STEP LENGTH
 NULL.          -999.2500:   NO VALUE
 COMP. FENIX & SCISSON INC:   COMPANY
 WELL.    NPR3 SX-2 #12-2:   WELL
 FLD .             TEAPOT:   FIELD
 LOC .       S2 T38N R78W:   LOCATION
 CNTY.            NATRONA:   COUNTY
 STAT.            WYOMING:   STATE
 CTRY. UNITED STATES OF AMERICA:   COUNTRY
 SRVC.           BIRDWELL:   SERVICE COMPANY
 DATE.        13-JAN-1978:   LOGDATE
 API .       490251055000:   API NUMBER
~CURVE INFORMATION
#MNEM.UNIT       API CODE    CURVE DESCRIPTION
#----------   ------------   ------------------------------
 DEPT.F                  :   
 CALD.IN     45 280 60 00:   CALIPER FROM DENSITY LOG
 CORR.G/C3   45 356 01 00:   DENSITY CORRECTION
 RHOB.G/C3   45 350 01 00:   BULK DENSITY
 GRD .GAPI   45 310 01 00:   GAMMA RAY FROM DENSITY LOG
 DPHI.DEC    45 890 12 00:   DENSITY POROSITY SANDSTONE
 ILD .OHMM   05 120 46 00:   INDUCTION LOG DEEP
 SN  .OHMM   05 040 16 00:   SHORT NORMAL 16"
 SPR .MV     05 010 01 00:   SPONTANEOUS POTENTIAL FROM RES.
~PARAMETER INFORMATION
#MNEM.UNIT          VALUE    DESCRIPTION
#----------   ------------   ------------------------------
 PD  .                 GL:   PERMANENT DATUM
 EPD .F              5094:   ELEVATION PERMANENT DATUM
 LMF .                 KB:   LOG MEASURED FROM
 DAPD.F                 4:   FEET ABOVE PERMANENT DATUM
 DMF .                 KB:   DRILLING MEASURED FROM
 EKB .F              5098:   KELLING BUSHING
 EGL .F              5094:   GROUND LEVEL
 DATE.        13-JAN-1978:   RUN DATE
 RUN .                  1:   RUN NUMBER
 DD  .F               695:   DEPTH DRILLER
 DL  .F               697:   DEPTH LOGGER
 BLI .F               692:   BOTTOM LOG INTERVAL
 TLI .F                30:   TOP LOG INTERVAL
 CS  .IN            8.625:   CASING SIZE
 CBD .F                35:   CASING BOTTOM DRILLER
 CBL .F                35:   CASING BOTTOM LOGGER
 BS  .IN            7.875:   BIT SIZE
 BSD .F               695:   BIT SIZE AT DEPTH
 DFT .                KCL:   DRILLING FLUID TYPE
 DFD .                8.6:   DRILLING FLUID DENSITY
 DFV .                 32:   DRILLING FLUID VISCOSITY
 DFPH.                9.5:   DRILLING FLUID PH
 DFL .                 12:   DRILLING FLUID LOSS
 MSS .           FLOWLINE:   MUD SAMPLE SOURCE
 RMS .OHMM            0.3:   RESISTIVITY MUD SAMPLE
 MST .F                59:   MUD SAMPLE TEMPERATURE
 RMF .OHMM           0.24:   RESISTIVITY MUD FILTRATE SAMPLE
 MFST.F                70:   MUD FILTRATE SAMPLE TEMPERATURE
 RMC .OHMM           0.56:   RESISTIVITY MUD CAKE
 MCST.F                63:   MUD CAKE SAMPLE TEMPERATURE
 MFSS.               MEAS:   MUD FILTRATE SAMPLE SOURCE
 MCSS.               MEAS:   MUD CAKE SAMPLE SOURCE
 RMB .OHMM           0.26:   RESISTIVITY MUD AT BHT
 BHT .F                72:   BOTTOM HOLE TEMPERATURE
 TCS .HRS               2:   TIME CURCULATED STOPPED
 MRT .F                72:   MAXIMUM RECORDED TEMPERATURE
 LUN .               2958:   LOGGING UNIT NUMBER
 LUL .             CASPER:   LOGGING UNIT LOCATION
 ENGI.           MARTINEZ:   RECORDING ENGINEER
 WITN.       MR. MCGINLEY:   WITNESSED BY
 CLNT.            A2DTECH:   CLIENT CODE
 ORIG.           5" PRINT:   ORIGIN OF DATA
 UWI .       490251055000:   UNIQUE WELL ID
 DICO. A2D Technologies, Inc.:   DIGITIZING COMPANY
~OTHER INFORMATION
~A   DEPT     CALD       CORR       RHOB         GRD      DPHI        ILD         SN        SPR   
# ...
   92.5000     8.8068     0.1193     2.3517    75.0305     0.1887     9.8315    10.1566   -14.0260
   93.0000     8.7916     0.1508     2.3307    76.3848     0.2004     9.5620    10.1557   -14.3295
   93.5000     8.7764     0.2008     2.3133    84.4958     0.2079     9.1089    10.1550   -14.9352
   94.0000     8.7612     0.2342     2.2978    89.4537     0.2181     8.4992     9.8769   -15.5409
   94.5000     8.7309     0.2753     2.2707   102.2194     0.2334     7.7583     8.9636   -15.8445
   95.0000     8.7158     0.2917     2.2460   105.2253     0.2418     6.7313     8.0230   -15.9970
   95.5000     8.7006     0.3022     2.2190   106.7298     0.2547     5.6409     7.4340   -15.8474
   96.0000     8.6854     0.3037     2.2002   107.4835     0.2703     4.2838     6.7466   -15.5468
   96.5000     8.6852     0.2991     2.1777   105.0090     0.2826     3.6033     5.7529   -15.3972
   97.0000     8.7002     0.2976     2.1597   100.7078     0.2844     3.1811     5.1136   -15.7012
   97.5000     8.7151     0.3125     2.2047    90.3759     0.2724     2.9682     4.7382   -16.4579
   98.0000     8.7901     0.3140     2.1882    80.0185     0.2652     2.8472     4.5451   -17.3657
   98.5000     8.9854     0.3169     2.1702    80.0214     0.2517     2.9266     4.5448   -17.9714
   99.0000     9.1958     0.3499     2.3006    80.4748     0.2187     3.2686     4.6398   -17.8218
   99.5000     9.3611     0.3979     2.4250    79.8772     0.1692     3.8848     4.8030   -16.9170
  100.0000     8.9398     0.3604     2.5037    77.9282     0.1077     4.6816     5.1828   -16.3142
  100.5000     8.5938     0.2517     2.5241    75.9792     0.0851     5.7600     6.2234   -15.8449
  101.0000     8.5636     0.2352     2.5302    72.8289     0.0806     6.7055     7.5669   -15.1090
  101.5000     8.5484     0.2101     2.5270    64.4235     0.1044     7.9149     8.7583   -14.6573
  102.0000     8.5633     0.1725     2.4880    55.8679     0.1245    10.4866    10.3530   -14.2056
  102.5000     8.5656     0.0763     2.4310    52.4174     0.1389    12.7550    11.0173   -14.0557
  103.0000     8.5729     0.0658     2.4160    52.4705     0.1506    14.8496    11.8057   -13.9061
  103.5000     8.5802     0.0627     2.4009    56.1777     0.1567    15.6934    12.5632   -13.7565
  104.0000     8.5875     0.0852     2.3897    64.2340     0.1626    14.8476    13.1855   -13.4562
  104.5000     8.5947     0.1017     2.3852    77.6547     0.1659    13.0188    13.5540   -13.4577
  105.0000     8.6020     0.0971     2.3909    84.0240     0.1524    11.2584    13.4401   -13.3081
  105.5000     8.6074     0.1061     2.4061    91.5641     0.1593     9.8037    12.4694   -13.3099
  106.0000     8.6072     0.1271     2.3814    96.7326     0.1878     8.0775    11.3943   -13.3414
  106.5000     8.6070     0.1027     2.3454    90.5801     0.1962     7.3799    10.3401   -13.4639
  107.0000     8.6220     0.0970     2.3319    84.2767     0.1935     7.1728     9.3834   -13.9186
  107.5000     8.6218     0.1390     2.3566    78.5739     0.1812     7.0815     8.6340   -14.3732
  108.0000     8.6367     0.1509     2.3926    70.7690     0.1529     7.0810     8.2815   -14.9789
  108.5000     8.6516     0.1284     2.4255    70.1706     0.1398     7.1792     8.1665   -15.4335
  109.0000     8.6815     0.1043     2.4383    71.9761     0.1359     7.4827     8.1654   -16.0393
  109.5000     8.6825     0.0832     2.4352    73.4805     0.1350     8.3000     8.3461   -15.4368
  110.0000     8.6962     0.0727     2.4225    74.7047     0.1416    11.1732     9.2466   -13.4746
  110.5000     8.7111     0.0681     2.4105    76.2402     0.1494    13.1892    10.3286   -12.2676
  111.0000     8.7110     0.0651     2.4037    77.2430     0.1503    14.2332    11.2221   -11.5138
  111.5000     8.7108     0.0635     2.4052    75.1446     0.1500    14.7302    11.9422   -11.2127
  112.0000     8.7107     0.0665     2.4179    72.7451     0.1461    14.8314    12.4471   -11.0632
  112.5000     8.7105     0.0754     2.4232    67.6429     0.1428    15.0369    12.7950   -11.0650
  113.0000     8.7176     0.0859     2.4216    67.0445     0.1407    15.2450    13.1526   -10.9154
  113.5000     8.7253     0.0949     2.4185    69.1503     0.1479    15.3500    13.5202   -10.6147
  114.0000     8.7402     0.0993     2.4134    71.2553     0.1504    15.6705    13.8981   -10.0124
  114.5000     8.7400     0.1008     2.4089    73.2102     0.1549    15.9981    14.2861    -9.4096
  115.0000     8.7398     0.1038     2.4043    73.8137     0.1582    16.4454    14.4834    -9.1086
  115.5000     8.7397     0.1083     2.3983    71.2648     0.1576    16.9055    14.6834    -8.8083
  116.0000     8.7395     0.1187     2.3931    70.0666     0.1573    17.3880    14.7839    -8.5077
  116.5000     8.7394     0.1276     2.3878    71.2707     0.1582    17.9882    14.9876    -8.3580
  117.0000     8.7392     0.1381     2.3825    73.2256     0.1621    18.4914    15.0897    -8.2085
  117.5000     8.7241     0.1576     2.3802    74.8802     0.1672    18.7480    15.1926    -8.0589
  118.0000     8.7088     0.1936     2.3795    73.3816     0.1597    19.0075    15.2960    -7.9093
  118.5000     8.7087     0.2371     2.3833    73.2342     0.1609    19.2709    15.4077    -7.7597
  119.0000     8.6935     0.2671     2.3937    73.5376     0.1585    19.5379    15.6129    -7.6105
  119.5000     8.6783     0.3076     2.4072    73.3904     0.1495    19.6722    15.8280    -7.4609
  120.0000     8.6481     0.3622     2.4244    73.2232     0.1369    19.9448    15.9364    -7.3113
  120.5000     8.6179     0.3870     2.4334    72.7956     0.1375    19.9489    16.1564    -7.1613
  121.0000     8.6027     0.3810     2.4222    72.3481     0.1432    20.0804    16.3796    -7.0121
  121.5000     8.5858     0.3689     2.4063    71.4509     0.1633    20.2184    16.6058    -7.0136
  122.0000     8.5723     0.3644     2.3911    69.6520     0.1609    20.2167    16.8345    -6.8640
  122.5000     8.5571     0.3763     2.4101    68.9034     0.1534    20.2153    16.9492    -6.7144
  123.0000     8.5570     0.3943     2.4266    69.2074     0.1451    20.2409    17.0718    -6.5648
  123.5000     8.5568     0.4033     2.4221    69.7250     0.1405    20.4941    17.3004    -6.4152
  124.0000     8.5416     0.3822     2.4176    69.7417     0.1447    20.7202    17.5393    -6.2656
  124.5000     8.5415     0.3687     2.4370    69.5165     0.1363    20.9208    17.7815    -6.1161
  125.0000     8.5263     0.3719     2.4648    69.8448     0.1207    21.0646    18.0264    -5.9668
  125.5000     8.4961     0.3746     2.4797    71.0246     0.1138    21.2093    18.2754    -5.8172
  126.0000     8.4658     0.3430     2.4698    70.7272     0.1195    21.3550    18.4005    -5.8087
  126.5000     8.4507     0.3069     2.4542    69.0785     0.1270    21.3532    18.5254    -5.6691
  127.0000     8.4505     0.2303     2.4497    67.1294     0.1288    21.5003    18.7811    -5.6710
  127.5000     8.4804     0.1852     2.4527    65.0303     0.1370    21.7979    18.9091    -5.6724
  128.0000     8.5104     0.1551     2.4242    63.6818     0.1470    22.0999    19.0379    -5.8249
  128.5000     8.5553     0.1611     2.4107    64.2854     0.1447    22.7182    19.0347    -5.9775
  129.0000     8.5855     0.1671     2.4212    66.2402     0.1375    23.1928    19.0321    -5.9789
  129.5000     8.6152     0.1605     2.4264    69.4690     0.1384    23.6774    19.0296    -5.9804
  130.0000     8.6451     0.1459     2.4234    72.8534     0.1423    24.1832    19.0270    -5.6798
  130.5000     8.6450     0.1414     2.4189    75.1086     0.1429    24.6770    19.0244    -5.0770
  131.0000     8.6599     0.1534     2.4331    76.9134     0.1330    25.0185    19.1547    -4.6257
  131.5000     8.6446     0.1623     2.4541    77.0657     0.1144    24.8445    19.1515    -4.3246
  132.0000     8.6445     0.1307     2.4601    76.7683     0.1181    24.5016    19.1489    -4.3265
  132.5000     8.6444     0.1112     2.4510    76.4717     0.1283    24.1635    19.1462    -4.3279
