~VERSION INFORMATION
 VERS.                2.0:   CWLS LOG ASCII STANDARD - VERSION 2.0
 WRAP.                 NO:   ONE LINE PER DEPTH STEP
~WELL INFORMATION
#MNEM.UNIT      DATA TYPE    INFORMATION
#----------   ------------   ------------------------------
 STRT.F           30.0000:   START DEPTH
 STOP.F          570.0000:   STOP DEPTH
 STEP.F            0.5000:   STEP LENGTH
 NULL.          -999.2500:   NO VALUE
 COMP.    FENIX & SCISSON:   COMPANY
 WELL.  NPR #3 #13SX11-11:   WELL
 FLD .             TEAPOT:   FIELD
 LOC .      S11 T38N R78W:   LOCATION
 CNTY.            NATRONA:   COUNTY
 STAT.            WYOMING:   STATE
 CTRY. UNITED STATES OF AMERICA:   COUNTRY
 SRVC.       Schlumberger:   SERVICE COMPANY
 DATE.        27-FEB-1977:   LOGDATE
 API .       490251029400:   API NUMBER
~CURVE INFORMATION
#MNEM.UNIT       API CODE    CURVE DESCRIPTION
#----------   ------------   ------------------------------
 DEPT.F                  :   
 GRD .GAPI   45 310 01 00:   GAMMA RAY FROM DENSITY LOG
 CALD.IN     45 280 60 00:   CALIPER FROM DENSITY LOG
 CORR.G/C3   45 356 01 00:   DENSITY CORRECTION
 DPHI.DEC    45 890 12 00:   DENSITY POROSITY STANDSTONE
 RHOB.G/C3   45 350 01 00:   BULK DENSITY
 SPR .MV     07 010 01 00:   SPONTANEOUS POTENTIAL
 ILD .OHMM   07 120 46 00:   INDUCTION LOG DEEP
 ILM .OHMM   07 120 44 00:   INDUCTION LOG MEDIUM
 LL8 .OHMM   07 220 08 00:   LATEROLOG-8 RES.
~PARAMETER INFORMATION
#MNEM.UNIT          VALUE    DESCRIPTION
#----------   ------------   ------------------------------
 PD  .                 GL:   PERMANENT DATUM
 EPD .F              5180:   ELEVATION PERMANENT DATUM
 LMF .                 GL:   LOG MEASURED FROM
 DAPD.F                 0:   FEET ABOVE PERMANENT DATUM
 DMF .                 GL:   DRILLING MEASURED FROM
 EKB .F              5183:   KELLING BUSHING
 EGL .F              5180:   GROUND LEVEL
 DATE.        27-FEB-1977:   RUN DATE
 RUN .                  1:   RUN NUMBER
 DD  .F               585:   DEPTH DRILLER
 DL  .F               571:   DEPTH LOGGER
 BLI .F               570:   BOTTOM LOG INTERVAL
 TLI .F                44:   TOP LOG INTERVAL
 CS  .IN            8.625:   CASING SIZE
 CBD .F                40:   CASING BOTTOM DRILLER
 CBL .F                44:   CASING BOTTOM LOGGER
 BS  .IN            7.875:   BIT SIZE
 BSD .F               585:   BIT SIZE AT DEPTH
 DFT .                KCL:   DRILLING FLUID TYPE
 DFD .                8.7:   DRILLING FLUID DENSITY
 DFV .                 42:   DRILLING FLUID VISCOSITY
 DFPH.                  8:   DRILLING FLUID PH
 DFL .                9.2:   DRILLING FLUID LOSS
 MSS .                PIT:   MUD SAMPLE SOURCE
 RMS .OHMM           .806:   RESISTIVITY MUD SAMPLE
 MST .F                70:   MUD SAMPLE TEMPERATURE
 RMF .OHMM           .720:   RESISTIVITY MUD FILTRATE SAMPLE
 MFST.F                70:   MUD FILTRATE SAMPLE TEMPERATURE
 MFSS.               MEAS:   MUD FILTRATE SAMPLE SOURCE
 RMB .OHMM           .973:   RESISTIVITY MUD AT BHT
 BHT .F                58:   BOTTOM HOLE TEMPERATURE
 TCS .HRS            0230:   TIME CURCULATED STOPPED
 MRT .F                58:   MAXIMUM RECORDED TEMPERATURE
 LUN .               5642:   LOGGING UNIT NUMBER
 LUL .             CASPER:   LOGGING UNIT LOCATION
 ENGI.         JIM MARTIN:   RECORDING ENGINEER
 WITN.         STUEBINGER:   WITNESSED BY
 CLNT.            A2DTECH:   CLIENT CODE
 ORIG.           5" PRINT:   ORIGIN OF DATA
 UWI .       490251029400:   UNIQUE WELL ID
 DICO. A2D Technologies, Inc.:   DIGITIZING COMPANY
~OTHER INFORMATION
~A   DEPT      GRD       CALD       CORR       DPHI       RHOB        SPR        ILD        ILM        LL8   
# ...
  431.5000    82.1285     8.0585     0.0070     0.1936     2.3304   -29.5120    17.0571    17.5125    17.1508
  432.0000    83.3373     8.0579    -0.0006     0.1951     2.3206   -29.2084    16.9339    17.3855    17.3844
  432.5000    83.9410     8.0573    -0.0063     0.2030     2.3169   -29.0558    16.6957    17.3715    17.6226
  433.0000    84.2421     8.0416     0.0041     0.1955     2.3288   -29.0543    16.5752    17.2533    17.6150
  433.5000    84.2405     8.0410     0.0079     0.1892     2.3404   -28.5997    16.5698    16.9957    17.4873
  434.0000    84.2330     8.0404     0.0131     0.1825     2.3537   -28.2960    16.5644    16.7696    17.2405
  434.5000    83.7731     8.0398     0.0183     0.1765     2.3611   -28.4456    16.5590    16.7438    16.9971
  435.0000    83.3132     8.0392     0.0212     0.1738     2.3603   -29.0483    16.4394    16.1857    16.6414
  435.5000    82.2088     8.0386     0.0017     0.1832     2.3452   -29.6511    16.0964    15.8470    16.0687
  436.0000    80.4024     8.0380    -0.0066     0.1741     2.3760   -29.6495    15.6519    15.4081    15.3019
  436.5000    82.7974     8.0374     0.0181     0.1627     2.3827   -29.6480    15.2196    15.1906    14.8781
  437.0000    86.1968     8.0368     0.0113     0.1687     2.3564   -29.6465    15.0055    14.9762    14.6681
  437.5000    84.9846     8.0362     0.0022     0.1790     2.3519   -29.6450    14.8972    14.9710    14.7651
  438.0000    85.8908     8.0356     0.0044     0.1799     2.3714   -29.3253    14.7896    14.9659    14.9662
  438.5000    86.7970     8.0350     0.0126     0.1718     2.3766   -29.0378    14.7848    14.9607    15.2756
  439.0000    87.5519     8.0344     0.0126     0.1619     2.3841   -28.8852    14.7800    14.9556    15.2704
  439.5000    88.0043     8.0338     0.0021     0.1600     2.3856   -28.8837    14.6733    14.9504    15.2651
  440.0000    86.9438     8.0332    -0.0040     0.1682     2.3653   -29.0333    14.5673    14.7394    15.2598
  440.5000    84.5217     8.0326     0.0087     0.1646     2.3788   -29.0314    14.4621    14.5314    15.0445
  441.0000    83.3099     8.0320     0.0207     0.1589     2.3878   -28.7278    14.3577    14.4260    14.7296
  441.5000    82.5520     8.0314     0.0131     0.1625     2.3848   -28.4242    14.3530    14.1240    14.6228
  442.0000    83.1556     8.0308     0.0018     0.1634     2.3757   -27.9695    14.2494    13.9247    14.8221
  442.5000    84.5157     8.0453     0.0009     0.1703     2.3652   -27.6659    14.1465    13.7281    14.8290
  443.0000    86.6322     8.0445     0.0055     0.1749     2.3592   -27.8158    13.9476    13.4408    14.5031
  443.5000    88.1436     8.0439     0.0070     0.1761     2.3637   -28.2671    13.8469    13.2511    13.9101
  444.0000    84.5112     8.0433     0.0129     0.1710     2.3899   -28.5681    13.5579    13.0641    13.4283
  444.5000    82.8456     8.0427     0.0181     0.1589     2.3951   -29.0194    13.3669    12.9693    13.1619
  445.0000    81.4825     8.0574     0.0151     0.1559     2.3951   -29.0179    13.1792    12.9648    12.9777
  445.5000    80.4220     8.0566     0.0053     0.1581     2.3966   -29.0164    13.1691    12.9604    12.8852
  446.0000    81.4795     8.0560     0.0180     0.1550     2.4018   -29.0149    13.0713    12.9559    12.8827
  446.5000    82.9908     8.0705     0.0149     0.1470     2.4101   -28.8624    12.8957    12.9514    12.7910
  447.0000    84.0483     8.0699     0.0224     0.1399     2.4168   -28.5587    12.8025    12.9470    12.7885
  447.5000    85.1058     8.0693     0.0263     0.1333     2.4250   -28.4062    12.7983    12.9425    12.6974
  448.0000    86.3146     8.0687     0.0283     0.1316     2.4295   -28.4047    12.7933    12.9381    12.7841
  448.5000    87.2208     8.0833     0.0117     0.1355     2.4235   -28.4032    12.7891    12.9336    12.8707
  449.0000    88.2783     8.0826     0.0005     0.1539     2.4017   -28.4017    12.9642    12.9292    13.0483
  449.5000    89.4871     8.0820     0.0087     0.1575     2.3949   -28.4002    13.1406    12.9247    13.1368
  450.0000    90.5446     8.0814    -0.0041     0.1587     2.3956   -28.9606    13.1338    13.0102    13.4103
  450.5000    89.9294     8.0809     0.0101     0.1447     2.4047   -29.6043    13.1108    13.1174    13.5018
  451.0000    90.8784     8.0803     0.0190     0.1371     2.4203   -28.5247    13.4762    13.2768    13.5933
  451.5000    90.9940     8.0797     0.0002     0.1410     2.4225   -27.7849    13.5672    13.5522    13.5900
  452.0000    87.5126     8.0791     0.0069     0.1450     2.4180   -27.6309    13.6589    13.6428    13.5873
  452.5000    85.8469     8.0785     0.0100     0.1402     2.4179   -27.9300    13.6557    13.6381    13.6795
  453.0000    85.0890     8.0779     0.0023     0.1417     2.4081   -28.3802    13.5590    13.5402    13.8682
  453.5000    84.6337     8.0773    -0.0022     0.1450     2.4006   -28.6793    13.4630    13.4429    13.9622
  454.0000    85.2373     8.0767    -0.0083     0.1487     2.3998   -28.9785    13.1839    13.1625    13.9594
  454.5000    86.1435     8.0761    -0.0066     0.1451     2.4103   -28.9755    12.9106    12.9777    13.9567
  455.0000    86.8985     8.0755     0.0153     0.1344     2.4180   -28.9725    12.7308    12.7954    13.6480
  455.5000    87.9560     8.0749     0.0248     0.1276     2.4338   -29.1214    12.3809    12.4419    13.2758
  456.0000    88.7113     8.0743     0.0297     0.1349     2.4349   -28.9666    12.1242    12.2445    12.9954
  456.5000    85.5324     8.0737     0.0034     0.1424     2.4146   -28.9636    11.9554    11.9275    12.6519
  457.0000    83.5642     8.0731     0.0049     0.1500     2.3935   -28.9606    11.7075    11.7600    12.3026
  457.5000    82.2011     8.0725    -0.0012     0.1554     2.3837   -28.6556    11.6246    11.6755    12.0463
  458.0000    85.6792     8.0720     0.0025     0.1603     2.3889   -28.5015    11.6224    11.5916    11.7137
  458.5000    89.0060     8.0714     0.0115     0.1543     2.3994   -28.4869    11.5401    11.5885    11.5497
  459.0000    85.0590     8.0708     0.0144     0.1477     2.4083   -28.3444    11.6181    11.5853    11.4674
  459.5000    83.2542     8.0702     0.0106     0.1438     2.4121   -28.3408    11.6154    11.6636    11.3069
  460.0000    85.4916     8.0696    -0.0029     0.1531     2.4105   -28.1868    11.6938    11.6596    11.3046
  460.5000    88.9997     8.0690    -0.0075     0.1634     2.3827   -27.8817    11.6917    11.7383    11.3024
  461.0000    92.1752     8.0684     0.0030     0.1405     2.3774   -27.7276    12.0175    11.7343    11.3002
  461.5000    94.1404     8.0678     0.0074     0.1397     2.4186   -27.5736    12.3525    12.0611    11.2980
  462.0000    95.0470     8.0672     0.0134     0.1408     2.4231   -27.7217    12.7850    12.3970    11.3751
  462.5000    94.1375     8.0666     0.0103     0.1319     2.4253   -27.8705    13.6040    13.1007    11.3723
  463.0000    93.3795     8.0660     0.0013     0.1307     2.4268   -27.8668    14.9851    14.4666    11.6907
  463.5000    92.7729     8.0654     0.0072     0.1347     2.4215   -27.7128    16.2795    16.6533    16.5462
  464.0000    91.7124     8.0648    -0.0011     0.1481     2.3914   -27.7098    18.1821    19.0353    21.3949
  464.5000    90.5006     8.0642    -0.0003     0.1557     2.3996   -27.7068    21.4629    22.3213    24.4109
  465.0000    89.8940     8.0636     0.0055     0.1467     2.4108   -27.7039    24.6440    25.4583    26.3454
  465.5000    89.7412     8.0630    -0.0020     0.1461     2.4078   -27.5498    29.0909    29.6467    27.8465
  466.0000    89.2859     8.0625     0.0109     0.1501     2.4027   -27.5428    32.9618    33.5795    30.0774
  466.5000    85.0484     8.0619     0.0174     0.1738     2.3571   -27.3927    35.8339    37.5101    34.1497
  467.0000    79.6006     8.0612     0.0166     0.2027     2.3025   -27.2387    38.1221    39.3654    38.7523
  467.5000    75.6656     8.0309     0.0098     0.2316     2.2509   -27.0840    38.3391    39.6312    54.7355
