~VERSION INFORMATION
 VERS.                2.0:   CWLS LOG ASCII STANDARD - VERSION 2.0
 WRAP.                 NO:   ONE LINE PER DEPTH STEP
~WELL INFORMATION
#MNEM.UNIT      DATA TYPE    INFORMATION
#----------   ------------   ------------------------------
 STRT.F         1420.0000:   START DEPTH
 STOP.F         1656.0000:   STOP DEPTH
 STEP.F            0.5000:   STEP LENGTH
 NULL.          -999.2500:   NO VALUE
 COMP. FENIX & SCISSON INC:   COMPANY
 WELL.         N/A #204-3:   WELL
 FLD .             TEAPOT:   FIELD
 LOC .       S3 T38N R78W:   LOCATION
 CNTY.            NATRONA:   COUNTY
 STAT.            WYOMING:   STATE
 CTRY. UNITED STATES OF AMERICA:   COUNTRY
 SRVC.            Unknown:   SERVICE COMPANY
 DATE.        11-JAN-1993:   LOGDATE
 API .       490251073600:   API NUMBER
~CURVE INFORMATION
#MNEM.UNIT       API CODE    CURVE DESCRIPTION
#----------   ------------   ------------------------------
 DEPT.F                  :   
 ROP .MIN/FT 91 810 01 00:   RATE OF DRILLING PENETRATION
 TGAS.UNITS  91 830 01 00:   TOTAL GAS FROM HOTWIRE
~PARAMETER INFORMATION
#MNEM.UNIT          VALUE    DESCRIPTION
#----------   ------------   ------------------------------
 EKB .F              5180:   KELLING BUSHING
 EGL .F              5170:   GROUND LEVEL
 DATE.            1-11-93:   RUN DATE
 BLI .F              1620:   BOTTOM LOG INTERVAL
 TLI .F              1420:   TOP LOG INTERVAL
 CS  .IN             15.5:   CASING SIZE
 ENGI.            R. HUSK:   RECORDING ENGINEER
 WITN.           C. TOWER:   WITNESSED BY
 CLNT.            A2DTECH:   CLIENT CODE
 ORIG.           5" PRINT:   ORIGIN OF DATA
 UWI .       490251073600:   UNIQUE WELL ID
 DICO. A2D Technologies, Inc.:   DIGITIZING COMPANY
~OTHER INFORMATION
~A  DEPT         ROP      TGAS  
# ...
 1541.5000     1.2629    14.8220
 1542.0000     1.3575    14.9235
 1542.5000     1.4729    15.0251
 1543.0000     1.5570    15.1266
 1543.5000     1.6725    15.2281
 1544.0000     1.7983    15.3296
 1544.5000     1.8407    15.4311
 1545.0000     1.6291    15.5326
 1545.5000     1.5289    15.6341
 1546.0000     1.4773    15.7356
 1546.5000     1.4362    15.8371
 1547.0000     1.3950    15.9386
 1547.5000     1.3642    16.0401
 1548.0000     1.3232    16.1417
 1548.5000     1.2820    16.2432
 1549.0000     1.2294    16.3447
 1549.5000     1.1686    16.4462
 1550.0000     1.1170    16.5559
 1550.5000     1.0860    15.3799
 1551.0000     1.2119    14.1001
 1551.5000     1.2646    12.5787
 1552.0000     1.2965    12.6295
 1552.5000     1.2959    12.6802
 1553.0000     1.2870    12.7310
 1553.5000     1.2877    12.7860
 1554.0000     1.2673    12.8276
 1554.5000     1.2468    12.8726
 1555.0000     1.2056    12.9043
 1555.5000     1.1123    12.9359
 1556.0000     1.0396    12.9676
 1556.5000     1.0089    12.9992
 1557.0000     1.0094    13.0308
 1557.5000     1.0308    13.0625
 1558.0000     1.1077    13.0941
 1558.5000     1.3300    13.1258
 1559.0000     1.5022    13.1574
 1559.5000     1.5862    13.1891
 1560.0000     1.7015    13.2207
 1560.5000     1.8064    13.2523
 1561.0000     1.9113    13.2840
 1561.5000     2.0267    13.3156
 1562.0000     2.1211    13.3473
 1562.5000     2.1321    13.3789
 1563.0000     2.1326    13.4105
 1563.5000     2.1331    13.4422
 1564.0000     2.1013    13.4738
 1564.5000     2.0260    13.5055
 1565.0000     1.9155    13.5371
 1565.5000     1.8117    13.5688
 1566.0000     1.7182    13.6004
 1566.5000     1.6144    13.6320
 1567.0000     1.5209    13.6637
 1567.5000     1.4275    13.6953
 1568.0000     1.3445    13.7270
 1568.5000     1.2719    13.7586
 1569.0000     1.1889    13.7902
 1569.5000     1.1373    13.8219
 1570.0000     1.1489    13.8535
 1570.5000     1.6290    13.8852
 1571.0000     2.0575    13.9168
 1571.5000     2.5695    13.9485
 1572.0000     2.6012    13.9801
 1572.5000     2.5704    14.0117
 1573.0000     2.5710    14.0434
 1573.5000     2.5924    14.0750
 1574.0000     2.6347    14.1067
 1574.5000     2.6874    14.1383
 1575.0000     2.7296    14.1699
 1575.5000     2.8373    14.2016
 1576.0000     2.9744    14.2332
 1576.5000     2.9088    14.2649
 1577.0000     2.7736    14.2965
 1577.5000     2.6488    14.3282
 1578.0000     2.5763    14.3598
 1578.5000     2.6185    14.3914
 1579.0000     2.7130    14.4231
 1579.5000     2.8283    14.4547
 1580.0000     2.9541    14.4921
 1580.5000     2.8085    14.4494
 1581.0000     2.5660    14.3975
 1581.5000     2.2666    14.3455
 1582.0000     1.7350    14.2935
 1582.5000     1.5057    14.2415
 1583.0000     1.7360    14.1895
 1583.5000     1.8826    14.1376
 1584.0000     2.0084    14.0856
 1584.5000     1.9567    14.0336
 1585.0000     1.8320    13.9816
 1585.5000     1.7803    13.9296
 1586.0000     1.7495    13.8777
 1586.5000     1.9483    13.8257
 1587.0000     2.3000    13.7737
 1587.5000     2.8419    13.7217
 1588.0000     3.3801    13.6698
 1588.5000     3.4535    13.6178
 1589.0000     3.3184    13.5658
 1589.5000     3.1728    13.5138
 1590.0000     2.9646    13.4618
 1590.5000     3.0381    13.4099
 1591.0000     3.4666    13.3579
 1591.5000     3.8220    13.3059
 1592.0000     4.0522    13.2539
 1592.5000     4.0840    13.2019
 1593.0000     4.0846    13.1500
 1593.5000     4.0852    13.0980
 1594.0000     3.9813    13.0460
 1594.5000     1.2052    12.9940
 1595.0000     1.1222    12.9421
 1595.5000     1.0705    12.8901
 1596.0000     1.0396    12.8381
 1596.5000     1.0297    12.7861
 1597.0000     1.0407    12.7341
 1597.5000     1.0412    12.6822
 1598.0000     1.0418    12.6302
 1598.5000     0.9773    12.5782
 1599.0000     0.8724    12.5262
 1599.5000     0.8136    12.4742
 1600.0000     0.8037    12.4180
 1600.5000     0.9708    12.5332
 1601.0000     1.0125    12.6587
 1601.5000     1.0125    12.7841
 1602.0000     1.0125    12.9096
 1602.5000     1.0230    13.0350
 1603.0000     1.0125    13.1605
 1603.5000     1.0125    13.2860
 1604.0000     1.0230    13.4114
 1604.5000     1.0230    13.5418
 1605.0000     1.0125    13.5519
 1605.5000     1.0125    14.5966
 1606.0000     1.0125    15.6419
 1606.5000     1.0021    16.6882
 1607.0000     1.0021    17.7311
 1607.5000     0.9916    17.7414
 1608.0000     0.9812    18.3103
 1608.5000     0.9812    19.8312
 1609.0000     0.9812    19.7290
 1609.5000     0.9812    19.6248
 1610.0000     1.0056    19.5205
 1610.5000     1.2824    19.4163
 1611.0000     1.5971    19.3120
 1611.5000     2.0355    19.2078
 1612.0000     1.8789    19.1035
 1612.5000     1.6806    18.9993
 1613.0000     1.4405    18.8950
 1613.5000     1.1900    18.7908
 1614.0000     1.0230    18.6865
 1614.5000     1.0230    18.5823
 1615.0000     1.0230    18.4781
 1615.5000     1.0230    18.3738
 1616.0000     1.0230    18.2696
 1616.5000     1.2317    18.1653
 1617.0000     1.6910    18.0611
 1617.5000     2.0146    17.9568
 1618.0000     2.1921    17.8526
 1618.5000     2.3069    17.7483
 1619.0000     2.4217    17.6441
 1619.5000     2.5267    17.5398
 1620.0000     2.6333    17.4356
 1620.5000     2.7035    17.3313
 1621.0000     2.8079    17.2271
 1621.5000     2.8914    17.1228
 1622.0000     3.0063    17.0186
 1622.5000     3.0271    16.9143
 1623.0000     3.0271    16.8101
 1623.5000     3.0271    16.7058
 1624.0000     2.8914    16.6016
 1624.5000     2.3910    16.4973
 1625.0000     1.6789    16.3931
 1625.5000     1.5449    16.2888
 1626.0000     1.5240    16.1846
 1626.5000     1.5240    16.0804
 1627.0000     1.5240    15.9761
 1627.5000     1.5240    15.8719
 1628.0000     1.5240    15.7676
 1628.5000     1.5240    15.6634
 1629.0000     1.5136    15.5591
 1629.5000     1.5136    15.4549
 1630.0000     1.5136    15.3506
 1630.5000     1.5240    15.2464
 1631.0000     1.5449    15.1421
 1631.5000     1.4092    15.0379
 1632.0000     1.2526    14.9336
 1632.5000     1.1587    14.8294
 1633.0000     1.0752    14.7251
 1633.5000     1.0543    14.6209
 1634.0000     1.1276    14.5166
 1634.5000     1.2045    14.4124
 1635.0000     1.3361    14.3081
 1635.5000     1.4301    14.2039
 1636.0000     1.5553    14.0996
 1636.5000     1.7223    13.9954
 1637.0000     1.9311    13.8911
 1637.5000     2.0251    13.7869
 1638.0000     2.0146    13.6827
 1638.5000     1.9833    13.5784
 1639.0000     1.9612    13.4742
 1639.5000     1.8981    13.3699
 1640.0000     1.8058    13.2657
 1640.5000     1.7328    13.2265
 1641.0000     1.6597    13.2049
 1641.5000     1.5658    13.1832
 1642.0000     1.5553    13.1615
 1642.5000     1.5658    13.1399
 1643.0000     1.5658    13.1182
 1643.5000     1.5866    13.0966
 1644.0000     1.5971    13.0749
 1644.5000     1.5762    13.0533
 1645.0000     1.5553    13.0316
 1645.5000     1.5031    13.0100
 1646.0000     1.4196    12.9883
 1646.5000     1.3152    12.9667
 1647.0000     1.1795    12.9450
 1647.5000     1.0647    12.9234
 1648.0000     1.0125    12.9017
 1648.5000     1.0970    12.8800
 1649.0000     1.2461    12.8584
 1649.5000     1.3987    12.8367
 1650.0000     1.4718    12.8151
 1650.5000     1.3818    12.7934
 1651.0000     1.2539    12.7718
 1651.5000     1.0771    12.7501
 1652.0000     0.9713    12.7285
 1652.5000     1.1305    12.7068
 1653.0000     1.6371    12.6852
 1653.5000     1.9878    12.6635
 1654.0000     2.1867    12.6419
 1654.5000     2.3439    12.6202
 1655.0000     2.4203    12.5985
 1655.5000     2.4809    12.5769
 1656.0000  -999.2500    12.5552
