~VERSION INFORMATION
 VERS.                2.0:   CWLS LOG ASCII STANDARD - VERSION 2.0
 WRAP.                 NO:   ONE LINE PER DEPTH STEP
~WELL INFORMATION
#MNEM.UNIT      DATA TYPE    INFORMATION
#----------   ------------   ------------------------------
 STRT.F           20.5000:   START DEPTH
 STOP.F          544.0000:   STOP DEPTH
 STEP.F            0.5000:   STEP LENGTH
 NULL.          -999.2500:   NO VALUE
 COMP. LAWRENCE/ALLISON INC:   COMPANY
 WELL.    45-65 SX #10-10:   WELL
 FLD .             TEAPOT:   FIELD
 LOC .      S10 T38N R78W:   LOCATION
 CNTY.            NATRONA:   COUNTY
 STAT.            WYOMING:   STATE
 CTRY. UNITED STATES OF AMERICA:   COUNTRY
 SRVC.            Unknown:   SERVICE COMPANY
 DATE.        01-SEP-1984:   LOGDATE
 API .       490251098400:   API NUMBER
~CURVE INFORMATION
#MNEM.UNIT       API CODE    CURVE DESCRIPTION
#----------   ------------   ------------------------------
 DEPT.F                  :   
 GRD .GAPI   45 310 01 00:   GAMMA RAY FROM DENSITY LOG
 CALD.IN     45 280 60 00:   CALIPER
 DEN .G/C3   45 350 01 00:   COMPENSATED BULK DENSTIY
 CORR.G/C3   45 356 01 00:   DENSITY CORRECTION
 CNC .DEC    42 890 03 00:   NEUTRON POROSITY SANDSTONE
 PORD.DEC    45 890 12 00:   POROSITY DENSITY SANDSTONE
 AC  .US/F   60 520 00 00:   ACOUSTIC SONIC
 SPR .MV     07 010 01 00:   SPONTANEOUS POTENTIAL
 RILD.OHMM   07 120 46 00:   INDUCTION LOG DEEP RESISTIVITY
 RILM.OHMM   07 120 44 00:   INDUCTION LOG MEDIUM RESISTIVITY
 RFOC.OHMM   07 220 04 00:   RESISTIVITY FOCUSED LOG
~PARAMETER INFORMATION
#MNEM.UNIT          VALUE    DESCRIPTION
#----------   ------------   ------------------------------
 PD  .                 GL:   PERMANENT DATUM
 EPD .F              5208:   ELEVATION PERMANENT DATUM
 LMF .                 KB:   LOG MEASURED FROM
 DAPD.F                12:   FEET ABOVE PERMANENT DATUM
 DMF .                 KB:   DRILLING MEASURED FROM
 EKB .F              5220:   KELLING BUSHING
 EGL .F              5208:   GROUND LEVEL
 DATE.        1-SEPT-1984:   RUN DATE
 RUN .                  1:   RUN NUMBER
 DD  .F               550:   DEPTH DRILLER
 DL  .F               544:   DEPTH LOGGER
 BLI .F               544:   BOTTOM LOG INTERVAL
 TLI .F                30:   TOP LOG INTERVAL
 CBL .F                44:   CASING BOTTOM LOGGER
 BS  .IN            7.875:   BIT SIZE
 BSD .F               550:   BIT SIZE AT DEPTH
 DFT .          KCL WATER:   DRILLING FLUID TYPE
 MSS .               TANK:   MUD SAMPLE SOURCE
 RMS .OHMM           .236:   RESISTIVITY MUD SAMPLE
 MST .F                75:   MUD SAMPLE TEMPERATURE
 TCS .HRS               3:   TIME CURCULATED STOPPED
 MRT .F               100:   MAXIMUM RECORDED TEMPERATURE
 LUN .               4082:   LOGGING UNIT NUMBER
 LUL .               ROOS:   LOGGING UNIT LOCATION
 ENGI.             MILLER:   RECORDING ENGINEER
 WITN.            JOHNSON:   WITNESSED BY
 CLNT.            A2DTECH:   CLIENT CODE
 ORIG.       2", 5" PRINT:   ORIGIN OF DATA
 UWI .       490251098400:   UNIQUE WELL ID
 DICO. A2D Technologies, Inc.:   DIGITIZING COMPANY
~OTHER INFORMATION
~A   DEPT      GRD       CALD        DEN       CORR          CNC     PORD         AC        SPR       RILD       RILM       RFOC   
# ...
  234.0000   120.0266     8.4175     2.3858     0.0327     0.2794     0.1790   110.0849   -19.8271     5.4112     5.7712     8.3173
  234.5000   116.4992     8.4144     2.3624     0.0469     0.2513     0.1707   109.6359   -19.9334     5.1547     5.4854     8.3175
  235.0000   112.1172     8.4114     2.3991     0.0379     0.2597     0.1629   110.7243   -20.0404     5.1150     5.3478     6.6007
  235.5000   109.3111     8.4083     2.4369     0.0294     0.2469     0.1196   113.4145   -20.1075     5.2200     5.5177     5.5293
  236.0000   112.4681     8.4052     2.4697     0.0209     0.2503     0.1127   116.1047   -19.8088     5.2963     5.7128     5.0126
  236.5000   117.8404     8.4021     2.4813     0.0124     0.2566     0.1130   118.7712   -19.4641     5.3735     5.9148     6.0264
  237.0000   122.7197     8.3990     2.4896     0.0057     0.2524     0.1175   117.4526   -19.1175     5.5224     6.1240     7.1282
  237.5000   123.5662     8.3958     2.4944     0.0123     0.2389     0.1270   114.3007   -18.7740     5.7821     6.3405     8.4718
  238.0000   118.5629     8.3956     2.4849     0.0199     0.2360     0.1214   110.8295   -18.5065     6.0543     6.5647     8.4679
  238.5000   113.6512     8.3956     2.4706     0.0274     0.2332     0.1275   107.5860   -18.6749     6.3395     6.7969     8.2755
  239.0000   113.2002     8.3956     2.4657     0.0368     0.2304     0.1186   107.3878   -18.9153     6.6380     7.0372     8.0875
  239.5000   113.1608     8.3956     2.4746     0.0468     0.2357     0.1137   107.4671   -19.1580     6.8236     7.1119     8.0875
  240.0000   112.0956     8.3956     2.4878     0.0569     0.2657     0.1154   106.9760   -19.4007     6.8556     7.0873     8.1529
  240.5000   109.2599     8.3956     2.4871     0.0653     0.2600     0.1098   106.0151   -19.6432     6.8557     7.0065     8.2471
  241.0000   104.2134     8.3956     2.4889     0.0456     0.2553     0.1204   105.3409   -19.8857     6.6271     6.7140     8.3430
  241.5000    98.7752     8.3956     2.4951     0.0230     0.2742     0.1363   104.6853   -20.1283     6.2692     6.3495     8.4408
  242.0000    98.9574     8.3956     2.4915     0.0269     0.2605     0.1255   100.8045   -20.3708     5.7497     6.0049     8.5393
  242.5000   107.5094     8.3956     2.4667     0.0364     0.2613     0.1391    95.9940   -20.6159     5.2731     5.6789     7.9067
  243.0000   114.8036     8.3956     2.4503     0.0458     0.2610     0.1237    95.8221   -20.6908     4.8558     5.3707     6.9879
  243.5000   114.6584     8.3956     2.4578     0.0533     0.2598     0.1141    99.5675   -20.7061     4.7201     5.1311     5.6562
  244.0000   108.8449     8.3956     2.4703     0.0571     0.2656     0.1159   111.4120   -20.4442     4.9801     5.2278     4.8781
  244.5000   108.4318     8.3956     2.4817     0.0609     0.2647     0.1111   120.9054   -20.2918     5.1483     5.3340     5.4654
  245.0000   113.5963     8.3956     2.4860     0.0656     0.2644     0.0966   125.6643   -20.1292     5.0842     5.4863     6.4291
  245.5000   118.7652     8.3956     2.4923     0.0521     0.2613     0.1006   125.5644   -19.9681     5.0146     5.4721     7.8883
  246.0000   123.0138     8.3956     2.5017     0.0295     0.2602     0.0974   123.5820   -19.8072     5.2471     5.8257     7.5835
  246.5000   122.5849     8.3938     2.5111     0.0069     0.2596     0.1037   122.1678   -19.6462     5.5982     6.1349     7.2429
  247.0000   115.5252     8.3911     2.5172    -0.0063     0.2515     0.1117   120.9602   -19.4848     5.9727     6.4600     7.2825
  247.5000   110.8183     8.3883     2.5162     0.0052     0.2105     0.1122   118.7575   -19.3249     6.3723     6.7985     7.6910
  248.0000   109.2384     8.3855     2.5055     0.0220     0.2148     0.1137   113.1608   -19.3065     6.9341     7.1219     8.1225
  248.5000   109.9721     8.3827     2.4950     0.0382     0.2096     0.1115   107.7582   -19.3057     7.1020     7.3811     8.5781
  249.0000   111.6990     8.3799     2.4882     0.0458     0.2100     0.1070   104.6122   -19.3027     7.2738     7.6497     8.6872
  249.5000   113.6427     8.3772     2.4900     0.0452     0.2272     0.1083   104.0060   -19.3348     7.4499     7.9281     8.8130
  250.0000   116.7622     8.3762     2.4950     0.0350     0.2200     0.1095   103.7478   -19.8712     7.6302     8.0275     8.9406
  250.5000   118.7435     8.3771     2.4994     0.0250     0.2208     0.1101   103.4897   -20.3943     7.8009     8.0555     9.1141
  251.0000   117.8193     8.3781     2.4990     0.0150     0.2203     0.1096   103.2315   -20.9115     7.8525     8.0836     9.0930
  251.5000   116.3071     8.3790     2.4961     0.0061     0.2116     0.1088   102.9734   -21.4318     7.9044     8.1118     9.0739
  252.0000   114.8299     8.3799     2.4936     0.0069     0.2160     0.1077   102.7152   -21.6789     7.9567     8.1401     9.0550
  252.5000   113.5662     8.3808     2.4946     0.0108     0.2116     0.1077   102.6267   -21.7042     8.0093     8.1685     9.0354
  253.0000   112.7417     8.3818     2.4970     0.0145     0.2165     0.1135   102.5587   -21.7740     8.0623     8.1970     9.0308
  253.5000   108.4902     8.3827     2.4994     0.0182     0.2239     0.1123   102.4907   -21.8421     8.1154     8.2256     9.0307
  254.0000   103.9051     8.3836     2.5011     0.0219     0.2296     0.1139   102.4228   -21.9107     8.1619     8.2543     9.1000
  254.5000   102.0593     8.3846     2.4947     0.0256     0.2295     0.1125   102.2271   -21.9792     8.1698     8.2842     9.1959
  255.0000   106.2470     8.3855     2.4883     0.0293     0.2328     0.1102   101.8581   -22.0478     8.1804     8.3137     9.2929
  255.5000   108.9637     8.3864     2.4878     0.0321     0.2460     0.1154   101.4843   -22.0613     8.1909     8.4044     9.3909
  256.0000   109.4126     8.3873     2.4928     0.0320     0.2309     0.1130   101.1104   -22.0090     8.2014     8.4453     9.4554
  256.5000   108.7274     8.3883     2.4943     0.0263     0.2315     0.1194   100.7365   -21.9569     8.2119     8.4865     9.3964
  257.0000   109.2209     8.3892     2.4885     0.0100     0.2320     0.1035   100.6893   -21.9037     8.2224     8.5278     9.2292
  257.5000   110.1982     8.3901     2.4836    -0.0057     0.2321     0.0944   101.0240   -21.8524     8.2336     8.5461     9.0649
  258.0000   111.1071     8.3910     2.4867    -0.0136     0.2360     0.0982   101.5559   -21.7683     8.3193     8.6273     8.9007
  258.5000   109.1803     8.3920     2.5010    -0.0047     0.2359     0.0950   102.1791   -21.6842     8.4669     8.8553     8.8662
  259.0000   104.4348     8.3929     2.5150     0.0040     0.2357     0.1028   102.4875   -21.9203     8.6170     9.0893     9.3165
  259.5000   100.1245     8.3938     2.5222     0.0124     0.2494     0.1210   101.8923   -22.3330     8.7698     9.3302     9.6605
  260.0000   100.4366     8.3948     2.5157     0.0296     0.2745     0.1125   100.6064   -22.7472     9.0307     9.6386    10.0172
  260.5000   105.6598     8.3956     2.5087     0.0477     0.2698     0.1066    99.1061   -23.1617     9.1141     9.6395    10.3870
  261.0000   107.2714     8.3956     2.5016     0.0659     0.2641     0.1595    97.8467   -23.5763     8.2562     8.6463    10.7705
  261.5000   108.9150     8.3960     2.4588     0.0762     0.2770     0.1563    96.9088   -23.9913     7.5818     7.7488    10.9535
  262.0000   114.3788     8.3961     2.3978     0.0782     0.2202     0.2092    96.3936   -24.4018     6.2646     6.9445    11.0547
  262.5000   119.8464     8.4033     2.3251     0.0901     0.2227     0.2076    97.0037   -24.5924     5.1634     6.2209     9.1645
  263.0000   120.7674     8.3383     2.3592     0.0767     0.2265     0.0986    98.5900   -24.2248     4.9687     5.5963     6.6914
  263.5000   114.8034     8.2756     2.4273     0.0514     0.2197     0.0914   106.1819   -23.8666     5.2796     5.5967     4.8983
  264.0000   107.9321     8.2179     2.4959     0.0318     0.2275     0.0998   115.5423   -23.5077     5.6087     5.9966     4.2687
