~VERSION INFORMATION
 VERS.                2.0:   CWLS LOG ASCII STANDARD - VERSION 2.0
 WRAP.                 NO:   ONE LINE PER DEPTH STEP
~WELL INFORMATION
#MNEM.UNIT      DATA TYPE    INFORMATION
#----------   ------------   ------------------------------
 STRT.F            0.0000:   START DEPTH
 STOP.F         2694.5000:   STOP DEPTH
 STEP.F            0.5000:   STEP LENGTH
 NULL.          -999.2500:   NO VALUE
 COMP. FENIX & SCISSON INC:   COMPANY
 WELL.       102 A #20-20:   WELL
 FLD .        TEAPOT DOME:   FIELD
 LOC .      S20 T39N R78W:   LOCATION
 CNTY.            NATRONA:   COUNTY
 STAT.            WYOMING:   STATE
 CTRY. UNITED STATES OF AMERICA:   COUNTRY
 SRVC.            Unknown:   SERVICE COMPANY
 DATE.        17-AUG-1965:   LOGDATE
 API .       490251022200:   API NUMBER
~CURVE INFORMATION
#MNEM.UNIT       API CODE    CURVE DESCRIPTION
#----------   ------------   ------------------------------
 DEPT.F                  :   
 CALI.IN     30 280 01 00:   CALIPER FROM GAMMA RAY LOG
 GR  .GAPI   30 310 01 00:   GAMMA RAY
~PARAMETER INFORMATION
#MNEM.UNIT          VALUE    DESCRIPTION
#----------   ------------   ------------------------------
 PD  .                 GL:   PERMANENT DATUM
 LMF .                 GL:   LOG MEASURED FROM
 DMF .                 GL:   DRILLING MEASURED FROM
 DATE.            8-17-65:   RUN DATE
 RUN .                  1:   RUN NUMBER
 DD  .F            2696.5:   DEPTH DRILLER
 DL  .F              2697:   DEPTH LOGGER
 BLI .F              2695:   BOTTOM LOG INTERVAL
 TLI .F              2000:   TOP LOG INTERVAL
 CS  .IN                7:   CASING SIZE
 CBD .F              2678:   CASING BOTTOM DRILLER
 DFT .                OIL:   DRILLING FLUID TYPE
 TCS .HRS               1:   TIME CURCULATED STOPPED
 ENGI.            JACKSON:   RECORDING ENGINEER
 WITN.          JORGENSEN:   WITNESSED BY
 CLNT.            A2DTECH:   CLIENT CODE
 ORIG.           5" PRINT:   ORIGIN OF DATA
 UWI .       490251022200:   UNIQUE WELL ID
 DICO. A2D Technologies, Inc.:   DIGITIZING COMPANY
~OTHER INFORMATION
~A    DEPT      CALI       GR   
# ...
  850.5000     6.4778  -999.2500
  851.0000     6.4804  -999.2500
  851.5000     6.4829  -999.2500
  852.0000     6.4846  -999.2500
  852.5000     6.4861  -999.2500
  853.0000     6.4876  -999.2500
  853.5000     6.4892  -999.2500
  854.0000     6.4907  -999.2500
  854.5000     6.4922  -999.2500
  855.0000     6.4931  -999.2500
  855.5000     6.4931  -999.2500
  856.0000     6.4931  -999.2500
  856.5000     6.4932  -999.2500
  857.0000     6.4908  -999.2500
  857.5000     6.4880  -999.2500
  858.0000     6.4851  -999.2500
  858.5000     6.4863  -999.2500
  859.0000     6.4951  -999.2500
  859.5000     6.5038  -999.2500
  860.0000     6.5124  -999.2500
  860.5000     6.5076  -999.2500
  861.0000     6.5070  -999.2500
  861.5000     6.5234  -999.2500
  862.0000     6.4879  -999.2500
  862.5000     6.4785  -999.2500
  863.0000     6.5018  -999.2500
  863.5000     6.4720  -999.2500
  864.0000     6.4564  -999.2500
  864.5000     6.4706  -999.2500
  865.0000     6.5016  -999.2500
  865.5000     6.4836  -999.2500
  866.0000     6.4652  -999.2500
  866.5000     6.4915  -999.2500
  867.0000     6.5135  -999.2500
  867.5000     6.5123  -999.2500
  868.0000     6.4857  -999.2500
  868.5000     6.4450  -999.2500
  869.0000     6.4435  -999.2500
  869.5000     6.4356  -999.2500
  870.0000     6.4156  -999.2500
  870.5000     6.4353  -999.2500
  871.0000     6.4515  -999.2500
  871.5000     6.4328  -999.2500
  872.0000     6.4160  -999.2500
  872.5000     6.4632  -999.2500
  873.0000     6.4640  -999.2500
  873.5000     6.4483  -999.2500
  874.0000     6.4332  -999.2500
  874.5000     6.4577  -999.2500
  875.0000     6.4894  -999.2500
  875.5000     6.4763  -999.2500
  876.0000     6.4653  -999.2500
  876.5000     6.4919  -999.2500
  877.0000     6.4793  -999.2500
  877.5000     6.4660  -999.2500
  878.0000     6.4543  -999.2500
  878.5000     6.4632  -999.2500
  879.0000     6.4725  -999.2500
  879.5000     6.4823  -999.2500
  880.0000     6.4695  -999.2500
  880.5000     6.4770  -999.2500
  881.0000     6.4981  -999.2500
  881.5000     6.5192  -999.2500
  882.0000     6.5240  -999.2500
  882.5000     6.5016  -999.2500
  883.0000     6.4811  -999.2500
  883.5000     6.4725  -999.2500
  884.0000     6.4652  -999.2500
  884.5000     6.4914  -999.2500
  885.0000     6.5015  -999.2500
  885.5000     6.4993  -999.2500
  886.0000     6.4971  -999.2500
  886.5000     6.4947  -999.2500
  887.0000     6.4931  -999.2500
  887.5000     6.4931  -999.2500
  888.0000     6.4931  -999.2500
  888.5000     6.4931  -999.2500
  889.0000     6.4931  -999.2500
  889.5000     6.4931  -999.2500
  890.0000     6.5008  -999.2500
  890.5000     6.5099  -999.2500
  891.0000     6.5048  -999.2500
  891.5000     6.4927  -999.2500
  892.0000     6.4806  -999.2500
  892.5000     6.4752  -999.2500
  893.0000     6.4793  -999.2500
  893.5000     6.4830  -999.2500
  894.0000     6.4788  -999.2500
  894.5000     6.4742  -999.2500
  895.0000     6.4773  -999.2500
  895.5000     6.4822  -999.2500
  896.0000     6.4812  -999.2500
  896.5000     6.4754  -999.2500
  897.0000     6.4696  -999.2500
  897.5000     6.4635  -999.2500
  898.0000     6.4771  -999.2500
  898.5000     6.4930  -999.2500
  899.0000     6.4932  -999.2500
  899.5000     6.4931  -999.2500
  900.0000     6.4931  -999.2500
  900.5000     6.4931  -999.2500
  901.0000     6.4931  -999.2500
  901.5000     6.4933  -999.2500
  902.0000     6.5027  -999.2500
  902.5000     6.4719  -999.2500
  903.0000     6.4515  -999.2500
  903.5000     6.4466  -999.2500
  904.0000     6.4394  -999.2500
  904.5000     6.4458  -999.2500
  905.0000     6.4579  -999.2500
  905.5000     6.4313  -999.2500
  906.0000     6.4244  -999.2500
  906.5000     6.4327  -999.2500
  907.0000     6.4505  -999.2500
  907.5000     6.4625  -999.2500
  908.0000     6.4554  -999.2500
  908.5000     6.4726  -999.2500
  909.0000     6.4576  -999.2500
  909.5000     6.4423  -999.2500
  910.0000     6.4341  -999.2500
  910.5000     6.4341  -999.2500
  911.0000     6.4340  -999.2500
  911.5000     6.4340  -999.2500
  912.0000     6.4428  -999.2500
  912.5000     6.4530  -999.2500
  913.0000     6.4633  -999.2500
  913.5000     6.4736  -999.2500
  914.0000     6.4830  -999.2500
  914.5000     6.4791  -999.2500
  915.0000     6.4750  -999.2500
  915.5000     6.4649  -999.2500
  916.0000     6.4516  -999.2500
  916.5000     6.4481  -999.2500
  917.0000     6.4509  -999.2500
  917.5000     6.4443  -999.2500
  918.0000     6.4380  -999.2500
  918.5000     6.4439  -999.2500
  919.0000     6.4667  -999.2500
  919.5000     6.4891  -999.2500
  920.0000     6.4715  -999.2500
  920.5000     6.4441  -999.2500
  921.0000     6.4371  -999.2500
  921.5000     6.4259  -999.2500
  922.0000     6.4296  -999.2500
  922.5000     6.4361  -999.2500
  923.0000     6.4430  -999.2500
  923.5000     6.4340  -999.2500
  924.0000     6.4219  -999.2500
  924.5000     6.4144  -999.2500
  925.0000     6.4144  -999.2500
  925.5000     6.4144  -999.2500
  926.0000     6.4183  -999.2500
  926.5000     6.4397  -999.2500
  927.0000     6.4326  -999.2500
  927.5000     6.4141  -999.2500
  928.0000     6.4148  -999.2500
  928.5000     6.4308  -999.2500
  929.0000     6.4307  -999.2500
  929.5000     6.4268  -999.2500
  930.0000     6.4262  -999.2500
  930.5000     6.4318  -999.2500
  931.0000     6.4352  -999.2500
  931.5000     6.4415  -999.2500
  932.0000     6.4628  -999.2500
  932.5000     6.4781  -999.2500
  933.0000     6.4621  -999.2500
  933.5000     6.4469  -999.2500
  934.0000     6.4341  -999.2500
  934.5000     6.4374  -999.2500
  935.0000     6.4403  -999.2500
  935.5000     6.4434  -999.2500
  936.0000     6.4497  -999.2500
  936.5000     6.4844  -999.2500
  937.0000     6.4833  -999.2500
  937.5000     6.4832  -999.2500
  938.0000     6.4833  -999.2500
  938.5000     6.4875  -999.2500
  939.0000     6.4918  -999.2500
  939.5000     6.5034  -999.2500
  940.0000     6.5410  -999.2500
  940.5000     6.4759  -999.2500
  941.0000     6.4906  -999.2500
  941.5000     6.5064  -999.2500
  942.0000     6.5219  -999.2500
  942.5000     6.5226  -999.2500
  943.0000     6.5096  -999.2500
  943.5000     6.4934  -999.2500
  944.0000     6.4961  -999.2500
  944.5000     6.4983  -999.2500
  945.0000     6.5005  -999.2500
  945.5000     6.5029  -999.2500
  946.0000     6.5093  -999.2500
  946.5000     6.4992  -999.2500
  947.0000     6.4955  -999.2500
  947.5000     6.4987  -999.2500
  948.0000     6.5022  -999.2500
  948.5000     6.4960  -999.2500
  949.0000     6.4861  -999.2500
  949.5000     6.4926  -999.2500
  950.0000     6.5031  -999.2500
  950.5000     6.5125  -999.2500
  951.0000     6.5079  -999.2500
  951.5000     6.5032  -999.2500
  952.0000     6.4986  -999.2500
  952.5000     6.4939  -999.2500
  953.0000     6.4931  -999.2500
  953.5000     6.4929  -999.2500
  954.0000     6.4936  -999.2500
  954.5000     6.5129  -999.2500
  955.0000     6.5127  -999.2500
  955.5000     6.5128  -999.2500
  956.0000     6.5128  -999.2500
  956.5000     6.5085  -999.2500
  957.0000     6.4999  -999.2500
  957.5000     6.4910  -999.2500
  958.0000     6.4856  -999.2500
  958.5000     6.4995  -999.2500
  959.0000     6.4959  -999.2500
  959.5000     6.4970  -999.2500
  960.0000     6.5214  -999.2500
  960.5000     6.5278  -999.2500
  961.0000     6.5037  -999.2500
  961.5000     6.5028  -999.2500
  962.0000     6.5029  -999.2500
  962.5000     6.5030  -999.2500
  963.0000     6.5123  -999.2500
  963.5000     6.5227  -999.2500
  964.0000     6.5322  -999.2500
  964.5000     6.5325  -999.2500
  965.0000     6.5263  -999.2500
  965.5000     6.4936  -999.2500
  966.0000     6.5049  -999.2500
  966.5000     6.5129  -999.2500
  967.0000     6.5024  -999.2500
  967.5000     6.4931  -999.2500
  968.0000     6.4931  -999.2500
  968.5000     6.4931  -999.2500
  969.0000     6.4931  -999.2500
  969.5000     6.4931  -999.2500
  970.0000     6.4931  -999.2500
  970.5000     6.4930  -999.2500
  971.0000     6.4902  -999.2500
  971.5000     6.4873  -999.2500
