~VERSION INFORMATION
 VERS.                2.0:   CWLS LOG ASCII STANDARD - VERSION 2.0
 WRAP.                 NO:   ONE LINE PER DEPTH STEP
~WELL INFORMATION
#MNEM.UNIT      DATA TYPE    INFORMATION
#----------   ------------   ------------------------------
 STRT.F           95.0000:   START DEPTH
 STOP.F          914.0000:   STOP DEPTH
 STEP.F            0.5000:   STEP LENGTH
 NULL.          -999.2500:   NO VALUE
 COMP. LAWRENCE/ALLISON INC:   COMPANY
 WELL. NPR ##3 31-61 SX 2:   WELL
 FLD .             TEAPOT:   FIELD
 LOC .       S2 T38N R78W:   LOCATION
 CNTY.            NATRONA:   COUNTY
 STAT.            WYOMING:   STATE
 CTRY. UNITED STATES OF AMERICA:   COUNTRY
 SRVC.      Dresser Atlas:   SERVICE COMPANY
 DATE.        30-JAN-1986:   LOGDATE
 API .       490251106800:   API NUMBER
~CURVE INFORMATION
#MNEM.UNIT       API CODE    CURVE DESCRIPTION
#----------   ------------   ------------------------------
 DEPT.F                  :   
 RILD.OHMM   07 120 46 00:   INDUCTION LOG DEEP RESISTIVITY
 RILM.OHMM   07 120 44 00:   INDUCTION LOG MEDIUM RESISTIVITY
 CALD.IN     45 280 60 00:   CALIPER FROM DENSITY
 GRD .GAPI   45 310 01 00:   GAMMA RAY FROM DENSITY LOG
 CORR.G/C3   45 356 01 00:   DENSITY CORRECTION
 PORD.DEC    45 890 10 00:   POROSITY DENSITY LIMESTONE
 DEN .G/C3   45 350 01 00:   COMPENSATED BULK DENSITY
~PARAMETER INFORMATION
#MNEM.UNIT          VALUE    DESCRIPTION
#----------   ------------   ------------------------------
 PD  .                 GL:   PERMANENT DATUM
 EPD .F              5126:   ELEVATION PERMANENT DATUM
 LMF .                 GL:   LOG MEASURED FROM
 DMF .                 GL:   DRILLING MEASURED FROM
 EGL .F              5126:   GROUND LEVEL
 DATE.        30-JAN-1986:   RUN DATE
 RUN .                  1:   RUN NUMBER
 DD  .F               925:   DEPTH DRILLER
 DL  .F               918:   DEPTH LOGGER
 BLI .F               910:   BOTTOM LOG INTERVAL
 CS  .IN            8.625:   CASING SIZE
 CBD .F               127:   CASING BOTTOM DRILLER
 CBL .F               127:   CASING BOTTOM LOGGER
 BS  .IN             6.25:   BIT SIZE
 BSD .F               925:   BIT SIZE AT DEPTH
 DFT .                AIR:   DRILLING FLUID TYPE
 LUN .            HL-6264:   LOGGING UNIT NUMBER
 LUL .           GILLETTE:   LOGGING UNIT LOCATION
 ENGI.     P. M. FAHLSING:   RECORDING ENGINEER
 WITN.        LINOA FIVAS:   WITNESSED BY
 CLNT.            A2DTECH:   CLIENT CODE
 ORIG.           5" PRINT:   ORIGIN OF DATA
 UWI .       490251106800:   UNIQUE WELL ID
 DICO. A2D Technologies, Inc.:   DIGITIZING COMPANY
~OTHER INFORMATION
~A   DEPT     RILD       RILM       CALD         GRD      CORR       PORD        DEN   
# ...
  368.0000    15.5991    14.6192     6.8550   109.9933     0.1269     0.1879     2.3622
  368.5000    14.8594    13.8288     6.8552   106.3769     0.1145     0.1876     2.3630
  369.0000    14.0570    12.7235     6.8553   107.2923     0.1010     0.1876     2.3630
  369.5000    12.7563    11.7880     6.8555   112.1351     0.0892     0.1885     2.3614
  370.0000    11.5760    10.7709     6.8556   118.1864     0.0943     0.1901     2.3577
  370.5000    10.2130     9.9101     6.8407   124.5410     0.1126     0.1889     2.3614
  371.0000     9.2019     8.9925     6.8259   128.1754     0.1355     0.1747     2.3825
  371.5000     8.5230     8.2737     6.8110   131.2054     0.1522     0.1539     2.4202
  372.0000     7.8977     7.7187     6.8112   134.0846     0.1461     0.1246     2.4593
  372.5000     7.4653     7.2009     6.8113   136.2084     0.1611     0.1228     2.4722
  373.0000     7.0694     6.8116     6.8115   136.5195     0.1686     0.1250     2.4720
  373.5000     6.8804     6.5787     6.8116   134.5648     0.1445     0.1298     2.4622
  374.0000     6.7852     6.4872     6.7967   132.4601     0.0978     0.1323     2.4547
  374.5000     6.7379     6.4863     6.7969   130.9585     0.0963     0.1311     2.4533
  375.0000     6.7374     6.5306     6.7819   129.1548     0.1218     0.1248     2.4597
  375.5000     6.7370     6.5751     6.7670   126.7469     0.1458     0.1218     2.4691
  376.0000     6.7834     6.5760     6.7672   125.8496     0.1608     0.1263     2.4721
  376.5000     6.8300     6.6190     6.7674   128.8797     0.1487     0.1251     2.4669
  377.0000     6.8771     6.6180     6.7826   131.6078     0.1442     0.1188     2.4729
  377.5000     6.8765     6.6171     6.8128   130.7104     0.1592     0.1122     2.4880
  378.0000     6.8760     6.5705     6.8581   129.2089     0.1742     0.1074     2.4932
  378.5000     6.8281     6.5696     6.8432   131.6348     0.1606     0.1092     2.4925
  379.0000     6.8276     6.5687     6.8132   135.2692     0.1666     0.1101     2.4917
  379.5000     6.8271     6.5678     6.7532   140.4141     0.1725     0.1089     2.4917
  380.0000     6.8267     6.6126     6.7383   141.9337     0.1665     0.1105     2.4925
  380.5000     6.8738     6.7037     6.7535   137.4110     0.1619     0.1104     2.4940
  381.0000     6.8732     6.8436     6.7537   132.8882     0.1679     0.1034     2.4977
  381.5000     6.9206     6.8905     6.7538   131.6888     0.1814     0.0960     2.5098
  382.0000     6.9200     6.8893     6.7690   131.6978     0.1843     0.0915     2.5196
  382.5000     6.9678     6.8883     6.7692   131.7068     0.1647     0.0916     2.5226
  383.0000     6.9672     6.8874     6.7543   131.4137     0.1346     0.0952     2.5203
  383.5000     7.0153     6.8864     6.7544   129.6100     0.1286     0.1073     2.5090
  384.0000     6.9662     6.8379     6.7546   127.5042     0.1255     0.1206     2.4864
  384.5000     6.9657     6.7898     6.7548   125.7005     0.1240     0.1221     2.4744
  385.0000     6.9172     6.7420     6.7549   124.8032     0.1374     0.1170     2.4714
  385.5000     6.8689     6.6945     6.7551   124.8122     0.1615     0.1053     2.4834
  386.0000     6.7739     6.6473     6.7552   125.7275     0.1795     0.1002     2.4977
  386.5000     6.7734     6.5549     6.7554   128.4556     0.1764     0.1026     2.5090
  387.0000     6.7730     6.5088     6.7555   129.9751     0.1643     0.1062     2.5045
  387.5000     6.7725     6.5079     6.7557   128.4736     0.1523     0.1090     2.4985
  388.0000     6.8192     6.5980     6.7558   126.9720     0.1414     0.1105     2.4940
  388.5000     6.8661     6.7355     6.7409   128.1895     0.1206     0.1096     2.4917
  389.0000     6.8656     6.8285     6.7411   130.0123     0.1145     0.1045     2.4932
  389.5000     6.9611     6.8753     6.7412   129.2660     0.1205     0.1015     2.4978
  390.0000     7.0576     6.9703     6.7414   126.5560     0.1310     0.0994     2.5039
  390.5000     7.1063     7.0664     6.7415   126.8671     0.1249     0.1022     2.5090
  391.0000     7.1552     7.1640     6.7417   128.5378     0.1173     0.1046     2.5066
  391.5000     7.2044     7.1630     6.7569   128.3956     0.1188     0.1067     2.5005
  392.0000     7.2541     7.2622     6.7570   127.0452     0.1293     0.1077     2.4970
  392.5000     7.3547     7.3623     6.7572   126.7532     0.1488     0.1016     2.5060
  393.0000     7.4054     7.4641     6.7573   127.9706     0.1653     0.0956     2.5173
  393.5000     7.4565     7.5674     6.7574   129.7923     0.1713     0.0899     2.5271
  394.0000     7.5600     7.6720     6.7576   131.9161     0.1547     0.0887     2.5294
  394.5000     7.6649     7.7780     6.7577   128.6887     0.1336     0.0915     2.5256
  395.0000     7.7713     7.8310     6.7579   125.3834     0.1275     0.0948     2.5151
  395.5000     7.8793     7.8842     6.7580   127.4917     0.1380     0.0985     2.5113
  396.0000     7.9887     7.8830     6.7582   130.2015     0.1605     0.0958     2.5166
  396.5000     8.0437     7.8275     6.7583   129.6030     0.1695     0.0946     2.5196
  397.0000     8.0431     7.7724     6.7435   123.8917     0.1604     0.0946     2.5181
  397.5000     8.0425     7.6643     6.7436   119.3834     0.1468     0.0955     2.5136
  398.0000     7.9865     7.5578     6.7410   120.2887     0.1348     0.1028     2.5060
  398.5000     7.8760     7.4527     6.7289   122.3970     0.1287     0.1104     2.4925
  399.0000     7.7134     7.3491     6.7291   125.1068     0.1241     0.1143     2.4887
  399.5000     7.5542     7.2470     6.7292   127.8165     0.1226     0.1119     2.4895
  400.0000     7.4497     7.1462     6.7293   129.6241     0.1256     0.1053     2.4956
  400.5000     7.3982     6.9497     6.7298   129.0256     0.1361     0.0999     2.5053
  401.0000     7.2964     6.9008     6.7302   127.8256     0.1571     0.0938     2.5143
  401.5000     7.2460     6.8998     6.7156   126.6256     0.1706     0.0938     2.5181
  402.0000     7.1959     6.9471     6.7161   125.4256     0.1661     0.1011     2.5128
  402.5000     7.1462     6.9459     6.7165   124.2256     0.1360     0.1026     2.5082
  403.0000     7.1959     7.0418     6.7170   124.2286     0.1345     0.1023     2.5052
  403.5000     7.1959     7.0898     6.7174   124.5324     0.1420     0.1032     2.5037
  404.0000     7.1959     7.1384     6.7179   125.4376     0.1269     0.1056     2.5007
  404.5000     7.2460     7.1372     6.7183   126.9444     0.1224     0.1065     2.5007
  405.0000     7.2964     7.1860     6.7338   129.3534     0.1287     0.1032     2.5044
  405.5000     7.3471     7.2851     6.7343   130.8602     0.1329     0.1002     2.5097
  406.0000     7.3471     7.3350     6.7323   131.4647     0.1098     0.0999     2.5135
  406.5000     7.4497     7.3850     6.7201   131.4677     0.1058     0.0999     2.5127
  407.0000     7.4497     7.4353     6.7206   132.0723     0.1120     0.0981     2.5142
  407.5000     7.5536     7.4340     6.7211   132.6768     0.1186     0.0936     2.5202
  408.0000     7.5536     7.3307     6.7216   132.0783     0.1379     0.0887     2.5270
  408.5000     7.6591     7.3296     6.7069   130.2768     0.1544     0.0845     2.5360
  409.0000     7.6591     7.3286     6.7075   128.1745     0.1630     0.0845     2.5322
  409.5000     7.6591     7.4299     6.7079   127.2753     0.1645     0.0893     2.5224
  410.0000     7.6591     7.4805     6.7234   129.6843     0.1659     0.0918     2.5172
  410.5000     7.6591     7.5317     6.7238   132.6948     0.1613     0.0930     2.5157
  411.0000     7.6591     7.6355     6.7243   133.9008     0.1522     0.0933     2.5232
  411.5000     7.6591     7.6345     6.7247   129.0918     0.1356     0.0906     2.5307
  412.0000     7.6591     7.5283     6.7252   125.7866     0.1192     0.0872     2.5375
  412.5000     7.6062     7.3215     6.7256   127.2934     0.1237     0.0830     2.5427
  413.0000     7.5536     7.1203     6.7261   130.3039     0.1342     0.0818     2.5397
