~VERSION INFORMATION
 VERS.                2.0:   CWLS LOG ASCII STANDARD - VERSION 2.0
 WRAP.                 NO:   ONE LINE PER DEPTH STEP
~WELL INFORMATION
#MNEM.UNIT      DATA TYPE    INFORMATION
#----------   ------------   ------------------------------
 STRT.F          283.5000:   START DEPTH
 STOP.F         3026.0000:   STOP DEPTH
 STEP.F            0.5000:   STEP LENGTH
 NULL.          -999.2500:   NO VALUE
 COMP. DEPARTMENT OF ENERGY:   COMPANY
 WELL. RES 3 TEAPOT DOM "AX" #62-29:   WELL
 FLD .        TEAPOT DOME:   FIELD
 LOC .      S29 T39N R78W:   LOCATION
 CNTY.            NATRONA:   COUNTY
 STAT.            WYOMING:   STATE
 CTRY. UNITED STATES OF AMERICA:   COUNTRY
 SRVC.       Schlumberger:   SERVICE COMPANY
 DATE.        27-JUL-1971:   LOGDATE
 API .       490250659800:   API NUMBER
~CURVE INFORMATION
#MNEM.UNIT       API CODE    CURVE DESCRIPTION
#----------   ------------   ------------------------------
 DEPT.F                  :   
 GRD .GAPI   45 310 01 00:   GAMMA RAY FROM DENSITY LOG
 CALD.IN     45 280 60 00:   CALIPER FROM DENSITY LOG
 RHOB.G/C3   45 350 01 00:   BULK DENSITY
 DPHI.DEC    45 890 12 00:   DENSITY POROSITY SANDSTONE
 CORR.G/C3   45 356 01 00:   DENSITY CORRECTION
 SPR .MV     05 010 01 00:   SPONTANEOUS POTENTIAL FROM RES.
 ASN .OHMM   05 041 16 00:   AMPLIFIED SHORT NORMAL 16"
 ILD .OHMM   05 120 46 00:   INDUCTION LOG DEEP
 CILD.MMHO   05 110 46 00:   CONDUCTIVITY INDUCTION LOG DEEP
~PARAMETER INFORMATION
#MNEM.UNIT          VALUE    DESCRIPTION
#----------   ------------   ------------------------------
 PD  .                 GL:   PERMANENT DATUM
 EPD .F              4998:   ELEVATION PERMANENT DATUM
 LMF .                 KB:   LOG MEASURED FROM
 DAPD.F                11:   FEET ABOVE PERMANENT DATUM
 DMF .                 KB:   DRILLING MEASURED FROM
 EKB .F              5009:   KELLING BUSHING
 EGL .F              4998:   GROUND LEVEL
 DATE.            7-27-71:   RUN DATE
 RUN .                  1:   RUN NUMBER
 DD  .F              3023:   DEPTH DRILLER
 DL  .F              3024:   DEPTH LOGGER
 BLI .F              3023:   BOTTOM LOG INTERVAL
 TLI .F               286:   TOP LOG INTERVAL
 CS  .IN            10.75:   CASING SIZE
 CBD .F               287:   CASING BOTTOM DRILLER
 CBL .F               286:   CASING BOTTOM LOGGER
 BS  .IN                9:   BIT SIZE
 BSD .F              3023:   BIT SIZE AT DEPTH
 DFT .      FRESH GEL MUD:   DRILLING FLUID TYPE
 DFD .                 10:   DRILLING FLUID DENSITY
 DFV .                 90:   DRILLING FLUID VISCOSITY
 DFPH.                7.6:   DRILLING FLUID PH
 DFL .                5.8:   DRILLING FLUID LOSS
 MSS .          FLOW LINE:   MUD SAMPLE SOURCE
 RMS .OHMM           1.74:   RESISTIVITY MUD SAMPLE
 MST .F                75:   MUD SAMPLE TEMPERATURE
 RMF .OHMM            1.5:   RESISTIVITY MUD FILTRATE SAMPLE
 MFST.F                75:   MUD FILTRATE SAMPLE TEMPERATURE
 MFSS.                  C:   MUD FILTRATE SAMPLE SOURCE
 RMB .OHMM           1.12:   RESISTIVITY MUD AT BHT
 BHT .F               116:   BOTTOM HOLE TEMPERATURE
 TCS .HRS               5:   TIME CURCULATED STOPPED
 MRT .F               116:   MAXIMUM RECORDED TEMPERATURE
 LUN .               7041:   LOGGING UNIT NUMBER
 LUL .               CSPR:   LOGGING UNIT LOCATION
 ENGI.             KNOBEL:   RECORDING ENGINEER
 WITN.                MAY:   WITNESSED BY
 CLNT.            A2DTECH:   CLIENT CODE
 ORIG.     1", 2.5" PRINT:   ORIGIN OF DATA
 UWI .       490250659800:   UNIQUE WELL ID
 DICO. A2D Technologies, Inc.:   DIGITIZING COMPANY
~OTHER INFORMATION
~A   DEPT      GRD       CALD       RHOB       DPHI       CORR        SPR        ASN        ILD       CILD   
# ...
 2765.5000   132.3671     9.3849     2.5645     0.0529     0.0518   -30.2142     9.9369     7.9774   115.3161
 2766.0000   129.8166     9.3600     2.5675     0.0549     0.0439   -29.9911    10.0086     7.7803   119.8665
 2766.5000   127.9468     9.3350     2.5659     0.0541     0.0497   -29.8857    10.1741     7.6330   121.7945
 2767.0000   128.2426     9.3101     2.5476     0.0615     0.0334   -30.0090    10.4200     7.5778   121.8665
 2767.5000   129.5794     9.2853     2.5279     0.0749     0.0154   -30.2977    10.6008     7.6431   120.8862
 2768.0000   130.7449     9.2597     2.5225     0.0796     0.0283   -30.5785    10.7848     7.7847   119.8779
 2768.5000   131.7287     9.2423     2.5538     0.0515     0.0382   -30.8223    10.9932     7.9395   119.8826
 2769.0000   128.6578     9.2327     2.5619     0.0586     0.0448   -31.1189    11.1578     8.1827   114.4122
 2769.5000   126.0590     9.2224     2.5572     0.0545     0.0406   -31.4189    11.3793     8.6254   109.6068
 2770.0000   122.8182     9.2120     2.5556     0.0599     0.0481   -31.5928    11.5599     9.1507   105.9024
 2770.5000   120.2877     9.2016     2.5650     0.0517     0.0538   -31.7962    11.7900     9.5050    96.9667
 2771.0000   118.6921     9.1920     2.5589     0.0575     0.0471   -32.4468    12.5592     9.8067    89.4333
 2771.5000   115.8303     9.1806     2.5505     0.0603     0.0383   -33.6225    13.7748    10.6372    82.7240
 2772.0000   110.8174     9.1676     2.5598     0.0549     0.0459   -34.9475    15.1395    12.3252    74.9794
 2772.5000   101.4293     9.0870     2.5378     0.0790     0.0525   -36.4550    16.9205    14.4377    68.4754
 2773.0000    89.4157     8.9902     2.4971     0.1015     0.0441   -39.1125    19.0442    16.4021    60.5321
 2773.5000    82.9299     8.8892     2.4702     0.1144     0.0413   -43.7062    21.1198    18.2882    54.1959
 2774.0000    84.4314     8.8516     2.4515     0.1219     0.0548   -49.3430    23.2619    20.3208    46.1238
 2774.5000    86.2250     8.8547     2.4434     0.1309     0.0717   -53.9250    25.3272    22.6025    37.0322
 2775.0000    81.4215     8.8544     2.4517     0.1249     0.0710   -56.3710    27.0687    24.0851    36.1235
 2775.5000    72.7406     8.8539     2.4585     0.1174     0.0662   -57.6712    28.7052    24.8121    35.0054
 2776.0000    63.8499     8.8544     2.4651     0.1151     0.0855   -59.3390    30.2224    25.9659    34.2124
 2776.5000    59.0848     8.8542     2.4548     0.1284     0.1093   -61.5134    31.5355    27.8672    33.2245
 2777.0000    60.7745     8.8543     2.4317     0.1428     0.0867   -63.2938    33.0880    29.7141    30.4973
 2777.5000    64.6557     8.8543     2.4127     0.1452     0.0736   -64.4148    34.3688    31.3153    28.8104
 2778.0000    62.8485     8.8544     2.4167     0.1475     0.0736   -65.5667    35.9461    33.1759    26.3101
 2778.5000    59.3316     8.8543     2.4281     0.1317     0.0868   -67.1219    37.8658    35.0952    24.4235
 2779.0000    55.9350     8.8545     2.4303     0.1366     0.0820   -68.5205    38.2193    36.3176    22.0956
 2779.5000    52.5613     8.8543     2.4164     0.1428     0.0707   -69.1834    38.6286    36.6796    20.7849
 2780.0000    51.7063     8.8541     2.4206     0.1406     0.0784   -69.3125    39.3927    36.4325    21.8482
 2780.5000    50.9797     8.8555     2.4272     0.1333     0.0900   -69.4281    39.2743    35.5789    23.1379
 2781.0000    51.0573     8.8419     2.4003     0.1429     0.0984   -69.6356    38.5143    34.2694    24.3416
 2781.5000    51.6908     8.8140     2.3963     0.1520     0.0951   -69.7104    37.7926    32.9724    25.5889
 2782.0000    53.7673     8.7873     2.3902     0.1626     0.0920   -69.5821    37.1904    31.6488    26.8352
 2782.5000    54.9542     8.7611     2.3802     0.1664     0.0807   -69.4164    36.5102    30.1553    28.0460
 2783.0000    54.0776     8.7372     2.3667     0.1656     0.0641   -69.3432    35.8693    28.9246    29.2970
 2783.5000    55.0160     8.7363     2.3712     0.1719     0.0712   -69.3276    35.2175    28.2453    30.6931
 2784.0000    56.8309     8.7377     2.3930     0.1530     0.0880   -69.2042    34.5594    27.9928    31.0783
 2784.5000    61.5287     8.7425     2.3829     0.1634     0.0823   -68.8242    33.9180    27.7645    31.5247
 2785.0000    64.5109     8.7466     2.3938     0.1591     0.0741   -68.2450    33.7271    27.3866    31.9712
 2785.5000    71.3745     8.7509     2.4130     0.1516     0.0893   -67.7484    33.5412    26.9886    32.4176
 2786.0000    78.1998     8.7552     2.4152     0.1452     0.0828   -67.6012    33.5223    26.6770    32.6733
 2786.5000    82.6324     8.7590     2.3827     0.1555     0.0736   -67.7778    34.1380    26.4513    32.6733
 2787.0000    74.2749     8.7642     2.3771     0.1681     0.0654   -67.9985    34.5930    26.3606    32.6733
 2787.5000    61.5024     8.7675     2.3632     0.1729     0.0544   -67.9920    34.9582    26.4438    32.6733
 2788.0000    59.9991     8.7711     2.3667     0.1800     0.0618   -67.7118    35.5350    26.5058    32.6733
 2788.5000    59.8116     8.7827     2.3858     0.1537     0.0767   -67.3156    35.7209    26.3564    32.6733
 2789.0000    62.1881     8.7834     2.4334     0.1214     0.0921   -66.9710    36.5598    26.2903    32.6733
 2789.5000    64.6855     8.7750     2.4480     0.1231     0.1001   -66.6693    37.1287    26.6657    31.4753
 2790.0000    67.4051     8.8058     2.4421     0.1245     0.0880   -66.2972    38.3168    27.9316    30.2475
 2790.5000    66.4160     8.8477     2.4720     0.1142     0.0787   -65.8844    41.8642    29.1758    29.0198
 2791.0000    66.0870     8.8885     2.4818     0.1055     0.0851   -65.6014    44.4669    30.0750    27.7921
 2791.5000    65.2854     8.9282     2.4685     0.1119     0.0702   -65.4303    47.0697    32.2283    26.7327
 2792.0000    62.3706     8.9698     2.5056     0.0968     0.0823   -65.0899    48.4158    36.4063    23.3822
 2792.5000    58.8911     8.9721     2.5510     0.0589     0.0749   -64.4530    61.3578    41.2637    20.4356
 2793.0000    59.1788     8.9733     2.5951     0.0335     0.0524   -63.8299    66.9703    45.3894    17.4891
 2793.5000    59.7022     8.9716     2.6118     0.0229     0.0488   -63.6054    74.2574    47.7655    14.8515
 2794.0000    59.4604     8.9736     2.6395     0.0069     0.0594   -63.7662    74.2574    47.3695    15.9366
 2794.5000    58.6642     8.9723     2.6647    -0.0069     0.0673   -63.9895    74.2574    44.7654    16.9188
 2795.0000    58.6864     8.9658     2.6760    -0.0148     0.0726   -64.0694    70.4703    42.1036    17.9010
 2795.5000    61.5102     8.9185     2.6526    -0.0080     0.0789   -64.0779    64.9455    40.5020    18.8832
 2796.0000    64.8484     8.8982     2.6344     0.0052     0.0783   -64.1799    59.4208    39.5962    19.8654
 2796.5000    66.6985     8.8719     2.6241     0.0185     0.1325   -64.3861    54.4554    39.0177    20.7921
 2797.0000    65.4420     8.8499     2.6006     0.0335     0.1119   -64.4466    50.1980    38.4622    20.7921
 2797.5000    64.5371     8.8197     2.5765     0.0436     0.0725   -64.0641    48.2228    37.7611    20.7921
 2798.0000    64.0678     8.8467     2.5665     0.0514     0.0303   -63.3012    45.2475    37.4366    20.7921
 2798.5000    66.9495     8.8779     2.5667     0.0546     0.0244   -62.7057    44.0238    37.4052    20.7921
 2799.0000    70.4747     8.9047     2.5489     0.0628     0.0173   -62.7840    42.5505    36.2210    20.7921
 2799.5000    72.1359     8.9345     2.5170     0.0765     0.0185   -63.4817    41.6832    33.3385    20.7921
 2800.0000    66.3743     8.8996     2.4877     0.0947     0.0300   -64.3316    36.8219    29.9975    26.6476
 2800.5000    60.9076     8.8355     2.4590     0.1129     0.0511   -65.0440    31.9802    26.9079    30.7967
 2801.0000    60.5784     8.7763     2.4283     0.1308     0.0647   -65.7306    30.6823    23.8337    34.9458
 2801.5000    60.4708     8.7960     2.4000     0.1487     0.0591   -66.5517    28.4987    21.2638    39.0949
