~VERSION INFORMATION
 VERS.                2.0:   CWLS LOG ASCII STANDARD - VERSION 2.0
 WRAP.                 NO:   ONE LINE PER DEPTH STEP
~WELL INFORMATION
#MNEM.UNIT      DATA TYPE    INFORMATION
#----------   ------------   ------------------------------
 STRT.F            0.0000:   START DEPTH
 STOP.F          384.0000:   STOP DEPTH
 STEP.F            0.5000:   STEP LENGTH
 NULL.          -999.2500:   NO VALUE
 COMP. DEPARTMENT OF ENERGY:   COMPANY
 WELL. NPR 3 #65-15 SX3 C4:   WELL
 FLD .        TEAPOT EAST:   FIELD
 LOC .       S3 T38N R78W:   LOCATION
 CNTY.            NATRONA:   COUNTY
 STAT.            WYOMING:   STATE
 CTRY. UNITED STATES OF AMERICA:   COUNTRY
 SRVC.      Dresser Atlas:   SERVICE COMPANY
 DATE.        02-JUL-1985:   LOGDATE
 API .       490251134600:   API NUMBER
~CURVE INFORMATION
#MNEM.UNIT       API CODE    CURVE DESCRIPTION
#----------   ------------   ------------------------------
 DEPT.F                  :   
 CALD.IN     45 280 60 00:   CALIPER FROM DENSITY LOG
 CORR.G/C3   45 356 01 00:   DENSITY CORRECTION
 DEN .G/C3   45 350 01 00:   COMPENSATED BULK DENSTIY
 NPOR.DEC    42 890 03 00:   NEUTRON POROSITY SANDSTONE
 PORD.DEC    45 890 12 00:   POROSITY DENSITY SANDSTONE
 GRR .GAPI   07 310 01 00:   GAMMA RAY
 RILD.OHMM   07 120 46 00:   INDUCTION LOG DEEP RESISTIVITY
 RILM.OHMM   07 120 44 00:   RESITIVITY LONG MEDIUM
~PARAMETER INFORMATION
#MNEM.UNIT          VALUE    DESCRIPTION
#----------   ------------   ------------------------------
 PD  .                 GL:   PERMANENT DATUM
 EPD .F              5162:   ELEVATION PERMANENT DATUM
 LMF .                 GL:   LOG MEASURED FROM
 DMF .                 GL:   DRILLING MEASURED FROM
 EGL .F              5162:   GROUND LEVEL
 DATE.        02-JUL-1985:   RUN DATE
 RUN .                  1:   RUN NUMBER
 DD  .F               399:   DEPTH DRILLER
 DL  .F               388:   DEPTH LOGGER
 BLI .F               380:   BOTTOM LOG INTERVAL
 CS  .IN                7:   CASING SIZE
 CBD .F                80:   CASING BOTTOM DRILLER
 CBL .F                68:   CASING BOTTOM LOGGER
 BS  .IN            4.875:   BIT SIZE
 BSD .F               399:   BIT SIZE AT DEPTH
 DFT .                OIL:   DRILLING FLUID TYPE
 TCS .HRS               4:   TIME CURCULATED STOPPED
 MRT .F               158:   MAXIMUM RECORDED TEMPERATURE
 LUN .               6274:   LOGGING UNIT NUMBER
 LUL .           GILLETTE:   LOGGING UNIT LOCATION
 ENGI.             RAUTIO:   RECORDING ENGINEER
 WITN.            SCHULTE:   WITNESSED BY
 CLNT.            A2DTECH:   CLIENT CODE
 ORIG.           5" PRINT:   ORIGIN OF DATA
 UWI .       490251134600:   UNIQUE WELL ID
 DICO. A2D Technologies, Inc.:   DIGITIZING COMPANY
~OTHER INFORMATION
~A    DEPT    CALD       CORR        DEN       NPOR       PORD         GRR      RILD       RILM   
# ...
  243.0000     7.3881     0.3737     2.6156     0.2904     0.0213   132.5159     2.0020     2.0092
  243.5000     7.3888     0.3978     2.5848     0.2931     0.0298   131.3186     1.8003     1.7862
  244.0000     7.3896     0.3980     2.5172     0.2982     0.0458   132.8486     1.7036     1.7021
  244.5000     7.4053     0.4056     2.4744     0.3019     0.1012   135.3020     1.6121     1.6331
  245.0000     7.4512     0.4328     2.3756     0.2967     0.1491   136.8990     1.5576     1.5662
  245.5000     7.4686     0.4644     2.3383     0.2892     0.1877   138.3514     1.5259     1.5249
  246.0000     7.1795     0.4765     2.4280     0.2931     0.1666   138.9723     1.5265     1.6241
  246.5000     6.8546     0.4391     2.4851     0.2937     0.1088   138.9871     1.5592     1.7176
  247.0000     6.4919     0.4287     2.5430     0.2904     0.0835   138.0928     1.5925     1.8419
  247.5000     6.3573     0.4182     2.5393     0.2849     0.0638   135.3804     1.6841     1.9616
  248.0000     6.2678     0.3186     2.4762     0.2792     0.1297   132.3649     1.8439     2.0601
  248.5000     6.2382     0.0432     2.3973     0.2774     0.1538   130.5616     1.9670     2.1637
  249.0000     6.2391     0.0028     2.3959     0.2789     0.1513   129.3643     2.0813     2.2101
  249.5000     6.2399     0.0014     2.4267     0.2807     0.1345   128.4700     2.1507     2.1654
  250.0000     6.2406     0.0090     2.4313     0.2807     0.1326   130.9091     2.1365     2.0924
  250.5000     6.2564     0.0031     2.4313     0.2778     0.1320   132.1371     2.1076     1.9630
  251.0000     6.2571    -0.0073     2.4336     0.2731     0.1308   131.2427     2.0791     1.8605
  251.5000     6.2428    -0.0162     2.4367     0.2704     0.1287   126.6777     2.0509     1.7974
  252.0000     6.2588    -0.0146     2.4412     0.2686     0.1250   124.9084     2.0221     1.7607
  252.5000     6.2595     0.0020     2.4467     0.2728     0.1224   128.2601     1.9958     1.7736
  253.0000     6.2602     0.0276     2.4518     0.2758     0.1196   130.3960     1.9825     1.7989
  253.5000     6.2610     0.0697     2.4459     0.2764     0.1295   128.2894     1.9557     1.7746
  254.0000     6.2465     0.0953     2.4376     0.2725     0.1322   126.1792     1.9160     1.7505
  254.5000     6.2474     0.0806     2.4324     0.2695     0.1334   128.0157     1.8900     1.7147
  255.0000     6.2632     0.0144     2.4302     0.2649     0.1343   130.4547     1.8261     1.6553
  255.5000     6.2639    -0.0335     2.4287     0.2631     0.1340   130.7724     1.7520     1.5897
  256.0000     6.2647    -0.0094     2.4303     0.2625     0.1316   128.9725     1.7045     1.5681
  256.5000     6.2569     0.0507     2.4409     0.2613     0.1219   128.0744     1.6467     1.5686
  257.0000     6.2511     0.0568     2.4574     0.2573     0.1146   127.1800     1.6245     1.5691
  257.5000     6.2520     0.0644     2.4545     0.2537     0.1339   126.5923     1.6250     1.5695
  258.0000     6.2527     0.0810     2.4227     0.2764     0.1425   126.6070     1.6141     1.5589
  258.5000     6.2084     0.1757     2.4132     0.3053     0.1382   126.3182     1.6035     1.5380
  259.0000     6.0287     0.1893     2.4433     0.3114     0.1158   126.9414     1.5818     1.5062
  259.5000     5.8189     0.1675     2.5020     0.3132     0.0780   128.2081     1.5388     1.4627
  260.0000     5.8044     0.1046     2.5313     0.2969     0.0656   127.2754     1.4360     1.3304
  260.5000     5.8203     0.0950     2.5442     0.2902     0.0590   121.8355     1.2676     1.1422
  261.0000     5.8211     0.0891     2.5517     0.2881     0.0617   116.6987     0.9738     0.8959
  261.5000     5.8218     0.0712     2.5502     0.2956     0.0647   117.9255     0.8467     0.7481
  262.0000     5.8226     0.0517     2.5450     0.3258     0.0707   124.9099     0.7625     0.7277
  262.5000     5.8233     0.0443     2.5346     0.3693     0.0843   131.8942     0.7180     0.7331
  263.0000     5.8242     0.0519     2.5008     0.3711     0.1285   133.1210     0.7083     0.7592
  263.5000     5.8400     0.0835     2.3978     0.3409     0.2166   129.2000     0.7035     0.8264
  264.0000     5.8858     0.1992     2.2336     0.2959     0.2607   125.5783     0.7086     0.9080
  264.5000     5.8414     0.2039     2.2244     0.2850     0.2250   121.3505     0.7339     1.0679
  265.0000     5.5715     0.1555     2.3387     0.2823     0.1431   117.7289     0.8090     1.2708
  265.5000     5.5422     0.1164     2.4612     0.2856     0.0761   115.3193     0.9830     1.4605
  266.0000     5.5429     0.1470     2.5416     0.2907     0.0537   113.2128     1.2803     1.5769
  266.5000     5.5436     0.1411     2.5657     0.2932     0.0516   115.9547     1.5473     1.6445
  267.0000     5.5594     0.0932     2.5538     0.2922     0.0697   115.8909     1.6336     1.6913
  267.5000     5.5601     0.0662     2.5350     0.2910     0.0760   111.7453     1.6801     1.7035
  268.0000     5.5458     0.0753     2.5268     0.2934     0.0778   112.6691     1.7521     1.7540
  268.5000     5.5468     0.0859     2.5216     0.2949     0.0806   117.8353     1.8527     1.9049
  269.0000     5.5323     0.0620     2.5156     0.2958     0.0817   121.4863     1.9865     2.0567
  269.5000     5.5482     0.0876     2.5134     0.2964     0.0784   123.9252     2.1597     2.2991
  270.0000     5.5490     0.1703     2.5206     0.2943     0.0753   124.8490     2.4311     2.6060
  270.5000     5.5497     0.1854     2.5248     0.2859     0.0817   122.4394     2.7748     3.1227
  271.0000     5.5655     0.1624     2.5098     0.2472     0.0980   109.6077     3.2347     3.8740
  271.5000     5.5662     0.1480     2.4708     0.2185     0.1246    97.9270     4.2976     5.5223
  272.0000     5.5517     0.1962     2.3739     0.1832     0.1626    88.8507     5.8804     7.3437
  272.5000     5.5376     0.2323     2.3266     0.1461     0.2061    83.7139     7.3973     9.4850
  273.0000     5.5083     0.2339     2.2936     0.0917     0.2260    78.8801     8.6811    14.7177
  273.5000     5.4940     0.1439     2.2516     0.0830     0.2519    80.1069    12.2891    21.2734
  274.0000     5.4646     0.0824     2.2246     0.0778     0.2577    84.3640    16.0055    29.2899
  274.5000     5.4355     0.0660     2.2314     0.0751     0.2532    84.6818    18.5240    40.8913
  275.0000     5.4362     0.0691     2.2186     0.0718     0.2607    82.4241    21.1430    51.4394
  275.5000     5.4217     0.0737     2.1912     0.0687     0.2867    79.5632    23.4711    64.2606
  276.0000     5.4074     0.0783     2.1773     0.0681     0.2894    78.3657    25.0061    74.8905
  276.5000     5.4083     0.0767     2.1759     0.0693     0.2885    77.7707    26.4805    81.9973
  277.0000     5.4091     0.0469     2.1722     0.0711     0.2900    78.3951    28.7341    87.3762
  277.5000     5.3946     0.0290     2.1595     0.0730     0.2970    79.3189    30.8092    91.0485
  278.0000     5.3955     0.0366     2.1408     0.0742     0.3126    80.5456    32.5785    90.4427
  278.5000     5.3812     0.0502     2.1190     0.0744     0.3268    83.2876    34.4494    89.8409
  279.0000     5.3669     0.0443     2.1063     0.0702     0.3328    79.3665    36.1756    90.4916
  279.5000     5.3677     0.0278     2.0988     0.0657     0.3389    73.0176    37.9883    91.7822
  280.0000     5.3533     0.0084     2.0876     0.0642     0.3390    68.1801    40.1698    94.3936
  280.5000     5.3390    -0.0185     2.1019     0.0641     0.3186    70.6227    41.6007    94.4757
  281.0000     5.3247    -0.0187     2.1309     0.0626     0.3002    69.7283    39.5773    79.0651
  281.5000     5.3257    -0.0108     2.1532     0.0608     0.3183    64.5914    34.2557    36.9525
  282.0000     5.3264    -0.0108     2.0818     0.0599     0.3654    60.9697    23.3941    22.2838
  282.5000     5.3271    -0.0182     2.0450     0.0666     0.3750    64.1920    15.9702    15.3183
  283.0000     5.3128    -0.0256     2.0278     0.0895     0.3708    76.1543    11.6864    12.0157
