~VERSION INFORMATION
 VERS.                2.0:   CWLS LOG ASCII STANDARD - VERSION 2.0
 WRAP.                 NO:   ONE LINE PER DEPTH STEP
~WELL INFORMATION
#MNEM.UNIT      DATA TYPE    INFORMATION
#----------   ------------   ------------------------------
 STRT.F          131.0000:   START DEPTH
 STOP.F         1085.0000:   STOP DEPTH
 STEP.F            0.5000:   STEP LENGTH
 NULL.          -999.2500:   NO VALUE
 COMP. U S NAVY-INTEX OIL:   COMPANY
 WELL.     UPR #3 #66-S-2:   WELL
 FLD .             TEAPOT:   FIELD
 LOC .       S2 T38N R78W:   LOCATION
 CNTY.            NATRONA:   COUNTY
 STAT.            WYOMING:   STATE
 CTRY. UNITED STATES OF AMERICA:   COUNTRY
 SRVC.       Schlumberger:   SERVICE COMPANY
 DATE.        18-JUL-1964:   LOGDATE
 API .       490250641300:   API NUMBER
~CURVE INFORMATION
#MNEM.UNIT       API CODE    CURVE DESCRIPTION
#----------   ------------   ------------------------------
 DEPT.F                  :   
 ASN .OHMM   05 041 16 00:   AMPLIFIED SHORT NORMAL 16"
 CILD.MMHO   05 110 46 00:   CONDUCTIVITY INDUCTION LOG DEEP
 ILD .OHMM   05 120 46 00:   INDUCTION LOG DEEP
 SPR .MV     05 010 01 00:   SPONTANEOUS POTENTIAL FROM RES.
 GR  .GAPI   30 310 01 00:   GAMMA RAY
 CALS.IN     60 280 50 00:   CALIPER FROM SONIC LOG
 DT  .US/F   60 520 33 00:   INTERVAL TRANSIT TIME
~PARAMETER INFORMATION
#MNEM.UNIT          VALUE    DESCRIPTION
#----------   ------------   ------------------------------
 PD  .                 GL:   PERMANENT DATUM
 EPD .F              5204:   ELEVATION PERMANENT DATUM
 LMF .                 KB:   LOG MEASURED FROM
 DAPD.F                 5:   FEET ABOVE PERMANENT DATUM
 DMF .                 KB:   DRILLING MEASURED FROM
 EKB .F              5209:   KELLING BUSHING
 EGL .F              5204:   GROUND LEVEL
 DATE.          7-18-1964:   RUN DATE
 RUN .                  1:   RUN NUMBER
 DD  .F              1085:   DEPTH DRILLER
 DL  .F              1086:   DEPTH LOGGER
 BLI .F              1085:   BOTTOM LOG INTERVAL
 TLI .F               131:   TOP LOG INTERVAL
 CS  .IN            8.625:   CASING SIZE
 CBD .F                10:   CASING BOTTOM DRILLER
 BS  .IN             6.75:   BIT SIZE
 BSD .F              5204:   BIT SIZE AT DEPTH
 DFT .                GEL:   DRILLING FLUID TYPE
 DFD .                9.5:   DRILLING FLUID DENSITY
 DFV .                 47:   DRILLING FLUID VISCOSITY
 DFL .                 10:   DRILLING FLUID LOSS
 MSS .           FLOWLINE:   MUD SAMPLE SOURCE
 RMS .OHMM           2.58:   RESISTIVITY MUD SAMPLE
 MST .F                93:   MUD SAMPLE TEMPERATURE
 RMF .OHMM           2.27:   RESISTIVITY MUD FILTRATE SAMPLE
 MFST.F                93:   MUD FILTRATE SAMPLE TEMPERATURE
 MFSS.                 FP:   MUD FILTRATE SAMPLE SOURCE
 TCS .HRS             1.5:   TIME CURCULATED STOPPED
 LUN .               3527:   LOGGING UNIT NUMBER
 LUL .              CSPR.:   LOGGING UNIT LOCATION
 ENGI.            WINKLER:   RECORDING ENGINEER
 WITN.          JORGENSEN:   WITNESSED BY
 CLNT.            A2DTECH:   CLIENT CODE
 ORIG.    1" , 2.5" PRINT:   ORIGIN OF DATA
 UWI .       490250641300:   UNIQUE WELL ID
 DICO. A2D Technologies, Inc.:   DIGITIZING COMPANY
~OTHER INFORMATION
~A   DEPT      ASN       CILD        ILD        SPR         GR       CALS         DT   
# ...
  995.5000    11.3389    92.7388    11.5874   -33.3537    36.0780     6.5960    92.1288
  996.0000    11.0931    94.2062    11.4405   -32.7182    37.6080     6.5064    93.1749
  996.5000    10.8732    94.1846    11.2939   -31.8170    38.6836     6.5537    93.7694
  997.0000    10.7976    94.1630    11.1473   -30.9613    38.3917     6.6769    93.7620
  997.5000    10.7983    95.6343    11.0007   -30.6622    37.3497     6.8169    93.4537
  998.0000    10.7989    95.6119    11.0030   -30.6607    38.1222     6.9082    92.9947
  998.5000    10.7995    95.7587    11.0221   -30.6592    39.3492     6.8924    93.1379
  999.0000    10.8000    97.0617    11.1562   -30.6577    38.3035     6.8055    92.8277
  999.5000    10.9490    98.5327    11.1585   -30.6560    37.1063     6.7611    92.0679
 1000.0000    10.9496    98.5075    11.1607   -30.6545    38.4848     6.7476    91.6090
 1000.5000    10.9909    98.4851    11.1629   -31.2471    38.5010     6.7951    91.8293
 1001.0000    11.1276    98.4627    11.1652   -30.9464    38.8189     6.8269    91.8979
 1001.5000    11.1276    98.4403    11.0186   -30.6458    40.0459     6.8436    92.0418
 1002.0000    11.1276    98.4139    10.8720   -30.5833    41.2729     6.8603    91.5068
 1002.5000    10.9792    98.3923    10.7258   -30.3423    42.3586     6.8314    90.5219
 1003.0000    10.9792    98.3707    10.5791   -29.9524    43.9433     6.7417    90.2143
 1003.5000    10.9792    98.3491    10.5813   -29.6369    44.0448     6.7101    90.4334
 1004.0000    10.9792    96.8350    10.5834   -29.1429    41.9384     6.7599    90.9535
 1004.5000    10.9792    98.3059    10.4368   -29.1399    44.0783     6.8526    91.4736
 1005.0000    11.1276    98.2836    10.4390   -29.1369    47.4265     6.8693    91.6943
 1005.5000    11.1276    98.2612    10.5900   -29.2976    50.6232     6.7781    91.5355
 1006.0000    10.9792    98.2388    10.5923   -29.7262    46.5471     6.7025    91.0022
 1006.5000    10.9792    98.2164    10.5945   -30.3179    42.6226     6.6310    90.3905
 1007.0000    10.9792    98.1940    10.5655   -30.3150    41.8762     6.5565    89.9925
 1007.5000    10.9792    98.1716    10.5655   -30.3121    42.6524     6.5124    89.5510
 1008.0000    10.9792    98.1493    10.5655   -30.0116    42.6673     6.4831    89.5443
 1008.5000    10.9792    96.6343    10.5655   -30.0087    40.4094     6.4546    89.6882
 1009.0000    10.9792    96.6082    10.5655   -30.0058    38.4546     6.4257    90.4340
 1009.5000    11.1276    96.5866    10.5655   -30.0029    38.5244     6.4272    91.0293
 1010.0000    11.1276    96.5650    10.5655   -29.7024    41.5556     6.4439    90.0445
 1010.5000    11.2760    96.5434    10.5191   -29.6994    42.2908     6.4758    89.2102
 1011.0000    11.2760    97.0149    10.4167   -29.6964    44.8815     6.5684    89.2035
 1011.5000    11.2760    97.0149    10.3470   -29.6935    46.8623     6.6611    89.6483
 1012.0000    11.1276    97.0149    10.2679   -29.6905    43.3961     6.7234    90.2437
 1012.5000    10.9792    97.0149    10.2679   -29.6875    40.6837     6.7097    90.6133
 1013.0000    10.9738    97.0149    10.2679   -29.6845    36.3046     6.6960    90.6818
 1013.5000    10.8309    97.0149    10.1190   -29.6815    37.9862     6.6979    90.3499
 1014.0000    10.8309    97.0149    10.1190   -29.6786    42.8495     6.6994    89.7640
 1014.5000    10.8309    97.0149    10.1190   -29.6756    41.5008     6.7160    89.7573
 1015.0000    10.8309    97.0149    10.1190   -29.5238    40.4550     6.7327    90.3527
 1015.5000    10.6825    97.0149    10.1190   -28.9107    40.1667     6.7494    90.6487
 1016.0000    10.6825   100.0000    10.1190   -28.1780    40.7899     6.7202    90.4146
 1016.5000    10.3858   100.0000    10.1190   -27.2822    40.7375     6.6308    89.8813
 1017.0000    10.3858   101.4925    10.1190   -26.3865    35.4727     6.5712    89.5737
 1017.5000    10.2374   101.6915    10.1190   -25.4907    38.2604     6.6490    89.4934
 1018.0000    10.2374   102.9851    10.1190   -24.8926    39.4874     6.7569    90.2376
 1018.5000    10.0890   104.4776     9.9702   -24.8897    40.2599     6.8192    90.3123
 1019.0000    10.0890   105.9701     9.9702   -24.8868    45.4263     6.6687    89.6193
 1019.5000    10.2374   106.6467     9.9702   -25.1815    48.0169     6.5629    89.4650
 1020.0000    10.2374   108.2588     9.9702   -25.7738    50.9106     6.6150    89.9084
 1020.5000    10.3858   108.9552     9.8214   -26.0833    52.7436     6.7799    90.2780
 1021.0000    10.3858   108.9552     9.8214   -26.7201    54.2737     6.8878    89.9703
 1021.5000    10.3858   108.9552     9.9702   -27.9376    53.0764     6.8893    89.7380
 1022.0000    10.4520   107.4627     9.9871   -29.0952    51.4246     6.7844    89.7313
 1022.5000    10.6825   104.4776    10.2679   -29.6283    50.9849     6.6643    90.1762
 1023.0000    10.9792   102.9650    10.4568   -29.2381    43.5577     6.5290    90.9972
 1023.5000    11.2760    99.8606    10.9149   -28.9227    41.9212     6.3934    91.6678
 1024.0000    11.5727    96.7561    11.4365   -28.4286    40.8781     6.6384    92.1878
 1024.5000    11.8694    93.6516    12.0550   -28.4256    38.9270     6.8071    93.2346
 1025.0000    12.3145    90.0503    12.7605   -29.3155    32.4267     6.9150    94.8081
 1025.5000    13.0564    85.3331    13.5417   -31.6191    28.9568     6.9620    95.1777
 1026.0000    13.6717    77.6324    13.9881   -34.3685    32.6080     6.8420    93.0036
 1026.5000    14.4367    72.2785    14.5833   -34.0679    33.8350     6.5514    91.7768
 1027.0000    15.0534    67.1642    15.6250   -33.1722    34.7590     6.4802    90.6415
 1027.5000    15.6244    62.6866    17.2619   -33.7645    35.9860     6.4126    88.6785
 1028.0000    16.2868    58.2090    18.1627   -35.2497    38.7281     6.2552    85.2106
 1028.5000    17.1209    52.2388    18.4524   -36.7349    38.9172     6.4243    87.6118
 1029.0000    18.1266    52.2388    17.9122   -37.3274    38.3033     6.5321    89.1853
 1029.5000    19.5846    52.2388    17.1333   -35.5386    41.6526     6.6096    92.6399
 1030.0000    19.4362    53.9306    16.4087   -35.8333    42.0202     6.6415    94.3639
 1030.5000    18.6944    55.5422    15.7902   -37.3482    37.7212     6.6582    96.1631
 1031.0000    18.1009    58.6469    15.2495   -38.8333    36.9992     6.6445    96.9089
 1031.5000    17.5074    62.3083    14.7321   -39.6937    37.9269     6.6152    97.3537
 1032.0000    16.9100    65.5322    14.4345   -36.5359    38.5478     6.5715    97.4976
 1032.5000    16.6172    67.9601    14.2857   -35.5208    38.8657     6.5578    97.5662
 1033.0000    16.6172    68.6567    14.2857   -36.6787    37.2140     6.5593    97.4826
 1033.5000    16.6172    68.6567    14.2857   -36.0803    35.4069     6.6216    97.0998
 1034.0000    16.8141    68.6567    14.4345   -34.0244    36.3346     6.6549    96.1149
 1034.5000    16.9740    67.1642    14.4345   -34.3185    36.8041     6.6854    95.1301
 1035.0000    17.0623    65.6716    14.4345   -33.4226    36.9667     6.6264    94.8978
 1035.5000    16.7473    64.1791    14.4345   -32.1995    35.9242     6.5671    95.1169
 1036.0000    16.3205    64.1791    14.5833   -34.3089    37.1517     6.4926    95.5617
 1036.5000    16.0237    64.1791    14.5833   -36.6870    35.9485     6.4941    96.0817
 1037.0000    16.1721    64.1791    14.6523   -39.0650    35.0603     6.5108    96.7523
 1037.5000    16.4688    64.6764    14.7321   -38.7645    36.4646     6.5123    97.4229
 1038.0000    16.6172    66.2887    14.5833   -36.9759    36.6052     6.5290    97.7172
 1038.5000    16.3158    67.9002    14.5833   -36.0801    40.7147     6.5305    97.5358
 1039.0000    16.0074    69.5125    14.4345   -35.1844    43.0023     6.5320    96.6488
 1039.5000    15.6991    70.1493    14.1369   -34.2886    43.3165     6.5031    95.4383
 1040.0000    15.2027    70.1493    13.9881   -33.6905    41.8199     6.4438    94.6040
 1040.5000    14.9852    70.1493    13.8393   -34.3123    41.5280     6.3845    94.3716
