~VERSION INFORMATION
 VERS.                2.0:   CWLS LOG ASCII STANDARD - VERSION 2.0
 WRAP.                 NO:   ONE LINE PER DEPTH STEP
~WELL INFORMATION
#MNEM.UNIT      DATA TYPE    INFORMATION
#----------   ------------   ------------------------------
 STRT.F           70.0000:   START DEPTH
 STOP.F         1236.0000:   STOP DEPTH
 STEP.F            0.5000:   STEP LENGTH
 NULL.          -999.2500:   NO VALUE
 COMP. U S NAVY/INTEX OIL CO:   COMPANY
 WELL. NAVAL PETROLEUM TE ##3 75S-11:   WELL
 FLD .             TEAPOT:   FIELD
 LOC .      S11 T38N R78W:   LOCATION
 CNTY.            NATRONA:   COUNTY
 STAT.            WYOMING:   STATE
 CTRY. UNITED STATES OF AMERICA:   COUNTRY
 SRVC.         Lane Wells:   SERVICE COMPANY
 DATE.        04-MAR-1960:   LOGDATE
 API .       490250633900:   API NUMBER
~CURVE INFORMATION
#MNEM.UNIT       API CODE    CURVE DESCRIPTION
#----------   ------------   ------------------------------
 DEPT.F                  :   
 GR  .GAPI   30 310 01 00:   GAMMA RAY
 SPR .MV     05 010 01 00:   SPONTANEOUS POTENTIAL FROM RES.
 ILD .OHMM   05 120 46 00:   INDUCTION LOG DEEP
 CILD.MMHO   05 110 46 00:   CONDUCTIVITY INDUCTION LOG DEEP
 ASN .OHMM   05 041 18 00:   AMPLIFIED SHORT NORMAL 18"
~PARAMETER INFORMATION
#MNEM.UNIT          VALUE    DESCRIPTION
#----------   ------------   ------------------------------
 PD  .                 GL:   PERMANENT DATUM
 EPD .F              5252:   ELEVATION PERMANENT DATUM
 LMF .                 KB:   LOG MEASURED FROM
 DAPD.F                 5:   FEET ABOVE PERMANENT DATUM
 DMF .                 KB:   DRILLING MEASURED FROM
 EKB .F              5257:   KELLING BUSHING
 EGL .F              5252:   GROUND LEVEL
 DATE.             3-4-60:   RUN DATE
 RUN .                  1:   RUN NUMBER
 DD  .F              1239:   DEPTH DRILLER
 DL  .F              1238:   DEPTH LOGGER
 BLI .F              1236:   BOTTOM LOG INTERVAL
 TLI .F                70:   TOP LOG INTERVAL
 CS  .IN            8.625:   CASING SIZE
 CBD .F                12:   CASING BOTTOM DRILLER
 BS  .IN            7.875:   BIT SIZE
 BSD .F              1239:   BIT SIZE AT DEPTH
 DFT .                GEL:   DRILLING FLUID TYPE
 DFD .                9.2:   DRILLING FLUID DENSITY
 DFV .                 34:   DRILLING FLUID VISCOSITY
 DFPH.                7.5:   DRILLING FLUID PH
 DFL .                8.5:   DRILLING FLUID LOSS
 MSS .                PIT:   MUD SAMPLE SOURCE
 RMS .OHMM              3:   RESISTIVITY MUD SAMPLE
 MST .F                52:   MUD SAMPLE TEMPERATURE
 RMF .OHMM            2.8:   RESISTIVITY MUD FILTRATE SAMPLE
 MFST.F                55:   MUD FILTRATE SAMPLE TEMPERATURE
 RMC .OHMM            3.3:   RESISTIVITY MUD CAKE
 MCST.F                55:   MUD CAKE SAMPLE TEMPERATURE
 MFSS.                MUD:   MUD FILTRATE SAMPLE SOURCE
 MCSS.              PRESS:   MUD CAKE SAMPLE SOURCE
 RMB .OHMM            2.2:   RESISTIVITY MUD AT BHT
 BHT .F                77:   BOTTOM HOLE TEMPERATURE
 TCS .HRS              .5:   TIME CURCULATED STOPPED
 MRT .F                77:   MAXIMUM RECORDED TEMPERATURE
 LUN .               4474:   LOGGING UNIT NUMBER
 LUL .             CASPER:   LOGGING UNIT LOCATION
 ENGI.      GRIGGS/NELSON:   RECORDING ENGINEER
 WITN.  JORGENSEN/HOLLAND:   WITNESSED BY
 CLNT.            A2DTECH:   CLIENT CODE
 ORIG.       2", 5" PRINT:   ORIGIN OF DATA
 UWI .       490250633900:   UNIQUE WELL ID
 DICO. A2D Technologies, Inc.:   DIGITIZING COMPANY
~OTHER INFORMATION
~A   DEPT       GR        SPR          ILD      CILD         ASN 
# ...
  741.0000  -999.2500   -37.0348     8.5197   121.1180    10.7117
  741.5000  -999.2500   -36.7331     8.4891   121.3473    10.6381
  742.0000  -999.2500   -36.6400     8.4585   121.5765    10.5628
  742.5000  -999.2500   -36.5932     8.4279   121.8057    10.5798
  743.0000  -999.2500   -36.5474     8.3977   122.0350    10.6163
  743.5000  -999.2500   -36.5008     8.3767   122.2642    10.6533
  744.0000  -999.2500   -36.4938     8.3771   122.4934    10.6901
  744.5000  -999.2500   -36.4938     8.3770   122.9689    10.7268
  745.0000  -999.2500   -36.4939     8.3770   123.8858    10.7321
  745.5000  -999.2500   -36.4939     8.3770   124.8028    10.7321
  746.0000  -999.2500   -36.4939     8.3771   125.7197    10.7262
  746.5000  -999.2500   -36.4939     8.3773   126.6367    10.5709
  747.0000  -999.2500   -36.4939     8.3764   127.5536    10.4416
  747.5000  -999.2500   -36.4939     8.3185   128.4706    10.4981
  748.0000  -999.2500   -36.4939     8.2549   129.3875     9.8318
  748.5000  -999.2500   -36.4939     8.1913   130.3045     9.6875
  749.0000  -999.2500   -36.4941     8.1278   131.2214     9.5641
  749.5000  -999.2500   -36.4948     8.0643   132.1384     9.4778
  750.0000  -999.2500   -36.4902     8.0008   133.0553     9.4320
  750.5000  -999.2500   -36.3651     7.9374   133.9731     9.3863
  751.0000  -999.2500   -36.2348     7.8739   134.8834     9.3405
  751.5000  -999.2500   -36.1049     7.8104   135.9724     9.2802
  752.0000  -999.2500   -35.9753     7.7469   137.1910     9.2066
  752.5000  -999.2500   -35.8457     7.6835   138.4136     9.1332
  753.0000  -999.2500   -35.7160     7.6205   139.6362     9.0600
  753.5000  -999.2500   -35.5863     7.5577   140.7728     8.9864
  754.0000  -999.2500   -35.4561     7.4582   143.6164     8.9142
  754.5000  -999.2500   -35.3263     7.3615   146.2789     8.7501
  755.0000  -999.2500   -35.2200     7.2655   148.9289     8.5312
  755.5000  -999.2500   -35.3051     7.1694   151.5778     8.3110
  756.0000  -999.2500   -35.3881     7.0734   154.2268     8.0908
  756.5000  -999.2500   -35.4705     6.9773   156.8757     7.8708
  757.0000  -999.2500   -35.5528     6.8812   159.5247     7.6508
  757.5000  -999.2500   -35.6352     6.7852   162.1736     7.4305
  758.0000  -999.2500   -35.7176     6.6891   164.0862     7.2007
  758.5000  -999.2500   -35.8006     6.5891   163.0075     7.1441
  759.0000  -999.2500   -35.8821     6.5659   161.9287     7.2169
  759.5000  -999.2500   -35.9057     6.5653   160.8500     7.3185
  760.0000  -999.2500   -35.6994     6.5729   159.7712     7.4916
  760.5000  -999.2500   -35.4995     6.5826   158.6924     7.6891
  761.0000  -999.2500   -35.2999     6.5922   157.6126     7.8520
  761.5000  -999.2500   -35.1004     6.6019   156.5349     7.9153
  762.0000  -999.2500   -34.9002     6.6115   155.4562     7.9521
  762.5000  -999.2500   -34.6954     6.6212   155.7336     7.9128
  763.0000  -999.2500   -34.7648     6.6308   156.3449     7.8768
  763.5000  -999.2500   -34.8879     6.6405   156.9562     7.8656
  764.0000  -999.2500   -35.0121     6.6501   157.5675     7.9108
  764.5000  -999.2500   -35.1357     6.6564   158.1788     7.9560
  765.0000  -999.2500   -35.2592     6.6563   158.7901     7.9149
  765.5000  -999.2500   -35.3827     6.6564   159.4014     7.8619
  766.0000  -999.2500   -35.5059     6.6563   160.0127     7.8087
  766.5000  -999.2500   -35.6079     6.6563   160.6768     7.7561
  767.0000  -999.2500   -35.6770     6.6563   159.5599     7.7243
  767.5000  -999.2500   -35.7465     6.6567   158.3373     7.7070
  768.0000  -999.2500   -35.8159     6.6801   157.1147     7.7248
  768.5000  -999.2500   -35.8854     6.7343   155.8921     7.8091
  769.0000  -999.2500   -35.9549     6.7881   154.6695     7.8978
  769.5000  -999.2500   -36.0241     6.8421   153.4469     7.9865
  770.0000  -999.2500   -36.0938     6.8961   152.2243     8.0753
  770.5000  -999.2500   -36.0986     6.9500   151.7974     8.1646
  771.0000  -999.2500   -36.0423     7.0041   152.1467     8.2469
  771.5000  -999.2500   -35.9853     7.0584   152.4960     8.2053
  772.0000  -999.2500   -35.9282     7.1072   152.8453     8.1531
  772.5000  -999.2500   -35.8709     7.0808   153.1947     7.9682
  773.0000  -999.2500   -35.8129     7.0529   153.5440     7.7840
  773.5000  -999.2500   -35.7691     7.0253   153.8933     7.6128
  774.0000  -999.2500   -35.9028     6.9978   154.2426     7.5164
  774.5000  -999.2500   -36.0348     6.9703   154.5919     7.4270
  775.0000  -999.2500   -36.1657     6.9427   154.9412     7.3804
  775.5000  -999.2500   -36.2965     6.9152   155.2467     7.3437
  776.0000  -999.2500   -36.4272     6.8877   155.2428     7.3439
  776.5000  -999.2500   -36.5580     6.8602   155.2433     7.3846
  777.0000  -999.2500   -36.6889     6.8339   155.2431     7.4442
  777.5000  -999.2500   -36.8205     6.8159   155.2431     7.5045
  778.0000  -999.2500   -36.8967     6.7976   155.2431     7.5648
  778.5000  -999.2500   -36.9500     6.7793   155.2446     7.6251
  779.0000  -999.2500   -37.0022     6.7609   155.4174     7.6855
  779.5000  -999.2500   -37.0133     6.7426   156.2398     7.7486
  780.0000  -999.2500   -36.8604     6.7243   157.0543     7.7204
  780.5000  -999.2500   -36.7124     6.7059   157.8694     7.6657
  781.0000  -999.2500   -36.4641     6.6877   158.6845     7.6104
  781.5000  -999.2500   -36.1866     6.6692   159.4995     7.5541
  782.0000  -999.2500   -35.9086     6.6484   160.3146     7.5418
  782.5000  -999.2500   -35.6303     6.6167   161.1297     7.5331
  783.0000  -999.2500   -35.3515     6.5861   161.9447     7.5251
  783.5000  -999.2500   -35.0741     6.5556   162.7598     7.5171
  784.0000  -999.2500   -35.1518     6.5250   163.5748     7.5097
  784.5000  -999.2500   -35.3935     6.4946   164.3899     7.4765
  785.0000  -999.2500   -35.6059     6.4699   165.2050     7.4398
  785.5000  -999.2500   -35.8172     6.4559   166.0200     7.4030
  786.0000  -999.2500   -35.9450     6.4418   166.1106     7.3662
  786.5000  -999.2500   -35.6785     6.4277   166.1106     7.3297
  787.0000  -999.2500   -35.3851     6.4135   166.1106     7.3089
  787.5000  -999.2500   -35.3128     6.3990   166.1106     7.3513
  788.0000  -999.2500   -35.5514     6.3863   165.2328     7.4521
  788.5000  -999.2500   -35.7864     6.4496   163.2579     7.5521
  789.0000  -999.2500   -36.0228     6.5187   161.2829     7.6525
  789.5000  -999.2500   -36.2602     6.5876   159.3080     7.7527
  790.0000  -999.2500   -36.4855     6.6563   157.3330     7.8531
  790.5000  -999.2500   -36.4344     6.7251   155.3580     7.9538
  791.0000  -999.2500   -36.3724     6.7940   153.4343     8.0488
  791.5000  -999.2500   -36.3024     6.8630   153.4246     8.0516
  792.0000  -999.2500   -36.0437     6.9269   153.4301     8.0508
  792.5000  -999.2500   -35.7829     6.9284   153.4318     8.0526
  793.0000  -999.2500   -35.5229     6.9284   153.4318     8.0897
  793.5000  -999.2500   -35.2631     6.9002   153.4318     8.1268
  794.0000  -999.2500   -35.0346     6.8529   153.4318     8.1636
  794.5000  -999.2500   -35.0617     6.8054   153.4318     8.1940
  795.0000  -999.2500   -35.0925     6.7578   153.4318     8.1698
  795.5000  -999.2500   -35.1223     6.7103   154.3556     8.0866
  796.0000  -999.2500   -35.1520     6.6627   155.8227     7.9725
  796.5000  -999.2500   -35.1816     6.6152   157.2898     7.8575
  797.0000  -999.2500   -35.2112     6.5676   158.7569     7.7425
  797.5000  -999.2500   -35.2408     6.5201   160.2240     7.6276
  798.0000  -999.2500   -35.2705     6.4725   161.6911     7.5126
  798.5000  -999.2500   -35.3001     6.4250   163.1582     7.3978
  799.0000  -999.2500   -35.3298     6.3773   164.3675     7.2918
  799.5000  -999.2500   -35.3596     6.3299   164.6741     7.2160
  800.0000  -999.2500   -35.3916     6.2932   164.9806     7.1906
  800.5000  -999.2500   -35.3265     6.2932   165.2872     7.1803
  801.0000  -999.2500   -35.2343     6.3264   165.5938     7.2280
  801.5000  -999.2500   -35.1414     6.3682   165.9063     7.2883
