~VERSION INFORMATION
 VERS.                2.0:   CWLS LOG ASCII STANDARD - VERSION 2.0
 WRAP.                 NO:   ONE LINE PER DEPTH STEP
~WELL INFORMATION
#MNEM.UNIT      DATA TYPE    INFORMATION
#----------   ------------   ------------------------------
 STRT.F           80.0000:   START DEPTH
 STOP.F          740.0000:   STOP DEPTH
 STEP.F            0.5000:   STEP LENGTH
 NULL.          -999.2500:   NO VALUE
 COMP. U S NAVY/INTEX OIL CO:   COMPANY
 WELL. NPR 3 TEAPOT DOME #73-S-34:   WELL
 FLD .             TEAPOT:   FIELD
 LOC .      S34 T39N R78W:   LOCATION
 CNTY.            NATRONA:   COUNTY
 STAT.            WYOMING:   STATE
 CTRY. UNITED STATES OF AMERICA:   COUNTRY
 SRVC. Schlumberger Well Surveying Corp:   SERVICE COMPANY
 DATE.        19-FEB-1961:   LOGDATE
 API .       490250655200:   API NUMBER
~CURVE INFORMATION
#MNEM.UNIT       API CODE    CURVE DESCRIPTION
#----------   ------------   ------------------------------
 DEPT.F                  :   
 GR  .CPS    99 310 30 00:   GAMMA RAY FROM PERFORATING FORMATION COLLAR CHART
 SPR .MV     05 010 01 00:   SPONTANEOUS POTENTIAL
 ILD .OHMM   05 120 46 00:   INDUCTION LOG DEEP
 CILD.MMHO   05 110 46 00:   CONDUCTIVITY INDUCTION LOG DEEP
 ASN .OHMM   05 041 16 00:   AMPLIFIED SHORT NORMAL 16"
~PARAMETER INFORMATION
#MNEM.UNIT          VALUE    DESCRIPTION
#----------   ------------   ------------------------------
 LMF .                 KB:   LOG MEASURED FROM
 DMF .                 KB:   DRILLING MEASURED FROM
 EKB .F              5044:   KELLING BUSHING
 EGL .F              5040:   GROUND LEVEL
 DATE.          2-19-1961:   RUN DATE
 RUN .                  1:   RUN NUMBER
 DD  .F               740:   DEPTH DRILLER
 DL  .F               741:   DEPTH LOGGER
 BLI .F               740:   BOTTOM LOG INTERVAL
 TLI .F                80:   TOP LOG INTERVAL
 CBD .F               740:   CASING BOTTOM DRILLER
 CBL .F               741:   CASING BOTTOM LOGGER
 BS  .IN            7.875:   BIT SIZE
 BSD .F               740:   BIT SIZE AT DEPTH
 DFT .       GEL-OIL EMUL:   DRILLING FLUID TYPE
 DFD .                9.2:   DRILLING FLUID DENSITY
 DFV .                 49:   DRILLING FLUID VISCOSITY
 DFPH.                  8:   DRILLING FLUID PH
 DFL .               11.4:   DRILLING FLUID LOSS
 MSS .           FLOWLINE:   MUD SAMPLE SOURCE
 RMS .OHMM            .84:   RESISTIVITY MUD SAMPLE
 MST .F                74:   MUD SAMPLE TEMPERATURE
 RMF .OHMM            .83:   RESISTIVITY MUD FILTRATE SAMPLE
 MFST.F                75:   MUD FILTRATE SAMPLE TEMPERATURE
 RMC .OHMM            .52:   RESISTIVITY MUD CAKE
 MCST.F                74:   MUD CAKE SAMPLE TEMPERATURE
 RMB .OHMM           1.98:   RESISTIVITY MUD AT BHT
 BHT .F                70:   BOTTOM HOLE TEMPERATURE
 TCS .HRS               1:   TIME CURCULATED STOPPED
 MRT .F                70:   MAXIMUM RECORDED TEMPERATURE
 LUN .               2523:   LOGGING UNIT NUMBER
 LUL .               CSPR:   LOGGING UNIT LOCATION
 ENGI.             KNOBEL:   RECORDING ENGINEER
 WITN.          JORGENSEN:   WITNESSED BY
 CLNT.            A2DTECH:   CLIENT CODE
 ORIG.        2" 5" PRINT:   ORIGIN OF DATA
 UWI .       490250655200:   UNIQUE WELL ID
 DICO. A2D Technologies, Inc.:   DIGITIZING COMPANY
~OTHER INFORMATION
~A   DEPT       GR        SPR          ILD      CILD         ASN 
# ...
  263.0000  -999.2500   -22.0058     6.7526   159.7337     8.9216
  263.5000  -999.2500   -22.0427     6.8702   157.2399     9.0882
  264.0000  -999.2500   -22.0796     6.9877   153.7201     9.2547
  264.5000  -999.2500   -22.1162     7.1053   150.2012     9.4088
  265.0000  -999.2500   -22.1527     7.2228   146.6800     9.4531
  265.5000  -999.2500   -22.1893     7.3404   143.1574     9.4921
  266.0000  -999.2500   -22.2258     7.4586   139.6409     9.5556
  266.5000  -999.2500   -22.2624     7.5768   136.4108     9.9948
  267.0000  -999.2500   -22.2989     7.7201   135.9606    10.2173
  267.5000  -999.2500   -22.3355     7.5878   135.5487    10.2702
  268.0000  -999.2500   -22.3720     7.4546   137.0683    10.2251
  268.5000  -999.2500   -22.4086     7.3230   139.9964     9.9997
  269.0000  -999.2500   -22.4451     7.1916   142.9108     9.8028
  269.5000  -999.2500   -22.4817     7.0603   145.8226     9.6268
  270.0000  -999.2500   -22.5182     6.9289   148.7344     9.4506
  270.5000  -999.2500   -22.5549     6.7975   151.6463     9.2751
  271.0000  -999.2500   -22.5915     6.6664   154.5581     9.1091
  271.5000  -999.2500   -22.6225     6.5333   157.3807     9.0716
  272.0000  -999.2500   -22.6001     6.5268   159.4606     9.0307
  272.5000  -999.2500   -22.5780     6.5944   161.1904     8.9879
  273.0000  -999.2500   -22.5562     6.6642   160.2697     8.9474
  273.5000  -999.2500   -22.5344     6.7092   158.1795     8.9302
  274.0000  -999.2500   -22.5126     6.8680   154.7860     9.0498
  274.5000  -999.2500   -22.4908     7.0276   151.3925     9.2374
  275.0000  -999.2500   -22.4690     7.1867   147.9990     9.4265
  275.5000  -999.2500   -22.4472     7.3457   144.6055     9.6159
  276.0000  -999.2500   -22.4252     7.5048   141.2121     9.8048
  276.5000  -999.2500   -22.4175     7.6639   137.8186     9.9954
  277.0000  -999.2500   -22.4173     7.8226   134.4251    10.1578
  277.5000  -999.2500   -22.4173     7.9852   131.0316    10.3556
  278.0000  -999.2500   -22.4174     7.9199   128.4509    10.5344
  278.5000  -999.2500   -22.4174     7.7391   130.8766    10.5325
  279.0000  -999.2500   -22.4174     7.5555   133.2918    10.3876
  279.5000  -999.2500   -22.4174     7.3717   135.9442    10.2730
  280.0000  -999.2500   -22.4173     7.1882   139.7723     9.9365
  280.5000  -999.2500   -22.4172     7.0046   143.6167     9.7640
  281.0000  -999.2500   -22.4172     6.8204   147.4577     9.5869
  281.5000  -999.2500   -22.4309     6.6372   151.2975     9.4090
  282.0000  -999.2500   -22.5236     6.4969   155.1373     9.2314
  282.5000  -999.2500   -22.6159     6.6202   158.9770     9.0507
  283.0000  -999.2500   -22.7080     6.7400   158.6601     9.0447
  283.5000  -999.2500   -22.8013     6.8589   156.2336     9.1178
  284.0000  -999.2500   -22.8208     6.9778   153.8071     9.2157
  284.5000  -999.2500   -22.8077     7.0969   150.2178     9.4314
  285.0000  -999.2500   -22.7938     7.2157   146.7583     9.6474
  285.5000  -999.2500   -22.7799     7.3153   145.1846     9.8759
  286.0000  -999.2500   -22.7661     7.3455   144.3527    10.1202
  286.5000  -999.2500   -22.7523     7.3908   142.9149    10.1149
  287.0000  -999.2500   -22.7385     7.4370   139.3949    10.1150
  287.5000  -999.2500   -22.7247     7.4833   138.7016    10.1112
  288.0000  -999.2500   -22.7109     7.5288   138.0083    10.2246
  288.5000  -999.2500   -22.6971     7.5706   137.3150    10.2397
  289.0000  -999.2500   -22.6833     7.6099   136.6217    10.3668
  289.5000  -999.2500   -22.6695     7.7553   134.5073    10.4892
  290.0000  -999.2500   -22.6556     7.9379   131.7060    10.7319
  290.5000  -999.2500   -22.6418     8.1236   128.9312    11.0145
  291.0000  -999.2500   -22.6274     8.3077   126.1653    11.3012
  291.5000  -999.2500   -22.6227     8.4277   124.0117    11.6020
  292.0000  -999.2500   -22.6360     8.2570   124.3790    11.6146
  292.5000  -999.2500   -22.2021     8.0920   124.7269    11.2330
  293.0000  -999.2500   -22.2728     7.9278   125.4232    10.9538
  293.5000  -999.2500   -22.3255     7.7636   127.5341    10.6428
  294.0000  -999.2500   -22.3771     7.5994   131.5820    10.1116
  294.5000  -999.2500   -22.4289     7.4352   136.4383     9.9138
  295.0000  -999.2500   -22.4806     7.2710   141.3493     9.9785
  295.5000  -999.2500   -22.5325     7.1065   144.1442     9.8300
  296.0000  -999.2500   -22.5842     6.9360   146.2241     9.6039
  296.5000  -999.2500   -22.6250     6.9147   147.1219     9.6080
  297.0000  -999.2500   -22.6240     6.9357   147.5841     9.6825
  297.5000  -999.2500   -22.6139     6.9580   148.0463     9.6682
  298.0000  -999.2500   -22.5638     6.9800   148.5085     9.6272
  298.5000  -999.2500   -22.5149     7.0019   148.7760     9.5853
  299.0000  -999.2500   -22.4662     7.0238   148.4029     9.5437
  299.5000  -999.2500   -22.4175     7.0456   148.0366     9.5106
  300.0000  -999.2500   -22.3687     7.0670   147.6690     9.5614
  300.5000  -999.2500   -22.3200     7.0901   147.3020     9.6268
  301.0000  -999.2500   -22.2712     7.1586   146.9350     9.6919
  301.5000  -999.2500   -22.2209     7.2116   146.5679     9.7309
  302.0000  -999.2500   -22.2095     7.2246   146.2009     9.6796
  302.5000  -999.2500   -22.2663     7.2357   145.8338     9.6313
  303.0000  -999.2500   -22.3393     7.2472   145.1258     9.6065
  303.5000  -999.2500   -22.4125     7.2587   144.3124     9.6610
  304.0000  -999.2500   -22.4857     7.2703   143.4982     9.7132
  304.5000  -999.2500   -22.5588     7.2818   142.6842     9.7652
  305.0000  -999.2500   -22.6319     7.2934   141.8704     9.8170
  305.5000  -999.2500   -22.7051     7.3048   141.0565     9.8693
  306.0000  -999.2500   -22.7782     7.3121   140.2426     9.9321
  306.5000  -999.2500   -22.8338     7.3674   139.4288    10.0219
  307.0000  -999.2500   -22.7441     7.4366   138.6149    10.0638
  307.5000  -999.2500   -22.6339     7.5060   137.8011    10.1053
  308.0000  -999.2500   -22.5232     7.5754   136.9804    10.1468
  308.5000  -999.2500   -22.4127     7.6447   136.0341    10.1876
  309.0000  -999.2500   -22.3021     7.7140   134.6799    10.2191
  309.5000  -999.2500   -22.1916     7.7834   133.3466    10.2793
  310.0000  -999.2500   -22.0826     7.8527   132.0095    10.5327
  310.5000  -999.2500   -22.0023     7.9221   130.6724    10.7724
  311.0000  -999.2500   -22.0021     7.9906   129.3354    10.9481
  311.5000  -999.2500   -22.0930     8.0464   127.9983    10.9076
  312.0000  -999.2500   -22.2033     8.0665   126.4315    10.8637
  312.5000  -999.2500   -22.3140     8.0874   126.2255    10.8190
  313.0000  -999.2500   -22.4245     8.1081   126.4536    10.7744
  313.5000  -999.2500   -22.5351     8.1292   126.6876    10.7298
  314.0000  -999.2500   -22.6457     8.1789   126.9179    10.6846
  314.5000  -999.2500   -22.7548     8.2955   126.5394    10.6360
  315.0000  -999.2500   -22.8316     8.4111   124.8755    10.7847
  315.5000  -999.2500   -22.8014     8.5265   123.2116    10.9692
  316.0000  -999.2500   -22.7085     8.6398   121.5477    11.1546
  316.5000  -999.2500   -22.6164     8.8072   119.8838    11.3396
  317.0000  -999.2500   -22.5243     8.9822   117.6948    11.5244
  317.5000  -999.2500   -22.4323     9.1575   114.4594    11.7093
  318.0000  -999.2500   -22.3402     9.3327   111.2241    11.8942
  318.5000  -999.2500   -22.2481     9.5079   107.9887    12.0791
  319.0000  -999.2500   -22.1560     9.6830   104.7533    12.2640
  319.5000  -999.2500   -22.0648     9.8583   102.4948    12.4488
  320.0000  -999.2500   -22.0031    10.0335   100.4149    12.6338
  320.5000  -999.2500   -22.0047    10.2071    99.5709    12.8188
  321.0000  -999.2500   -22.0397    10.3249    98.9476    13.0019
  321.5000  -999.2500   -22.1444    10.2645    98.3238    13.1244
  322.0000  -999.2500   -22.2479    10.1984    97.7012    13.1215
  322.5000  -999.2500   -22.3515    10.1315    97.0773    13.0754
  323.0000  -999.2500   -22.4551    10.0650    97.9887    12.9403
  323.5000  -999.2500   -22.5588     9.9984    99.1442    12.8067
