~VERSION INFORMATION
 VERS.                2.0:   CWLS LOG ASCII STANDARD - VERSION 2.0
 WRAP.                 NO:   ONE LINE PER DEPTH STEP
~WELL INFORMATION
#MNEM.UNIT      DATA TYPE    INFORMATION
#----------   ------------   ------------------------------
 STRT.F           36.0000:   START DEPTH
 STOP.F         3160.0000:   STOP DEPTH
 STEP.F            0.5000:   STEP LENGTH
 NULL.          -999.2500:   NO VALUE
 COMP.    FENIX & SCISSON:   COMPANY
 WELL.        NPR-3 #28-3:   WELL
 FLD .             TEAPOT:   FIELD
 LOC .       S3 T38N R78W:   LOCATION
 CNTY.            NATRONA:   COUNTY
 STAT.            WYOMING:   STATE
 CTRY. UNITED STATES OF AMERICA:   COUNTRY
 SRVC.            Unknown:   SERVICE COMPANY
 DATE.        01-JUL-1978:   LOGDATE
 API .       490251066500:   API NUMBER
~CURVE INFORMATION
#MNEM.UNIT       API CODE    CURVE DESCRIPTION
#----------   ------------   ------------------------------
 DEPT.F                  :   
 ILD .OHMM   05 120 46 00:   INDUCTION LOG DEEP
 SN  .OHMM   05 040 16 00:   SHORT NORMAL 16"
 SPR .MV     05 010 01 00:   SPONTANEOUS POTENTIAL FROM RES.
 CALD.IN     45 280 60 00:   CALIPER FROM DENSITY LOG
 CORR.G/C3   45 356 01 00:   DENSITY CORRECTION
 DPHI.DEC    45 890 12 00:   DENSITY POROSITY SANDSTONE
 GRD .GAPI   45 310 01 00:   GAMMA RAY FROM DENSITY LOG
 RHOB.G/C3   45 350 01 00:   BULK DENSITY
 GR  .GAPI   30 310 01 00:   GAMMA RAY
~PARAMETER INFORMATION
#MNEM.UNIT          VALUE    DESCRIPTION
#----------   ------------   ------------------------------
 PD  .                 GL:   PERMANENT DATUM
 EPD .F              5264:   ELEVATION PERMANENT DATUM
 LMF .                 KB:   LOG MEASURED FROM
 DAPD.F                 4:   FEET ABOVE PERMANENT DATUM
 DMF .                 KB:   DRILLING MEASURED FROM
 EKB .F              5268:   KELLING BUSHING
 EGL .F              5264:   GROUND LEVEL
 DATE.        01-JUL-1978:   RUN DATE
 RUN .                  1:   RUN NUMBER
 DD  .F               630:   DEPTH DRILLER
 DL  .F               636:   DEPTH LOGGER
 BLI .F               630:   BOTTOM LOG INTERVAL
 TLI .F                50:   TOP LOG INTERVAL
 CS  .IN            8.625:   CASING SIZE
 CBD .F                40:   CASING BOTTOM DRILLER
 BS  .IN            7.875:   BIT SIZE
 BSD .F               630:   BIT SIZE AT DEPTH
 DFT .                KCL:   DRILLING FLUID TYPE
 DFD .                8.6:   DRILLING FLUID DENSITY
 DFV .                 32:   DRILLING FLUID VISCOSITY
 DFPH.                9.5:   DRILLING FLUID PH
 MSS .           FLOWLINE:   MUD SAMPLE SOURCE
 BHT .F                74:   BOTTOM HOLE TEMPERATURE
 TCS .HRS               1:   TIME CURCULATED STOPPED
 MRT .F                74:   MAXIMUM RECORDED TEMPERATURE
 LUN .               2958:   LOGGING UNIT NUMBER
 LUL .               CASP:   LOGGING UNIT LOCATION
 ENGI.             MILLER:   RECORDING ENGINEER
 WITN.           MCGINLEY:   WITNESSED BY
 CLNT.            A2DTECH:   CLIENT CODE
 ORIG.        2" 5" PRINT:   ORIGIN OF DATA
 UWI .       490251066500:   UNIQUE WELL ID
 DICO. A2D Technologies, Inc.:   DIGITIZING COMPANY
~OTHER INFORMATION
~A   DEPT      ILD         SN        SPR       CALD       CORR       DPHI         GRD      RHOB         GR   
# ...
  145.5000     7.7894     7.6907   -39.4220     7.6475    -0.0055     0.1497    86.9926     2.4375  -999.2500
  146.0000     7.7880     7.6896   -39.4309     7.6490    -0.0069     0.1518    88.2601     2.4429  -999.2500
  146.5000     7.7865     7.6886   -39.4380     7.6504    -0.0068     0.1521    89.2578     2.4398  -999.2500
  147.0000     7.7312     7.6873   -39.4451     7.6519    -0.0067     0.1479    86.8806     2.4287  -999.2500
  147.5000     7.7298     7.6863   -39.3018     7.6533    -0.0081     0.1445    84.7994     2.4385  -999.2500
  148.0000     7.7284     7.7389   -39.1590     7.6548    -0.0077     0.1481    84.3596     2.4423  -999.2500
  148.5000     7.7270     7.7913   -39.1679     7.6562    -0.0063     0.1496    84.6730     2.4371  -999.2500
  149.0000     7.7252     7.7900   -39.0230     7.6427    -0.0047     0.1505    86.1843     2.4327  -999.2500
  149.5000     7.7238     7.7890   -39.0319     7.6595    -0.0016     0.1511    85.7453     2.4328  -999.2500
  150.0000     7.7224     7.5756   -38.8898     7.6607     0.0030     0.1516    85.4549     2.4336  -999.2500
  150.5000     7.7211     7.6261   -38.8956     7.6619     0.0061     0.1513    85.7863     2.4336  -999.2500
  151.0000     7.7196     7.6240   -38.9013     7.6633     0.0077     0.1504    87.4185     2.4344  -999.2500
  151.5000     7.7717     7.6744   -38.7568     7.6645     0.0079     0.1477    89.5177     2.4361  -999.2500
  152.0000     7.8110     7.7261   -38.5906     7.6507     0.0065     0.1435    86.6885     2.4424  -999.2500
  152.5000     7.9312     7.7776   -38.1691     7.6518     0.0051     0.1378    85.5013     2.4511  -999.2500
  153.0000     8.0111     7.7751   -38.0232     7.6676     0.0038     0.1381    85.9584     2.4563  -999.2500
  153.5000     8.0992     7.7730   -37.8788     7.6541     0.0024     0.1380    86.7145     2.4571  -999.2500
  154.0000     8.2055     7.7705   -37.7357     7.6553    -0.0004     0.1446    85.6789     2.4482  -999.2500
  154.5000     8.2609     7.7684   -37.7429     7.6586    -0.0032     0.1452    84.3422     2.4446  -999.2500
  155.0000     8.3163     7.7664   -37.7487     7.6576    -0.0031     0.1505    83.7508     2.4416  -999.2500
  155.5000     8.3724     7.7643   -37.7544     7.6591    -0.0030     0.1576    85.8543     2.4339  -999.2500
  156.0000     8.4290     7.7622   -37.7601     7.6602    -0.0029     0.1561    87.9556     2.4209  -999.2500
  156.5000     8.4271     7.7597   -37.6156     7.6614     0.0003     0.1585    89.4590     2.4194  -999.2500
  157.0000     8.4843     7.7577   -37.4712     7.6625     0.0049     0.1600    89.6171     2.4180  -999.2500
  157.5000     8.5412     7.7557   -37.4784     7.6637     0.0080     0.1510    87.8342     2.4218  -999.2500
  158.0000     8.6333     7.8074   -37.6342     7.6499     0.0112     0.1548    87.5417     2.4293  -999.2500
  158.5000     8.7169     7.8119   -37.4898     7.6511     0.0128     0.1527    87.8493     2.4279  -999.2500
  159.0000     8.8366     7.8661   -37.6457     7.6373     0.0144     0.1396    87.1128     2.4324  -999.2500
  159.5000     8.8963     7.9098   -37.6528     7.6387     0.0130     0.1375    86.2245     2.4461  -999.2500
  160.0000     8.9559     7.9072   -37.6585     7.6247     0.0116     0.1416    86.0837     2.4527  -999.2500
  160.5000     9.0785     7.9599   -37.6642     7.6261     0.0088     0.1443    86.2646     2.4468  -999.2500
  161.0000     9.1402     8.0130   -37.8201     7.6120     0.0059     0.1443    88.0464     2.4446  -999.2500
  161.5000     9.2019     8.1218   -37.8258     7.5985     0.0031     0.1389    89.9982     2.4521  -999.2500
  162.0000     9.2636     8.2332   -37.8330     7.5847     0.0002     0.1454    90.9037     2.4544  -999.2500
  162.5000     9.3350     8.3456   -37.6871     7.5859    -0.0011     0.1478    90.0155     2.4448  -999.2500
  163.0000     9.4541     8.4589   -37.6942     7.5873    -0.0040     0.1454    88.0809     2.4419  -999.2500
  163.5000     9.5840     8.5199   -37.7000     7.5885    -0.0053     0.1465    87.4917     2.4435  -999.2500
  164.0000     9.6487     8.6908   -37.7057     7.5744    -0.0067     0.1411    87.6520     2.4480  -999.2500
  164.5000     9.7133     8.6885   -37.7128     7.5310    -0.0065     0.1423    88.1090     2.4495  -999.2500
  165.0000     9.8463     8.8071   -37.5669     7.4724    -0.0064     0.1420    89.4630     2.4503  -999.2500
  165.5000     9.8445     8.8659   -37.5741     7.4287    -0.0048     0.1408    90.9664     2.4504  -999.2500
  166.0000     9.8427     8.9250   -37.7300     7.3992    -0.0047     0.1425    91.7224     2.4474  -999.2500
  166.5000     9.9092     8.9220   -37.7357     7.3715    -0.0045     0.1458    92.3290     2.4430  -999.2500
  167.0000     9.9760     8.9821   -37.7428     7.3575    -0.0029     0.1472    92.7862     2.4393  -999.2500
  167.5000    10.0429     8.9792   -37.7485     7.3437    -0.0027     0.1457    89.5083     2.4396  -999.2500
  168.0000    10.1111     8.9768   -37.7542     7.3451    -0.0026     0.1406    89.2159     2.4454  -999.2500
  168.5000    10.1088     9.0367   -37.7600     7.3313    -0.0025     0.1418    89.3762     2.4462  -999.2500
  169.0000    10.1771     9.0337   -37.7658     7.3325    -0.0023     0.1474    86.3953     2.4411  -999.2500
  169.5000    10.1748     9.1570   -37.7728     7.3038    -0.0037     0.1456    84.0123     2.4389  -999.2500
  170.0000    10.1729     9.2187   -37.7785     7.2900    -0.0036     0.1414    87.4589     2.4419  -999.2500
  170.5000    10.1711     9.3439   -37.7843     7.2762    -0.0034     0.1390    91.8475     2.4487  -999.2500
  171.0000    10.1692     9.3408   -37.7900     7.2624    -0.0033     0.1438    92.1100     2.4525  -999.2500
  171.5000    10.0973     9.3384   -37.7958     7.2638    -0.0032     0.1446    86.8891     2.4493  -999.2500
  172.0000    10.0951     9.2716   -37.9530     7.2650    -0.0030     0.1452    85.5524     2.4422  -999.2500
  172.5000    10.0932     9.2054   -38.1088     7.2662    -0.0029     0.1461    84.9632     2.4415  -999.2500
  173.0000    10.0914     9.0766   -38.1146     7.2673    -0.0042     0.1482    84.7922     2.4401  -999.2500
  173.5000    10.1595     8.8875   -38.1203     7.2685    -0.0131     0.1499    87.0957     2.4394  -999.2500
  174.0000    10.1572     8.8852   -38.1261     7.2846    -0.0145     0.1535    88.5787     2.4275  -999.2500
  174.5000    10.1554     8.8217   -38.1331     7.3010    -0.0128     0.1606    87.8400     2.4216  -999.2500
  175.0000    10.1535     8.8193   -38.1389     7.3021    -0.0112     0.1612    82.9159     2.4201  -999.2500
  175.5000    10.1517     8.8170   -37.9944     7.3481    -0.0096     0.1577    82.1750     2.4218  -999.2500
  176.0000    10.1498     8.8141   -38.0001     7.3792    -0.0094     0.1525    83.3816     2.4285  -999.2500
  176.5000    10.1475     8.8118   -38.1562     7.4401    -0.0093     0.1474    87.2766     2.4353  -999.2500
  177.0000    10.1457     8.8095   -38.3133     7.5310    -0.0091     0.1444    90.4694     2.4405  -999.2500
  177.5000    10.1438     8.8072   -38.4692     7.6069    -0.0075     0.1435    90.7319     2.4436  -999.2500
  178.0000    10.1420     8.8048   -38.6250     7.6992    -0.0044     0.1449    91.9385     2.4429  -999.2500
  178.5000    10.1397     8.8020   -38.6307     7.7440     0.0002     0.1455    94.3388     2.4422  -999.2500
  179.0000    10.1378     8.8000   -38.6366     7.7299     0.0033     0.1434    95.8422     2.4438  -999.2500
  179.5000    10.1360     8.7973   -38.6436     7.7162     0.0035     0.1388    97.0467     2.4491  -999.2500
  180.0000    10.0644     8.7950   -38.6493     7.7024     0.0021     0.1329    97.2048     2.4573  -999.2500
  180.5000    10.0625     8.7321   -38.5035     7.6886    -0.0067     0.1305    97.2137     2.4604  -999.2500
  181.0000    10.0602     8.6692   -38.5106     7.6750    -0.0066     0.1221    97.2242     2.4671  -999.2500
  181.5000    10.0584     8.6669   -38.5165     7.6613    -0.0049     0.1257    93.1970     2.4784  -999.2500
