~VERSION INFORMATION
 VERS.                2.0:   CWLS LOG ASCII STANDARD - VERSION 2.0
 WRAP.                 NO:   ONE LINE PER DEPTH STEP
~WELL INFORMATION
#MNEM.UNIT      DATA TYPE    INFORMATION
#----------   ------------   ------------------------------
 STRT.F           83.0000:   START DEPTH
 STOP.F         3044.0000:   STOP DEPTH
 STEP.F            0.5000:   STEP LENGTH
 NULL.          -999.2500:   NO VALUE
 COMP.   TESORO PETROLEUM:   COMPANY
 WELL.  NPR # 3  AX #81-4:   WELL
 FLD .        TEAPOT DOME:   FIELD
 LOC .       S4 T38N R78W:   LOCATION
 CNTY.            NATRONA:   COUNTY
 STAT.            WYOMING:   STATE
 CTRY. UNITED STATES OF AMERICA:   COUNTRY
 SRVC.       Schlumberger:   SERVICE COMPANY
 DATE.        31-JUL-1969:   LOGDATE
 API .       490251002700:   API NUMBER
~CURVE INFORMATION
#MNEM.UNIT       API CODE    CURVE DESCRIPTION
#----------   ------------   ------------------------------
 DEPT.F                  :   
 CILD.MMHO   05 110 46 00:   CONDUCTIVITY INDUCTION LOG DEEP
 ILD .OHMM   05 120 46 00:   INDUCTION LOG DEEP
 SN  .OHMM   05 040 16 00:   SHORT NORMAL 16"
 SPR .MV     05 010 01 00:   SPONTANEOUS POTENTIAL FROM RES.
 CALD.IN     45 280 60 00:   CALIPER FROM DENSITY
 DPHI.DEC    45 890 12 00:   DENSITY POROSITY SANDSTONE
 GRD .GAPI   45 310 01 00:   GAMMA RAY FROM DENSITY LOG
 RHOB.G/C3   45 350 01 00:   BULK DENSITY
 DRHO.G/C3   45 356 01 00:   DENSITY CORRECTION
~PARAMETER INFORMATION
#MNEM.UNIT          VALUE    DESCRIPTION
#----------   ------------   ------------------------------
 PD  .                 GL:   PERMANENT DATUM
 EPD .F              5170:   ELEVATION PERMANENT DATUM
 LMF .                 KB:   LOG MEASURED FROM
 DAPD.F                13:   FEET ABOVE PERMANENT DATUM
 DMF .                 KB:   DRILLING MEASURED FROM
 EKB .F              5183:   KELLING BUSHING
 EGL .F              5170:   GROUND LEVEL
 DATE.            7-31-69:   RUN DATE
 RUN .                  2:   RUN NUMBER
 DD  .F              3047:   DEPTH DRILLER
 DL  .F              3044:   DEPTH LOGGER
 BLI .F              3043:   BOTTOM LOG INTERVAL
 TLI .F               626:   TOP LOG INTERVAL
 CS  .IN            10.75:   CASING SIZE
 CBD .F               625:   CASING BOTTOM DRILLER
 CBL .F               626:   CASING BOTTOM LOGGER
 BS  .IN             6.25:   BIT SIZE
 BSD .F              3047:   BIT SIZE AT DEPTH
 DFT .      FRESH GEL MUD:   DRILLING FLUID TYPE
 DFD .                9.7:   DRILLING FLUID DENSITY
 DFV .                 50:   DRILLING FLUID VISCOSITY
 DFPH.                9.5:   DRILLING FLUID PH
 DFL .                  8:   DRILLING FLUID LOSS
 MSS .          FLOW LINE:   MUD SAMPLE SOURCE
 RMS .OHMM           1.35:   RESISTIVITY MUD SAMPLE
 MST .F                74:   MUD SAMPLE TEMPERATURE
 RMF .OHMM            .81:   RESISTIVITY MUD FILTRATE SAMPLE
 MFST.F                74:   MUD FILTRATE SAMPLE TEMPERATURE
 MFSS.                  M:   MUD FILTRATE SAMPLE SOURCE
 RMB .OHMM            .83:   RESISTIVITY MUD AT BHT
 BHT .F               121:   BOTTOM HOLE TEMPERATURE
 TCS .HRS               4:   TIME CURCULATED STOPPED
 MRT .F               121:   MAXIMUM RECORDED TEMPERATURE
 LUN .               4507:   LOGGING UNIT NUMBER
 LUL .               CSPR:   LOGGING UNIT LOCATION
 ENGI.               MIXA:   RECORDING ENGINEER
 WITN.                MAY:   WITNESSED BY
 CLNT.            A2DTECH:   CLIENT CODE
 ORIG.     1", 2.5" PRINT:   ORIGIN OF DATA
 UWI .       490251002700:   UNIQUE WELL ID
 DICO. A2D Technologies, Inc.:   DIGITIZING COMPANY
~OTHER INFORMATION
~A   DEPT      CILD       ILD         SN        SPR       CALD       DPHI        GRD       RHOB       DRHO   
# ...
 2711.0000    69.6529    14.9551    17.8572   -11.1493     9.6767     0.0865    92.2450     2.4936     0.0128
 2711.5000    68.6111    15.0318    17.8707   -11.4666     9.6763     0.0884    92.5633     2.4931     0.0128
 2712.0000    65.7998    15.0299    17.8723   -11.6914     9.6758     0.0884    99.1794     2.5058     0.0164
 2712.5000    65.7775    14.8703    17.8738   -11.7927     9.6754     0.0822    97.1759     2.5284     0.0221
 2713.0000    65.7551    14.7108    17.8754   -11.9969     9.6749     0.0688    90.9245     2.5457     0.0311
 2713.5000    65.7328    14.4530    17.7782   -11.9954     9.6745     0.0564    83.6942     2.5541     0.0414
 2714.0000    67.2937    14.5479    17.7227   -11.9938     9.6740     0.0548    73.4518     2.5614     0.0488
 2714.5000    68.7746    14.8694    17.6144   -11.9923     9.6735     0.0527    78.5875     2.5600     0.0501
 2715.0000    68.7500    15.1910    17.8011   -11.8364     9.6731     0.0512    83.8925     2.5391     0.0393
 2715.5000    68.3051    15.5124    18.1254   -11.8452     9.6727     0.0578    85.4957     2.5241     0.0290
 2716.0000    65.0828    16.2014    18.5081   -11.9877     9.6722     0.0680    85.1568     2.5317     0.0255
 2716.5000    61.8595    16.8213    18.6653   -11.9861     9.6718     0.0728    86.5894     2.5272     0.0313
 2717.0000    59.0176    17.1317    18.8226   -11.9846     9.6713     0.0680    88.0978     2.5138     0.0451
 2717.5000    57.3944    17.4420    18.8241   -11.9830     9.6709     0.0781    88.2718     2.5259     0.0606
 2718.0000    56.2654    17.5976    18.9814   -11.7653     9.6704     0.0723    88.1596     2.5319     0.0462
 2718.5000    57.3425    17.1339    18.6714   -11.6713     9.6700     0.0661    89.9696     2.5258     0.0322
 2719.0000    60.5198    16.4979    18.1966   -11.6698     9.6696     0.0753    92.4894     2.5103     0.0228
 2719.5000    63.0327    15.8576    17.8857   -11.6679     9.6691     0.0799    91.8774     2.5135     0.0166
 2720.0000    64.6089    15.2321    17.7259   -11.6664     9.6687     0.0726    88.5535     2.5295     0.0113
 2720.5000    66.9623    14.7519    17.5450   -11.6649     9.6682     0.0670    85.5920     2.5342     0.0203
 2721.0000    70.1388    14.2983    17.2505   -11.6634     9.6678     0.0677    83.5074     2.5208     0.0286
 2721.5000    72.4255    14.0426    17.0907   -11.6619     9.6673     0.0790    83.0675     2.5166     0.0204
 2722.0000    74.0021    13.9680    16.9688   -11.9691     9.6669     0.0797    85.4757     2.5302     0.0130
 2722.5000    76.5812    13.7345    16.9269   -11.9676     9.6664     0.0741    88.4863     2.5443     0.0136
 2723.0000    79.7580    13.6865    16.8162   -11.9558     9.6660     0.0670    90.8945     2.5369     0.0204
 2723.5000    80.7022    13.5270    16.7631   -11.6559     9.6655     0.0631    87.7545     2.5430     0.0308
 2724.0000    80.6790    13.4272    16.6033   -11.6543     9.6949     0.0630    82.8669     2.5490     0.0391
 2724.5000    80.6513    13.3626    16.4435   -11.6528     9.6944     0.0600    80.6491     2.5565     0.0459
 2725.0000    80.6290    13.2740    16.2837   -11.6512     9.6940     0.0562    81.0990     2.5672     0.0507
 2725.5000    80.6067    13.2748    16.2009   -11.6497     9.6936     0.0489    81.8924     2.5731     0.0536
 2726.0000    80.5843    13.2755    16.2025   -11.6481     9.6931     0.0458    77.5235     2.5551     0.0547
 2726.5000    77.4756    13.3639    16.2921   -11.6466     9.6927     0.0630    75.1935     2.5425     0.0502
 2727.0000    74.3668    13.6181    16.5487   -11.6451     9.6922     0.0696    74.7424     2.5398     0.0408
 2727.5000    69.6372    14.1371    16.8730   -11.6435     9.6918     0.0726    76.3708     2.5434     0.0336
 2728.0000    64.8962    14.5707    17.4070   -11.6420     9.6913     0.0743    79.1748     2.5399     0.0288
 2728.5000    61.6756    15.0019    17.9435   -11.6404     9.6909     0.0701    83.9554     2.5301     0.0259
 2729.0000    58.6472    15.4838    18.4292   -11.6389     9.6904     0.0653    89.0336     2.5282     0.0241
 2729.5000    57.2799    16.0863    18.6715   -11.6373     9.6900     0.0603    92.4926     2.5353     0.0189
 2730.0000    60.6480    16.2230    18.8632   -11.6358     9.6896     0.0548    94.1564     2.5457     0.0142
 2730.5000    62.2245    15.9142    19.1762   -11.6343     9.6891     0.0448    93.0792     2.5620     0.0129
 2731.0000    63.8014    15.2957    19.1777   -11.6327     9.6887     0.0352    90.2678     2.5820     0.0143
 2731.5000    64.8997    14.6773    18.5562   -11.6312     9.6882     0.0305    88.4592     2.5920     0.0180
 2732.0000    65.9470    14.0589    17.6231   -11.4341     9.6878     0.0376    87.8553     2.5796     0.0241
 2732.5000    69.1232    13.7500    16.6900   -11.1136     9.6873     0.0452    87.8539     2.5664     0.0293
 2733.0000    72.2986    13.4313    15.7424   -11.0093     9.6868     0.0398    87.8809     2.5754     0.0352
 2733.5000    76.1807    13.0904    15.2808   -10.7813     9.6864     0.0352    88.5754     2.5860     0.0423
 2734.0000    79.4343    12.4660    15.1210   -10.4608     9.6859     0.0373    89.6568     2.5860     0.0478
 2734.5000    81.8283    12.0502    14.9827   -10.3870     9.6855     0.0492    89.2777     2.5616     0.0498
 2735.0000    83.2562    12.0511    14.9844   -10.3856     9.7149     0.0616    87.2139     2.5454     0.0475
 2735.5000    83.2330    12.0192    14.9531   -10.3841     9.7165     0.0628    85.4352     2.5427     0.0368
 2736.0000    83.2099    11.8978    14.8318   -10.3826     9.7439     0.0577    86.3250     2.5562     0.0276
 2736.5000    84.2309    11.8986    14.7893   -10.3811     9.7434     0.0489    89.1177     2.5701     0.0285
 2737.0000    84.7068    11.8009    14.6295   -10.3796     9.7430     0.0446    92.2910     2.5700     0.0309
 2737.5000    85.8409    11.4809    14.4146   -10.3781     9.7425     0.0528    94.8233     2.5479     0.0272
 2738.0000    91.0607    11.1006    14.0327   -10.3765     9.7421     0.0646    97.0780     2.5282     0.0165
 2738.5000    96.9791    10.6203    13.5502   -10.3750     9.7416     0.0742    99.2311     2.5241     0.0085
 2739.0000   101.5864    10.2116    12.9959   -10.3735     9.7412     0.0460    99.8825     2.5382     0.0085
 2739.5000   104.6505     9.8148    12.4296   -10.3719     9.7407     0.0286    99.4316     2.5636     0.0211
 2740.0000   107.7146     9.4169    11.9471   -10.3188     9.7567     0.0220    98.0720     2.5887     0.0294
 2740.5000   112.3219     9.0970    11.3760   -10.0602     9.7697     0.0299    97.4682     2.5942     0.0278
 2741.0000   115.4163     8.7771    10.7321    -9.9865     9.7693     0.0392    97.4667     2.5807     0.0233
 2741.5000   120.1251     8.4572    10.2879    -9.7485     9.7688     0.0461    97.4653     2.5681     0.0220
 2742.0000   123.3025     8.1373    10.0722    -9.7469     9.7684     0.0477   102.2831     2.5644     0.0242
 2742.5000   126.4795     7.8173     9.9124    -9.7454     9.7678     0.0460   102.3647     2.5794     0.0294
 2743.0000   129.8900     7.6132     9.8692    -9.7438     9.7674     0.0425   103.9275     2.5930     0.0362
 2743.5000   134.6676     7.4537     9.8707    -9.7423     9.7670     0.0378   107.0981     2.5945     0.0429
 2744.0000   139.7946     7.2664     9.8725    -9.7407     9.7964     0.0385   106.6806     2.5862     0.0475
 2744.5000   145.7637     6.9575     9.8740    -9.7392     9.7960     0.0483   104.4324     2.5679     0.0488
 2745.0000   150.0775     6.9583     9.5640    -9.7377     9.7981     0.0527   100.6478     2.5572     0.0500
 2745.5000   152.7339     6.8042     9.2540    -9.5715     9.8291     0.0517    95.8039     2.5645     0.0468
 2746.0000   153.7346     6.6502     9.0997    -9.4259     9.8602     0.0483    91.8947     2.5673     0.0381
 2746.5000   153.7114     6.6509     8.9455    -9.4244     9.8837     0.0477    89.6205     2.5585     0.0283
 2747.0000   152.9990     6.6517     8.9470    -9.4228     9.8833     0.0533    88.6822     2.5553     0.0248
