~VERSION INFORMATION
 VERS.                2.0:   CWLS LOG ASCII STANDARD - VERSION 2.0
 WRAP.                 NO:   ONE LINE PER DEPTH STEP
~WELL INFORMATION
#MNEM.UNIT      DATA TYPE    INFORMATION
#----------   ------------   ------------------------------
 STRT.F           92.0000:   START DEPTH
 STOP.F          810.0000:   STOP DEPTH
 STEP.F            0.5000:   STEP LENGTH
 NULL.          -999.2500:   NO VALUE
 COMP. U S NAVY/INTEX OIL CO:   COMPANY
 WELL. NPR #3 #86 S 34-34:   WELL
 FLD .        EAST TEAPOT:   FIELD
 LOC .      S34 T39N R78W:   LOCATION
 CNTY.            NATRONA:   COUNTY
 STAT.            WYOMING:   STATE
 CTRY. UNITED STATES OF AMERICA:   COUNTRY
 SRVC. Schlumberger Well Surveying Corp:   SERVICE COMPANY
 DATE.        22-JUL-1962:   LOGDATE
 API .       490250652900:   API NUMBER
~CURVE INFORMATION
#MNEM.UNIT       API CODE    CURVE DESCRIPTION
#----------   ------------   ------------------------------
 DEPT.F                  :   
 GR  .GAPI   30 310 01 00:   GAMMA RAY
 SPR .MV     05 010 01 00:   SPONTANEOUS POTENTIAL FROM RES.
 CILD.MMHO   05 110 46 00:   CONDUCTIVITY INDUCTION LOG DEEP
 ASN .OHMM   05 041 16 00:   AMPLIFIED SHORT NORMAL 16"
 ILD .OHMM   05 120 46 00:   INDUCTION LOG DEEP
 CALM.IN     15 280 01 00:   CALIPER FROM MICRO LOG
~PARAMETER INFORMATION
#MNEM.UNIT          VALUE    DESCRIPTION
#----------   ------------   ------------------------------
 PD  .                 GL:   PERMANENT DATUM
 EPD .F              5094:   ELEVATION PERMANENT DATUM
 LMF .                 KB:   LOG MEASURED FROM
 DAPD.F                 5:   FEET ABOVE PERMANENT DATUM
 DMF .                 KB:   DRILLING MEASURED FROM
 EKB .F              5099:   KELLING BUSHING
 EGL .F              5094:   GROUND LEVEL
 DATE.            7-22-62:   RUN DATE
 RUN .                  1:   RUN NUMBER
 DD  .F               810:   DEPTH DRILLER
 DL  .F               811:   DEPTH LOGGER
 BLI .F               810:   BOTTOM LOG INTERVAL
 TLI .F               100:   TOP LOG INTERVAL
 BS  .IN             6.75:   BIT SIZE
 BSD .F               810:   BIT SIZE AT DEPTH
 DFT .                GEL:   DRILLING FLUID TYPE
 DFD .               10.3:   DRILLING FLUID DENSITY
 DFV .                 43:   DRILLING FLUID VISCOSITY
 RMS .OHMM              4:   RESISTIVITY MUD SAMPLE
 MST .F                75:   MUD SAMPLE TEMPERATURE
 RMF .OHMM            2.9:   RESISTIVITY MUD FILTRATE SAMPLE
 MFST.F                75:   MUD FILTRATE SAMPLE TEMPERATURE
 RMC .OHMM            3.8:   RESISTIVITY MUD CAKE
 MCST.F                75:   MUD CAKE SAMPLE TEMPERATURE
 TCS .HRS               1:   TIME CURCULATED STOPPED
 LUN .               2503:   LOGGING UNIT NUMBER
 ENGI.           ELLERMAN:   RECORDING ENGINEER
 WITN.          JORGENSON:   WITNESSED BY
 CLNT.            A2DTECH:   CLIENT CODE
 ORIG.   1", 2", 5" PRINT:   ORIGIN OF DATA
 UWI .       490250652900:   UNIQUE WELL ID
 DICO. A2D Technologies, Inc.:   DIGITIZING COMPANY
~OTHER INFORMATION
~A   DEPT       GR        SPR       CILD        ASN        ILD       CALM   
# ...
  664.0000    20.7081   -43.8441    46.2098    22.7523    20.1254     6.4277
  664.5000    22.1630   -44.0168    45.7676    23.5710    20.9848     6.4395
  665.0000    17.6583   -44.4275    45.3271    24.2240    21.4299     6.4511
  665.5000    20.8010   -45.6373    44.8811    24.6558    21.8538     6.4628
  666.0000    21.6622   -46.5034    44.2533    25.0865    21.8614     6.4744
  666.5000    26.0656   -45.7609    43.6180    25.5176    21.8591     6.4827
  667.0000    16.4274   -46.4187    42.9832    25.9494    21.8584     6.4778
  667.5000    17.2074   -46.7052    42.3489    26.2803    21.8598     6.4732
  668.0000    17.4499   -45.8832    41.4674    25.9012    21.9462     6.4687
  668.5000    19.3508   -46.1354    40.3738    25.9132    22.2132     6.4638
  669.0000    17.2490   -46.0624    39.2803    26.5153    22.4772     6.4787
  669.5000    21.3970   -45.6375    38.1867    27.8337    22.7347     6.5016
  670.0000    15.8097   -45.4133    37.0931    28.8827    23.3221     6.4991
  670.5000     8.5273   -47.2085    35.9996    29.5201    24.0155     6.4920
  671.0000     6.9038   -49.4786    34.1324    30.7514    24.7049     6.4847
  671.5000    10.6770   -48.8353    32.1189    31.7935    25.3513     6.4774
  672.0000    14.7478   -48.0345    30.1053    31.9257    27.5528     6.4702
  672.5000    18.7982   -49.0878    28.0918    32.6926    29.9851     6.4630
  673.0000    23.5667   -50.5144    29.6181    33.5138    28.9874     6.4669
  673.5000    35.1521   -52.2519    32.7103    33.6792    27.7241     6.4715
  674.0000    30.0606   -54.0954    30.8333    32.6292    27.9641     6.4761
  674.5000    25.0296   -53.5196    30.5400    31.2073    28.8038     6.4807
  675.0000    24.8273   -51.7636    35.8256    29.7994    26.2644     6.4902
  675.5000    20.3871   -50.0062    33.6786    28.4829    25.4593     6.5078
  676.0000    24.9679   -48.7839    31.7474    27.8914    27.2341     6.5254
  676.5000    31.7526   -48.0093    36.5524    27.9953    25.0800     6.5438
  677.0000    28.2249   -47.5037    41.0177    27.1488    22.0679     6.5149
  677.5000    34.5882   -47.6649    39.6314    26.1325    23.6036     6.4781
  678.0000    43.9428   -50.5162    37.9024    24.8780    23.9999     6.4419
  678.5000    52.9864   -52.7533    40.8866    23.5487    21.2137     6.4414
  679.0000    36.1597   -51.1864    44.1673    22.1056    20.6657     6.5543
  679.5000    43.9331   -47.1460    47.4480    20.6599    19.8679     6.7133
  680.0000    45.0244   -41.9374    50.7287    19.2105    16.1056     6.7112
  680.5000    40.0076   -39.7242    54.0094    18.1315    16.4038     6.7144
  681.0000    40.1870   -39.1876    57.4595    17.5891    15.6585     6.7167
  681.5000    42.8697   -38.9629    61.5861    17.0329    14.9074     6.7188
  682.0000    45.6341   -39.5093    64.4531    16.3571    14.4250     6.7210
  682.5000    48.3684   -40.0334    65.7710    15.7428    14.2974     6.7232
  683.0000    49.1067   -40.3574    67.0924    15.5643    14.1583     6.7254
  683.5000    41.6417   -39.4383    68.4138    15.3290    13.8314     6.7276
  684.0000    38.2911   -38.5404    69.7352    15.1860    13.5327     6.7297
  684.5000    34.8110   -38.1277    70.3075    15.1270    13.4513     6.7319
  685.0000    33.2355   -38.9416    70.6011    15.0703    13.3600     6.7341
  685.5000    36.6595   -39.7446    70.8948    15.0137    13.4227     6.7363
  686.0000    30.1549   -39.4177    70.9581    14.9565    13.5252     6.7385
  686.5000    37.3558   -39.1312    70.0557    14.9046    13.6287     6.7406
  687.0000    44.6070   -39.6520    69.1541    14.9561    13.7319     6.7428
  687.5000    37.0981   -40.1528    68.2509    15.0113    13.8351     6.7450
  688.0000    43.7277   -40.6567    67.3485    15.0663    13.9382     6.7472
  688.5000    55.1821   -40.4784    66.4461    15.1211    14.0414     6.7494
  689.0000    52.7379   -40.2458    65.5436    15.1744    14.1490     6.7516
  689.5000    57.4615   -40.0147    64.6412    15.1726    14.1742     6.7543
  690.0000    60.4299   -39.7889    63.9975    15.0352    14.1752     6.7591
  690.5000    39.0029   -39.7394    64.9763    14.9004    14.1046     6.7638
  691.0000    47.2794   -40.2759    65.9552    14.7653    13.9781     6.7684
  691.5000    59.1280   -40.6832    66.9340    14.6304    13.8513     6.7731
  692.0000    54.2014   -40.4165    67.9128    14.4954    13.7241     6.7777
  692.5000    53.5065   -40.1441    68.8916    14.3605    13.5979     6.7824
  693.0000    49.8196   -40.3013    70.0252    14.2255    13.4384     6.7870
  693.5000    55.0738   -40.6396    71.1898    14.0906    13.3103     6.7920
  694.0000    47.1255   -40.7720    72.3544    13.9556    13.2302     6.8090
  694.5000    51.8408   -40.3404    73.5190    13.8207    13.0165     6.7901
  695.0000    52.7894   -39.9280    74.6836    13.6857    12.8075     6.7580
  695.5000    55.0904   -39.8229    75.8483    13.5508    12.5997     6.7311
  696.0000    63.9665   -40.3561    77.0129    13.4158    12.3924     6.7281
  696.5000    57.8736   -40.7585    78.1775    13.2809    12.1838     6.7246
  697.0000    53.5070   -40.9470    79.3421    13.1459    12.0511     6.7211
  697.5000    64.9924   -41.1401    80.5067    13.0109    11.9681     6.7176
  698.0000    52.3668   -41.3362    81.6713    12.8752    11.8933     6.7140
  698.5000    65.9645   -41.4859    82.3379    12.7374    11.9369     6.7105
  699.0000    56.8149   -40.9017    81.4413    12.8121    11.9840     6.7070
  699.5000    48.8235   -40.0392    80.5459    12.9202    12.0306     6.7035
  700.0000    47.9894   -39.2205    79.6480    13.0291    12.0771     6.7000
  700.5000    44.3690   -39.0935    78.7508    13.1381    12.1236     6.6965
  701.0000    47.0633   -39.5530    77.8549    13.2484    12.1701     6.6929
  701.5000    44.8330   -40.0166    76.9583    13.3281    12.2168     6.6894
  702.0000    49.2120   -40.4901    76.5406    13.0356    12.2641     6.6859
  702.5000    49.4208   -40.9867    77.2808    12.7597    12.2989     6.6824
  703.0000    55.8419   -40.8146    78.0211    12.8729    12.1782     6.6789
  703.5000    50.6500   -40.4232    78.7613    13.0428    12.0592     6.6754
  704.0000    54.5881   -40.0274    79.5030    13.1176    11.9415     6.6718
  704.5000    59.5847   -39.6309    80.2503    12.6465    11.8208     6.6683
  705.0000    50.3377   -39.4870    80.0814    12.4411    11.8645     6.6648
  705.5000    59.2144   -39.6244    79.2660    12.6039    11.9751     6.6613
  706.0000    58.0001   -39.7611    78.4478    12.7572    12.0884     6.6577
  706.5000    58.6071   -39.8018    77.6297    12.9098    12.2025     6.6542
  707.0000    50.6554   -39.3565    78.4008    12.9304    12.2963     6.6513
  707.5000    47.5443   -38.9126    78.3708    12.9190    12.1300     6.6895
  708.0000    48.6863   -38.3939    79.6935    12.7088    11.9629     6.7880
  708.5000    55.4076   -37.7274    81.1651    12.5077    11.7972     6.8855
  709.0000    53.7512   -37.0560    82.6495    12.3235    11.6319     6.9636
  709.5000    59.9514   -36.9594    84.1300    12.1449    11.4665     6.9677
  710.0000    57.8259   -37.3228    86.5796    11.9668    11.3011     6.9730
  710.5000    58.8672   -37.3953    88.5536    11.7886    11.1355     6.9783
  711.0000    53.4642   -36.8235    90.5276    11.6106    10.9694     6.9732
  711.5000    47.1637   -36.2623    92.5016    11.4306    10.8102     6.9415
  712.0000    53.7041   -35.7013    93.7980    11.3715    10.6524     6.8939
  712.5000    52.5570   -35.1362    93.0033    11.3705    10.6917     6.8517
  713.0000    55.7341   -34.8905    92.2265    11.3707    10.7232     6.8200
  713.5000    42.5269   -34.8846    91.4491    11.3710    10.7556     6.6774
  714.0000    52.0219   -35.0512    90.9797    11.3706    10.7882     6.5305
  714.5000    59.0770   -35.3491    91.4618    11.3488    10.8214     6.5886
  715.0000    64.6453   -35.6534    91.9438    11.2421    10.8465     6.7571
  715.5000    73.6765   -35.5935    92.4258    11.1383    10.7347     6.8164
