~VERSION INFORMATION
 VERS.                2.0:   CWLS LOG ASCII STANDARD - VERSION 2.0
 WRAP.                 NO:   ONE LINE PER DEPTH STEP
~WELL INFORMATION
#MNEM.UNIT      DATA TYPE    INFORMATION
#----------   ------------   ------------------------------
 STRT.F           28.0000:   START DEPTH
 STOP.F          636.0000:   STOP DEPTH
 STEP.F            0.5000:   STEP LENGTH
 NULL.          -999.2500:   NO VALUE
 COMP. FENIX & SCISSON INC:   COMPANY
 WELL.    NPR-3 #12S14-14:   WELL
 FLD .             TEAPOT:   FIELD
 LOC .      S14 T38N R78W:   LOCATION
 CNTY.            NATRONA:   COUNTY
 STAT.            WYOMING:   STATE
 CTRY. UNITED STATES OF AMERICA:   COUNTRY
 SRVC.           BIRDWELL:   SERVICE COMPANY
 DATE.        21-JUN-1978:   LOGDATE
 API .       490251065000:   API NUMBER
~CURVE INFORMATION
#MNEM.UNIT       API CODE    CURVE DESCRIPTION
#----------   ------------   ------------------------------
 DEPT.F                  :   
 SPR .MV     07 010 01 00:   SPONTANEOUS POTENTIAL
 ILD .OHMM   07 120 46 00:   INDUCTION LOG DEEP
 SN  .OHMM   07 040 16 00:   SHORT NORMAL 16"
 GRD .GAPI   45 310 01 00:   GAMMA RAY FROM DENSITY LOG
 CORR.G/C3   45 356 01 00:   DENSITY CORRECTION
 DEN .G/C3   45 350 01 00:   COMPENSATED BULK DENSTIY
 DPHI.DEC    45 890 12 00:   DENSITY POROSITY SANDSTONE
~PARAMETER INFORMATION
#MNEM.UNIT          VALUE    DESCRIPTION
#----------   ------------   ------------------------------
 PD  .                 GL:   PERMANENT DATUM
 EPD .F              5237:   ELEVATION PERMANENT DATUM
 LMF .                 KB:   LOG MEASURED FROM
 DMF .                 KB:   DRILLING MEASURED FROM
 EKB .F              5241:   KELLING BUSHING
 EGL .F              5237:   GROUND LEVEL
 DATE.        21-JUN-1978:   RUN DATE
 RUN .                  1:   RUN NUMBER
 DD  .F               637:   DEPTH DRILLER
 DL  .F               642:   DEPTH LOGGER
 BLI .F               636:   BOTTOM LOG INTERVAL
 TLI .F                40:   TOP LOG INTERVAL
 CS  .IN            8.625:   CASING SIZE
 CBD .F                40:   CASING BOTTOM DRILLER
 CBL .F                40:   CASING BOTTOM LOGGER
 BS  .IN            7.875:   BIT SIZE
 BSD .F               637:   BIT SIZE AT DEPTH
 DFT .                KCL:   DRILLING FLUID TYPE
 DFD .                8.7:   DRILLING FLUID DENSITY
 DFV .                 32:   DRILLING FLUID VISCOSITY
 DFPH.                 10:   DRILLING FLUID PH
 MSS .           FLOWLINE:   MUD SAMPLE SOURCE
 RMS .OHMM            .18:   RESISTIVITY MUD SAMPLE
 MST .F                84:   MUD SAMPLE TEMPERATURE
 RMF .OHMM            .17:   RESISTIVITY MUD FILTRATE SAMPLE
 MFST.F                72:   MUD FILTRATE SAMPLE TEMPERATURE
 RMC .OHMM            .28:   RESISTIVITY MUD CAKE
 MCST.F                82:   MUD CAKE SAMPLE TEMPERATURE
 MFSS.               MEAS:   MUD FILTRATE SAMPLE SOURCE
 MCSS.               MEAS:   MUD CAKE SAMPLE SOURCE
 BHT .F                72:   BOTTOM HOLE TEMPERATURE
 TCS .HRS            0230:   TIME CURCULATED STOPPED
 MRT .F                72:   MAXIMUM RECORDED TEMPERATURE
 LUN .               2958:   LOGGING UNIT NUMBER
 LUL .               CASP:   LOGGING UNIT LOCATION
 ENGI.             MILLER:   RECORDING ENGINEER
 WITN.           MCGINLEY:   WITNESSED BY
 CLNT.            A2DTECH:   CLIENT CODE
 ORIG.           5" PRINT:   ORIGIN OF DATA
 UWI .       490251065000:   UNIQUE WELL ID
 DICO. A2D Technologies, Inc.:   DIGITIZING COMPANY
~OTHER INFORMATION
~A   DEPT      SPR        ILD         SN        GRD       CORR        DEN       DPHI   
# ...
   73.5000   -53.5665     3.7477     4.1048    78.8939    -0.0011     2.1037     0.3194
   74.0000   -53.3986     2.8259     3.2711    92.0580     0.0182     2.0775     0.3383
   74.5000   -53.2315     2.3795     2.9921    94.9204     0.0285     2.0625     0.3407
   75.0000   -53.2137     2.2068     2.6260    96.3864     0.0344     2.0520     0.3389
   75.5000   -53.0464     2.0186     2.5558    96.4778     0.0389     2.0400     0.3332
   76.0000   -52.5639     1.9109     2.5570    93.1532     0.0628     2.0646     0.3147
   76.5000   -51.7669     1.9794     2.5942    86.3614     0.1435     2.2309     0.2997
   77.0000   -49.9995     2.0641     2.6310    80.7778     0.1344     2.3571     0.2722
   77.5000   -49.6829     2.2128     2.6378    75.3904     0.0072     2.3461     0.2387
   78.0000   -49.5157     2.5947     2.7832    71.7197    -0.0034     2.3932     0.1674
   78.5000   -49.3485     2.9597     3.0247    69.9324    -0.0064     2.3969     0.1638
   79.0000   -49.3308     3.4238     3.3790    68.2522    -0.0020     2.3969     0.1656
   79.5000   -49.4670     3.9745     4.1004    65.9044     0.0009     2.3946     0.1659
   80.0000   -49.4449     4.8519     5.2943    64.6947     0.0042     2.3961     0.1621
   80.5000   -49.5811     5.5579     6.2932    63.4655     0.0053     2.4066     0.1571
   81.0000   -49.2600     6.3398     6.8865    62.2943     0.0005     2.4073     0.1539
   81.5000   -49.2423     7.0836     7.2804    61.8163    -0.0040     2.3908     0.1571
   82.0000   -49.2246     7.2858     7.5393    61.6757    -0.0053     2.3751     0.1778
   82.5000   -49.2069     7.0913     7.5429    63.5385    -0.0009     2.3668     0.1812
   83.0000   -49.3393     6.5766     7.5465    65.1281    -0.0043     2.3600     0.1791
   83.5000   -49.4708     6.0574     7.3447    66.3694    -0.0085     2.3218     0.2070
   84.0000   -49.6022     5.1358     6.9539    69.8438    -0.0116     2.2776     0.2315
   84.5000   -49.5844     4.6016     6.4016    80.8803    -0.0099     2.2543     0.2537
   85.0000   -49.5665     4.4781     5.8831    95.4955     0.0174     2.2379     0.2627
   85.5000   -49.5486     4.5749     5.3411   104.2698     0.0348     2.2534     0.2543
   86.0000   -49.5306     4.6410     5.1089    99.8739     0.0223     2.3223     0.2316
   86.5000   -49.5093     4.6756     5.0762    86.6861    -0.0015     2.3421     0.1971
   87.0000   -49.0432     4.6460     5.2937    72.7167    -0.0089     2.3479     0.1957
   87.5000   -46.6338     4.6835     5.5965    70.5856    -0.0045     2.3516     0.1930
   88.0000   -45.2708     4.9986     6.0821    70.1261     0.0014     2.3547     0.1885
   88.5000   -44.5057     5.6460     6.6098    69.9555    -0.0016     2.3605     0.1849
   89.0000   -43.8901     6.7590     7.2329    68.7568    -0.0032     2.3589     0.1837
   89.5000   -43.4240     7.5000     7.8065    68.4369    -0.0077     2.3536     0.1849
   90.0000   -43.2568     7.9848     8.1963    68.2883    -0.0078     2.3443     0.1921
   90.5000   -43.0896     8.1562     8.3141    68.5797    -0.0123     2.3410     0.1981
   91.0000   -42.9225     8.4471     8.4335    68.7209    -0.0139     2.3425     0.1996
   91.5000   -42.3069     8.6881     8.6734    69.1623    -0.0140     2.3391     0.1942
   92.0000   -40.7944     8.9361     8.7980    69.1291    -0.0125     2.3302     0.2038
   92.5000   -39.8798     9.1279     8.9892    65.0225    -0.0126     2.3273     0.2014
   93.0000   -39.7127     9.3239     9.2419    60.8769    -0.0096     2.3267     0.2077
   93.5000   -39.5455     9.4586     9.4511    61.4945    -0.0067     2.3304     0.2063
   94.0000   -39.3782     9.6616     9.7091    63.8859    -0.0023     2.3386     0.2006
   94.5000   -39.1988     9.8012     9.9167    65.6547     0.0022     2.3423     0.1993
   95.0000   -38.8945    10.0121    10.0591    65.6456     0.0036     2.3415     0.1993
   95.5000   -39.0262    10.0238    10.0639    66.2508     0.0095     2.3475     0.1937
   96.0000   -39.1580    10.1619    10.0687    68.0620     0.0139     2.3692     0.1868
   96.5000   -39.1359    10.2390    10.1431    66.8023     0.0109     2.3811     0.1751
   97.0000   -38.8192    10.3155    10.2182    65.0090     0.0033     2.3811     0.1697
   97.5000   -38.8015    10.3211    10.2230    64.8473    -0.0057     2.3774     0.1724
   98.0000   -38.7838    10.3267    10.2279    64.8408    -0.0117     2.3691     0.1745
   98.5000   -38.6211    10.3324    10.3035    65.4339    -0.0148     2.3541     0.1856
   99.0000   -38.9023    10.3380    10.3797    66.7778    -0.0104     2.3451     0.1922
   99.5000   -38.8802    10.4873    10.5288    67.3664    -0.0074     2.3436     0.1982
  100.0000   -38.8640    10.7851    10.6805    66.6066    -0.0028     2.3444     0.1927
  100.5000   -38.8460    10.7174    10.8332    66.7167    -0.0014     2.3459     0.1946
  101.0000   -38.8371    10.7990    10.8377    66.7513    -0.0001     2.3473     0.1970
  101.5000   -38.8236    10.8797    10.7665    65.5463    -0.0002     2.3450     0.1925
  102.0000   -38.8102    10.9610    10.7721    63.7415    -0.0002     2.3398     0.1958
  102.5000   -38.7743    11.2739    10.7765    62.6875    -0.0003     2.3360     0.2021
  103.0000   -38.7839    11.5957    10.8555    63.1350    -0.0004     2.3390     0.1992
  103.5000   -38.9200    11.9267    11.0108    64.9338    -0.0004     2.3397     0.1991
  104.0000   -38.9033    12.2672    11.0915    65.9826    -0.0005     2.3419     0.1995
  104.5000   -38.7405    12.2739    11.2501    65.9788    -0.0005     2.3449     0.1959
  105.0000   -38.7271    12.1946    11.3326    66.7266     0.0009     2.3449     0.1947
  105.5000   -38.7138    12.0341    11.4157    67.3694     0.0008     2.3337     0.1971
  106.0000   -38.7004    11.8773    11.4994    64.0179     0.0023     2.3104     0.2075
  106.5000   -38.6870    11.7210    11.5838    61.7627     0.0067     2.2797     0.2236
  107.0000   -38.8265    11.9727    11.5885    60.2432     0.0321     2.2648     0.2342
  107.5000   -38.9593    12.1457    11.5933    61.9068     0.0650     2.3089     0.2468
  108.0000   -39.0954    12.3212    11.6783    61.7537     0.0589     2.3209     0.2127
  108.5000   -39.2349    12.5858    11.6831    61.3003     0.0319     2.3201     0.2091
  109.0000   -39.5172    12.7677    11.6879    61.4474     0.0124     2.3395     0.2118
  109.5000   -39.6566    13.0419    11.6928    62.7958     0.0123     2.3508     0.1951
  110.0000   -39.9422    13.4141    11.6976    62.9429     0.0123     2.3448     0.1954
  110.5000   -40.5268    13.7971    11.7024    63.6957     0.0122     2.3335     0.1978
  111.0000   -41.5564    14.1909    11.7099    66.1852     0.0122     2.3320     0.2056
  111.5000   -41.9948    14.2970    11.8747    73.1742     0.0121     2.3320     0.2029
  112.0000   -42.2804    13.9155    11.9618    74.3424     0.0120     2.3320     0.2008
  112.5000   -42.7122    13.3585    12.0495    74.3393     0.0135     2.3297     0.2029
  113.0000   -42.9978    12.7357    12.0545    73.8559     0.0134     2.3342     0.2047
  113.5000   -43.4334    12.3106    12.0594    72.0460     0.0074     2.3417     0.1964
  114.0000   -44.0174    11.7367    11.8174    70.5766     0.0058     2.3417     0.2003
  114.5000   -44.4529    11.5026    11.7291    70.2734     0.0042     2.3386     0.1952
  115.0000   -44.4391    11.3512    11.5719    70.5707     0.0057     2.3356     0.2015
  115.5000   -44.4258    11.1247    11.4311    70.7179     0.0071     2.3476     0.1934
  116.0000   -45.0103    11.0544    11.3572    70.7141     0.0101     2.3618     0.1850
  116.5000   -45.5949    10.9089    11.2063    70.8613     0.0100     2.3618     0.1850
  117.0000   -46.1794    10.8388    10.9826    71.0084     0.0129     2.3678     0.1820
  117.5000   -46.1659    10.6212    10.7622    71.3065     0.0129     2.3776     0.1746
  118.0000   -45.9911    10.5563    10.5452    71.4537     0.0128     2.4016     0.1590
  118.5000   -46.3213    10.4123    10.4781    71.7510     0.0113     2.4106     0.1548
