~VERSION INFORMATION
 VERS.                2.0:   CWLS LOG ASCII STANDARD - VERSION 2.0
 WRAP.                 NO:   ONE LINE PER DEPTH STEP
~WELL INFORMATION
#MNEM.UNIT      DATA TYPE    INFORMATION
#----------   ------------   ------------------------------
 STRT.F         1500.0000:   START DEPTH
 STOP.F         3480.0000:   STOP DEPTH
 STEP.F            0.5000:   STEP LENGTH
 NULL.          -999.2500:   NO VALUE
 COMP. FLUOR DANIEL (NOPSR). INC.:   COMPANY
 WELL.   22-STX-26 #22-26:   WELL
 FLD .             NPR #3:   FIELD
 LOC .      S26 T38N R78W:   LOCATION
 CNTY.            NATRONA:   COUNTY
 STAT.            WYOMING:   STATE
 CTRY. UNITED STATES OF AMERICA:   COUNTRY
 SRVC.            Unknown:   SERVICE COMPANY
 DATE.        14-JUN-1995:   LOGDATE
 API .       490252272400:   API NUMBER
~CURVE INFORMATION
#MNEM.UNIT       API CODE    CURVE DESCRIPTION
#----------   ------------   ------------------------------
 DEPT.F                  :   
 ROP .MIN/FT 91 810 01 00:   RATE OF DRILLING PENETRATION
 TGAS.UNITS  91 830 01 00:   TOTAL GAS FROM HOTWIRE
~PARAMETER INFORMATION
#MNEM.UNIT          VALUE    DESCRIPTION
#----------   ------------   ------------------------------
 EKB .F              5348:   KELLING BUSHING
 EGL .F              5338:   GROUND LEVEL
 DATE.            6-14-95:   RUN DATE
 DD  .F              3480:   DEPTH DRILLER
 BLI .F              3480:   BOTTOM LOG INTERVAL
 TLI .F              1500:   TOP LOG INTERVAL
 CS  .IN            9.625:   CASING SIZE
 CBD .F                87:   CASING BOTTOM DRILLER
 ENGI.               HUSK:   RECORDING ENGINEER
 WITN.              TOWER:   WITNESSED BY
 CLNT.            A2DTECH:   CLIENT CODE
 ORIG.           5" PRINT:   ORIGIN OF DATA
 UWI .       490252272400:   UNIQUE WELL ID
 DICO. A2D Technologies, Inc.:   DIGITIZING COMPANY
~OTHER INFORMATION
~A  DEPT         ROP       TGAS 
# ...
 3079.5000     0.7922     9.6724
 3080.0000     0.7925     9.6713
 3080.5000     0.6041     9.6703
 3081.0000     0.6151     9.6692
 3081.5000     0.6259     9.6682
 3082.0000     0.6263     9.6671
 3082.5000     0.6266     9.6661
 3083.0000     0.6270     9.6651
 3083.5000     0.6273     9.6640
 3084.0000     0.6277     9.6630
 3084.5000     0.6281     9.6619
 3085.0000     0.6285     9.6609
 3085.5000     0.6288     9.6598
 3086.0000     0.6292     9.6588
 3086.5000     0.6296     9.6578
 3087.0000     0.6299     9.6567
 3087.5000     0.6303     9.6557
 3088.0000     0.6307     9.6546
 3088.5000     0.6310     9.6536
 3089.0000     0.6313     9.6525
 3089.5000     0.6317     9.6515
 3090.0000     0.6321     9.6505
 3090.5000     0.6325     9.6494
 3091.0000     0.6329     9.6484
 3091.5000     0.6332     9.6473
 3092.0000     0.6441     9.6463
 3092.5000     0.6444     9.6452
 3093.0000     0.6448     9.6442
 3093.5000     0.6451     9.6432
 3094.0000     0.6456     9.6421
 3094.5000     0.6459     9.6411
 3095.0000     0.6463     9.6400
 3095.5000     0.6571     9.6390
 3096.0000     0.6575     9.6379
 3096.5000     0.6579     9.6369
 3097.0000     0.6582     9.6359
 3097.5000     0.6586     9.6348
 3098.0000     0.6590     9.6338
 3098.5000     0.6593     9.6327
 3099.0000     0.6597     9.6317
 3099.5000     0.6601     9.6306
 3100.0000     0.6604     9.6294
 3100.5000     0.6608     9.6321
 3101.0000     0.6611     9.6352
 3101.5000     0.6615     9.6383
 3102.0000     0.6619     9.6415
 3102.5000     0.6623     9.6446
 3103.0000     0.6626     9.6477
 3103.5000     0.6630     9.6509
 3104.0000     0.7787     9.6540
 3104.5000     0.7790     9.6571
 3105.0000     0.7794     9.6603
 3105.5000     0.7797     9.6634
 3106.0000     0.7801     9.6665
 3106.5000     0.7805     9.6697
 3107.0000     0.7809     9.6728
 3107.5000     0.7813     9.6759
 3108.0000     0.7816     9.6791
 3108.5000     0.7820     9.6822
 3109.0000     0.7824     9.6853
 3109.5000     0.7827     9.6885
 3110.0000     0.6415     9.6916
 3110.5000     0.6421     9.6947
 3111.0000     0.6428     9.6979
 3111.5000     0.6434     9.7010
 3112.0000     0.6440     9.7041
 3112.5000     0.6447     9.7073
 3113.0000     0.6453     9.7104
 3113.5000     0.6459     9.7136
 3114.0000     0.6465     9.7167
 3114.5000     0.6472     9.7198
 3115.0000     0.6478     9.7230
 3115.5000     0.6484     9.7261
 3116.0000     0.6491     9.7292
 3116.5000     0.6497     9.7324
 3117.0000     0.6503     9.7355
 3117.5000     0.6509     9.7386
 3118.0000     0.6516     9.7418
 3118.5000     0.6522     9.7449
 3119.0000     0.6528     9.7480
 3119.5000     0.6535     9.7512
 3120.0000     0.5284     9.7543
 3120.5000     0.5183     9.7574
 3121.0000     0.5191     9.7606
 3121.5000     0.5197     9.7637
 3122.0000     0.5203     9.7668
 3122.5000     0.5210     9.7700
 3123.0000     0.5216     9.7731
 3123.5000     0.5222     9.7762
 3124.0000     0.5229     9.7794
 3124.5000     0.5235     9.7825
 3125.0000     0.5241     9.7856
 3125.5000     0.5247     9.7888
 3126.0000     0.5254     9.7919
 3126.5000     0.5260     9.7950
 3127.0000     0.5266     9.7982
 3127.5000     0.5273     9.8013
 3128.0000     0.5279     9.8045
 3128.5000     0.5285     9.8076
 3129.0000     0.5291     9.8107
 3129.5000     0.5298     9.8139
 3130.0000     0.5304     9.8170
 3130.5000     0.5310     9.8201
 3131.0000     0.5317     9.8233
 3131.5000     0.5323     9.8264
 3132.0000     0.5329     9.8295
 3132.5000     0.5335     9.8327
 3133.0000     0.5342     9.8358
 3133.5000     0.5348     9.8389
 3134.0000     0.5354     9.8421
 3134.5000     0.5361     9.8452
 3135.0000     0.5367     9.8483
 3135.5000     0.5373     9.8515
 3136.0000     0.5379     9.8546
 3136.5000     0.5386     9.8577
 3137.0000     0.5392     9.8609
 3137.5000     0.5398     9.8640
 3138.0000     0.5405     9.8671
 3138.5000     0.5411     9.8703
 3139.0000     0.5417     9.8734
 3139.5000     0.5423     9.8765
 3140.0000     0.5430     9.8797
 3140.5000     0.5436     9.8828
 3141.0000     0.5442     9.8859
 3141.5000     0.5449     9.8891
 3142.0000     0.5455     9.8922
 3142.5000     0.6720     9.8954
 3143.0000     0.6726     9.8985
 3143.5000     0.6733     9.9016
 3144.0000     0.6739     9.9048
 3144.5000     0.6745     9.9079
 3145.0000     0.6752     9.9110
 3145.5000     0.6758     9.9142
 3146.0000     0.6764     9.9173
 3146.5000     0.6770     9.9204
 3147.0000     0.6776     9.9236
 3147.5000     0.6783     9.9267
 3148.0000     0.6789     9.9298
 3148.5000     0.6796     9.9330
 3149.0000     0.6802     9.9361
 3149.5000     0.6808     9.9392
 3150.0000     0.6814     9.9424
 3150.5000     0.6820     9.9455
 3151.0000     0.6827     9.9486
 3151.5000     0.6833     9.9518
 3152.0000     0.6840     9.9549
 3152.5000     0.5481     9.9580
 3153.0000     0.5488     9.9612
 3153.5000     0.5495     9.9643
 3154.0000     0.5501     9.9674
 3154.5000     0.5507     9.9706
 3155.0000     0.5514     9.9737
 3155.5000     0.5520     9.9768
 3156.0000     0.5526     9.9800
 3156.5000     0.5532     9.9831
 3157.0000     0.5539     9.9863
 3157.5000     0.5545     9.9894
 3158.0000     0.5551     9.9925
 3158.5000     0.5558     9.9957
 3159.0000     0.5564     9.9988
 3159.5000     0.5570    10.0019
 3160.0000     0.5577    10.0051
 3160.5000     0.5583    10.0082
 3161.0000     0.5589    10.0113
 3161.5000     0.5595    10.0145
 3162.0000     0.5602    10.0176
 3162.5000     0.5608    10.0207
 3163.0000     0.5614    10.0239
 3163.5000     0.5621    10.0270
 3164.0000     0.5627    10.0301
 3164.5000     0.5633    10.0333
 3165.0000     0.5639    10.0364
 3165.5000     0.5646    10.0395
 3166.0000     0.5652    10.0427
 3166.5000     0.5658    10.0458
 3167.0000     0.5665    10.0489
 3167.5000     0.5671    10.0521
 3168.0000     0.5677    10.0552
 3168.5000     0.5683    10.0583
 3169.0000     0.5690    10.0615
 3169.5000     0.5696    10.0646
 3170.0000     0.5702    10.0677
 3170.5000     0.5709    10.0709
 3171.0000     0.5715    10.0740
 3171.5000     0.5721    10.0772
 3172.0000     0.5727    10.0803
 3172.5000     0.5734    10.0834
 3173.0000     0.5740    10.0866
 3173.5000     0.5746    10.0897
 3174.0000     0.5753    10.0928
 3174.5000     0.5759    10.0960
 3175.0000     0.5765    10.0991
 3175.5000     0.5771    10.1022
 3176.0000     0.6722    10.1054
 3176.5000     0.6621    10.1085
 3177.0000     0.6630    10.1116
 3177.5000     0.6636    10.1148
 3178.0000     0.6536    10.1179
 3178.5000     0.6437    10.1210
 3179.0000     0.6445    10.1242
 3179.5000     0.6451    10.1273
 3180.0000     0.6457    10.1304
 3180.5000     0.6465    10.1336
 3181.0000     0.6471    10.1367
 3181.5000     0.6477    10.1398
 3182.0000     0.6483    10.1430
 3182.5000     0.5439    10.1461
 3183.0000     0.5447    10.1492
 3183.5000     0.5453    10.1524
 3184.0000     0.5460    10.1555
 3184.5000     0.5466    10.1586
 3185.0000     0.5473    10.1618
 3185.5000     0.5479    10.1649
 3186.0000     0.5485    10.1681
 3186.5000     0.5492    10.1712
 3187.0000     0.5603    10.1743
 3187.5000     0.5609    10.1775
 3188.0000     0.5615    10.1806
 3188.5000     0.5621    10.1837
 3189.0000     0.5628    10.1869
 3189.5000     0.5634    10.1900
 3190.0000     0.5641    10.1931
 3190.5000     0.6905    10.1963
 3191.0000     0.6911    10.1994
 3191.5000     0.6917    10.2025
 3192.0000     0.6923    10.2057
 3192.5000     0.6930    10.2088
 3193.0000     0.6936    10.2119
 3193.5000     0.6942    10.2151
 3194.0000     0.6949    10.2182
 3194.5000     0.6954    10.2213
 3195.0000     0.6961    10.2245
 3195.5000     0.6967    10.2276
 3196.0000     0.6974    10.2307
 3196.5000     0.7923    10.2339
 3197.0000     0.7929    10.2370
 3197.5000     0.7936    10.2401
 3198.0000     0.7942    10.2433
 3198.5000     0.6689    10.2464
 3199.0000     0.6592    10.2495
 3199.5000     0.6599    10.2527
 3200.0000     0.6605    10.2558
 3200.5000     0.6611    10.2569
