~VERSION INFORMATION
 VERS.                2.0:   CWLS LOG ASCII STANDARD - VERSION 2.0
 WRAP.                 NO:   ONE LINE PER DEPTH STEP
~WELL INFORMATION
#MNEM.UNIT      DATA TYPE    INFORMATION
#----------   ------------   ------------------------------
 STRT.F           30.5000:   START DEPTH
 STOP.F          692.0000:   STOP DEPTH
 STEP.F            0.5000:   STEP LENGTH
 NULL.          -999.2500:   NO VALUE
 COMP. FENIX & SCISSON INC:   COMPANY
 WELL.   27-S-11-WP #3-11:   WELL
 FLD .  TEAPOT DOME NPR-3:   FIELD
 LOC .      S11 T38N R78W:   LOCATION
 CNTY.            NATRONA:   COUNTY
 STAT.            WYOMING:   STATE
 CTRY. UNITED STATES OF AMERICA:   COUNTRY
 SRVC.       Schlumberger:   SERVICE COMPANY
 DATE.        18-FEB-1978:   LOGDATE
 API .       490251058100:   API NUMBER
~CURVE INFORMATION
#MNEM.UNIT       API CODE    CURVE DESCRIPTION
#----------   ------------   ------------------------------
 DEPT.F                  :   
 CALD.IN     45 280 60 00:   CALIPER FROM DENSITY LOG
 CORR.G/C3   45 356 01 00:   DENSITY CORRECTION
 DPHI.DEC    45 890 12 00:   DENSITY POROSITY SANDSTONE
 GRD .GAPI   45 310 01 00:   GAMMA RAY FROM DENSITY LOG
 RHOB.G/C3   45 350 01 00:   BULK DENSITY
 ILD .OHMM   05 110 46 00:   INDUCTION LOG DEEP
 SN  .OHMM   05 040 16 00:   SHORT NORMAL 16"
 SPR .MV     05 010 01 00:   SPONTANEOUS POTENSIAL FROM RES.
~PARAMETER INFORMATION
#MNEM.UNIT          VALUE    DESCRIPTION
#----------   ------------   ------------------------------
 PD  .                 GL:   PERMANENT DATUM
 EPD .F              5195:   ELEVATION PERMANENT DATUM
 LMF .                 KB:   LOG MEASURED FROM
 DAPD.F                 4:   FEET ABOVE PERMANENT DATUM
 DMF .                 KB:   DRILLING MEASURED FROM
 EKB .F              5199:   KELLING BUSHING
 EGL .F              5195:   GROUND LEVEL
 DATE.        18-FEB-1978:   RUN DATE
 RUN .                  1:   RUN NUMBER
 DD  .F               690:   DEPTH DRILLER
 DL  .F               695:   DEPTH LOGGER
 BLI .F               688:   BOTTOM LOG INTERVAL
 TLI .F                40:   TOP LOG INTERVAL
 CS  .IN            8.625:   CASING SIZE
 CBD .F                40:   CASING BOTTOM DRILLER
 CBL .F                40:   CASING BOTTOM LOGGER
 BS  .IN            7.875:   BIT SIZE
 BSD .F               690:   BIT SIZE AT DEPTH
 DFT .       LIGNO/ SULF.:   DRILLING FLUID TYPE
 DFD .                8.8:   DRILLING FLUID DENSITY
 DFV .                 33:   DRILLING FLUID VISCOSITY
 DFPH.               10.0:   DRILLING FLUID PH
 DFL .                5.0:   DRILLING FLUID LOSS
 MSS .           FLOWLINE:   MUD SAMPLE SOURCE
 RMS .OHMM            1.7:   RESISTIVITY MUD SAMPLE
 MST .F                66:   MUD SAMPLE TEMPERATURE
 RMF .OHMM            2.0:   RESISTIVITY MUD FILTRATE SAMPLE
 MFST.F                58:   MUD FILTRATE SAMPLE TEMPERATURE
 RMC .OHMM            3.0:   RESISTIVITY MUD CAKE
 MCST.F                60:   MUD CAKE SAMPLE TEMPERATURE
 MFSS.               MEAS:   MUD FILTRATE SAMPLE SOURCE
 RMB .OHMM           1.65:   RESISTIVITY MUD AT BHT
 BHT .F                68:   BOTTOM HOLE TEMPERATURE
 TCS .HRS               2:   TIME CURCULATED STOPPED
 MRT .F                68:   MAXIMUM RECORDED TEMPERATURE
 LUN .               2958:   LOGGING UNIT NUMBER
 LUL .             CASPER:   LOGGING UNIT LOCATION
 ENGI.            POINTER:   RECORDING ENGINEER
 WITN.           MCGINLEY:   WITNESSED BY
 CLNT.            A2DTECH:   CLIENT CODE
 ORIG.           5" PRINT:   ORIGIN OF DATA
 UWI .       490251058100:   UNIQUE WELL ID
~OTHER INFORMATION
~A   DEPT     CALD       CORR       DPHI         GRD      RHOB        ILD         SN        SPR   
# ...
  476.0000     7.3618     0.1212     0.1715    70.5670     2.3605    19.7038    22.9560   -44.1916
  476.5000     7.3908     0.1301     0.1685    72.5193     2.3634    18.5125    23.2572   -43.4579
  477.0000     7.4666     0.1345     0.1685    72.1989     2.3656    18.2392    23.4036   -42.4192
  477.5000     7.5404     0.1328     0.1704    71.7270     2.3655    18.4693    23.3755   -42.1418
  478.0000     7.6922     0.0962     0.1835    71.5576     2.3707    19.3740    23.1901   -42.1713
  478.5000     7.8133     0.0457     0.2087    71.5364     2.3236    19.7678    23.1678   -42.8095
  479.0000     7.9345     0.0198     0.2203    70.6099     2.2863    19.6013    23.3081   -43.3140
  479.5000     7.9941     0.0150     0.2161    68.4713     2.2945    19.5784    23.2856   -44.0869
  480.0000     8.0231     0.0134     0.2059    66.3327     2.3096    19.5555    23.2632   -43.2069
  480.5000     8.0209     0.0147     0.1931    65.8608     2.3126    19.5327    23.2408   -42.7781
  481.0000     8.0191     0.0206     0.1910    66.2937     2.3102    19.2387    22.4189   -42.8065
  481.5000     8.0174     0.0266     0.1883    66.2763     2.3261    18.9491    21.9326   -43.1328
  482.0000     8.0156     0.0324     0.1835    66.2589     2.3647    18.5301    21.6066   -42.5515
  482.5000     8.0138     0.0322     0.1691    66.2416     2.3942    17.9880    21.2814   -42.5870
  483.0000     8.0116     0.0320     0.1416    66.9818     2.4124    17.4617    21.2609   -42.0058
  483.5000     8.0099     0.0318     0.1344    72.8691     2.4161    17.2155    21.2404   -41.7222
  484.0000     8.0081     0.0301     0.1317    75.8821     2.4137    17.0755    21.2200   -42.6724
  484.5000     8.0063     0.0300     0.1442    75.4101     2.3999    17.0555    21.1996   -43.0058
  485.0000     8.0046     0.0282     0.1609    73.7525     2.3930    17.0356    21.1792   -43.3391
  485.5000     8.0028     0.0281     0.1616    71.7390     2.3830    17.1352    21.0112   -43.8249
  486.0000     8.0006     0.0264     0.1601    69.7031     2.3807    17.4784    21.1435   -45.2378
  486.5000     7.9988     0.0247     0.1747    67.7606     2.3684    17.9536    21.4209   -45.7111
  487.0000     7.9971     0.0230     0.1708    67.1371     2.3532    18.4417    21.6967   -44.9512
  487.5000     7.9953     0.0212     0.1675    66.8167     2.3637    19.0762    21.6758   -44.5485
  488.0000     7.9935     0.0180     0.1849    67.1024     2.3613    19.7325    22.2698   -45.9561
  488.5000     7.9913     0.0163     0.1885    67.2365     2.3445    20.2690    23.3744   -46.4418
  489.0000     7.9896     0.0162     0.1901    67.6694     2.3262    20.2450    23.6720   -46.0130
  489.5000     7.9878     0.0175     0.1813    67.9550     2.3383    20.2210    23.4786   -45.1268
  490.0000     7.9861     0.0173     0.1720    68.6952     2.3663    20.0514    23.4560   -44.8504
  490.5000     7.9843     0.0187     0.1662    69.2839     2.3738    20.1745    23.2700   -43.0496
  491.0000     7.9825     0.0200     0.1675    69.4182     2.3714    20.1451    22.7646   -42.1563
  491.5000     7.9803     0.0214     0.1687    69.3758     2.3690    19.8419    22.1148   -42.8017
  492.0000     7.9944     0.0211     0.1691    69.2275     2.3674    19.4069    21.4836   -43.7448
  492.5000     7.9922     0.0210     0.1673    69.0586     2.3673    18.9815    20.4368   -43.7732
  493.0000     7.9904     0.0208     0.1643    69.0412     2.3688    18.4359    20.1333   -43.8018
  493.5000     7.9886     0.0206     0.1625    68.8723     2.3740    18.1584    19.6960   -43.5122
  494.0000     8.0018     0.0204     0.1613    69.0065     2.3754    17.8851    19.2682   -42.5915
  494.5000     8.0000     0.0202     0.1580    68.9848     2.3791    17.8643    18.5877   -42.2103
  495.0000     8.0290     0.0196     0.1502    69.4219     2.3957    17.5954    17.8062   -42.7032
  495.5000     8.0272     0.0168     0.1423    69.7076     2.4078    17.3305    17.5416   -42.7316
  496.0000     8.0562     0.0167     0.1439    72.7205     2.4077    16.9408    17.5244   -42.4481
  496.5000     8.0544     0.0165     0.1473    77.1092     2.4015    16.4451    17.5073   -42.4837
  497.0000     8.0680     0.0163     0.1513    79.3481     2.3999    15.9856    17.4870   -42.3526
  497.5000     8.0658     0.0161     0.1525    78.5732     2.3983    15.7450    17.4701   -42.2286
  498.0000     8.0640     0.0159     0.1495    77.1921     2.3944    15.6169    17.4533   -42.5691
  498.5000     8.0623     0.0171     0.1459    75.9627     2.3936    15.5987    17.3149   -42.4451
  499.0000     8.0605     0.0186     0.1432    75.3392     2.3988    15.4718    17.1776   -42.9309
  499.5000     8.0587     0.0184     0.1487    76.1010     2.4048    15.4537    17.1611   -42.9593
  500.0000     8.0723     0.0198     0.1572    77.2703     2.4023    15.7636    16.9062   -41.9868
  500.5000     8.0079     0.0174     0.1484    76.0433     2.4017    15.7506    16.8922   -42.0110
  501.0000     8.0215     0.0164     0.1597    74.0588     2.3931    15.7375    16.8682   -42.0353
  501.5000     8.0185     0.0192     0.1598    72.3773     2.3831    15.7245    16.7439   -42.0596
  502.0000     7.9546     0.0191     0.1617    71.1504     2.3807    15.6019    16.8810   -42.0838
  502.5000     7.8447     0.0235     0.1639    71.7416     2.3814    15.6987    17.3310   -42.5661
  503.0000     7.6273     0.0248     0.1639    73.8480     2.3820    15.9066    17.7848   -43.0484
  503.5000     7.5941     0.0171     0.1634    74.8938     2.3727    16.1174    18.1458   -43.2253
  504.0000     7.6241     0.0017     0.1644    73.9454     2.3216    16.1037    18.3808   -43.0962
  504.5000     7.8828    -0.0045     0.1775    72.0712     2.3085    16.3175    18.4974   -42.9679
  505.0000     7.9249    -0.0002     0.1751    69.9972     2.3167    16.3006    18.2198   -42.5348
  505.5000     7.9532     0.0057     0.1600    69.3800     2.3668    16.2871    17.7008   -42.2537
  506.0000     7.9502     0.0086     0.1461    72.0887     2.3949    16.2736    17.4390   -42.2779
  506.5000     7.9637     0.0100     0.1438    75.5588     2.3946    16.2601    16.9423   -42.6076
  507.0000     7.9607     0.0098     0.1460    77.0591     2.3771    15.7982    16.5753   -42.3265
  507.5000     7.9583     0.0096     0.1570    77.8019     2.3754    15.3493    16.1032   -42.3511
  508.0000     7.9719     0.0110     0.1579    77.6355     2.3836    15.3366    15.8651   -42.3756
  508.5000     7.9689     0.0154     0.1519    77.4692     2.3888    15.1109    15.6305   -42.4000
  509.0000     7.9664     0.0183     0.1499    77.1513     2.3978    14.9931    15.2919   -42.6219
  509.5000     7.9948     0.0211     0.1484    76.9848     2.4023    14.6694    15.0658   -43.3649
  510.0000     7.9923     0.0210     0.1497    76.9697     2.4052    14.6572    14.8430   -43.0888
  510.5000     7.9899     0.0208     0.1492    78.1638     2.4035    14.5429    14.8296   -42.1910
  511.0000     7.9869     0.0206     0.1465    79.5126     2.4003    14.3289    14.8162   -42.2213
  511.5000     7.9845     0.0189     0.1456    80.5584     2.4018    14.2172    14.8029   -42.2456
  512.0000     7.9821     0.0188     0.1463    81.1496     2.4046    14.2054    14.7895   -42.4225
  512.5000     7.9797     0.0171     0.1513    81.1348     2.4053    14.1936    14.8800   -42.5995
  513.0000     7.9773     0.0154     0.1569    80.0594     2.3952    14.1817    14.9711   -42.9291
  513.5000     7.9749     0.0122     0.1617    78.5294     2.3935    14.1698    15.1684   -42.8007
  514.0000     7.9725     0.0090     0.1636    77.4540     2.3911    14.1579    15.2611   -41.7562
  514.5000     7.9701     0.0043     0.1643    76.3786     2.3819    14.1437    15.2471   -41.7805
  515.0000     7.9677     0.0026     0.1646    74.2323     2.3810    14.0335    15.2333   -41.8048
  515.5000     7.9653     0.0009     0.1644    73.4697     2.3816    14.0218    15.2194   -42.2870
  516.0000     7.9628     0.0007     0.1602    73.3001     2.3822    14.1115    15.2056   -42.6167
