~VERSION INFORMATION
 VERS.                2.0:   CWLS LOG ASCII STANDARD - VERSION 2.0
 WRAP.                 NO:   ONE LINE PER DEPTH STEP
~WELL INFORMATION
#MNEM.UNIT      DATA TYPE    INFORMATION
#----------   ------------   ------------------------------
 STRT.F          149.5000:   START DEPTH
 STOP.F          864.5000:   STOP DEPTH
 STEP.F            0.5000:   STEP LENGTH
 NULL.          -999.2500:   NO VALUE
 COMP. U S NAVY/INTEX OIL CO:   COMPANY
 WELL.    NPR #3 #78-S-27:   WELL
 FLD .             TEAPOT:   FIELD
 LOC .      S27 T39N R78W:   LOCATION
 CNTY.            NATRONA:   COUNTY
 STAT.            WYOMING:   STATE
 CTRY. UNITED STATES OF AMERICA:   COUNTRY
 SRVC. Schlumberger Well Surveying Corp:   SERVICE COMPANY
 DATE.        25-FEB-1961:   LOGDATE
 API .       490250657800:   API NUMBER
~CURVE INFORMATION
#MNEM.UNIT       API CODE    CURVE DESCRIPTION
#----------   ------------   ------------------------------
 DEPT.F                  :   
 SPR .MV     05 010 01 00:   SPONTANEOUS POTENTIAL FROM RES.
 CILD.MMHO   05 110 46 00:   CONDUCTIVITY INDUCTION LOG DEEP
 ASN .OHMM   05 041 16 00:   AMPLIFIED SHORT NORMAL 16"
 ILD .OHMM   05 120 46 00:   INDUCTION LOG DEEP
 GR  .GAPI   81 310 01 00:   GAMMA RAY
~PARAMETER INFORMATION
#MNEM.UNIT          VALUE    DESCRIPTION
#----------   ------------   ------------------------------
 PD  .                 GL:   PERMANENT DATUM
 EPD .F              5038:   ELEVATION PERMANENT DATUM
 LMF .                 KB:   LOG MEASURED FROM
 DAPD.F                 4:   FEET ABOVE PERMANENT DATUM
 DMF .                 KB:   DRILLING MEASURED FROM
 EKB .F              5042:   KELLING BUSHING
 EGL .F              5038:   GROUND LEVEL
 DATE.            2-25-61:   RUN DATE
 RUN .                  1:   RUN NUMBER
 DD  .F               865:   DEPTH DRILLER
 DL  .F               869:   DEPTH LOGGER
 BLI .F               864:   BOTTOM LOG INTERVAL
 TLI .F               150:   TOP LOG INTERVAL
 CBD .F                12:   CASING BOTTOM DRILLER
 BS  .IN            7.875:   BIT SIZE
 BSD .F               865:   BIT SIZE AT DEPTH
 DFT .       OIL EMULSION:   DRILLING FLUID TYPE
 DFD .               10.2:   DRILLING FLUID DENSITY
 DFV .                 48:   DRILLING FLUID VISCOSITY
 DFPH.                8.5:   DRILLING FLUID PH
 DFL .               10.2:   DRILLING FLUID LOSS
 RMS .OHMM            1.7:   RESISTIVITY MUD SAMPLE
 MST .F                57:   MUD SAMPLE TEMPERATURE
 MFSS.                  C:   MUD FILTRATE SAMPLE SOURCE
 MCSS.                  C:   MUD CAKE SAMPLE SOURCE
 RMB .OHMM            1.3:   RESISTIVITY MUD AT BHT
 BHT .F                75:   BOTTOM HOLE TEMPERATURE
 TCS .HRS               1:   TIME CURCULATED STOPPED
 MRT .F                75:   MAXIMUM RECORDED TEMPERATURE
 LUN .               2572:   LOGGING UNIT NUMBER
 LUL .                 NC:   LOGGING UNIT LOCATION
 ENGI.             ROUSER:   RECORDING ENGINEER
 WITN.          JORGENSEN:   WITNESSED BY
 CLNT.            A2DTECH:   CLIENT CODE
 ORIG.       2", 5" PRINT:   ORIGIN OF DATA
 UWI .       490250657800:   UNIQUE WELL ID
 DICO. A2D Technologies, Inc.:   DIGITIZING COMPANY
~OTHER INFORMATION
~A   DEPT      SPR       CILD        ASN        ILD         GR   
# ...
  515.5000   -51.0590   113.7274    10.5073     8.9077  -999.2500
  516.0000   -50.9120   114.2385    10.3271     8.7936  -999.2500
  516.5000   -50.7614   115.7909    10.1579     8.6860  -999.2500
  517.0000   -50.6130   117.3433    10.0704     8.5751  -999.2500
  517.5000   -50.4893   118.8958     9.9813     8.4660  -999.2500
  518.0000   -50.6403   120.4482     9.8521     8.3560  -999.2500
  518.5000   -51.1607   122.0006     9.7314     8.2462  -999.2500
  519.0000   -51.3129   123.5530     9.6065     8.1367  -999.2500
  519.5000   -51.2923   125.1054     9.4834     8.0264  -999.2500
  520.0000   -51.1376   126.6579     9.3601     7.9178  -999.2500
  520.5000   -50.8997   128.2103     9.2393     7.8092  -999.2500
  521.0000   -50.6674   129.7627     9.1932     7.7773  -999.2500
  521.5000   -50.5050   130.7615     9.1841     7.7827  -999.2500
  522.0000   -50.4985   130.7615     9.2383     7.8316  -999.2500
  522.5000   -50.5059   130.7615     9.3709     7.9082  -999.2500
  523.0000   -50.4341   129.3170     9.4982     7.9786  -999.2500
  523.5000   -50.1992   127.6428     9.6341     8.0521  -999.2500
  524.0000   -49.9621   125.9686     9.7343     8.1240  -999.2500
  524.5000   -49.8941   124.2944     9.7652     8.1968  -999.2500
  525.0000   -49.8959   122.6202     9.7952     8.2690  -999.2500
  525.5000   -49.9583   120.7415     9.8237     8.3417  -999.2500
  526.0000   -50.1879   120.5239     9.8534     8.4137  -999.2500
  526.5000   -50.4123   119.9499     9.8831     8.4868  -999.2500
  527.0000   -50.6397   119.3759     9.9388     8.5579  -999.2500
  527.5000   -50.7052   118.8019    10.0076     8.6330  -999.2500
  528.0000   -50.6343   118.2279    10.0733     8.6844  -999.2500
  528.5000   -50.5450   117.6539    10.1419     8.6845  -999.2500
  529.0000   -50.4570   117.0799    10.2068     8.6867  -999.2500
  529.5000   -50.3647   116.7335    10.2760     8.6744  -999.2500
  530.0000   -50.3017   116.7335    10.2738     8.6348  -999.2500
  530.5000   -50.3005   116.7335    10.1971     8.5948  -999.2500
  531.0000   -50.2997   118.0476    10.1246     8.5542  -999.2500
  531.5000   -50.3005   118.8203    10.0488     8.5142  -999.2500
  532.0000   -50.3000   119.5930     9.9993     8.4736  -999.2500
  532.5000   -50.3012   120.3657     9.9601     8.4335  -999.2500
  533.0000   -50.3000   121.1384     9.9483     8.3938  -999.2500
  533.5000   -50.2978   121.9111     9.9488     8.3816  -999.2500
  534.0000   -50.1804   122.7455     9.9500     8.3836  -999.2500
  534.5000   -50.0062   122.7455     9.9456     8.3820  -999.2500
  535.0000   -49.8430   122.7455     9.9819     8.3834  -999.2500
  535.5000   -49.6727   121.7435    10.1080     8.3848  -999.2500
  536.0000   -49.5090   121.0254    10.2311     8.4757  -999.2500
  536.5000   -49.3417   119.3512    10.3581     8.6100  -999.2500
  537.0000   -49.2959   117.6770    10.3982     8.7371  -999.2500
  537.5000   -49.2949   116.0028    10.5453     8.8674  -999.2500
  538.0000   -49.3462   114.3287    10.7741     8.9968  -999.2500
  538.5000   -49.5267   112.6545    10.9832     9.1246  -999.2500
  539.0000   -49.7089   110.9803    11.2066     9.2587  -999.2500
  539.5000   -49.8882   109.3061    11.4146     9.4127  -999.2500
  540.0000   -50.0782   102.7054    11.4729    10.1703  -999.2500
  540.5000   -50.2389   100.7014    11.6734    10.1703  -999.2500
  541.0000   -50.4060   100.7014    11.8904    10.2705  -999.2500
  541.5000   -50.5118    99.1689    12.0853    10.4557  -999.2500
  542.0000   -50.8016    97.2533    12.2801    10.6409  -999.2500
  542.5000   -50.9598    95.3377    12.4749    10.8260  -999.2500
  543.0000   -51.1180    93.4221    12.6698    11.0112  -999.2500
  543.5000   -51.2783    92.6291    12.7871    11.1218  -999.2500
  544.0000   -51.3665    90.5487    12.9633    11.2875  -999.2500
  544.5000   -51.2992    88.6331    13.1623    11.4782  -999.2500
  545.0000   -50.9127    87.3338    13.2613    11.6537  -999.2500
  545.5000   -50.5657    86.6506    13.3485    11.8642  -999.2500
  546.0000   -50.1607    85.9674    13.3943    11.9846  -999.2500
  546.5000   -49.9895    85.2842    13.4151    11.9735  -999.2500
  547.0000   -49.9902    84.6693    13.4362    11.9722  -999.2500
  547.5000   -50.1582    84.6693    13.4615    12.0177  -999.2500
  548.0000   -50.5595    85.0426    13.4624    11.9824  -999.2500
  548.5000   -50.8968    85.7891    13.3225    11.8544  -999.2500
  549.0000   -51.2964    86.5357    13.1798    11.7470  -999.2500
  549.5000   -51.5643    87.2822    13.0369    11.6289  -999.2500
  550.0000   -51.6479    88.0287    12.8965    11.5169  -999.2500
  550.5000   -51.3007    88.7753    12.7510    11.4011  -999.2500
  551.0000   -50.9658    89.5218    12.6151    11.2887  -999.2500
  551.5000   -51.0172    90.2684    12.4570    11.1719  -999.2500
  552.0000   -51.0012    91.0149    12.3643    11.0624  -999.2500
  552.5000   -50.8933    91.7614    12.3792    10.9367  -999.2500
  553.0000   -50.4948    92.6854    12.3672    10.8625  -999.2500
  553.5000   -50.2504    92.6854    12.4218    10.8926  -999.2500
  554.0000   -50.5898    92.6854    12.5236    10.9440  -999.2500
  554.5000   -51.0574    92.6854    12.6147    11.0004  -999.2500
  555.0000   -51.3760    91.8655    12.7139    11.0547  -999.2500
  555.5000   -51.4246    91.1755    12.8035    11.1098  -999.2500
  556.0000   -51.2090    90.4855    12.9090    11.1649  -999.2500
  556.5000   -50.8287    89.6794    12.9508    11.2195  -999.2500
  557.0000   -50.9744    90.8818    12.7563    11.2721  -999.2500
  557.5000   -51.1857    91.6834    12.5734    11.2594  -999.2500
  558.0000   -51.1923    91.6834    12.3887    11.0924  -999.2500
  558.5000   -50.8532    91.6834    12.2050    10.9103  -999.2500
  559.0000   -50.4246    93.6002    12.0213    10.7314  -999.2500
  559.5000   -50.4560    95.8003    11.8361    10.5508  -999.2500
  560.0000   -50.6175    98.0004    11.6547    10.3717  -999.2500
  560.5000   -50.7627   100.2004    11.4661    10.1909  -999.2500
  561.0000   -50.9238   101.9706    11.2912    10.0125  -999.2500
  561.5000   -51.0184   102.8140    11.0847     9.8295  -999.2500
  562.0000   -50.8816   103.6573    10.9546     9.6732  -999.2500
  562.5000   -50.5465   104.5007    10.9153     9.6080  -999.2500
  563.0000   -50.3871   105.3440    10.8511     9.5541  -999.2500
  563.5000   -50.4092   106.1874    10.7996     9.4990  -999.2500
  564.0000   -50.3411   107.0307    10.7410     9.4443  -999.2500
  564.5000   -50.1027   107.8741    10.6865     9.3894  -999.2500
  565.0000   -49.9943   108.7174    10.6292     9.3345  -999.2500
  565.5000   -49.9927   109.7194    10.5765     9.2799  -999.2500
  566.0000   -50.1114   109.7194    10.5667     9.2243  -999.2500
  566.5000   -50.3249   109.9037    10.5176     9.1731  -999.2500
  567.0000   -50.5114   110.0828    10.4625     9.1673  -999.2500
  567.5000   -50.6195   110.2664    10.4013     9.1693  -999.2500
  568.0000   -50.5625   110.4456    10.3683     9.1677  -999.2500
  568.5000   -50.2058   110.6204    10.3721     9.1706  -999.2500
  569.0000   -49.8574   110.7024    10.3718     9.1661  -999.2500
  569.5000   -49.4876   110.6810    10.3703     9.1758  -999.2500
  570.0000   -49.4158   110.6586    10.3765     9.1045  -999.2500
  570.5000   -49.1676   111.4905    10.3436     8.9328  -999.2500
  571.0000   -48.6738   113.2598    10.0897     8.7715  -999.2500
  571.5000   -48.1847   115.7224     9.9223     8.6038  -999.2500
  572.0000   -47.9947   118.4824     9.6389     8.4398  -999.2500
  572.5000   -47.7808   121.2425     9.3635     8.2732  -999.2500
  573.0000   -47.3838   124.0025     9.1024     8.1090  -999.2500
  573.5000   -47.4194   125.7515     8.9094     7.9417  -999.2500
  574.0000   -47.1851   127.3013     8.7278     7.7798  -999.2500
  574.5000   -46.6065   130.0000     8.7062     7.6070  -999.2500
  575.0000   -46.3573   132.6987     8.7772     7.4837  -999.2500
  575.5000   -46.4724   133.7675     8.8995     7.5645  -999.2500
  576.0000   -47.0395   132.7029     9.0656     7.6671  -999.2500
