~VERSION INFORMATION
 VERS.                2.0:   CWLS LOG ASCII STANDARD - VERSION 2.0
 WRAP.                 NO:   ONE LINE PER DEPTH STEP
~WELL INFORMATION
#MNEM.UNIT      DATA TYPE    INFORMATION
#----------   ------------   ------------------------------
 STRT.F           30.0000:   START DEPTH
 STOP.F          637.0000:   STOP DEPTH
 STEP.F            0.5000:   STEP LENGTH
 NULL.          -999.2500:   NO VALUE
 COMP.    FENIX & SCISSON:   COMPANY
 WELL.        NPR #82-S-3:   WELL
 FLD .             TEAPOT:   FIELD
 LOC .       S3 T38N R78W:   LOCATION
 CNTY.            NATRONA:   COUNTY
 STAT.            WYOMING:   STATE
 CTRY. UNITED STATES OF AMERICA:   COUNTRY
 SRVC.              Welex:   SERVICE COMPANY
 DATE.        08-MAY-1977:   LOGDATE
 API .       490251035100:   API NUMBER
~CURVE INFORMATION
#MNEM.UNIT       API CODE    CURVE DESCRIPTION
#----------   ------------   ------------------------------
 DEPT.F                  :   
 SPR .MV     07 010 01 00:   SPONTANEOUS POTENTIAL FROM RES.
 ILD .OHMM   07 120 46 00:   INDUCTION LOG DEEP
 ILM .OHMM   07 120 44 00:   INDUCTION LOG MEDIUM
 SGRD.OHMM   07 220 05 00:   SHALLOW GUARD RESISTIVITY
 GRD .GAPI   45 310 01 00:   GAMMA RAY FROM DENSITY LOG
 CALD.IN     45 280 60 00:   CALIPER FROM DENSITY LOG
 CORR.G/C3   45 356 01 00:   DENSITY CORRECTION
 RHOB.G/C3   45 350 01 00:   BULK DENSITY
 DPHI.DEC    45 890 12 00:   DENSITY POROSITY SANDSTONE
~PARAMETER INFORMATION
#MNEM.UNIT          VALUE    DESCRIPTION
#----------   ------------   ------------------------------
 PD  .                 GL:   PERMANENT DATUM
 EPD .F              5100:   ELEVATION PERMANENT DATUM
 LMF .                 GL:   LOG MEASURED FROM
 DMF .                 GL:   DRILLING MEASURED FROM
 EGL .F              5100:   GROUND LEVEL
 DATE.        08-MAY-1977:   RUN DATE
 RUN .                  1:   RUN NUMBER
 DD  .F               635:   DEPTH DRILLER
 DL  .F               640:   DEPTH LOGGER
 BLI .F               638:   BOTTOM LOG INTERVAL
 TLI .F                30:   TOP LOG INTERVAL
 CS  .IN            8.625:   CASING SIZE
 CBD .F                40:   CASING BOTTOM DRILLER
 CBL .F                38:   CASING BOTTOM LOGGER
 BS  .IN            7.875:   BIT SIZE
 BSD .F               635:   BIT SIZE AT DEPTH
 DFT .            KCL MUD:   DRILLING FLUID TYPE
 DFD .                8.8:   DRILLING FLUID DENSITY
 DFV .                 32:   DRILLING FLUID VISCOSITY
 DFPH.                7.5:   DRILLING FLUID PH
 MSS .           FLOWLINE:   MUD SAMPLE SOURCE
 RMS .OHMM            .25:   RESISTIVITY MUD SAMPLE
 MST .F                80:   MUD SAMPLE TEMPERATURE
 RMF .OHMM            .22:   RESISTIVITY MUD FILTRATE SAMPLE
 MFST.F                80:   MUD FILTRATE SAMPLE TEMPERATURE
 RMC .OHMM            .31:   RESISTIVITY MUD CAKE
 MCST.F                80:   MUD CAKE SAMPLE TEMPERATURE
 MFSS.               MEAS:   MUD FILTRATE SAMPLE SOURCE
 MCSS.               MEAS:   MUD CAKE SAMPLE SOURCE
 RMB .OHMM            .23:   RESISTIVITY MUD AT BHT
 BHT .F                87:   BOTTOM HOLE TEMPERATURE
 TCS .HRS            0130:   TIME CURCULATED STOPPED
 MRT .F                87:   MAXIMUM RECORDED TEMPERATURE
 LUN .               8611:   LOGGING UNIT NUMBER
 LUL .             CASPER:   LOGGING UNIT LOCATION
 ENGI.            C. DOAK:   RECORDING ENGINEER
 WITN.            R. LYON:   WITNESSED BY
 CLNT.            A2DTECH:   CLIENT CODE
 ORIG.           5" PRINT:   ORIGIN OF DATA
 UWI .       490251035100:   UNIQUE WELL ID
 DICO. A2D Technologies, Inc.:   DIGITIZING COMPANY
~OTHER INFORMATION
~A   DEPT      SPR        ILD        ILM       SGRD         GRD      CALD        CORR        RHOB     DPHI   
# ...
   66.5000   -29.9853     8.3741    10.0065    13.3555   112.0513     7.9511     0.0494     2.4080     0.1608
   67.0000   -30.1189     8.4860     9.9429    12.6462   111.0231     7.9373     0.0465     2.4021     0.1641
   67.5000   -30.1035     8.5581     9.8120    12.2229   110.8843     7.9235     0.0406     2.3909     0.1700
   68.0000   -30.0893     8.6722     9.6162    12.7483   112.3891     7.8948     0.0347     2.3828     0.1739
   68.5000   -30.2454     8.6767     9.6212    13.2030   114.6347     7.8810     0.0333     2.3866     0.1703
   69.0000   -30.3556     8.5529     9.6927    12.8512   116.4338     7.9118     0.0349     2.3926     0.1673
   69.5000   -30.3402     8.3821     9.7648    13.3997   119.2746     7.9277     0.0364     2.3964     0.1634
   70.0000   -30.4980     8.2240     9.7698    12.6898   119.5822     7.9287     0.0380     2.4091     0.1559
   70.5000   -30.7551     8.1717     9.5749    12.4355   117.0692     7.9446     0.0411     2.4151     0.1547
   71.0000   -30.8882     8.1198     9.3839    12.2722   116.3352     7.9456     0.0397     2.4152     0.1538
   71.5000   -31.1693     8.1242     9.1336    12.1949   118.2865     7.9318     0.0368     2.4160     0.1550
   72.0000   -31.3024     8.1185     8.8899    12.3731   119.6391     7.9328     0.0369     2.4153     0.1552
   72.5000   -31.4356     8.0211     8.8945    11.9608   121.2894     7.9190     0.0370     2.4131     0.1567
   73.0000   -31.5687     8.0154     9.1477    11.3255   120.4100     7.9201     0.0356     2.4049     0.1642
   73.5000   -31.5532     7.9743     9.3436    11.2525   119.3817     7.9211     0.0327     2.3960     0.1660
   74.0000   -31.6871     7.9236     9.5436    11.9814   118.7999     7.9221     0.0313     2.3916     0.1686
   74.5000   -31.8202     7.9827     9.6146    12.6680   118.9621     7.9232     0.0329     2.3976     0.1644
   75.0000   -31.9815     7.9869     9.5535    13.2087   119.7195     7.9539     0.0329     2.3992     0.1644
   75.5000   -32.4108     7.9910     9.3629    11.5954   119.4353     7.9550     0.0315     2.3985     0.1656
   76.0000   -32.8077     7.9959     9.1762    11.3630   118.4070     7.9709     0.0301     2.3970     0.1665
   76.5000   -33.0925     8.0554     9.0553    11.3711   117.3754     7.9868     0.0287     2.3986     0.1641
   77.0000   -33.5178     8.0595     8.9978    11.4564   119.1778     7.9878     0.0288     2.4009     0.1617
   77.5000   -33.7989     8.0083     8.9406    11.7025   120.5305     7.9888     0.0304     2.4039     0.1596
   78.0000   -34.0799     8.0125     8.9452    12.0366   118.1629     8.0047     0.0335     2.4077     0.1569
   78.5000   -34.0651     8.0166     8.8884    12.3803   116.6882     8.0058     0.0336     2.4130     0.1546
   79.0000   -34.0504     8.0208     8.9545    12.7338   115.0614     8.0068     0.0337     2.4183     0.1532
   79.5000   -34.0356     8.0249     9.0834    13.0073   116.7150     8.0079     0.0322     2.4191     0.1523
   80.0000   -34.0208     8.0845     9.2142    12.7484   118.2165     8.0089     0.0323     2.4199     0.1532
   80.5000   -34.0060     8.0322     9.5420    11.9884   119.1228     8.0099     0.0339     2.4192     0.1523
   81.0000   -34.2871     8.0373     9.8815    11.7480   119.7314     8.0110     0.0370     2.4237     0.1493
   81.5000   -34.4239     8.0415    10.0237    11.9197   120.3400     7.9972     0.0386     2.4290     0.1454
   82.0000   -34.7013     8.1013     9.9601    11.9265   120.9487     7.9982     0.0402     2.4350     0.1445
   82.5000   -34.9824     8.1054     9.8968    12.0160   120.3668     7.9992     0.0373     2.4313     0.1475
   83.0000   -35.1192     8.1096     9.9019    12.1060   121.1209     8.0003     0.0374     2.4254     0.1495
   83.5000   -35.2524     8.0571     9.9755    12.6245   119.7984     8.0013     0.0360     2.4195     0.1546
   84.0000   -35.5334     8.0623    10.2595    13.0748   119.6596     7.9875     0.0316     2.4076     0.1585
   84.5000   -35.8145     8.0100    10.6245    12.9013   120.2716     7.9737     0.0316     2.4084     0.1594
   85.0000   -36.2398     7.8502    10.4126    12.5594   120.7314     7.9598     0.0317     2.4077     0.1626
   85.5000   -36.6725     7.6408    10.1348    12.2249   121.1879     7.9609     0.0318     2.3988     0.1662
   86.0000   -37.0978     7.4379    10.0013    11.6556   119.2667     7.9471     0.0304     2.3876     0.1719
   86.5000   -37.5268     7.3400     9.8696    11.3451   119.2835     7.9481     0.0275     2.3854     0.1728
   87.0000   -38.1038     7.2924     9.7396    11.1946   121.0826     7.9491     0.0261     2.3855     0.1730
   87.5000   -38.5328     7.1973     9.5453    11.0492   123.1793     7.9502     0.0262     2.3863     0.1721
   88.0000   -38.6696     7.1024     9.3549    10.7549   124.5286     7.9513     0.0323     2.3901     0.1640
   88.5000   -39.0949     7.1061     9.2954    10.5393   122.0156     7.9523     0.0354     2.4051     0.1571
   89.0000   -39.2318     7.0601     9.3002    10.7673   120.9874     7.9534     0.0385     2.4238     0.1509
   89.5000   -39.2133     7.0646     9.3051    10.9986   120.2567     7.9544     0.0445     2.4306     0.1452
   90.0000   -39.3501     7.0683     9.2459    11.0049   119.3772     7.9556     0.0446     2.4336     0.1442
   90.5000   -39.3317     7.0719     9.1872    11.0113   118.4978     7.9567     0.0447     2.4359     0.1442
   91.0000   -39.4685     7.0756     9.1289    11.7228   119.4040     7.9426     0.0448     2.4300     0.1469
   91.5000   -39.6017     7.0792     9.0709    11.3275   121.7984     7.9288     0.0434     2.4226     0.1517
   92.0000   -39.7348     7.0829     9.0756    10.8782   122.7046     7.9001     0.0435     2.4159     0.1573
   92.5000   -40.0122     7.0865     9.0179    10.8097   123.4621     7.8863     0.0421     2.4070     0.1609
   93.0000   -40.1490     7.1392     8.8991    10.5917   124.5171     7.8724     0.0451     2.3973     0.1660
   93.5000   -40.2822     7.1923     8.7216    10.6766   124.5305     7.8737     0.0437     2.3936     0.1681
   94.0000   -40.5595     7.1960     8.6067    10.8283   126.0320     7.8748     0.0408     2.3982     0.1651
   94.5000   -40.8406     7.2495     8.6112    10.3912   124.7061     7.8758     0.0379     2.4027     0.1612
   95.0000   -40.9775     7.3538     8.7351    10.2591   121.5945     7.8617     0.0365     2.4125     0.1572
   95.5000   -41.5507     7.5113     8.9221    10.9258   119.5246     7.8479     0.0336     2.4156     0.1551
   96.0000   -41.9797     7.6194     9.1132    11.4722   119.8356     7.8492     0.0337     2.4163     0.1527
   96.5000   -42.4087     7.7291     9.1179    11.9614   121.3371     7.8503     0.0353     2.4208     0.1497
   97.0000   -42.8377     7.8404     9.1226    12.1329   120.1600     7.8662     0.0339     2.4261     0.1491
   97.5000   -43.1225     7.8986     9.2539    12.0553   116.8996     7.8821     0.0310     2.4239     0.1512
   98.0000   -43.5478     7.9574     9.5832    11.7353   113.1927     7.8831     0.0281     2.4098     0.1587
   98.5000   -43.6846     7.9058     9.9241    12.1538   112.9051     7.8841     0.0222     2.3972     0.1664
   99.0000   -43.9620     7.9109    10.0670    12.0772   116.0469     7.8852     0.0163     2.3905     0.1697
   99.5000   -44.0989     7.9150    10.0030    12.0845   115.4650     7.8862     0.0149     2.3890     0.1697
  100.0000   -44.2851     7.8607     9.9395    12.6018   113.9870     7.8880     0.0184     2.3973     0.1604
  100.5000   -44.9232     7.8247     9.7413    12.1807   115.4890     7.9002     0.0211     2.4086     0.1586
  101.0000   -45.3875     7.7888     9.6780    11.6928   115.7955     7.9040     0.0241     2.4108     0.1568
  101.5000   -45.6702     7.7163     9.6838    11.5382   114.6198     7.9050     0.0271     2.4139     0.1559
  102.0000   -45.8047     7.6139     9.7555    11.4644   114.0364     7.8912     0.0287     2.4169     0.1543
  102.5000   -45.9394     7.5139     9.8956    11.3912   113.3042     7.8923     0.0287     2.4155     0.1540
