~VERSION INFORMATION
 VERS.                2.0:   CWLS LOG ASCII STANDARD - VERSION 2.0
 WRAP.                 NO:   ONE LINE PER DEPTH STEP
~WELL INFORMATION
#MNEM.UNIT      DATA TYPE    INFORMATION
#----------   ------------   ------------------------------
 STRT.F          148.5000:   START DEPTH
 STOP.F          882.5000:   STOP DEPTH
 STEP.F            0.5000:   STEP LENGTH
 NULL.          -999.2500:   NO VALUE
 COMP.               NAVY:   COMPANY
 WELL. RES 3 TEAPOT DOM #55S-11:   WELL
 FLD .             TEAPOT:   FIELD
 LOC .      S11 T38N R78W:   LOCATION
 CNTY.            NATRONA:   COUNTY
 STAT.            WYOMING:   STATE
 CTRY. UNITED STATES OF AMERICA:   COUNTRY
 SRVC.       Schlumberger:   SERVICE COMPANY
 DATE.        05-AUG-1961:   LOGDATE
 API .       490250634000:   API NUMBER
~CURVE INFORMATION
#MNEM.UNIT       API CODE    CURVE DESCRIPTION
#----------   ------------   ------------------------------
 DEPT.F                  :   
 GR  .GAPI   30 310 01 00:   GAMMA RAY
 SPR .MV     05 010 01 00:   SPONTANEOUS POTENTIAL FROM RES.
 CILD.MMHO   05 110 46 00:   CONDUCTIVITY INDUCTION LOG DEEP
 ASN .OHMM   05 041 16 00:   AMPLIFIED SHORT NORMAL 16"
 ILD .OHMM   05 120 46 00:   INDUCTION LOG DEEP
~PARAMETER INFORMATION
#MNEM.UNIT          VALUE    DESCRIPTION
#----------   ------------   ------------------------------
 PD  .                 GL:   PERMANENT DATUM
 EPD .F              5201:   ELEVATION PERMANENT DATUM
 LMF .                 KB:   LOG MEASURED FROM
 DAPD.F                 6:   FEET ABOVE PERMANENT DATUM
 DMF .                 KB:   DRILLING MEASURED FROM
 EKB .F              5207:   KELLING BUSHING
 EGL .F              5201:   GROUND LEVEL
 DATE.             8-5-61:   RUN DATE
 RUN .                  1:   RUN NUMBER
 DD  .F               880:   DEPTH DRILLER
 DL  .F               882:   DEPTH LOGGER
 BLI .F               881:   BOTTOM LOG INTERVAL
 TLI .F               150:   TOP LOG INTERVAL
 BS  .IN            7.875:   BIT SIZE
 BSD .F               880:   BIT SIZE AT DEPTH
 DFT .       OIL EMULSION:   DRILLING FLUID TYPE
 DFV .                 40:   DRILLING FLUID VISCOSITY
 MSS .           FLOWLINE:   MUD SAMPLE SOURCE
 RMS .OHMM            .96:   RESISTIVITY MUD SAMPLE
 MST .F                74:   MUD SAMPLE TEMPERATURE
 TCS .HRS               1:   TIME CURCULATED STOPPED
 LUN .               2544:   LOGGING UNIT NUMBER
 LUL .                 NC:   LOGGING UNIT LOCATION
 ENGI.            EARNEST:   RECORDING ENGINEER
 WITN.          JORGENSEN:   WITNESSED BY
 CLNT.            A2DTECH:   CLIENT CODE
 ORIG.       2", 5" PRINT:   ORIGIN OF DATA
 UWI .       490250634000:   UNIQUE WELL ID
 DICO. A2D Technologies, Inc.:   DIGITIZING COMPANY
~OTHER INFORMATION
~A   DEPT       GR        SPR       CILD        ASN        ILD   
# ...
  636.5000  -999.2500   -46.6512   187.4527     6.7829     5.9940
  637.0000  -999.2500   -46.5139   175.7028     6.9399     6.3360
  637.5000  -999.2500   -46.4369   174.6319     7.0486     6.4008
  638.0000  -999.2500   -46.4466   173.2771     7.1245     6.4092
  638.5000  -999.2500   -46.4439   171.9224     7.2246     6.4368
  639.0000  -999.2500   -46.4291   170.5676     7.3068     6.4479
  639.5000  -999.2500   -46.2661   169.2128     7.4018     6.4955
  640.0000  -999.2500   -46.0978   167.6707     7.4969     6.6238
  640.5000  -999.2500   -45.9617   166.5783     7.6103     6.6917
  641.0000  -999.2500   -45.7066   162.5141     7.7218     6.7642
  641.5000  -999.2500   -45.6693   159.6385     7.7944     6.8334
  642.0000  -999.2500   -45.7857   157.4373     7.8627     6.9049
  642.5000  -999.2500   -45.8526   156.8022     7.9266     6.9750
  643.0000  -999.2500   -45.9120   156.1672     8.0115     7.0460
  643.5000  -999.2500   -45.9723   155.5321     8.0875     7.1070
  644.0000  -999.2500   -46.0409   154.8971     8.1722     7.1594
  644.5000  -999.2500   -46.2016   154.2771     8.1928     7.2121
  645.0000  -999.2500   -46.3685   153.6334     8.1586     7.2649
  645.5000  -999.2500   -46.5568   153.2215     8.1349     7.3172
  646.0000  -999.2500   -46.6561   152.5173     8.1245     7.3726
  646.5000  -999.2500   -46.6453   151.8137     8.2317     7.3598
  647.0000  -999.2500   -46.6478   151.1122     8.3580     7.3296
  647.5000  -999.2500   -46.6527   150.4117     8.4115     7.3033
  648.0000  -999.2500   -46.5897   149.6074     8.4059     7.2750
  648.5000  -999.2500   -46.3699   150.2735     8.3538     7.2481
  649.0000  -999.2500   -46.1522   151.0516     8.2411     7.2203
  649.5000  -999.2500   -45.9273   151.8244     8.1215     7.1935
  650.0000  -999.2500   -45.7113   152.5971     8.0052     7.1602
  650.5000  -999.2500   -45.4870   153.3656     7.8870     7.1175
  651.0000  -999.2500   -45.4356   153.7352     7.7686     7.0801
  651.5000  -999.2500   -45.6063   154.2218     7.6925     7.0350
  652.0000  -999.2500   -45.7577   154.7116     7.6088     7.0048
  652.5000  -999.2500   -45.9511   155.3953     7.4978     6.9008
  653.0000  -999.2500   -46.2207   159.8868     7.3611     6.6824
  653.5000  -999.2500   -46.3729   167.2910     7.1974     6.4630
  654.0000  -999.2500   -46.2272   175.0712     7.0303     6.2529
  654.5000  -999.2500   -46.1214   183.4009     6.6642     6.0139
  655.0000  -999.2500   -45.9459   189.7590     6.3647     5.4516
  655.5000  -999.2500   -45.7881   216.6959     6.0061     4.9454
  656.0000  -999.2500   -45.6423   245.9839     5.6411     4.3921
  656.5000  -999.2500   -45.6155   279.9297     5.2146     3.7928
  657.0000  -999.2500   -45.3432   318.9558     4.7997     3.1086
  657.5000  -999.2500   -44.9894   357.9819     4.3813     2.7327
  658.0000  -999.2500   -44.6501   397.0080     3.9611     2.3860
  658.5000  -999.2500   -44.3050   430.7229     3.6132     2.2530
  659.0000  -999.2500   -43.9593   466.8675     3.3848     2.1901
  659.5000  -999.2500   -43.6259   474.5582     3.2279     2.1063
  660.0000  -999.2500   -43.6126   482.4933     3.1068     2.1345
  660.5000  -999.2500   -44.0230   480.6469     2.8977     2.3272
  661.0000  -999.2500   -44.4178   433.6995     3.0165     2.5231
  661.5000  -999.2500   -44.6815   386.5575     3.5274     2.8784
  662.0000  -999.2500   -44.9441   339.3680     4.0254     3.4031
  662.5000  -999.2500   -45.2632   284.9635     4.2635     3.8227
  663.0000  -999.2500   -45.6393   265.8404     4.5438     4.2753
  663.5000  -999.2500   -45.9052   243.2326     5.1612     4.6616
  664.0000  -999.2500   -46.0439   217.8715     5.5701     4.9310
  664.5000  -999.2500   -45.8968   204.8766     5.7876     5.1626
  665.0000  -999.2500   -45.7752   195.1807     5.8660     5.1718
  665.5000  -999.2500   -45.6374   189.7590     5.8769     5.1790
  666.0000  -999.2500   -45.5089   187.7510     5.8977     5.1506
  666.5000  -999.2500   -45.3747   199.4177     5.9716     5.0518
  667.0000  -999.2500   -45.2450   209.5984     6.0387     4.9444
  667.5000  -999.2500   -45.1101   221.8875     6.0989     4.8238
  668.0000  -999.2500   -44.9833   227.0769     6.0696     4.7180
  668.5000  -999.2500   -44.8459   233.6216     5.8126     4.6048
  669.0000  -999.2500   -44.8665   239.9598     5.5108     4.4568
  669.5000  -999.2500   -44.9711   248.4538     5.3860     4.3042
  670.0000  -999.2500   -45.0476   258.6346     5.2751     4.1715
  670.5000  -999.2500   -45.1421   262.8941     5.0646     4.1254
  671.0000  -999.2500   -45.2113   264.0562     4.9758     4.0757
  671.5000  -999.2500   -45.2726   262.0482     5.0976     4.0773
  672.0000  -999.2500   -45.3700   254.5283     5.3154     4.2734
  672.5000  -999.2500   -45.4557   243.3837     5.3867     4.6009
  673.0000  -999.2500   -45.5494   233.8100     5.5903     4.9245
  673.5000  -999.2500   -45.6225   219.0243     5.8836     5.2787
  674.0000  -999.2500   -45.6063   206.1114     6.1620     5.5323
  674.5000  -999.2500   -45.5808   193.2493     6.4339     5.8417
  675.0000  -999.2500   -45.5574   183.2320     6.7422     6.2026
  675.5000  -999.2500   -45.5325   177.7187     7.1055     6.4664
  676.0000  -999.2500   -45.5096   171.9644     7.3654     6.6530
  676.5000  -999.2500   -45.4834   166.2101     7.5561     6.8529
  677.0000  -999.2500   -45.4629   159.6385     7.6463     6.9038
  677.5000  -999.2500   -45.4317   158.8521     7.6835     6.9099
  678.0000  -999.2500   -45.4675   157.6305     7.6728     6.8075
  678.5000  -999.2500   -45.5595   157.6305     7.6390     6.7220
  679.0000  -999.2500   -45.6401   162.4154     7.5551     6.6278
  679.5000  -999.2500   -45.7248   166.7785     7.4584     6.5368
  680.0000  -999.2500   -45.8097   171.1417     7.3799     6.4090
  680.5000  -999.2500   -45.8896   175.5049     7.3022     6.2218
  681.0000  -999.2500   -45.9854   179.8680     7.0810     6.0324
  681.5000  -999.2500   -46.0332   184.0643     6.9682     5.8372
  682.0000  -999.2500   -45.8375   188.1366     6.8861     5.6571
  682.5000  -999.2500   -45.5963   192.2088     6.7627     5.4387
  683.0000  -999.2500   -45.3600   197.7912     6.6419     5.1839
  683.5000  -999.2500   -45.1202   211.5478     6.4885     4.9531
  684.0000  -999.2500   -44.8917   224.9863     6.3482     4.6863
  684.5000  -999.2500   -44.7443   238.4249     6.0461     4.3788
  685.0000  -999.2500   -44.5410   251.8634     5.8417     4.0635
  685.5000  -999.2500   -44.3424   264.0562     5.5349     3.9479
  686.0000  -999.2500   -44.1144   266.8373     5.1622     3.9168
  686.5000  -999.2500   -43.9911   268.0723     5.0483     3.8626
  687.0000  -999.2500   -44.0030   264.6127     5.1968     3.8745
  687.5000  -999.2500   -44.0230   258.3727     5.3299     4.0319
  688.0000  -999.2500   -44.3094   250.2747     5.4288     4.2500
  688.5000  -999.2500   -44.6199   236.7238     5.7423     4.5159
  689.0000  -999.2500   -44.9305   219.0748     6.1653     4.8883
  689.5000  -999.2500   -45.2367   205.8465     6.5662     5.3611
  690.0000  -999.2500   -45.5543   190.5544     6.9088     5.9127
  690.5000  -999.2500   -45.8100   175.7769     7.0308     6.2587
  691.0000  -999.2500   -45.7625   174.9608     7.1301     6.3773
  691.5000  -999.2500   -45.6883   174.1509     7.2390     6.5295
  692.0000  -999.2500   -45.6178   172.8141     7.3502     6.6524
  692.5000  -999.2500   -45.5459   170.9044     7.4584     6.6415
  693.0000  -999.2500   -45.4742   169.0127     7.5746     6.5925
  693.5000  -999.2500   -45.3934   167.1333     7.6475     6.5554
  694.0000  -999.2500   -45.1357   165.2622     7.7276     6.5130
  694.5000  -999.2500   -44.8712   163.6600     7.8001     6.4728
  695.0000  -999.2500   -44.6336   164.7562     7.8735     6.4331
  695.5000  -999.2500   -44.6114   165.9197     7.8571     6.3910
  696.0000  -999.2500   -44.6779   167.0832     7.8270     6.3752
  696.5000  -999.2500   -44.7685   168.2467     7.8002     6.3970
  697.0000  -999.2500   -44.8396   169.4102     7.7715     6.4179
