~VERSION INFORMATION
 VERS.                2.0:   CWLS LOG ASCII STANDARD - VERSION 2.0
 WRAP.                 NO:   ONE LINE PER DEPTH STEP
~WELL INFORMATION
#MNEM.UNIT      DATA TYPE    INFORMATION
#----------   ------------   ------------------------------
 STRT.F          376.0000:   START DEPTH
 STOP.F         2400.0000:   STOP DEPTH
 STEP.F            0.5000:   STEP LENGTH
 NULL.          -999.2500:   NO VALUE
 COMP. LAWRENCE/ALLISON INC:   COMPANY
 WELL.        55 X #15-15:   WELL
 FLD .            WILDCAT:   FIELD
 LOC .      S15 T38N R78W:   LOCATION
 CNTY.            NATRONA:   COUNTY
 STAT.            WYOMING:   STATE
 CTRY. UNITED STATES OF AMERICA:   COUNTRY
 SRVC.            Unknown:   SERVICE COMPANY
 DATE.        12-APR-1988:   LOGDATE
 API .       490251119800:   API NUMBER
~CURVE INFORMATION
#MNEM.UNIT       API CODE    CURVE DESCRIPTION
#----------   ------------   ------------------------------
 DEPT.F                  :   
 GR  .GAPI   30 310 01 00:   GAMMA RAY
 TGAS.UNITS  91 830 01 00:   TOTAL GAS UNIT
 ROP .FT/HR  91 810 01 00:   RATE OF DRILLING PENETRATION
~PARAMETER INFORMATION
#MNEM.UNIT          VALUE    DESCRIPTION
#----------   ------------   ------------------------------
 PD  .                 GL:   PERMANENT DATUM
 EPD .F              5293:   ELEVATION PERMANENT DATUM
 LMF .                 GL:   LOG MEASURED FROM
 DMF .                 KB:   DRILLING MEASURED FROM
 EKB .F              5304:   KELLING BUSHING
 EGL .F              5293:   GROUND LEVEL
 DATE.        12-APR-1988:   RUN DATE
 RUN .                  1:   RUN NUMBER
 DD  .F              2400:   DEPTH DRILLER
 DL  .F               851:   DEPTH LOGGER
 BLI .F               846:   BOTTOM LOG INTERVAL
 TLI .F               372:   TOP LOG INTERVAL
 CS  .IN                7:   CASING SIZE
 CBL .F               890:   CASING BOTTOM LOGGER
 BSD .F              2400:   BIT SIZE AT DEPTH
 DFT .              WATER:   DRILLING FLUID TYPE
 TCS .HRS               1:   TIME CURCULATED STOPPED
 ENGI.          BANGERTER:   RECORDING ENGINEER
 WITN.             NORHAN:   WITNESSED BY
 CLNT.            A2DTECH:   CLIENT CODE
 ORIG.           5" PRINT:   ORIGIN OF DATA
 UWI .       490251119800:   UNIQUE WELL ID
 DICO. A2D Technologies, Inc.:   DIGITIZING COMPANY
~OTHER INFORMATION
~A   DEPT        GR      TGAS        ROP   
# ...
 1104.0000  -999.2500     2.6681     0.3695
 1104.5000  -999.2500     2.6700     0.3698
 1105.0000  -999.2500     2.6719     0.3606
 1105.5000  -999.2500     2.6735     0.3609
 1106.0000  -999.2500     2.6754     0.3424
 1106.5000  -999.2500     2.6776     0.3332
 1107.0000  -999.2500     2.6795     0.3241
 1107.5000  -999.2500     2.6814     0.3244
 1108.0000  -999.2500     2.6829     0.3247
 1108.5000  -999.2500     2.6848     0.3155
 1109.0000  -999.2500     2.6867     0.3159
 1109.5000  -999.2500     2.6886     0.3161
 1110.0000  -999.2500     2.6905     0.3164
 1110.5000  -999.2500     2.6924     0.3167
 1111.0000  -999.2500     2.6943     0.3199
 1111.5000  -999.2500     2.6962     0.3267
 1112.0000  -999.2500     2.6981     0.3269
 1112.5000  -999.2500     2.7000     0.3272
 1113.0000  -999.2500     2.7019     0.3181
 1113.5000  -999.2500     2.7039     0.3184
 1114.0000  -999.2500     2.7058     0.3186
 1114.5000  -999.2500     2.7077     0.3189
 1115.0000  -999.2500     2.7096     0.3192
 1115.5000  -999.2500     3.0904     0.3195
 1116.0000  -999.2500     3.4713     0.3198
 1116.5000  -999.2500     3.4732     0.3201
 1117.0000  -999.2500     3.4751     0.3204
 1117.5000  -999.2500     3.4770     0.3207
 1118.0000  -999.2500     2.7206     0.3304
 1118.5000  -999.2500     2.7229     0.3306
 1119.0000  -999.2500     2.7249     0.3403
 1119.5000  -999.2500     2.7268     0.3500
 1120.0000  -999.2500     2.3493     0.3597
 1120.5000  -999.2500     2.3516     0.3694
 1121.0000  -999.2500     1.9741     0.3697
 1121.5000  -999.2500     1.9048     0.3794
 1122.0000  -999.2500     1.2200     0.3797
 1122.5000  -999.2500     1.2224     0.3799
 1123.0000  -999.2500     0.8449     0.3802
 1123.5000  -999.2500     0.8473     0.3805
 1124.0000  -999.2500     0.8492     0.3714
 1124.5000  -999.2500     0.8507     0.3717
 1125.0000  -999.2500     0.8526     0.3720
 1125.5000  -999.2500     0.8286     0.3534
 1126.0000  -999.2500     0.4775     0.3349
 1126.5000  -999.2500     0.4794     0.3331
 1127.0000  -999.2500     0.4813     0.3165
 1127.5000  -999.2500     0.4832     0.3169
 1128.0000  -999.2500     0.4851     0.3172
 1128.5000  -999.2500     0.4870     0.3269
 1129.0000  -999.2500     0.4889     0.3366
 1129.5000  -999.2500     0.4908     0.3368
 1130.0000  -999.2500     0.4927     0.3465
 1130.5000  -999.2500     0.4946     0.3468
 1131.0000  -999.2500     0.4965     0.3565
 1131.5000  -999.2500     0.4983     0.3568
 1132.0000  -999.2500     0.5003     0.3571
 1132.5000  -999.2500     0.5021     0.3573
 1133.0000  -999.2500     0.5041     0.3576
 1133.5000  -999.2500     0.5061     0.3580
 1134.0000  -999.2500     0.5080     0.3488
 1134.5000  -999.2500     0.5099     0.3491
 1135.0000  -999.2500     0.5118     0.3493
 1135.5000  -999.2500     0.5137     0.3497
 1136.0000  -999.2500     0.5156     0.3499
 1136.5000  -999.2500     0.5175     0.3502
 1137.0000  -999.2500     0.5194     0.3599
 1137.5000  -999.2500     0.5213     0.3602
 1138.0000  -999.2500     0.5232     0.3605
 1138.5000  -999.2500     0.5251     0.3702
 1139.0000  -999.2500     0.1476     0.3799
 1139.5000  -999.2500     0.1500     0.3846
 1140.0000  -999.2500     0.1519     0.3898
 1140.5000  -999.2500     0.5324     0.3901
 1141.0000  -999.2500     0.5347     0.3904
 1141.5000  -999.2500     0.5362     0.3907
 1142.0000  -999.2500     0.5381     0.3910
 1142.5000  -999.2500     0.9189     0.3818
 1143.0000  -999.2500     0.9208     0.3822
 1143.5000  -999.2500     0.9227     0.3824
 1144.0000  -999.2500     0.9246     0.3827
 1144.5000  -999.2500     0.9265     0.3830
 1145.0000  -999.2500     0.9284     0.3833
 1145.5000  -999.2500     0.9303     0.3835
 1146.0000  -999.2500     0.9323     0.3743
 1146.5000  -999.2500     0.9342     0.3652
 1147.0000  -999.2500     0.9361     0.3655
 1147.5000  -999.2500     0.9380     0.3658
 1148.0000  -999.2500     0.9399     0.3661
 1148.5000  -999.2500     0.9418     0.3664
 1149.0000  -999.2500     1.3227     0.3667
 1149.5000  -999.2500     1.3246     0.3680
 1150.0000  -999.2500     1.4526     0.3782
 1150.5000  -999.2500     1.7073     0.3864
 1151.0000  -999.2500     2.0882     0.3961
 1151.5000  -999.2500     2.0901     0.3964
 1152.0000  -999.2500     2.4710     0.3967
 1152.5000  -999.2500     2.8518     0.3969
 1153.0000  -999.2500     2.8537     0.3972
 1153.5000  -999.2500     2.8556     0.3975
 1154.0000  -999.2500     2.8575     0.3978
 1154.5000  -999.2500     2.8594     0.3980
 1155.0000  -999.2500     2.8614     0.3888
 1155.5000  -999.2500     2.8633     0.3892
 1156.0000  -999.2500     2.8652     0.3989
 1156.5000  -999.2500     2.8671     0.3992
 1157.0000  -999.2500     2.8690     0.3994
 1157.5000  -999.2500     2.8709     0.3997
 1158.0000  -999.2500     2.8724     0.4000
 1158.5000  -999.2500     2.8743     0.4003
 1159.0000  -999.2500     2.8762     0.4006
 1159.5000  -999.2500     2.8781     0.3914
 1160.0000  -999.2500     2.8800     0.3918
 1160.5000  -999.2500     2.8679     0.4015
 1161.0000  -999.2500     2.5048     0.4017
 1161.5000  -999.2500     2.1278     0.4020
 1162.0000  -999.2500     2.1297     0.4023
 1162.5000  -999.2500     2.1316     0.4026
 1163.0000  -999.2500     2.1335     0.4028
 1163.5000  -999.2500     2.1354     0.3937
 1164.0000  -999.2500     2.1373     0.3940
 1164.5000  -999.2500     2.1393     0.3848
 1165.0000  -999.2500     2.1412     0.3757
 1165.5000  -999.2500     2.9010     0.3760
 1166.0000  -999.2500     4.4187     0.3763
 1166.5000  -999.2500     8.2100     0.3766
 1167.0000  -999.2500    10.8646     0.3768
 1167.5000  -999.2500    12.0033     0.3772
 1168.0000  -999.2500    11.2474     0.3775
 1168.5000  -999.2500     9.7335     0.3871
 1169.0000  -999.2500     8.2196     0.3874
 1169.5000  -999.2500     7.0847     0.3877
 1170.0000  -999.2500     5.9493     0.3880
 1170.5000  -999.2500     4.8143     0.3977
 1171.0000  -999.2500     4.4373     0.3980
 1171.5000  -999.2500     4.4397     0.3982
 1172.0000  -999.2500     4.4416     0.3985
 1172.5000  -999.2500     4.4435     0.3894
 1173.0000  -999.2500     4.4454     0.3897
 1173.5000  -999.2500     4.4473     0.3805
 1174.0000  -999.2500     4.4492     0.3808
 1174.5000  -999.2500     4.8296     0.3811
 1175.0000  -999.2500     4.3895     0.3814
 1175.5000  -999.2500     4.0755     0.3816
 1176.0000  -999.2500     4.0775     0.3819
 1176.5000  -999.2500     4.0794     0.3823
 1177.0000  -999.2500     4.0636     0.3825
 1177.5000  -999.2500     3.7042     0.3828
 1178.0000  -999.2500     3.7061     0.3831
 1178.5000  -999.2500     4.4659     0.3834
 1179.0000  -999.2500     5.2257     0.3836
 1179.5000  -999.2500     5.6066     0.3839
 1180.0000  -999.2500     5.6085     0.3842
 1180.5000  -999.2500     5.6104     0.3845
 1181.0000  -999.2500     5.6123     0.3942
 1181.5000  -999.2500     5.6142     0.3945
 1182.0000  -999.2500     5.6161     0.3947
 1182.5000  -999.2500     5.6180     0.3950
 1183.0000  -999.2500     5.6199     0.3859
 1183.5000  -999.2500     5.6218     0.3767
 1184.0000  -999.2500     5.6238     0.3676
 1184.5000  -999.2500     5.6257     0.3490
 1185.0000  -999.2500     5.6276     0.3399
 1185.5000  -999.2500     5.2501     0.3308
 1186.0000  -999.2500     4.4941     0.3311
 1186.5000  -999.2500     4.1170     0.3314
 1187.0000  -999.2500     4.1194     0.3316
 1187.5000  -999.2500     4.5003     0.3320
 1188.0000  -999.2500     4.5022     0.3322
 1188.5000  -999.2500     4.5041     0.3325
 1189.0000  -999.2500     4.1271     0.3328
 1189.5000  -999.2500     4.1290     0.3331
 1190.0000  -999.2500     4.5098     0.3333
 1190.5000  -999.2500     4.8907     0.3336
 1191.0000  -999.2500     5.2715     0.3339
 1191.5000  -999.2500     5.2731     0.3342
 1192.0000  -999.2500     5.2194     0.3345
 1192.5000  -999.2500     4.8978     0.3347
 1193.0000  -999.2500     4.5208     0.3350
 1193.5000  -999.2500     4.5227     0.3354
 1194.0000  -999.2500     4.5246     0.3356
 1194.5000  -999.2500     4.5265     0.3359
