~VERSION INFORMATION
 VERS.                2.0:   CWLS LOG ASCII STANDARD - VERSION 2.0
 WRAP.                 NO:   ONE LINE PER DEPTH STEP
~WELL INFORMATION
#MNEM.UNIT      DATA TYPE    INFORMATION
#----------   ------------   ------------------------------
 STRT.F           70.0000:   START DEPTH
 STOP.F          960.0000:   STOP DEPTH
 STEP.F            0.5000:   STEP LENGTH
 NULL.          -999.2500:   NO VALUE
 COMP. U S NAVY/INTEX OIL CO:   COMPANY
 WELL.      NPR 3 #26S-35:   WELL
 FLD .             TEAPOT:   FIELD
 LOC .      S35 T39N R78W:   LOCATION
 CNTY.            NATRONA:   COUNTY
 STAT.            WYOMING:   STATE
 CTRY. UNITED STATES OF AMERICA:   COUNTRY
 SRVC.         Lane Wells:   SERVICE COMPANY
 DATE.        19-MAR-1960:   LOGDATE
 API .       490250651600:   API NUMBER
~CURVE INFORMATION
#MNEM.UNIT       API CODE    CURVE DESCRIPTION
#----------   ------------   ------------------------------
 DEPT.F                  :   
 ASN .OHMM   05 041 16 00:   AMPLIFIED SHORT NORMAL 16"
 ILD .OHMM   05 120 46 00:   INDUCTION LOG DEEP
 CILD.MMHO   05 110 00 00:   CONDUCTIVITY INDUCTION LOG
 SPR .MV     05 010 01 00:   SPONTANEOUS POTENTIAL FROM RES.
~PARAMETER INFORMATION
#MNEM.UNIT          VALUE    DESCRIPTION
#----------   ------------   ------------------------------
 PD  .                 GL:   PERMANENT DATUM
 EPD .F              5095:   ELEVATION PERMANENT DATUM
 LMF .                 KB:   LOG MEASURED FROM
 DAPD.F                 5:   FEET ABOVE PERMANENT DATUM
 DMF .                 KB:   DRILLING MEASURED FROM
 EKB .F              5101:   KELLING BUSHING
 EGL .F              9096:   GROUND LEVEL
 DATE.          3-19-1960:   RUN DATE
 RUN .                  1:   RUN NUMBER
 DD  .F               977:   DEPTH DRILLER
 DL  .F               959:   DEPTH LOGGER
 BLI .F               957:   BOTTOM LOG INTERVAL
 TLI .F                70:   TOP LOG INTERVAL
 CS  .IN            8.625:   CASING SIZE
 CBD .F                12:   CASING BOTTOM DRILLER
 BS  .IN            7.875:   BIT SIZE
 BSD .F               977:   BIT SIZE AT DEPTH
 DFT .   GEL-OIL EMULSION:   DRILLING FLUID TYPE
 DFD .                9.4:   DRILLING FLUID DENSITY
 DFV .                 40:   DRILLING FLUID VISCOSITY
 DFPH.                7.5:   DRILLING FLUID PH
 DFL .                8.2:   DRILLING FLUID LOSS
 MSS .           FLOWLINE:   MUD SAMPLE SOURCE
 RMS .OHMM            2.2:   RESISTIVITY MUD SAMPLE
 MST .F                64:   MUD SAMPLE TEMPERATURE
 RMF .OHMM            1.5:   RESISTIVITY MUD FILTRATE SAMPLE
 MFST.F                64:   MUD FILTRATE SAMPLE TEMPERATURE
 RMC .OHMM            3.1:   RESISTIVITY MUD CAKE
 MCST.F                64:   MUD CAKE SAMPLE TEMPERATURE
 MFSS.                MUD:   MUD FILTRATE SAMPLE SOURCE
 MCSS.              PRESS:   MUD CAKE SAMPLE SOURCE
 RMB .OHMM            2.0:   RESISTIVITY MUD AT BHT
 BHT .F                71:   BOTTOM HOLE TEMPERATURE
 MRT .F                71:   MAXIMUM RECORDED TEMPERATURE
 LUN .             L-4474:   LOGGING UNIT NUMBER
 LUL .             CASPER:   LOGGING UNIT LOCATION
 ENGI.             NELSON:   RECORDING ENGINEER
 WITN.          JORGENSBN:   WITNESSED BY
 CLNT.            A2DTECH:   CLIENT CODE
 ORIG.      2" & 5" PRINT:   ORIGIN OF DATA
 UWI .       490250651600:   UNIQUE WELL ID
 DICO. A2D Technologies, Inc.:   DIGITIZING COMPANY
~OTHER INFORMATION
~A   DEPT        ASN        ILD      CILD       SPR   
# ...
  508.0000     6.5018     5.2458   206.2926   -38.9378
  508.5000     6.4266     5.2853   205.1524   -38.7234
  509.0000     6.4967     5.3297   203.7160   -38.4993
  509.5000     6.5949     5.3714   202.2789   -38.2905
  510.0000     6.6876     5.4145   200.8340   -38.0323
  510.5000     6.7854     5.4570   199.3796   -38.1172
  511.0000     6.8758     5.4998   197.9200   -38.3251
  511.5000     6.9816     5.5424   196.4618   -38.4850
  512.0000     7.0519     5.5849   194.9524   -38.6662
  512.5000     7.0661     5.6276   193.3267   -38.8367
  513.0000     7.0936     5.6701   191.7044   -39.0121
  513.5000     7.1120     5.7130   190.0794   -39.1873
  514.0000     7.1630     5.7550   188.4511   -39.3579
  514.5000     7.2578     5.7987   186.8173   -39.5390
  515.0000     7.3584     5.8394   185.1772   -39.6993
  515.5000     7.4513     5.8870   183.5637   -39.9061
  516.0000     7.5619     5.9146   181.9331   -39.9948
  516.5000     7.6154     5.9106   180.3026   -39.7617
  517.0000     7.5815     5.9133   179.5196   -39.5748
  517.5000     7.5609     5.9106   180.4254   -39.3741
  518.0000     7.5324     5.9148   181.3313   -39.1804
  518.5000     7.5094     5.8869   182.2372   -38.9839
  519.0000     7.4627     5.8113   183.6249   -38.7685
  519.5000     7.3835     5.7378   185.9307   -38.7218
  520.0000     7.3028     5.6624   188.2366   -38.7091
  520.5000     7.2232     5.5881   190.5424   -38.6883
  521.0000     7.1412     5.5134   192.8483   -38.6713
  521.5000     7.0641     5.4387   195.4819   -38.6529
  522.0000     6.9756     5.3640   195.6762   -38.6337
  522.5000     6.9217     5.2875   195.9027   -38.6183
  523.0000     6.9156     5.2809   196.1291   -38.5944
  523.5000     6.9008     5.2925   196.3556   -38.5872
  524.0000     6.8901     5.3004   196.5821   -38.5454
  524.5000     6.8776     5.3101   196.8085   -38.7079
  525.0000     6.8801     5.3189   197.0350   -38.9683
  525.5000     6.8865     5.3280   197.2892   -39.1960
  526.0000     6.8898     5.3373   196.8916   -39.4169
  526.5000     6.9101     5.3458   196.4386   -39.6878
  527.0000     6.9531     5.3559   195.9857   -39.8112
  527.5000     6.9948     5.3627   195.5328   -39.5201
  528.0000     7.0375     5.3915   195.0798   -39.2903
  528.5000     7.0797     5.4497   194.6269   -39.0401
  529.0000     7.1219     5.5060   194.1740   -38.8026
  529.5000     7.1645     5.5637   193.6747   -38.5554
  530.0000     7.2063     5.6206   192.0482   -38.3182
  530.5000     7.2499     5.6779   190.2365   -38.0422
  531.0000     7.2935     5.7350   188.4288   -38.0261
  531.5000     7.3368     5.7922   186.6172   -38.2014
  532.0000     7.3833     5.8492   184.8052   -38.3443
  532.5000     7.4269     5.9101   182.9930   -38.4964
  533.0000     7.4746     5.9819   181.1815   -38.6438
  533.5000     7.5155     6.0599   179.3713   -38.7930
  534.0000     7.6065     6.1373   177.5607   -38.9431
  534.5000     7.7613     6.2151   175.7496   -39.0893
  535.0000     7.9087     6.2925   173.7990   -39.2433
  535.5000     8.0643     6.3707   171.5552   -39.3820
  536.0000     8.2088     6.4473   169.1254   -39.5554
  536.5000     8.3737     6.5268   166.6953   -39.6459
  537.0000     8.4530     6.6009   164.2712   -39.5407
  537.5000     8.3899     6.6860   162.9142   -39.4652
  538.0000     8.3338     6.7209   162.9294   -39.3786
  538.5000     8.2710     6.6983   162.9469   -39.2977
  539.0000     8.2706     6.6843   162.4227   -39.2143
  539.5000     8.2724     6.6667   161.2177   -39.1307
  540.0000     8.3562     6.6490   160.0064   -39.0499
  540.5000     8.5328     6.6444   158.7940   -38.9631
  541.0000     8.6977     6.7739   157.5309   -38.8881
  541.5000     8.8694     6.9283   154.4761   -38.7870
  542.0000     9.0372     7.0776   151.2794   -38.7560
  542.5000     9.2076     7.2294   148.0820   -38.9405
  543.0000     9.3768     7.3799   144.8848   -39.0942
  543.5000     9.5514     7.5312   141.6876   -39.2577
  544.0000     9.7571     7.6822   138.4904   -39.4123
  544.5000     9.9697     7.8331   135.2932   -39.5777
  545.0000    10.1828     7.9844   132.0960   -39.7262
  545.5000    10.3951     8.1346   129.6546   -39.9115
  546.0000    10.6067     8.2873   128.0442   -40.0101
  546.5000    10.8250     8.4300   126.4337   -39.9093
  547.0000    11.0338     8.4861   124.8233   -39.8389
  547.5000    11.2450     8.5240   123.1928   -39.7567
  548.0000    11.1495     8.5120   123.7730   -39.6810
  548.5000    10.9001     8.4912   124.3606   -39.6020
  549.0000    10.6703     8.4727   124.9482   -39.5245
  549.5000    10.4556     8.4531   125.5358   -39.4461
  550.0000    10.4200     8.4341   126.1234   -39.3686
  550.5000    10.3925     8.4150   126.7110   -39.2900
  551.0000    10.3573     8.3956   127.2986   -39.2136
  551.5000    10.3636     8.3771   127.8862   -39.1331
  552.0000    10.4101     8.3568   128.4738   -39.0602
  552.5000    10.4504     8.3477   129.0614   -38.9700
  553.0000    10.4937     8.3486   129.6490   -38.9200
  553.5000    10.5353     8.3489   130.2366   -38.9580
  554.0000    10.5781     8.3451   130.8242   -38.9824
  554.5000    10.6156     8.3063   131.4118   -39.0124
  555.0000    10.5827     8.2640   131.9993   -39.0393
  555.5000    10.4651     8.2225   132.5869   -39.0678
  556.0000    10.4161     8.1804   133.1745   -39.0960
  556.5000    10.0083     8.1390   133.7621   -39.1239
  557.0000     9.7962     8.0967   133.8874   -39.1528
  557.5000     9.7481     8.0635   133.6087   -39.1793
  558.0000     9.6790     8.0381   133.3299   -39.2103
  558.5000     9.8107     8.0124   133.0512   -39.2327
  559.0000     9.9247     7.9859   132.7725   -39.2730
  559.5000    10.1422     7.9618   132.4937   -39.2577
  560.0000    10.3933     7.9329   132.2289   -39.0316
  560.5000    10.5891     7.9137   134.4314   -38.8307
  561.0000    10.2480     7.8412   136.5292   -38.6296
  561.5000     9.8059     7.7217   138.6270   -38.4039
  562.0000     9.6399     7.6132   140.7204   -38.3854
  562.5000     9.4326     7.4996   142.8135   -38.4206
  563.0000     9.2449     7.3887   144.9064   -38.4387
  563.5000     9.0675     7.2764   146.9972   -38.4651
  564.0000     9.0039     7.1648   149.0870   -38.4871
  564.5000     8.9419     7.0528   151.1779   -38.5115
  565.0000     8.8968     6.9411   153.8226   -38.5348
  565.5000     8.7804     6.8293   156.8806   -38.5585
  566.0000     8.6281     6.7174   159.9613   -38.5821
  566.5000     8.4233     6.6056   163.0127   -38.6054
  567.0000     8.1663     6.4933   166.0641   -38.6295
  567.5000     7.9210     6.3823   169.1154   -38.6519
  568.0000     7.6778     6.2688   172.1668   -38.6774
  568.5000     7.4277     6.1599   175.2181   -38.6973
  569.0000     7.2959     6.0430   178.2695   -38.7288
  569.5000     7.2632     6.0007   181.0241   -38.7250
  570.0000     7.2408     6.0453   179.6325   -38.5871
  570.5000     7.4519     6.0815   178.3643   -38.4701
  571.0000     7.6641     6.1219   177.0961   -38.3435
  571.5000     7.8764     6.1601   175.8279   -38.2307
  572.0000     8.0158     6.1993   174.5596   -38.0895
  572.5000     8.0846     6.2383   173.2914   -38.0136
  573.0000     8.1185     6.2737   172.0232   -38.0849
  573.5000     8.1414     6.3037   170.7550   -38.1337
  574.0000     8.1707     6.3316   169.4868   -38.1913
  574.5000     8.1639     6.3593   168.3735   -38.2441
  575.0000     8.1314     6.3875   167.7574   -38.2990
  575.5000     8.1056     6.4147   167.2084   -38.3536
  576.0000     8.0756     6.4433   166.6594   -38.4079
  576.5000     8.0497     6.4539   166.1104   -38.4635
  577.0000     8.0180     6.4530   165.5613   -38.5180
  577.5000     8.0075     6.4524   165.0123   -38.5972
  578.0000     8.0938     6.4542   164.4633   -38.9064
  578.5000     8.1805     6.4498   163.9143   -39.1582
  579.0000     8.2664     6.4846   163.3653   -39.4821
  579.5000     8.3479     6.5476   162.8163   -39.6236
  580.0000     8.4543     6.6015   162.2672   -39.2885
  580.5000     8.5521     6.6597   161.7182   -39.0132
