~VERSION INFORMATION
 VERS.                2.0:   CWLS LOG ASCII STANDARD - VERSION 2.0
 WRAP.                 NO:   ONE LINE PER DEPTH STEP
~WELL INFORMATION
#MNEM.UNIT      DATA TYPE    INFORMATION
#----------   ------------   ------------------------------
 STRT.F           30.0000:   START DEPTH
 STOP.F          480.0000:   STOP DEPTH
 STEP.F            0.5000:   STEP LENGTH
 NULL.          -999.2500:   NO VALUE
 COMP. FENIX & SCISSON INC:   COMPANY
 WELL.   51-SX-10 #NPR-10:   WELL
 FLD .             TEAPOT:   FIELD
 LOC .      S10 T38N R78W:   LOCATION
 CNTY.            NATRONA:   COUNTY
 STAT.            WYOMING:   STATE
 CTRY. UNITED STATES OF AMERICA:   COUNTRY
 SRVC.              Welex:   SERVICE COMPANY
 DATE.        13-MAR-1977:   LOGDATE
 API .       490251031000:   API NUMBER
~CURVE INFORMATION
#MNEM.UNIT       API CODE    CURVE DESCRIPTION
#----------   ------------   ------------------------------
 DEPT.F                  :   
 SGRD.OHMM   07 220 05 00:   SHALLOW GUARD RESISTIVITY
 ILD .OHMM   07 120 46 00:   INDUCTION LOG DEEP
 ILM .OHMM   07 120 44 00:   INDUCTION LOG MEDIUM
 SPR .MV     07 010 01 00:   SPONTANEOUS POTENTIAL
 RHOB.G/C3   45 350 01 00:   BULK DENSITY
 DPOR.DEC    45 890 12 00:   DENSITY POROSITY SANDSTONE
 CORR.G/C3   45 356 01 00:   DENSITY CORRECTION
 GRD .GAPI   45 310 01 00:   GAMMA RAY FROM DENSITY LOG
 CALD.IN     45 280 60 00:   CALIPER FROM DENSITY LOG
~PARAMETER INFORMATION
#MNEM.UNIT          VALUE    DESCRIPTION
#----------   ------------   ------------------------------
 PD  .                 GL:   PERMANENT DATUM
 EPD .F              5216:   ELEVATION PERMANENT DATUM
 LMF .                 GL:   LOG MEASURED FROM
 DMF .                 GL:   DRILLING MEASURED FROM
 EGL .F              5216:   GROUND LEVEL
 DATE.            3-13-77:   RUN DATE
 RUN .                  1:   RUN NUMBER
 DD  .F               490:   DEPTH DRILLER
 DL  .F               485:   DEPTH LOGGER
 BLI .F               483:   BOTTOM LOG INTERVAL
 TLI .F                35:   TOP LOG INTERVAL
 CS  .IN            8.625:   CASING SIZE
 CBD .F                40:   CASING BOTTOM DRILLER
 CBL .F                36:   CASING BOTTOM LOGGER
 BS  .IN            7.875:   BIT SIZE
 BSD .F               490:   BIT SIZE AT DEPTH
 DFT .            KCL MUD:   DRILLING FLUID TYPE
 DFD .                8.9:   DRILLING FLUID DENSITY
 DFV .                 34:   DRILLING FLUID VISCOSITY
 MSS .            MUD PIT:   MUD SAMPLE SOURCE
 RMS .OHMM            .43:   RESISTIVITY MUD SAMPLE
 MST .F                60:   MUD SAMPLE TEMPERATURE
 RMF .OHMM            .37:   RESISTIVITY MUD FILTRATE SAMPLE
 MFST.F                60:   MUD FILTRATE SAMPLE TEMPERATURE
 RMC .OHMM            .47:   RESISTIVITY MUD CAKE
 MCST.F                60:   MUD CAKE SAMPLE TEMPERATURE
 MFSS.           FANN KIT:   MUD FILTRATE SAMPLE SOURCE
 MCSS.           FANN KIT:   MUD CAKE SAMPLE SOURCE
 RMB .OHMM            .40:   RESISTIVITY MUD AT BHT
 BHT .F                63:   BOTTOM HOLE TEMPERATURE
 TCS .HRS             1.5:   TIME CURCULATED STOPPED
 MRT .F                63:   MAXIMUM RECORDED TEMPERATURE
 LUN .               8611:   LOGGING UNIT NUMBER
 LUL .             CASPER:   LOGGING UNIT LOCATION
 ENGI.               DOAK:   RECORDING ENGINEER
 WITN.         STUEBINGER:   WITNESSED BY
 CLNT.            A2DTECH:   CLIENT CODE
 ORIG.       2", 5" PRINT:   ORIGIN OF DATA
 UWI .       490251031000:   UNIQUE WELL ID
 DICO. A2D Technologies, Inc.:   DIGITIZING COMPANY
~OTHER INFORMATION
~A   DEPT     SGRD        ILD        ILM        SPR       RHOB       DPOR        CORR       GRD       CALD   
# ...
   66.5000    12.2172     8.0582     9.2547   -16.5067     2.5060     0.0826     0.0908   133.5678     7.9100
   67.0000    12.1548     8.0581     9.2464   -16.6469     2.5114     0.0785     0.0901   133.4724     7.9100
   67.5000    12.0946     8.0598     9.2110   -16.7875     2.5157     0.0794     0.0894   134.4881     7.9100
   68.0000    12.1987     7.9480     9.1757   -16.9281     2.5103     0.0823     0.0880   135.8656     7.9100
   68.5000    12.3022     7.8425     9.1404   -17.0687     2.5041     0.0852     0.0857   137.2624     7.9100
   69.0000    12.4066     7.7383     9.1056   -17.2092     2.4979     0.0881     0.0835   138.4743     7.9100
   69.5000    12.5495     7.6356     9.0847   -17.3498     2.4904     0.0933     0.0812   137.2576     7.9100
   70.0000    12.3231     7.5341     9.1958   -17.4904     2.4823     0.0990     0.0789   136.1093     7.9100
   70.5000    11.9672     7.4341     9.2875   -17.6309     2.4743     0.1048     0.0766   135.1034     7.9100
   71.0000    11.7644     7.4160     9.3402   -17.7715     2.4703     0.1052     0.0743   135.1055     7.9100
   71.5000    11.8490     7.5606     9.2898   -17.9119     2.4725     0.1045     0.0732   135.0888     7.9100
   72.0000    11.9105     7.6816     9.2542   -18.0523     2.4747     0.1034     0.0743   134.8489     7.9100
   72.5000    11.9719     7.8046     9.2188   -18.1957     2.4768     0.1014     0.0753   132.9719     7.9100
   73.0000    12.0333     7.9295     9.1689   -18.3929     2.4779     0.1010     0.0764   131.7652     7.9100
   73.5000    12.0950     8.0564     9.2151   -18.6569     2.4742     0.1017     0.0770   133.5106     7.9100
   74.0000    12.1571     8.1330     9.3270   -18.9179     2.4706     0.1027     0.0767   134.9065     7.9100
   74.5000    12.3211     8.1187     9.4410   -19.1797     2.4671     0.1053     0.0764   133.8560     7.9100
   75.0000    12.9018     8.1087     9.5562   -19.4414     2.4635     0.1079     0.0762   132.2205     7.9100
   75.5000    13.3869     8.0986     9.6727   -19.7032     2.4599     0.1105     0.0759   130.5800     7.9100
   76.0000    12.9034     8.0885     9.7906   -19.9650     2.4564     0.1130     0.0756   128.9580     7.9100
   76.5000    12.4342     8.0784     9.9100   -20.2268     2.4546     0.1146     0.0754   127.4866     7.9100
   77.0000    12.5866     8.0684    10.0562   -20.4885     2.4612     0.1138     0.0751   128.9970     7.9100
   77.5000    12.7832     8.0583     9.9859   -20.7504     2.4677     0.1094     0.0763   131.9693     7.9100
   78.0000    12.6572     8.0483     9.8979   -21.0116     2.4741     0.1050     0.0783   134.0595     7.9100
   78.5000    12.5311     8.0383     9.8106   -21.2715     2.4803     0.1006     0.0804   133.6860     7.9100
   79.0000    12.4063     8.0283     9.7241   -21.5389     2.4809     0.1000     0.0826   133.3780     7.9100
   79.5000    12.2827     8.0183     9.6384   -21.8556     2.4813     0.0994     0.0843   133.1569     7.9100
   80.0000    12.2068     8.0084     9.5534   -22.1636     2.4864     0.0962     0.0860   134.4474     7.9100
   80.5000    12.2068     7.9984     9.4692   -22.4704     2.4948     0.0917     0.0877   134.7783     7.9100
   81.0000    12.2068     7.9884     9.3857   -22.7775     2.4959     0.0913     0.0890   133.5365     7.9100
   81.5000    12.3480     7.9250     9.3029   -23.0846     2.4895     0.0940     0.0860   132.3459     7.9100
   82.0000    12.9299     7.8230     9.2209   -23.3917     2.4808     0.1007     0.0828   131.5523     7.9100
   82.5000    14.2803     7.7223     9.0573   -23.6987     2.4721     0.1075     0.0796   132.8745     7.9100
   83.0000    12.2947     7.6229     8.7610   -24.0061     2.4653     0.1092     0.0770   134.1406     7.9100
   83.5000    11.3260     7.5247     8.4744   -24.3155     2.4621     0.1110     0.0777   135.4000     7.9100
   84.0000    11.2935     7.4282     8.1972   -24.6324     2.4593     0.1113     0.0784   136.6590     7.9100
   84.5000    11.2610     7.3470     8.1179   -24.7043     2.4624     0.1089     0.0790   137.9279     7.9100
   85.0000    11.1695     7.3642     8.0983   -24.7594     2.4660     0.1066     0.0797   139.2362     7.9100
   85.5000    10.7723     7.3810     8.0787   -24.8161     2.4695     0.1042     0.0803   139.3359     7.9100
   86.0000    10.5335     7.3980     8.0591   -24.8731     2.4729     0.1018     0.0810   138.7911     7.9100
   86.5000    10.9785     7.4159     8.0396   -24.9301     2.4755     0.1005     0.0801   136.3467     7.9100
   87.0000    11.3358     7.4979     8.0201   -24.9872     2.4713     0.1048     0.0790   133.9203     7.9100
   87.5000    11.5274     7.5847     8.0007   -25.0442     2.4668     0.1094     0.0780   132.0046     7.9100
   88.0000    11.7264     7.6725     7.9842   -25.1012     2.4625     0.1108     0.0771   130.4909     7.9100
   88.5000    11.9835     7.7614     8.3162   -25.1583     2.4612     0.1122     0.0820   129.7852     7.9100
   89.0000    11.8811     7.8512     8.6815   -25.2153     2.4667     0.1090     0.0873   129.0654     7.9100
   89.5000    11.7644     7.9421     9.0854   -25.2723     2.4720     0.1042     0.0925   128.3566     7.9100
   90.0000    13.2640     8.0159     9.2395   -25.3294     2.4764     0.1026     0.0964   128.4921     7.9100
   90.5000    12.8587     8.0732     9.3405   -25.3860     2.4666     0.1071     0.0909   130.1380     7.9100
   91.0000    12.1600     8.1315     9.3405   -25.4406     2.4579     0.1122     0.0856   131.7126     7.9100
   91.5000    11.9835     8.1903     9.3405   -25.6286     2.4632     0.1094     0.0809   132.5062     7.9100
   92.0000    11.9835     8.2494     9.3477   -25.8278     2.4683     0.1062     0.0806   131.3987     7.9100
   92.5000    12.0887     8.3090     9.3614   -26.0279     2.4670     0.1080     0.0802   129.8855     7.9100
   93.0000    12.2887     8.3610     9.3751   -26.2275     2.4641     0.1098     0.0798   128.4460     7.9100
   93.5000    12.5483     8.3204     9.3888   -26.4271     2.4612     0.1117     0.0794   128.1578     7.9100
   94.0000    12.3591     8.2844     9.4026   -26.6269     2.4627     0.1099     0.0790   128.6166     7.9100
   94.5000    12.1043     8.2484     9.4163   -26.8273     2.4697     0.1046     0.0785   130.4746     7.9100
   95.0000    11.8735     8.2127     9.4301   -27.0296     2.4766     0.0990     0.0781   132.1196     7.9100
   95.5000    12.0910     8.1770     9.4439   -27.2265     2.4818     0.0978     0.0777   132.9061     7.9100
   96.0000    12.3320     8.1416     9.4577   -27.4249     2.4832     0.0966     0.0773   133.6918     7.9100
   96.5000    12.5495     8.1063     9.4716   -27.6247     2.4848     0.0964     0.0769   134.5098     7.9100
   97.0000    12.2031     8.0712     9.4854   -27.8243     2.4845     0.0979     0.0764   134.6893     7.9100
   97.5000    11.8735     8.0362     9.4993   -28.0241     2.4757     0.1021     0.0760   134.0096     7.9101
   98.0000    12.1053     7.9842     9.5142   -28.2256     2.4660     0.1063     0.0756   131.1811     7.9104
   98.5000    12.3653     8.0389     9.5542   -28.4335     2.4559     0.1106     0.0752   128.4475     7.9107
   99.0000    12.5495     8.1476     9.6027   -28.4015     2.4544     0.1125     0.0750   126.9527     7.9109
   99.5000    12.1781     8.2580     9.8130   -28.3521     2.4555     0.1126     0.0750   127.0689     7.9112
  100.0000    11.7644     8.3695    10.0511   -28.3034     2.4567     0.1118     0.0750   127.2157     7.9115
  100.5000    12.2836     8.4842    10.2949   -28.2552     2.4579     0.1110     0.0750   126.8937     7.9117
  101.0000    13.3136     8.6377    10.5455   -28.2071     2.4574     0.1123     0.0750   125.2263     7.9120
  101.5000    14.0191     8.8117    10.7985   -28.1589     2.4553     0.1137     0.0750   123.5879     7.9123
  102.0000    13.8862     8.9892    10.9669   -28.1107     2.4530     0.1146     0.0750   123.6402     7.9125
  102.5000    13.5111     9.1704    11.0848   -28.0625     2.4553     0.1137     0.0750   124.2773     7.9128
