~VERSION INFORMATION
 VERS.                2.0:   CWLS LOG ASCII STANDARD - VERSION 2.0
 WRAP.                 NO:   ONE LINE PER DEPTH STEP
~WELL INFORMATION
#MNEM.UNIT      DATA TYPE    INFORMATION
#----------   ------------   ------------------------------
 STRT.F           20.0000:   START DEPTH
 STOP.F          546.0000:   STOP DEPTH
 STEP.F            0.5000:   STEP LENGTH
 NULL.          -999.2500:   NO VALUE
 COMP. LAWRENCE/ALLISON INC:   COMPANY
 WELL.   83-61 STX #10-10:   WELL
 FLD .             TEAPOT:   FIELD
 LOC .      S10 T38N R78W:   LOCATION
 CNTY.            NATRONA:   COUNTY
 STAT.            WYOMING:   STATE
 CTRY. UNITED STATES OF AMERICA:   COUNTRY
 SRVC.           Gearhart:   SERVICE COMPANY
 DATE.        09-JUN-1987:   LOGDATE
 API .       490251113100:   API NUMBER
~CURVE INFORMATION
#MNEM.UNIT       API CODE    CURVE DESCRIPTION
#----------   ------------   ------------------------------
 DEPT.F                  :   
 GRR .GAPI   07 310 01 00:   GAMMA RAY FROM RES. LOG.
 RILD.OHMM   07 120 46 00:   INDUCTION LOG DEEP RESISTIVITY
 RILM.OHMM   07 120 44 00:   INDUCTION LOG MEDIUM RESISTIVITY
 RLL .OHMM   07 220 00 00:   LATEROLOG RESISTIVITY
~PARAMETER INFORMATION
#MNEM.UNIT          VALUE    DESCRIPTION
#----------   ------------   ------------------------------
 PD  .                 GL:   PERMANENT DATUM
 EPD .F              5163:   ELEVATION PERMANENT DATUM
 LMF .                 KB:   LOG MEASURED FROM
 DAPD.F                 8:   FEET ABOVE PERMANENT DATUM
 DMF .                 KB:   DRILLING MEASURED FROM
 EKB .F              5171:   KELLING BUSHING
 EDF .F              5169:   DRILLING FLOOR
 EGL .F              5163:   GROUND LEVEL
 DATE.             6-9-87:   RUN DATE
 RUN .                  1:   RUN NUMBER
 DD  .F             552.5:   DEPTH DRILLER
 DL  .F               549:   DEPTH LOGGER
 BLI .F               546:   BOTTOM LOG INTERVAL
 TLI .F                49:   TOP LOG INTERVAL
 CS  .IN             8.62:   CASING SIZE
 CBD .F                50:   CASING BOTTOM DRILLER
 CBL .F                46:   CASING BOTTOM LOGGER
 BS  .IN             7.87:   BIT SIZE
 BSD .F             552.5:   BIT SIZE AT DEPTH
 DFT .                MUD:   DRILLING FLUID TYPE
 TCS .HRS            0300:   TIME CURCULATED STOPPED
 TLAB.HRS            0400:   TIME LOGGER AT BOTTOM
 LUN .               7597:   LOGGING UNIT NUMBER
 LUL .           GILLETTE:   LOGGING UNIT LOCATION
 ENGI.           JOHNSTON:   RECORDING ENGINEER
 WITN.             STRONG:   WITNESSED BY
 CLNT.            A2DTECH:   CLIENT CODE
 ORIG.       2", 5" PRINT:   ORIGIN OF DATA
 UWI .       490251113100:   UNIQUE WELL ID
 DICO. A2D Technologies, Inc.:   DIGITIZING COMPANY
~OTHER INFORMATION
~A   DEPT       GRR      RILD       RILM        RLL   
# ...
  312.0000   105.7012     5.7182     4.5974     5.8833
  312.5000   104.5283     5.8277     4.9050     6.0459
  313.0000   102.3986     6.1490     5.2714     6.4945
  313.5000   100.2390     6.4715     5.6619     6.9769
  314.0000    98.0860     6.8109     6.0847     7.4945
  314.5000    96.2518     7.1681     6.4729     7.6859
  315.0000    96.2216     7.5441     6.8615     7.7008
  315.5000    97.3444     7.7461     7.3176     7.7175
  316.0000    98.4544     7.6413     7.2559     7.7343
  316.5000    98.1187     7.5608     7.1870     7.7827
  317.0000    97.8792     7.4577     7.1123     7.9075
  317.5000    98.3641     7.5288     6.7339     8.0457
  318.0000    98.8253     6.9800     6.3390     7.8264
  318.5000   100.6091     6.6381     5.9672     7.1867
  319.0000   102.9228     6.3130     5.6173     6.3394
  319.5000   104.7448     6.1690     5.2879     6.3519
  320.0000   104.6088     6.1690     4.9598     6.5303
  320.5000   102.9504     6.2284     5.2220     6.4646
  321.0000   101.4081     6.1089     5.5264     6.4076
  321.5000   100.4707     6.1090     5.8485     6.8780
  322.0000    99.6163     6.6834     6.1895     7.2486
  322.5000    98.7521     7.1398     6.5503     7.6392
  323.0000    96.9732     7.4356     6.9321     7.9597
  323.5000    94.2392     7.6852     7.2739     8.1369
  324.0000    91.8438     7.9253     7.5312     8.3181
  324.5000    92.3851     8.0925     7.7955     8.4557
  325.0000    94.4942     8.2638     8.0694     8.5827
  325.5000    94.0072     8.4361     8.3530     8.7116
  326.0000    91.9974     8.4673     8.6467     8.8425
  326.5000    91.4963     8.4969     8.7962     8.9753
  327.0000    95.3826     8.5272     8.8511     9.1102
  327.5000    99.1957     8.5576     8.9064     9.2043
  328.0000   100.5453     8.5882     8.9620     9.2423
  328.5000    99.1853     8.6188     9.0180     9.2800
  329.0000    97.7642     8.6495     9.0743     9.3180
  329.5000    96.3548     8.6804     9.1310     9.3562
  330.0000    94.9416     8.7113     9.1879     9.3945
  330.5000    93.7192     8.7424     9.2452     9.4330
  331.0000    94.9152     8.7735     9.2758     9.4535
  331.5000    96.1219     8.8046     8.9780     9.4847
  332.0000    97.7981     8.8370     8.7503     9.5436
  332.5000    99.6498     8.9235     8.5283     9.5410
  333.0000   100.8181     9.0399     8.3120     9.7934
  333.5000   101.3039     9.1572     8.1223    10.0314
  334.0000    98.9485     9.2769     8.7200    10.2735
  334.5000    94.8282     9.4535     9.3326    10.5216
  335.0000    90.6840     9.0282     9.9099    10.6941
  335.5000    87.3595     8.2589     8.7765    10.6372
  336.0000    85.2668     7.5551     7.8716    10.3941
  336.5000    87.6592     7.1216     7.0590     9.4670
  337.0000    93.2318     6.8902     6.3302     8.5645
  337.5000    99.8950     6.6554     5.6785     7.7480
  338.0000   106.5397     6.8389     4.9625     6.9786
  338.5000   105.0809     7.0375     5.3641     6.9786
  339.0000   102.6789     7.2419     5.9453     7.5718
  339.5000    98.7834     7.4577     6.5911     8.5310
  340.0000    94.7591     8.0301     7.3071     9.6117
  340.5000    90.7412     8.6631     8.1023    10.6306
  341.0000    87.0927     9.3473     8.9731    10.7961
  341.5000    85.5595    10.0827     9.7703    10.7961
  342.0000    87.6725    10.6354    10.8416    10.7550
  342.5000    89.9575    11.0433    11.5372    10.7038
  343.0000    91.4047    11.4690    11.7019    10.6529
  343.5000    91.2358    11.9112    11.8673    10.5937
  344.0000    90.7434    12.3706    12.0350    10.6909
  344.5000    89.3237    12.8476    12.4713    10.8107
  345.0000    87.8610    13.7242    13.3827    10.9685
  345.5000    86.0031    14.7315    14.3607    10.9592
  346.0000    79.9423    16.2274    15.4101    16.8628
  346.5000    72.2634    18.3674    16.5362    22.6672
  347.0000    64.7178    20.8101    18.2939    28.1715
  347.5000    56.7591    23.5748    20.1906    31.9476
  348.0000    52.0629    26.7064    23.8330    35.0008
  348.5000    51.3754    30.2496    28.1826    34.2118
  349.0000    51.2594    33.3482    31.5982    34.0189
  349.5000    51.1406    34.3587    32.9990    34.3431
  350.0000    51.0450    35.3998    34.1708    36.1845
  350.5000    52.7039    36.4724    35.7370    37.9553
  351.0000    54.6251    38.1201    37.3750    39.9715
  351.5000    55.5863    37.7534    39.2204    41.1253
  352.0000    56.5545    37.0580    37.8949    40.6098
  352.5000    56.5316    36.3754    36.5118    39.9715
  353.0000    56.2186    35.6647    35.1791    40.5839
  353.5000    55.5944    36.2742    34.3431    41.4240
  354.0000    53.2374    37.1019    35.3086    42.3124
  354.5000    50.8955    37.9477    36.0378    41.1253
  355.0000    49.0930    38.8111    36.7861    40.7371
  355.5000    50.1082    39.6942    37.5467    40.7264
  356.0000    52.3521    40.5973    38.4834    41.3096
  356.5000    55.0505    41.5173    38.2838    41.5250
  357.0000    57.7837    40.7990    38.0350    41.5289
  357.5000    59.2280    40.0958    37.7879    39.7280
  358.0000    59.9253    39.4048    37.5423    38.0751
  358.5000    60.3661    38.7257    36.9027    36.4876
  359.0000    59.8667    38.0583    35.7726    35.3208
  359.5000    59.3662    37.4024    34.6715    33.0790
  360.0000    60.1619    37.0506    33.6057    31.2352
  360.5000    61.5580    37.7800    32.5651    31.2352
  361.0000    62.9757    38.2891    32.4431    30.9404
  361.5000    64.3731    38.8050    33.6051    31.5063
  362.0000    65.0075    39.3280    34.4181    32.6089
  362.5000    65.5246    40.0045    35.2507    33.7154
  363.0000    65.4548    40.8447    36.1035    34.8610
  363.5000    64.8240    41.7026    36.9769    35.6712
  364.0000    64.1573    42.5856    37.8714    33.9837
  364.5000    62.9464    43.5291    38.7875    32.4431
  365.0000    61.6537    42.9237    39.7258    33.6211
  365.5000    60.3351    42.2655    40.3525    34.9319
  366.0000    59.5148    41.6239    39.4154    36.3543
  366.5000    60.1540    40.9920    38.6161    35.6601
  367.0000    61.7966    40.3525    37.8333    34.9278
  367.5000    63.4504    40.3525    37.0516    33.9347
  368.0000    65.1012    40.5610    36.0211    31.6871
  368.5000    66.7714    40.8294    35.0048    29.5953
  369.0000    67.0380    41.0995    34.0189    28.4086
  369.5000    66.4416    41.3714    35.2862    28.9527
  370.0000    65.8285    41.6451    36.8963    32.4124
  370.5000    65.2128    41.9129    38.5798    36.2373
  371.0000    64.6039    41.9129    39.3115    40.3525
  371.5000    64.2103    41.5173    39.4563    39.4143
  372.0000    64.6193    40.1010    39.5942    38.1780
  372.5000    65.0070    37.1142    36.9708    35.1740
  373.0000    65.3536    34.3499    34.6375    31.4991
  373.5000    65.4343    31.7915    32.4515    28.2291
  374.0000    66.7782    30.0723    30.4035    25.3012
  374.5000    68.0996    29.5969    28.4847    22.6757
  375.0000    68.0127    29.1647    26.6870    21.8211
  375.5000    67.7522    28.9058    25.7446    21.3730
  376.0000    67.4886    28.7526    25.5606    21.7692
  376.5000    67.2290    28.6003    25.3765    22.0817
  377.0000    67.0995    28.4086    25.1138    22.3976
  377.5000    67.8782    28.6231    25.2538    22.7171
  378.0000    69.3745    28.9178    25.5260    23.0580
  378.5000    71.4365    29.2156    25.7986    22.8319
  379.0000    71.1885    29.5164    26.0742    22.5958
  379.5000    70.5688    29.8203    26.3526    22.3622
  380.0000    69.9611    30.0723    26.5836    22.1310
  380.5000    69.5995    29.9187    26.3910    21.7824
  381.0000    70.4448    29.7889    26.2290    21.9114
  381.5000    70.8815    29.6597    26.0674    22.0427
  382.0000    69.5136    29.5311    25.9072    22.1996
  382.5000    68.1838    29.4031    25.7478    22.0671
  383.0000    67.4114    29.2756    25.5895    21.9054
  383.5000    67.7527    29.1486    25.4321    21.7450
  384.0000    69.4179    29.0222    25.2757    21.5856
  384.5000    71.0410    28.9527    25.1203    21.4274
