~VERSION INFORMATION
 VERS.                2.0:   CWLS LOG ASCII STANDARD - VERSION 2.0
 WRAP.                 NO:   ONE LINE PER DEPTH STEP
~WELL INFORMATION
#MNEM.UNIT      DATA TYPE    INFORMATION
#----------   ------------   ------------------------------
 STRT.F         1099.5000:   START DEPTH
 STOP.F         2700.0000:   STOP DEPTH
 STEP.F            0.5000:   STEP LENGTH
 NULL.          -999.2500:   NO VALUE
 COMP. LAWRENCE/ALLISON INC NPR #3:   COMPANY
 WELL.   47 STX 14 #47-14:   WELL
 FLD .             TEAPOT:   FIELD
 LOC .      S14 T38N R78W:   LOCATION
 CNTY.            NATRONA:   COUNTY
 STAT.            WYOMING:   STATE
 CTRY. UNITED STATES OF AMERICA:   COUNTRY
 SRVC.            Unknown:   SERVICE COMPANY
 DATE.        01-SEP-1988:   LOGDATE
 API .       490251124400:   API NUMBER
~CURVE INFORMATION
#MNEM.UNIT       API CODE    CURVE DESCRIPTION
#----------   ------------   ------------------------------
 DEPT.F                  :   
 ROP .MIN/FT 91 810 01 00:   RATE OF DRILLING PENETRATION
 TGAS.UNITS  91 830 01 00:   TOTAL GAS FROM HOTWIRE
~PARAMETER INFORMATION
#MNEM.UNIT          VALUE    DESCRIPTION
#----------   ------------   ------------------------------
 EKB .F              5286:   KELLING BUSHING
 EGL .F              5276:   GROUND LEVEL
 DATE.             9-1-88:   RUN DATE
 DD  .F              2700:   DEPTH DRILLER
 CBD .F              1088:   CASING BOTTOM DRILLER
 TCS .HRS            1200:   TIME CURCULATED STOPPED
 TLAB.HRS            1223:   TIME LOGGER AT BOTTOM
 ENGI.               HUSK:   RECORDING ENGINEER
 WITN.           PETERSON:   WITNESSED BY
 CLNT.            A2DTECH:   CLIENT CODE
 ORIG.           5" PRINT:   ORIGIN OF DATA
 UWI .       490251124400:   UNIQUE WELL ID
 DICO. A2D Technologies, Inc.:   DIGITIZING COMPANY
~OTHER INFORMATION
~A  DEPT       ROP       TGAS   
# ...
 2314.5000     0.4087   950.2700
 2315.0000     0.4086   880.4182
 2315.5000     0.4084   777.0632
 2316.0000     0.4187   660.5521
 2316.5000     0.4288   587.1644
 2317.0000     0.4286   561.2614
 2317.5000     0.4251   568.6935
 2318.0000     0.3915   594.3984
 2318.5000     0.3541   612.2471
 2319.0000     0.3454   616.0304
 2319.5000     0.3604   617.2998
 2320.0000     0.3815   618.5692
 2320.5000     0.3965   619.8387
 2321.0000     0.3896   621.1081
 2321.5000     0.3793   622.3775
 2322.0000     0.3857   623.6469
 2322.5000     0.3856   624.9163
 2323.0000     0.3854   626.1857
 2323.5000     0.3853   627.4552
 2324.0000     0.3851   628.7246
 2324.5000     0.3850   629.9940
 2325.0000     0.3848   631.2634
 2325.5000     0.3847   632.5328
 2326.0000     0.3912   633.8022
 2326.5000     0.4227   635.0717
 2327.0000     0.4652   636.3411
 2327.5000     0.5077   637.6105
 2328.0000     0.5595   638.8799
 2328.5000     0.5697   640.1494
 2329.0000     0.5383   641.4188
 2329.5000     0.4746   642.6882
 2330.0000     0.4221   643.9576
 2330.5000     0.3934   645.2271
 2331.0000     0.3933   646.4965
 2331.5000     0.3931   647.7659
 2332.0000     0.3893   649.0353
 2332.5000     0.3825   650.3047
 2333.0000     0.3823   651.5742
 2333.5000     0.3822   652.8436
 2334.0000     0.4072   654.1130
 2334.5000     0.4657   655.3824
 2335.0000     0.5124   656.6519
 2335.5000     0.5322   657.9213
 2336.0000     0.5173   659.1907
 2336.5000     0.4786   660.4601
 2337.0000     0.4148   661.7295
 2337.5000     0.3547   662.9989
 2338.0000     0.2981   639.3878
 2338.5000     0.3301   561.4829
 2339.0000     0.3832   479.6086
 2339.5000     0.4355   428.6979
 2340.0000     0.4792   377.7869
 2340.5000     0.5338   326.8763
 2341.0000     0.5203   306.3309
 2341.5000     0.4522   286.3065
 2342.0000     0.4005   277.3546
 2342.5000     0.3737   278.1536
 2343.0000     0.3585   278.8762
 2343.5000     0.3584   279.5985
 2344.0000     0.3479   279.3691
 2344.5000     0.3478   278.4507
 2345.0000     0.3476   277.5323
 2345.5000     0.3475   276.6140
 2346.0000     0.3473   275.6956
 2346.5000     0.3472   274.7773
 2347.0000     0.3883   273.8589
 2347.5000     0.4508   272.9406
 2348.0000     0.5376   272.0222
 2348.5000     0.5280   271.1039
 2349.0000     0.4639   270.1855
 2349.5000     0.4082   269.2672
 2350.0000     0.3874   268.3488
 2350.5000     0.3666   258.1273
 2351.0000     0.3664   258.2340
 2351.5000     0.3663   258.3372
 2352.0000     0.3661   258.4404
 2352.5000     0.3660   258.5436
 2353.0000     0.3764   258.6468
 2353.5000     0.3880   258.7500
 2354.0000     0.4207   258.8532
 2354.5000     0.4644   258.9565
 2355.0000     0.5204   259.0597
 2355.5000     0.5201   259.1629
 2356.0000     0.4536   259.2661
 2356.5000     0.3994   259.3693
 2357.0000     0.3709   259.4725
 2357.5000     0.3644   259.5757
 2358.0000     0.3721   259.6789
 2358.5000     0.3826   259.7821
 2359.0000     0.3846   259.8853
 2359.5000     0.3844   259.9886
 2360.0000     0.3843   260.0918
 2360.5000     0.3841   260.1950
 2361.0000     0.3943   260.2982
 2361.5000     0.4045   260.4014
 2362.0000     0.4250   260.5046
 2362.5000     0.4253   260.6078
 2363.0000     0.4350   260.7110
 2363.5000     0.4213   260.8142
 2364.0000     0.3920   260.9174
 2364.5000     0.3829   261.0207
 2365.0000     0.3807   261.1239
 2365.5000     0.3723   261.2271
 2366.0000     0.3721   261.3303
 2366.5000     0.3750   261.4335
 2367.0000     0.3821   261.5367
 2367.5000     0.3857   261.6399
 2368.0000     0.4002   261.7431
 2368.5000     0.4170   261.8463
 2369.0000     0.4275   261.9496
 2369.5000     0.4430   262.0528
 2370.0000     0.4535   262.1560
 2370.5000     0.4534   262.2592
 2371.0000     0.4412   262.3624
 2371.5000     0.4134   262.4656
 2372.0000     0.3614   262.5688
 2372.5000     0.3264   262.6720
 2373.0000     0.3583   262.7752
 2373.5000     0.3834   262.8784
 2374.0000     0.3903   262.9817
 2374.5000     0.3941   263.0849
 2375.0000     0.4003   263.1881
 2375.5000     0.4002   263.2913
 2376.0000     0.3950   263.3945
 2376.5000     0.3895   263.4977
 2377.0000     0.3950   263.6009
 2377.5000     0.3995   263.7041
 2378.0000     0.3994   263.8073
 2378.5000     0.3992   263.9106
 2379.0000     0.3991   264.0138
 2379.5000     0.3917   264.1170
 2380.0000     0.3809   264.2202
 2380.5000     0.3939   264.3234
 2381.0000     0.4314   264.4266
 2381.5000     0.4798   264.5298
 2382.0000     0.5392   264.6330
 2382.5000     0.5752   264.7362
 2383.0000     0.5040   264.8394
 2383.5000     0.4171   264.9427
 2384.0000     0.3919   265.0459
 2384.5000     0.4398   265.1491
 2385.0000     0.5150   265.2523
 2385.5000     0.6301   265.3555
 2386.0000     0.7938   264.3901
 2386.5000     0.7952   255.2271
 2387.0000     0.6168   255.3440
 2387.5000     0.4571   255.4472
 2388.0000     0.3591   255.5504
 2388.5000     0.3341   255.6536
 2389.0000     0.3489   255.7568
 2389.5000     0.3778   255.8600
 2390.0000     0.4015   255.9633
 2390.5000     0.4058   256.0665
 2391.0000     0.4057   256.1697
 2391.5000     0.4055   256.2729
 2392.0000     0.4054   256.3761
 2392.5000     0.4155   256.4793
 2393.0000     0.4154   256.5825
 2393.5000     0.4152   256.6857
 2394.0000     0.4254   256.7889
 2394.5000     0.4267   256.8922
 2395.0000     0.4468   256.9954
 2395.5000     0.4614   257.0986
 2396.0000     0.5005   257.2018
 2396.5000     0.5176   257.3050
 2397.0000     0.4701   257.4082
 2397.5000     0.3980   257.5114
 2398.0000     0.3312   257.6146
 2398.5000     0.3724   257.7178
 2399.0000     0.4245   257.8210
 2399.5000     0.4547   257.9243
 2400.0000     0.4545   258.0358
 2400.5000     0.4544   257.9407
 2401.0000     0.4542   257.8374
 2401.5000     0.4541   257.7340
 2402.0000     0.4539   257.6306
 2402.5000     0.5139   257.5273
 2403.0000     0.6167   257.4239
 2403.5000     0.6988   257.3205
 2404.0000     0.7603   257.2171
 2404.5000     0.7495   257.1137
 2405.0000     0.7386   257.0103
 2405.5000     0.6965   256.9070
 2406.0000     0.6535   256.8036
 2406.5000     0.6027   256.7002
 2407.0000     0.6745   256.5968
 2407.5000     0.7773   256.4935
 2408.0000     0.8595   256.3901
 2408.5000     0.8575   256.2867
 2409.0000     0.7891   256.1833
 2409.5000     0.7227   256.0800
 2410.0000     0.6596   255.9766
 2410.5000     0.5945   255.8732
 2411.0000     0.5407   255.7698
 2411.5000     0.4814   255.6664
 2412.0000     0.4347   255.5631
 2412.5000     0.4022   255.4597
 2413.0000     0.3698   255.3563
 2413.5000     0.3442   255.2529
 2414.0000     0.3440   255.1496
 2414.5000     0.3541   255.0462
 2415.0000     0.3877   254.9428
 2415.5000     0.4624   254.8394
 2416.0000     0.5619   254.7361
 2416.5000     0.6130   254.6327
 2417.0000     0.6332   254.5293
 2417.5000     0.6224   254.4259
 2418.0000     0.5806   254.3225
 2418.5000     0.5630   254.2192
 2419.0000     0.6438   254.1158
 2419.5000     0.7685   254.0124
 2420.0000     0.8688   253.9090
 2420.5000     0.8080   253.8057
 2421.0000     0.7542   253.7023
 2421.5000     0.7005   253.5989
 2422.0000     0.6467   253.4955
 2422.5000     0.5978   253.3922
 2423.0000     0.5677   253.2888
 2423.5000     0.5778   253.1854
 2424.0000     0.5879   253.0820
 2424.5000     0.5803   252.9786
 2425.0000     0.5333   252.8753
 2425.5000     0.4712   252.7719
 2426.0000     0.4031   252.6685
 2426.5000     0.3755   252.5651
 2427.0000     0.3750   252.4618
 2427.5000     0.3745   252.3584
 2428.0000     0.3740   252.2550
 2428.5000     0.3735   252.1516
 2429.0000     0.3656   252.0482
 2429.5000     0.3621   251.9449
 2430.0000     0.3853   251.8415
 2430.5000     0.4333   251.7381
 2431.0000     0.4844   251.6347
 2431.5000     0.5459   251.5314
 2432.0000     0.5764   251.4280
 2432.5000     0.5552   251.3246
 2433.0000     0.4721   251.2212
 2433.5000     0.4096   251.1179
 2434.0000     0.3988   251.0145
 2434.5000     0.3982   250.9111
 2435.0000     0.3978   250.8077
 2435.5000     0.4076   250.7043
