~VERSION INFORMATION
 VERS.                2.0:   CWLS LOG ASCII STANDARD - VERSION 2.0
 WRAP.                 NO:   ONE LINE PER DEPTH STEP
~WELL INFORMATION
#MNEM.UNIT      DATA TYPE    INFORMATION
#----------   ------------   ------------------------------
 STRT.F           30.0000:   START DEPTH
 STOP.F          580.0000:   STOP DEPTH
 STEP.F            0.5000:   STEP LENGTH
 NULL.          -999.2500:   NO VALUE
 COMP. FENIX & SCISSON INC:   COMPANY
 WELL.      87 SX 3 #87-3:   WELL
 FLD .             TEAPOT:   FIELD
 LOC .       S3 T38N R78W:   LOCATION
 CNTY.            NATRONA:   COUNTY
 STAT.            WYOMING:   STATE
 CTRY. UNITED STATES OF AMERICA:   COUNTRY
 SRVC.            Unknown:   SERVICE COMPANY
 DATE.        16-NOV-1978:   LOGDATE
 API .       490251074200:   API NUMBER
~CURVE INFORMATION
#MNEM.UNIT       API CODE    CURVE DESCRIPTION
#----------   ------------   ------------------------------
 DEPT.F                  :   
 CALD.IN     45 280 60 00:   CALIPER
 GRD .GAPI   45 310 01 00:   GAMMA RAY FROM DENSITY LOG
 RHOB.G/C3   45 350 01 00:   BULK DENSITY
 DPHI.DEC    45 890 12 00:   DENSITY POROSITY SANDSTONE
 CORR.G/C3   45 356 01 00:   DENSITY CORRECTION
 SFL .OHMM   05 221 01 00:   AMP. SHALLOW FOCUSED LOG RESISTIVITY
 ILD .OHMM   05 120 46 00:   INDUCTION LOG DEEP
 SPR .MV     05 010 01 00:   SPONTANEOUS POTENTIAL FROM RES.
~PARAMETER INFORMATION
#MNEM.UNIT          VALUE    DESCRIPTION
#----------   ------------   ------------------------------
 PD  .                 GL:   PERMANENT DATUM
 EPD .F              5120:   ELEVATION PERMANENT DATUM
 LMF .                 KB:   LOG MEASURED FROM
 DAPD.F                 4:   FEET ABOVE PERMANENT DATUM
 DMF .                 KB:   DRILLING MEASURED FROM
 EKB .F              5124:   KELLING BUSHING
 EGL .F              5120:   GROUND LEVEL
 DATE.           11-16-78:   RUN DATE
 RUN .                  1:   RUN NUMBER
 DD  .F               580:   DEPTH DRILLER
 DL  .F               574:   DEPTH LOGGER
 BLI .F               574:   BOTTOM LOG INTERVAL
 TLI .F                50:   TOP LOG INTERVAL
 CS  .IN            8.625:   CASING SIZE
 CBD .F                50:   CASING BOTTOM DRILLER
 CBL .F                50:   CASING BOTTOM LOGGER
 BS  .IN            7.875:   BIT SIZE
 BSD .F               580:   BIT SIZE AT DEPTH
 DFT .            SEA MUD:   DRILLING FLUID TYPE
 DFD .                8.7:   DRILLING FLUID DENSITY
 DFV .                 54:   DRILLING FLUID VISCOSITY
 DFPH.                9.8:   DRILLING FLUID PH
 MSS .           FLOWLINE:   MUD SAMPLE SOURCE
 RMS .OHMM            1.1:   RESISTIVITY MUD SAMPLE
 MST .F                56:   MUD SAMPLE TEMPERATURE
 RMF .OHMM             .9:   RESISTIVITY MUD FILTRATE SAMPLE
 MFST.F                60:   MUD FILTRATE SAMPLE TEMPERATURE
 RMC .OHMM            .95:   RESISTIVITY MUD CAKE
 MCST.F                60:   MUD CAKE SAMPLE TEMPERATURE
 MFSS.           MEASURED:   MUD FILTRATE SAMPLE SOURCE
 MCSS.           MEASURED:   MUD CAKE SAMPLE SOURCE
 RMB .OHMM            .93:   RESISTIVITY MUD AT BHT
 BHT .F                66:   BOTTOM HOLE TEMPERATURE
 TCS .HRS               1:   TIME CURCULATED STOPPED
 MRT .F                66:   MAXIMUM RECORDED TEMPERATURE
 LUN .               2958:   LOGGING UNIT NUMBER
 LUL .                CPR:   LOGGING UNIT LOCATION
 ENGI.             MILLER:   RECORDING ENGINEER
 WITN.           DINSMORE:   WITNESSED BY
 CLNT.            A2DTECH:   CLIENT CODE
 ORIG.       2", 5" PRINT:   ORIGIN OF DATA
 UWI .       490251074200:   UNIQUE WELL ID
 DICO. A2D Technologies, Inc.:   DIGITIZING COMPANY
~OTHER INFORMATION
~A   DEPT     CALD         GRD      RHOB       DPHI       CORR        SFL        ILD        SPR   
# ...
  111.0000     7.6235   101.4908     2.4460     0.1487    -0.0020    10.2671     8.9337   -12.2030
  111.5000     7.5703   100.2094     2.4367     0.1535    -0.0041    10.2574     8.9337   -12.2010
  112.0000     7.5164    98.9307     2.4270     0.1584    -0.0061    10.2572     8.9337   -12.2015
  112.5000     7.4944    97.8273     2.4176     0.1625    -0.0082    10.2570     8.9337   -12.2017
  113.0000     7.5328   100.5743     2.4154     0.1636    -0.0055    10.2579     8.9337   -12.2081
  113.5000     7.5799   103.8747     2.4146     0.1639    -0.0007    10.2550     8.9336   -12.5438
  114.0000     7.6270   106.1060     2.4157     0.1631     0.0041    10.3688     8.9335   -13.3684
  114.5000     7.6537   107.3660     2.4197     0.1594     0.0089    10.4572     8.9338   -14.0001
  115.0000     7.6534   107.1675     2.4234     0.1558     0.0137    10.5464     9.0724   -13.8675
  115.5000     7.6535   104.2888     2.4293     0.1527     0.0213    10.6422     9.2277   -13.5875
  116.0000     7.6536   101.0649     2.4354     0.1512     0.0287    10.8601     9.3858   -13.1982
  116.5000     7.6524   100.0434     2.4415     0.1478     0.0361    11.0981     9.5465   -12.5606
  117.0000     7.7098    99.9741     2.4478     0.1425     0.0487    11.3413     9.7100   -12.4542
  117.5000     7.7878    97.2489     2.4521     0.1396     0.0609    11.5899     9.8763   -12.0417
  118.0000     7.8676    93.4261     2.4530     0.1396     0.0715    11.8439    10.0454   -11.3336
  118.5000     7.9472    92.7643     2.4436     0.1520     0.0693    12.0286    10.2175   -11.3632
  119.0000     7.9555    95.0000     2.4336     0.1550     0.0673    12.1096    10.3924   -11.9887
  119.5000     7.9598    95.1803     2.4248     0.1583     0.0657    12.1910    10.5704   -12.4312
  120.0000     7.9643    96.0047     2.4209     0.1563     0.0781    12.2845    10.7514   -12.4978
  120.5000     7.9690   100.0634     2.4355     0.1405     0.1019    12.3862    10.9356   -12.5706
  121.0000     7.9737   104.1140     2.4704     0.1243     0.1256    12.4887    11.1228   -12.6420
  121.5000     7.9784   106.5964     2.5061     0.1081     0.1493    12.6390    11.3133   -12.7137
  122.0000     7.9831   107.0343     2.5261     0.0984     0.1539    12.9041    11.5071   -12.7854
  122.5000     7.9878   106.7952     2.5110     0.1146     0.1068    13.1747    11.7041   -12.8571
  123.0000     7.9925   105.1145     2.4865     0.1305     0.0669    13.4527    11.9046   -12.9284
  123.5000     7.9972   102.2377     2.4654     0.1360     0.0354    13.7107    12.0267   -12.9998
  124.0000     8.0019   101.0950     2.4553     0.1415     0.0152    14.0281    12.0830   -13.1082
  124.5000     8.0066    96.8508     2.4471     0.1453     0.0056    13.9974    12.1068   -13.2149
  125.0000     8.0078    92.6507     2.4436     0.1472     0.0076    13.9566    12.1068   -13.3173
  125.5000     7.9986    90.6268     2.4401     0.1491     0.0107    13.9159    12.1068   -13.2716
  126.0000     7.9899    92.1198     2.4369     0.1512     0.0213    13.8754    12.1068   -12.8494
  126.5000     7.9813    95.0292     2.4383     0.1471     0.0319    13.8351    12.1068   -12.4341
  127.0000     7.9732    97.4080     2.4476     0.1410     0.0425    13.7952    12.1069   -12.0183
  127.5000     7.9242    94.9841     2.4590     0.1344     0.0520    13.7334    12.1067   -11.6035
  128.0000     7.8630    90.3121     2.4650     0.1342     0.0499    13.6481    12.1076   -11.1861
  128.5000     7.8018    89.4884     2.4609     0.1381     0.0396    13.5634    12.0505   -10.9310
  129.0000     7.7501    92.4723     2.4540     0.1421     0.0295    13.5131    12.0065   -10.7822
  129.5000     7.7449    96.1410     2.4469     0.1460     0.0213    13.4985    11.9628   -10.6171
  130.0000     7.7387    99.6604     2.4402     0.1472     0.0238    13.4831    11.9192   -11.4959
  130.5000     7.7325    99.7864     2.4395     0.1479     0.0297    13.4678    11.8758   -12.5776
  131.0000     7.7262    96.2171     2.4381     0.1493     0.0383    13.4525    11.8326   -13.2326
  131.5000     7.7200    93.1652     2.4332     0.1532     0.0416    13.4371    11.7895   -13.3058
  132.0000     7.7142    92.1769     2.4284     0.1571     0.0450    13.4217    11.7466   -13.3875
  132.5000     7.6935    92.6492     2.4242     0.1548     0.0496    13.4065    11.7038   -13.3018
  133.0000     7.6713    93.2034     2.4279     0.1496     0.0589    13.3643    11.6613   -13.1587
  133.5000     7.6492    93.4633     2.4441     0.1444     0.0624    13.2873    11.6192   -12.4183
  134.0000     7.6330    93.3572     2.4566     0.1392     0.0618    13.2099    11.5764   -11.6946
  134.5000     7.6321    92.5836     2.4610     0.1336     0.0561    13.1480    11.4505   -10.9709
  135.0000     7.6308    90.5901     2.4629     0.1332     0.0457    13.1282    11.2829   -10.2524
  135.5000     7.6295    88.4360     2.4544     0.1428     0.0311    13.1084    11.1177   -10.3918
  136.0000     7.6283    86.3044     2.4386     0.1513     0.0168    13.0887    10.9403   -10.5880
  136.5000     7.6270    86.9122     2.4264     0.1587     0.0077    13.0690    10.9569   -10.7814
  137.0000     7.6258    87.7768     2.4200     0.1607     0.0088    13.0493    10.9752   -10.9789
  137.5000     7.6245    87.6579     2.4184     0.1612     0.0097    13.0326    10.9935   -10.9038
  138.0000     7.6233    88.3498     2.4205     0.1590     0.0106    13.1805    11.0119   -10.7678
  138.5000     7.6220    89.0870     2.4248     0.1539     0.0115    13.3107    11.0303   -10.6301
  139.0000     7.6207    89.3375     2.4390     0.1436     0.0124    13.4422    11.0415   -10.4907
  139.5000     7.6195    89.4898     2.4528     0.1340     0.0133    13.5217    10.8677   -10.2507
  140.0000     7.6182    89.5047     2.4635     0.1340     0.0143    12.8991    10.7238    -9.8719
  140.5000     7.6170    89.0225     2.4560     0.1401     0.0152    12.4700    10.5816    -9.4981
  141.0000     7.6157    88.5763     2.4441     0.1473     0.0151    12.0560    10.4413    -9.2446
  141.5000     7.6145    89.4018     2.4348     0.1529     0.0146    11.8774    10.3029    -9.3543
  142.0000     7.6504    93.0159     2.4277     0.1548     0.0141    11.7395    10.1664    -9.4553
  142.5000     7.7233    93.0705     2.4261     0.1566     0.0136    11.6033    10.0317    -9.5544
  143.0000     7.7877    89.8108     2.4268     0.1544     0.0131    11.4692     9.8987    -9.6131
  143.5000     7.7691    88.0966     2.4329     0.1506     0.0125    11.3325     9.7675    -9.5764
  144.0000     7.7438    87.8397     2.4389     0.1469     0.0120    11.1819     9.6381    -9.5416
  144.5000     7.7185    87.9566     2.4417     0.1467     0.0115    11.1389     9.5286    -9.5065
  145.0000     7.6935    88.1016     2.4387     0.1479     0.0111    11.1281     9.5286    -9.4715
  145.5000     7.6737    88.1297     2.4347     0.1517     0.0108    11.1183     9.5405    -9.4365
  146.0000     7.6802    87.5888     2.4306     0.1548     0.0104    11.1084     9.5492    -9.4015
  146.5000     7.6861    87.0617     2.4266     0.1563     0.0101    11.0984     9.5579    -9.3665
  147.0000     7.6927    86.5683     2.4202     0.1608     0.0098    11.0884     9.5667    -9.3314
  147.5000     7.6520    84.5792     2.4125     0.1652     0.0100    11.0785     9.5754    -9.2964
  148.0000     7.5885    82.3519     2.4048     0.1696     0.0124    11.0686     9.5842    -9.2614
  148.5000     7.5244    80.5658     2.3991     0.1708     0.0146    11.0588     9.5930    -9.2264
  149.0000     7.4596    80.2308     2.4004     0.1683     0.0236    11.0486     9.6019    -9.1914
  149.5000     7.3983    80.5842     2.4073     0.1659     0.0354    11.0223     9.6106    -9.1564
  150.0000     7.1989    82.0541     2.4131     0.1634     0.0408    10.9542     9.6168    -9.1215
  150.5000     6.9479    85.1481     2.4168     0.1607     0.0395    10.8865     9.4675    -9.0868
  151.0000     6.8105    88.1213     2.4202     0.1593     0.0344    10.7741     9.3044    -9.0506
