~VERSION INFORMATION
 VERS.                2.0:   CWLS LOG ASCII STANDARD - VERSION 2.0
 WRAP.                 NO:   ONE LINE PER DEPTH STEP
~WELL INFORMATION
#MNEM.UNIT      DATA TYPE    INFORMATION
#----------   ------------   ------------------------------
 STRT.F            2.0000:   START DEPTH
 STOP.F          522.0000:   STOP DEPTH
 STEP.F            0.5000:   STEP LENGTH
 NULL.          -999.2500:   NO VALUE
 COMP. LAWRENCE/ALLISON INC:   COMPANY
 WELL.      47-45 SX #3-3:   WELL
 FLD .             TEAPOT:   FIELD
 LOC .       S3 T38N R78W:   LOCATION
 CNTY.            NATRONA:   COUNTY
 STAT.            WYOMING:   STATE
 CTRY. UNITED STATES OF AMERICA:   COUNTRY
 SRVC.           Gearhart:   SERVICE COMPANY
 DATE.        17-JUN-1988:   LOGDATE
 API .       490251123600:   API NUMBER
~CURVE INFORMATION
#MNEM.UNIT       API CODE    CURVE DESCRIPTION
#----------   ------------   ------------------------------
 DEPT.F                  :   
 GRR .GAPI   07 310 01 00:   GAMMA RAY
 RILD.OHMM   07 120 46 00:   INDUCTION LOG DEEP RESISTIVITY
 RILM.OHMM   07 120 44 00:   INDUCTION LOG MEDIUM RESISTIVITY
~PARAMETER INFORMATION
#MNEM.UNIT          VALUE    DESCRIPTION
#----------   ------------   ------------------------------
 PD  .                 GL:   PERMANENT DATUM
 EPD .F              5197:   ELEVATION PERMANENT DATUM
 LMF .                 KB:   LOG MEASURED FROM
 DAPD.F                10:   FEET ABOVE PERMANENT DATUM
 DMF .                 KB:   DRILLING MEASURED FROM
 EKB .F              5207:   KELLING BUSHING
 EGL .F              5197:   GROUND LEVEL
 DATE.        17-JUN-1988:   RUN DATE
 RUN .                  1:   RUN NUMBER
 DD  .F               530:   DEPTH DRILLER
 DL  .F               530:   DEPTH LOGGER
 BLI .F             521.5:   BOTTOM LOG INTERVAL
 TLI .F                48:   TOP LOG INTERVAL
 CS  .IN            9.625:   CASING SIZE
 CBD .F                48:   CASING BOTTOM DRILLER
 CBL .F                48:   CASING BOTTOM LOGGER
 BS  .IN             8.75:   BIT SIZE
 BSD .F               530:   BIT SIZE AT DEPTH
 DFT .                AIR:   DRILLING FLUID TYPE
 TLAB.HRS            0600:   TIME LOGGER AT BOTTOM
 MRT .F                70:   MAXIMUM RECORDED TEMPERATURE
 LUN .               7597:   LOGGING UNIT NUMBER
 LUL .           GILLETTE:   LOGGING UNIT LOCATION
 ENGI.          HUCKFELDT:   RECORDING ENGINEER
 WITN.             STRONG:   WITNESSED BY
 CLNT.            A2DTECH:   CLIENT CODE
 ORIG.           5" PRINT:   ORIGIN OF DATA
 UWI .       490251123600:   UNIQUE WELL ID
 DICO. A2D Technologies, Inc.:   DIGITIZING COMPANY
~OTHER INFORMATION
~A    DEPT      GRR      RILD       RILM   
# ...
  184.0000   118.6913     8.6608     8.6060
  184.5000   118.9973     8.7176     8.7242
  185.0000   119.3025     8.8360     8.7814
  185.5000   118.7000     8.8939     8.8396
  186.0000   117.1758     8.8895     8.9595
  186.5000   117.7976     8.9487     9.0197
  187.0000   118.7096     8.9442     9.0795
  187.5000   118.7125     9.0656     9.2034
  188.0000   117.5033     9.1251     9.2645
  188.5000   114.7789     9.1850     9.3252
  189.0000   113.8727     9.2453     9.3870
  189.5000   113.5726     9.2406     9.3182
  190.0000   113.5763     9.1730     9.3151
  190.5000   112.9724     9.1694     9.2475
  191.0000   115.0973     9.1022     9.1804
  191.5000   116.3123     9.0348     9.0507
  192.0000   117.8304     8.9067     9.0476
  192.5000   119.0454     8.8416     9.0439
  193.0000   120.2612     8.7769     8.9783
  193.5000   121.1732     8.6524     8.9753
  194.0000   122.3883     8.5890     8.9102
  194.5000   122.6935     8.4665     8.8456
  195.0000   120.2729     8.3464     8.7166
  195.5000   119.0637     8.1712     8.4195
  196.0000   117.5192     7.8893     8.0731
  196.5000   116.0399     7.4086     7.7949
  197.0000   116.6489     6.8556     7.3711
  197.5000   117.2579     6.3098     7.0679
  198.0000   117.2608     5.7631     6.7746
  198.5000   117.5668     5.3004     6.4081
  199.0000   117.5697     4.8427     5.5365
  199.5000   117.5733     4.3252     4.6848
  200.0000   117.4792     3.7157     4.1429
  200.5000   116.2784     3.2558     3.1956
  201.0000   115.1689     3.0791     2.8589
  201.5000   115.1798     2.9527     2.6297
  202.0000   113.6733     2.8911     2.4853
  202.5000   111.8638     2.8702     2.4866
  203.0000   110.2664     2.9095     2.5560
  203.5000   107.9418     2.9906     2.6458
  204.0000   106.7384     3.2270     2.8553
  204.5000   107.9614     3.5380     3.1109
  205.0000   111.3034     4.0552     3.5398
  205.5000   114.3576     4.4990     3.9551
  206.0000   117.3836     4.9913     4.7370
  206.5000   117.3923     5.4612     5.3668
  207.0000   117.4009     5.8150     5.8354
  207.5000   117.7127     6.1415     6.2936
  208.0000   120.1456     6.4455     6.5148
  208.5000   122.9171     6.6714     6.6506
  209.0000   125.0136     6.8104     6.7426
  209.5000   125.0223     6.8081     6.7880
  210.0000   125.0310     6.8059     6.7863
  210.5000   124.4334     6.6639     6.6913
  211.0000   125.0586     6.5702     6.4169
  211.5000   128.3926     6.3445     6.1966
  212.0000   131.1286     6.1264     6.0256
  212.5000   133.8645     5.8746     5.8185
  213.0000   135.6914     5.7122     5.5799
  213.5000   136.3062     5.5159     5.4259
  214.0000   136.9615     5.4008     5.2397
  214.5000   135.1136     5.3250     5.1306
  215.0000   132.0920     5.3235     5.1296
  215.5000   129.0704     5.4341     5.1283
  216.0000   126.6548     5.5853     5.2353
  216.5000   122.9969     5.8618     5.3817
  217.0000   121.5207     6.0672     5.6487
  217.5000   123.6528     6.4163     5.8961
  218.0000   125.7827     6.7289     6.1797
  218.5000   126.3974     6.9646     6.3968
  219.0000   125.1940     7.2087     6.7142
  219.5000   123.6876     7.4097     7.1459
  220.0000   124.3045     7.6764     7.5563
  220.5000   125.2223     7.9375     7.9271
  221.0000   125.5340     8.1588     8.2056
  221.5000   125.2394     8.2712     8.4351
  222.0000   124.3392     8.2684     8.3750
  222.5000   124.0449     8.2091     8.2560
  223.0000   125.2679     8.0932     7.9740
  223.5000   127.7008     7.9243     7.8624
  224.0000   129.2247     7.7053     7.6988
  224.5000   128.9303     7.5445     7.4863
  225.0000   126.8178     7.3360     7.1793
  225.5000   125.0105     6.9858     6.9325
  226.0000   127.1404     6.7927     6.6946
  226.5000   131.3915     6.5593     6.5098
  227.0000   132.6123     6.3339     6.2864
  227.5000   129.2372     6.1162     6.0286
  228.0000   128.0843     5.8995     5.7685
  228.5000   130.5194     5.8227     5.3921
  229.0000   133.5584     5.8617     5.2070
  229.5000   135.0822     5.8602     5.3899
  230.0000   135.3939     5.9819     5.8167
  230.5000   130.5563     6.1915     6.2016
  231.0000   128.7468     6.4976     6.5884
  231.5000   126.3313     6.7721     6.9635
  232.0000   124.5218     7.1073     7.2584
  232.5000   124.5305     7.3564     7.5134
  233.0000   125.4485     7.6190     7.7336
  233.5000   126.6713     7.7718     8.0503
  234.0000   127.8921     7.8783     8.1613
  234.5000   128.2038     7.9316     8.1596
  235.0000   129.4246     7.9843     8.1580
  235.5000   130.6454     8.0971     8.2133
  236.0000   130.3511     8.1479     8.2112
  236.5000   128.8468     8.1452     8.2096
  237.0000   129.1585     8.2003     8.2080
  237.5000   131.2884     8.1976     8.1495
  238.0000   132.8123     8.1954     8.1479
  238.5000   133.1243     8.1360     8.1459
  239.0000   133.7409     8.1339     8.1443
  239.5000   132.5375     8.1317     8.1426
  240.0000   129.2128     8.0733     8.0847
  240.5000   125.8882     8.0154     8.0831
  241.0000   125.5939     7.9573     8.0811
  241.5000   127.7259     7.9552     8.0794
  242.0000   130.4619     7.9531     8.0778
  242.5000   132.5918     7.9510     8.0762
  243.0000   133.2044     7.9489     8.1309
  243.5000   132.0031     7.9467     8.0729
  244.0000   130.4567     7.9441     8.0710
  244.5000   129.2954     7.9420     8.0694
  245.0000   129.3041     7.9399     7.6317
  245.5000   132.0401     7.6671     7.0689
  246.0000   135.3821     7.1830     6.8206
  246.5000   137.8303     6.7158     6.5007
  247.0000   140.2502     6.4402     6.3213
  247.5000   141.7740     6.2622     6.1469
  248.0000   142.3887     6.1315     6.1031
  248.5000   141.4884     6.0875     5.9761
  249.0000   139.3758     6.0855     6.0162
  249.5000   136.9152     6.0839     6.0995
  250.0000   135.6296     6.1250     6.1506
  250.5000   134.0307     6.0814     6.2123
  251.0000   132.4242     6.0439     6.2240
  251.5000   132.1212     6.0749     5.9684
  252.0000   133.0303     6.1573     5.6840
  252.5000   133.0303     6.1543     5.5657
  253.0000   131.8182     6.1518     5.6034
  253.5000   128.1818     6.1922     5.8437
  254.0000   124.8485     6.2762     6.0877
  254.5000   125.8503     6.5551     6.3897
  255.0000   131.5152     7.0070     6.6603
  255.5000   133.0303     7.3021     6.9423
  256.0000   133.0303     7.5046     7.2868
  256.5000   133.0303     7.6602     7.5428
  257.0000   133.3333     7.7098     7.7537
  257.5000   133.3333     7.5934     7.8606
  258.0000   132.1212     6.9412     7.8042
  258.5000   129.6970     6.4732     7.7487
  259.0000   128.1818     6.2934     7.2776
  259.5000   127.8788     5.9925     6.7409
  260.0000   130.6061     5.8261     5.8548
  260.5000   133.3333     5.7835     5.3950
  261.0000   135.4888     5.7806     5.2098
  261.5000   136.6667     5.7783     5.1727
  262.0000   134.2424     5.7760     5.3918
  262.5000   131.8182     5.9776     5.6987
  263.0000   130.9091     6.2726     6.1074
  263.5000   132.1212     6.5823     6.5517
  264.0000   132.1051     6.8804     7.1621
  264.5000   128.4848     7.4515     7.5699
  265.0000   125.7576     7.8738     7.9454
  265.5000   123.0303     8.0930     8.1676
  266.0000   120.9091     8.3175     8.2802
  266.5000   119.6970     8.4883     8.4599
  267.0000   120.9091     8.5440     8.6893
  267.5000   121.2575     8.5397     8.6871
  268.0000   121.2121     8.5957     8.6853
  268.5000   120.9091     8.6521     8.6836
  269.0000   122.1212     8.6487     8.6819
  269.5000   125.4545     8.7055     8.6801
  270.0000   128.1818     8.7018     8.6864
  270.5000   126.8609     8.6976     8.7371
  271.0000   120.9091     8.6941     8.7962
  271.5000   119.3939     8.6906     8.7940
  272.0000   118.7879     8.6871     8.8540
  272.5000   120.6061     8.6837     8.8518
  273.0000   122.1212     8.6802     8.8500
  273.5000   123.6636     8.7371     8.8478
  274.0000   124.5455     8.8557     8.7240
  274.5000   122.4242     8.9138     8.8442
