~VERSION INFORMATION
 VERS.                2.0:   CWLS LOG ASCII STANDARD - VERSION 2.0
 WRAP.                 NO:   ONE LINE PER DEPTH STEP
~WELL INFORMATION
#MNEM.UNIT      DATA TYPE    INFORMATION
#----------   ------------   ------------------------------
 STRT.F          520.5000:   START DEPTH
 STOP.F         3119.5000:   STOP DEPTH
 STEP.F            0.5000:   STEP LENGTH
 NULL.          -999.2500:   NO VALUE
 COMP.   FLUOR DANIEL INC:   COMPANY
 WELL. NAVAL PETROLEUM RESERVE 3 X-10 #52-10:   WELL
 FLD .            WILDCAT:   FIELD
 LOC .      S10 T38N R78W:   LOCATION
 CNTY.            NATRONA:   COUNTY
 STAT.            WYOMING:   STATE
 CTRY. UNITED STATES OF AMERICA:   COUNTRY
 SRVC.            Unknown:   SERVICE COMPANY
 DATE.        16-AUG-1995:   LOGDATE
 API .       490252275200:   API NUMBER
~CURVE INFORMATION
#MNEM.UNIT       API CODE    CURVE DESCRIPTION
#----------   ------------   ------------------------------
 DEPT.F                  :   
 ROP .MIN/FT 91 810 01 00:   RAT OF DRILLING PENETRATION
 TGAS.UNITS  91 830 01 00:   TOTAL GAS FROM HOTWIRE
~PARAMETER INFORMATION
#MNEM.UNIT          VALUE    DESCRIPTION
#----------   ------------   ------------------------------
 EKB .F              5206:   KELLING BUSHING
 EGL .F              5196:   GROUND LEVEL
 DATE.            8-16-95:   RUN DATE
 DD  .F              3120:   DEPTH DRILLER
 CS  .IN            9.625:   CASING SIZE
 CBD .F               508:   CASING BOTTOM DRILLER
 BS  .IN             8.75:   BIT SIZE
 BSD .F              3120:   BIT SIZE AT DEPTH
 ENGI.               HUSK:   RECORDING ENGINEER
 WITN.              TOWER:   WITNESSED BY
 CLNT.            A2DTECH:   CLIENT CODE
 ORIG.           5" PRINT:   ORIGIN OF DATA
 UWI .       490252275200:   UNIQUE WELL ID
 DICO. A2D Technologies, Inc.:   DIGITIZING COMPANY
~OTHER INFORMATION
~A   DEPT        ROP     TGAS   
# ...
 2950.5000     1.5259    57.1945
 2951.0000     1.5230    57.1026
 2951.5000     1.5202    57.0108
 2952.0000     1.5174    56.9190
 2952.5000     1.5145    56.8271
 2953.0000     1.5117    56.7353
 2953.5000     1.5089    56.6434
 2954.0000     1.6240    56.5516
 2954.5000     1.7512    56.4597
 2955.0000     1.7543    56.3679
 2955.5000     1.7574    56.2761
 2956.0000     1.7604    56.1842
 2956.5000     1.5302    56.0924
 2957.0000     1.5313    56.0005
 2957.5000     1.5325    55.9087
 2958.0000     1.5336    55.8169
 2958.5000     1.5348    55.7250
 2959.0000     1.5359    55.6355
 2959.5000     1.5370    56.9107
 2960.0000     1.5382    60.2115
 2960.5000     1.5393    63.4207
 2961.0000     1.5404    65.6442
 2961.5000     1.5416    67.6004
 2962.0000     1.5427    67.6690
 2962.5000     1.9986    67.7377
 2963.0000     2.0048    67.8063
 2963.5000     2.0111    67.8750
 2964.0000     2.0179    67.9437
 2964.5000     1.7866    68.0123
 2965.0000     1.7868    68.0810
 2965.5000     1.7871    68.1497
 2966.0000     1.5453    68.1973
 2966.5000     1.5455    68.1962
 2967.0000     1.5458    68.1950
 2967.5000     1.5461    68.1939
 2968.0000     1.5715    68.1927
 2968.5000     1.7992    68.1916
 2969.0000     1.7995    68.1904
 2969.5000     1.7997    68.1893
 2970.0000     1.5263    68.1881
 2970.5000     1.5266    68.1870
 2971.0000     1.5268    68.1858
 2971.5000     1.5271    68.1846
 2972.0000     1.2642    68.1835
 2972.5000     1.2645    68.1823
 2973.0000     1.2647    68.1812
 2973.5000     1.2650    68.1800
 2974.0000     1.5178    68.1789
 2974.5000     1.5160    68.1777
 2975.0000     1.5144    68.1766
 2975.5000     1.5128    68.1754
 2976.0000     1.5112    68.1743
 2976.5000     1.5097    68.1731
 2977.0000     1.5081    68.1720
 2977.5000     1.5065    68.1708
 2978.0000     1.5049    68.1697
 2978.5000     1.5034    68.1685
 2979.0000     1.5018    68.1674
 2979.5000     1.5002    68.1662
 2980.0000     1.3526    68.1651
 2980.5000     1.3529    68.1639
 2981.0000     1.3532    68.1628
 2981.5000     1.3534    68.1616
 2982.0000     1.7642    68.1604
 2982.5000     1.7645    68.1593
 2983.0000     1.7647    68.1581
 2983.5000     1.7650    68.1570
 2984.0000     1.2597    68.1558
 2984.5000     1.2576    68.1547
 2985.0000     1.2555    68.1535
 2985.5000     1.2534    68.1524
 2986.0000     1.2513    68.1512
 2986.5000     0.9976    68.1501
 2987.0000     0.9968    68.1489
 2987.5000     0.9960    68.1478
 2988.0000     0.9952    68.1466
 2988.5000     0.9944    68.1455
 2989.0000     0.9935    68.1443
 2989.5000     0.9927    68.1432
 2990.0000     0.9919    68.1420
 2990.5000     0.9911    68.1409
 2991.0000     0.9903    68.1397
 2991.5000     0.9895    68.1385
 2992.0000     0.9886    68.1374
 2992.5000     0.9878    68.1362
 2993.0000     0.9870    68.1351
 2993.5000     0.9862    68.1339
 2994.0000     0.9854    68.1328
 2994.5000     0.9845    68.1316
 2995.0000     0.9837    68.1305
 2995.5000     0.9829    68.1293
 2996.0000     0.9570    68.1282
 2996.5000     0.4876    68.1270
 2997.0000     0.4879    68.1259
 2997.5000     0.4882    68.1247
 2998.0000     0.4884    68.1236
 2998.5000     0.4887    68.1224
 2999.0000     0.4889    68.1213
 2999.5000     0.4892    68.1201
 3000.0000     0.4895    68.1190
 3000.5000     0.4897    68.1178
 3001.0000     0.4900    68.1167
 3001.5000     0.4903    68.1155
 3002.0000     0.4905    68.1143
 3002.5000     0.4908    68.1132
 3003.0000     0.4911    68.1120
 3003.5000     0.4913    68.1109
 3004.0000     0.7282    73.9149
 3004.5000     0.7249    76.0906
 3005.0000     0.7216    77.7159
 3005.5000     0.7183    79.3852
 3006.0000     0.7150    80.9524
 3006.5000     0.7117    81.4067
 3007.0000     0.7084    81.4120
 3007.5000     0.7051    81.4173
 3008.0000     0.7018    81.4225
 3008.5000     0.6985    81.4278
 3009.0000     0.6952    81.4331
 3009.5000     0.6919    81.4384
 3010.0000     0.6886    82.2802
 3010.5000     0.6853    82.5062
 3011.0000     0.6820    82.5114
 3011.5000     0.6787    83.5728
 3012.0000     0.6754    83.5780
 3012.5000     0.6721    83.5831
 3013.0000     0.6688    83.5883
 3013.5000     0.6655    83.5934
 3014.0000     0.6622    83.5986
 3014.5000     0.7761    83.6415
 3015.0000     0.7748    84.9966
 3015.5000     0.7735    90.7111
 3016.0000     0.7723   100.3824
 3016.5000     0.7710   117.1342
 3017.0000     0.7698   130.7062
 3017.5000     0.7685   144.8931
 3018.0000     0.7673   147.7066
 3018.5000     0.7660   138.5397
 3019.0000     0.7648   122.9595
 3019.5000     0.7634   110.8204
 3020.0000     0.9527    97.0405
 3020.5000     0.9524    87.3390
 3021.0000     0.9521    81.7976
 3021.5000     0.9518    80.0712
 3022.0000     1.1831    79.4577
 3022.5000     1.1878    79.4630
 3023.0000     1.1927    79.4683
 3023.5000     1.1976    79.4346
 3024.0000     0.9505    79.3634
 3024.5000     0.9503    79.2922
 3025.0000     0.9500    79.2209
 3025.5000     0.9497    79.1497
 3026.0000     0.9495    79.0785
 3026.5000     0.9492    79.0073
 3027.0000     0.9489    78.9360
 3027.5000     0.9487    78.8648
 3028.0000     0.9484    78.7936
 3028.5000     0.9482    78.7224
 3029.0000     0.9479    78.6511
 3029.5000     0.9476    78.5799
 3030.0000     0.9473    78.5087
 3030.5000     0.5984    78.4374
 3031.0000     0.5963    78.3662
 3031.5000     0.5943    78.2950
 3032.0000     0.5922    78.2238
 3032.5000     0.5902    78.1525
 3033.0000     0.5881    78.0813
 3033.5000     0.5861    78.0101
 3034.0000     0.5840    77.9389
 3034.5000     0.5820    77.8676
 3035.0000     0.5799    77.7964
 3035.5000     0.5779    77.7252
 3036.0000     0.5758    77.6539
 3036.5000     0.7334    77.5827
 3037.0000     0.7332    77.5115
 3037.5000     0.7329    77.4403
 3038.0000     0.7520    77.3690
 3038.5000     0.9751    77.2978
 3039.0000     0.9758    77.2266
 3039.5000     0.9765    77.1553
 3040.0000     0.9772    77.0841
 3040.5000     0.9779    77.0129
 3041.0000     0.9786    76.9417
 3041.5000     0.9794    76.8704
 3042.0000     0.9801    76.7992
 3042.5000     0.9808    76.7280
 3043.0000     0.9815    76.6568
 3043.5000     0.9823    76.5855
 3044.0000     0.8343    76.5143
 3044.5000     0.8373    76.4431
 3045.0000     0.8402    76.3718
 3045.5000     0.8432    76.3006
 3046.0000     0.8464    76.2294
 3046.5000     1.5208    76.1582
 3047.0000     1.5216    76.0869
 3047.5000     1.5224    76.0157
 3048.0000     1.5232    75.9445
 3048.5000     0.9660    75.8733
 3049.0000     0.9717    75.8020
 3049.5000     0.9770    75.7308
 3050.0000     0.9824    75.6596
 3050.5000     0.9877    75.5883
 3051.0000     0.9930    75.5171
 3051.5000     0.9983    75.4459
 3052.0000     0.9598    75.3747
 3052.5000     0.7513    75.3034
 3053.0000     0.7521    75.2322
 3053.5000     0.7529    75.1610
 3054.0000     0.7537    75.0898
 3054.5000     0.7510    75.0185
 3055.0000     0.7483    74.9473
 3055.5000     0.7455    74.8761
 3056.0000     0.7428    74.8048
 3056.5000     0.7401    74.7336
 3057.0000     0.7374    74.6624
 3057.5000     0.7347    74.5912
 3058.0000     0.7319    74.5199
 3058.5000     0.7292    74.4487
 3059.0000     0.7265    74.3775
 3059.5000     0.7238    74.3063
 3060.0000     0.9947    74.2350
 3060.5000     0.9943    74.1638
 3061.0000     0.9938    74.0926
 3061.5000     0.9933    74.0213
 3062.0000     0.9929    73.9501
 3062.5000     0.9924    73.8789
 3063.0000     0.9919    73.8077
 3063.5000     0.9915    73.7364
 3064.0000     0.9910    73.6652
 3064.5000     0.7386    73.5940
 3065.0000     0.7427    75.0262
 3065.5000     0.7465    77.9566
 3066.0000     0.7503    82.7838
 3066.5000     0.5208   102.0198
 3067.0000     0.5216   230.9905
 3067.5000     0.5224   279.5872
 3068.0000     0.5232   290.1557
 3068.5000     0.5239   290.1608
 3069.0000     0.5247   289.1096
 3069.5000     0.5255   288.0584
 3070.0000     0.7790   282.7819
 3070.5000     0.7787   278.5617
 3071.0000     0.7783   272.0964
 3071.5000     0.7780   261.2523
