~VERSION INFORMATION
 VERS.                2.0:   CWLS LOG ASCII STANDARD - VERSION 2.0
 WRAP.                 NO:   ONE LINE PER DEPTH STEP
~WELL INFORMATION
#MNEM.UNIT      DATA TYPE    INFORMATION
#----------   ------------   ------------------------------
 STRT.F           36.0000:   START DEPTH
 STOP.F          700.0000:   STOP DEPTH
 STEP.F            0.5000:   STEP LENGTH
 NULL.          -999.2500:   NO VALUE
 COMP. FENIX & SCISSON INC:   COMPANY
 WELL. NPR #3 13SX14 #13-14:   WELL
 FLD .             TEAPOT:   FIELD
 LOC .      S14 T38N R78W:   LOCATION
 CNTY.            NATRONA:   COUNTY
 STAT.            WYOMING:   STATE
 CTRY. UNITED STATES OF AMERICA:   COUNTRY
 SRVC.              Welex:   SERVICE COMPANY
 DATE.        28-FEB-1977:   LOGDATE
 API .       490251029600:   API NUMBER
~CURVE INFORMATION
#MNEM.UNIT       API CODE    CURVE DESCRIPTION
#----------   ------------   ------------------------------
 DEPT.F                  :   
 CALD.IN     45 280 60 00:   CALIPER FROM DENSITY LOG
 GRD .GAPI   45 310 01 00:   GAMMA RAY FROM DENSITY LOG
 CORR.G/C3   45 356 01 00:   DENSITY CORRECTION
 RHOB.G/C3   45 350 01 00:   BULK DENSITY
 DPHI.DEC    45 890 12 00:   DENSITY POROSITY SANDSTONE
 SPR .MV     07 010 01 00:   SPONTANEOUS POTENTIAL
 SGRD.OHMM   07 220 05 00:   SHALLOW RESISTIVITY
 ILD .OHMM   07 120 46 00:   INDUCTION LOG DEEP
 ILM .OHMM   07 120 44 00:   INDUCTION LOG MEDIUM
~PARAMETER INFORMATION
#MNEM.UNIT          VALUE    DESCRIPTION
#----------   ------------   ------------------------------
 PD  .                 GL:   PERMANENT DATUM
 EPD .F              5238:   ELEVATION PERMANENT DATUM
 LMF .                 GL:   LOG MEASURED FROM
 DMF .                 GL:   DRILLING MEASURED FROM
 EGL .F              5238:   GROUND LEVEL
 DATE.            2-28-77:   RUN DATE
 RUN .                  1:   RUN NUMBER
 DD  .F               710:   DEPTH DRILLER
 DL  .F               706:   DEPTH LOGGER
 BLI .F               704:   BOTTOM LOG INTERVAL
 TLI .F                42:   TOP LOG INTERVAL
 CS  .IN            8.625:   CASING SIZE
 CBD .F                42:   CASING BOTTOM DRILLER
 CBL .F                42:   CASING BOTTOM LOGGER
 BS  .IN            7.875:   BIT SIZE
 BSD .F               710:   BIT SIZE AT DEPTH
 DFT .           CHEM-GEL:   DRILLING FLUID TYPE
 DFD .                8.7:   DRILLING FLUID DENSITY
 DFV .                 33:   DRILLING FLUID VISCOSITY
 DFPH.                  7:   DRILLING FLUID PH
 DFL .                  8:   DRILLING FLUID LOSS
 MSS .          FLOW LINE:   MUD SAMPLE SOURCE
 RMS .OHMM           .382:   RESISTIVITY MUD SAMPLE
 MST .F                54:   MUD SAMPLE TEMPERATURE
 RMF .OHMM           .342:   RESISTIVITY MUD FILTRATE SAMPLE
 MFST.F                54:   MUD FILTRATE SAMPLE TEMPERATURE
 RMC .OHMM           .821:   RESISTIVITY MUD CAKE
 MCST.F                54:   MUD CAKE SAMPLE TEMPERATURE
 MFSS.           MEASURED:   MUD FILTRATE SAMPLE SOURCE
 MCSS.           MEASURED:   MUD CAKE SAMPLE SOURCE
 RMB .OHMM           .333:   RESISTIVITY MUD AT BHT
 BHT .F                62:   BOTTOM HOLE TEMPERATURE
 TCS .HRS               3:   TIME CURCULATED STOPPED
 MRT .F                62:   MAXIMUM RECORDED TEMPERATURE
 LUN .               8611:   LOGGING UNIT NUMBER
 LUL .           GILLETTE:   LOGGING UNIT LOCATION
 ENGI.               DOAK:   RECORDING ENGINEER
 WITN.               JAPP:   WITNESSED BY
 CLNT.            A2DTECH:   CLIENT CODE
 ORIG.       2", 5" PRINT:   ORIGIN OF DATA
 UWI .       490251029600:   UNIQUE WELL ID
 DICO. A2D Technologies, Inc.:   DIGITIZING COMPANY
~OTHER INFORMATION
~A   DEPT       CALD       GRD       CORR        RHOB     DPHI         SPR        SGRD      ILD        ILM   
# ...
  109.0000     8.0077   112.6353     0.0147     2.3295     0.1846   -31.2773    11.1105     5.4208     6.6149
  109.5000     8.0035   106.3932     0.0138     2.3625     0.1669   -31.4245    12.3829     5.9269     7.4339
  110.0000     8.0030    99.5466     0.0159     2.3941     0.1491   -31.5720    12.0722     6.5303     8.3271
  110.5000     8.0082    97.4920     0.0179     2.4242     0.1317   -31.7077    11.8316     7.1950     9.3270
  111.0000     8.0133    97.4855     0.0200     2.4277     0.1307   -31.7106    11.6090     7.9282    10.1925
  111.5000     8.0184    98.3056     0.0220     2.4301     0.1297   -31.7099    11.8810     8.7362    10.8181
  112.0000     8.0235    99.8033     0.0241     2.4327     0.1285   -31.7098    12.5498     9.5249    11.4773
  112.5000     8.0286   101.2960     0.0235     2.4328     0.1306   -31.7097    13.2563    10.0631    12.1767
  113.0000     8.0337   102.7859     0.0212     2.4219     0.1359   -31.7097    14.0026    10.6343    12.8364
  113.5000     8.0387   104.2642     0.0188     2.4112     0.1412   -31.7098    14.7536    11.2379    13.2732
  114.0000     8.0419   105.9857     0.0165     2.4029     0.1450   -31.7087    14.5188    11.7165    13.7248
  114.5000     8.0404   104.3961     0.0142     2.3961     0.1474   -31.7681    14.3511    11.9212    14.1918
  115.0000     8.0381   101.6553     0.0118     2.3895     0.1507   -31.8577    15.0872    12.2416    14.6747
  115.5000     8.0357   100.2422     0.0094     2.3844     0.1540   -31.9475    15.7069    12.5717    15.0737
  116.0000     8.0334   101.2653     0.0107     2.3887     0.1523   -32.0388    16.3283    12.9114    15.4496
  116.5000     8.0310   100.6754     0.0130     2.3927     0.1501   -32.1736    16.1349    12.9679    15.3313
  117.0000     8.0286    98.9562     0.0152     2.3968     0.1479   -32.4745    15.9504    12.9430    15.1909
  117.5000     8.0263    97.2411     0.0174     2.4006     0.1456   -32.7724    15.7680    12.8860    15.0282
  118.0000     8.0239    96.3355     0.0174     2.3985     0.1467   -33.0700    15.5927    12.8292    15.1202
  118.5000     8.0216    97.9295     0.0129     2.3965     0.1480   -33.3681    15.7033    12.7735    15.2319
  119.0000     8.0192    99.5648     0.0085     2.3946     0.1494   -33.6646    15.9656    12.7302    15.3445
  119.5000     8.0168    98.9174     0.0040     2.3927     0.1508   -33.9395    16.2322    12.8905    15.4578
  120.0000     8.0145    97.6393     0.0055     2.3908     0.1520   -34.1076    16.5033    13.0230    15.5720
  120.5000     8.0121    96.5258     0.0101     2.3908     0.1520   -34.2801    16.7789    13.1568    16.0778
  121.0000     8.0097    97.0768     0.0147     2.3944     0.1508   -34.4526    16.9417    13.2920    16.6902
  121.5000     8.0074    97.3806     0.0193     2.3980     0.1480   -34.6260    16.7534    13.4286    17.3259
  122.0000     8.0050    96.2741     0.0240     2.4017     0.1451   -34.6605    16.4798    13.5832    17.7257
  122.5000     8.0024    94.8892     0.0287     2.4047     0.1420   -34.5836    16.9870    13.7434    17.9690
  123.0000     8.0074    94.0256     0.0257     2.4036     0.1430   -34.4968    17.6363    13.9055    18.2156
  123.5000     8.0147    95.0250     0.0222     2.4024     0.1441   -34.8190    18.0712    14.0696    18.4656
  124.0000     8.0222    96.0165     0.0187     2.4012     0.1451   -34.8517    17.9135    14.2355    18.7191
  124.5000     8.0297    96.1264     0.0182     2.4018     0.1453   -34.7628    17.7838    14.4034    19.0297
  125.0000     8.0371    95.3945     0.0230     2.4032     0.1445   -34.6996    17.6551    14.5733    19.5650
  125.5000     8.0445    95.2166     0.0277     2.4045     0.1436   -35.0205    17.4169    14.7452    20.1157
  126.0000     8.0520    95.1099     0.0323     2.4040     0.1427   -35.2922    17.8035    14.9192    20.5571
  126.5000     8.0594    95.1470     0.0287     2.4008     0.1433   -35.0919    18.1996    15.0952    19.8648
  127.0000     8.0669    96.2582     0.0240     2.3976     0.1463   -34.8900    18.6043    15.1674    19.2946
  127.5000     8.0743    98.3282     0.0193     2.3944     0.1493   -34.6999    19.0184    15.2875    18.7410
  128.0000     8.0817   100.3853     0.0149     2.3913     0.1523   -34.8049    19.4282    15.5995    18.2022
  128.5000     8.0892   102.4174     0.0166     2.3889     0.1536   -34.9242    19.8255    15.9177    17.5836
  129.0000     8.0966   103.1735     0.0191     2.3889     0.1544   -35.0422    20.2309    16.2425    18.2251
  129.5000     8.1041   103.6901     0.0216     2.3924     0.1507   -35.2175    20.6446    16.5739    19.4544
  130.0000     8.1115   102.2463     0.0242     2.3964     0.1477   -35.4314    21.0667    16.9121    19.3802
  130.5000     8.1189   100.3672     0.0236     2.4003     0.1448   -35.6467    21.3193    17.2571    19.2759
  131.0000     8.1264    98.4780     0.0216     2.3983     0.1468   -35.8645    21.1835    17.6092    19.5335
  131.5000     8.1338    96.7872     0.0196     2.3952     0.1486   -36.0754    21.0755    17.9053    19.9880
  132.0000     8.1413    97.9467     0.0195     2.3930     0.1504   -36.0052    20.7513    17.5782    20.1852
  132.5000     8.1487    97.0588     0.0220     2.3969     0.1488   -35.9206    20.7735    17.9053    19.3328
  133.0000     8.1561    95.8425     0.0245     2.4001     0.1474   -35.8369    20.8333    17.6410    18.7500
  133.5000     8.1636    95.0911     0.0267     2.3979     0.1478   -35.7551    20.8933    17.3725    19.4544
  134.0000     8.1710    96.3000     0.0232     2.3956     0.1494   -35.7096    20.9435    17.1081    19.2031
  134.5000     8.1786    97.8315     0.0194     2.3932     0.1509   -35.8783    20.1862    16.8478    18.9237
  135.0000     8.1762    99.3883     0.0158     2.3908     0.1525   -36.0438    20.3833    16.5914    19.6395
  135.5000     8.1681   100.8491     0.0133     2.3888     0.1540   -36.2081    20.7546    16.3389    19.5579
  136.0000     8.1601   100.4629     0.0160     2.3915     0.1521   -36.1815    20.1594    16.0902    19.0539
  136.5000     8.1519   100.0587     0.0184     2.3957     0.1485   -35.8879    19.3979    15.8443    18.5638
  137.0000     8.1438   101.2538     0.0209     2.3999     0.1450   -36.0639    18.6646    15.5901    18.0865
  137.5000     8.1357   102.8123     0.0234     2.4040     0.1421   -36.3350    18.0661    15.4261    17.6223
  138.0000     8.1276   104.3851     0.0253     2.4082     0.1403   -36.2256    18.3343    15.3078    17.0986
  138.5000     8.1195   105.9482     0.0266     2.4124     0.1385   -36.2448    18.5827    14.8924    16.4820
  139.0000     8.1115   106.6861     0.0258     2.4166     0.1367   -36.4844    17.6952    14.3543    15.8840
  139.5000     8.1033   106.2787     0.0248     2.4207     0.1349   -36.4517    15.1674    13.8356    15.3072
  140.0000     8.0953   105.6215     0.0238     2.4229     0.1331   -36.4119    15.5604    12.8494    15.0222
  140.5000     8.0871   104.9628     0.0229     2.4250     0.1312   -36.3724    16.0096    11.7165    14.7536
  141.0000     8.0791   108.1532     0.0219     2.4281     0.1277   -36.3326    15.8829    10.8374    14.2194
  141.5000     8.0710   111.6514     0.0210     2.4347     0.1228   -36.2930    16.1192     9.9734    13.1531
  142.0000     8.0629   117.1643     0.0216     2.4432     0.1180   -36.2426    16.3283     9.1762    11.3177
  142.5000     8.0548   122.8981     0.0224     2.4518     0.1131   -36.1885    11.4390     8.4426     9.7402
  143.0000     8.0467   126.5140     0.0216     2.4605     0.1101   -36.1344     8.7231     7.7682     8.6877
  143.5000     8.0386   127.7078     0.0177     2.4657     0.1074   -36.0803     8.9011     7.3464     8.4237
  144.0000     8.0304   126.4925     0.0199     2.4710     0.1040   -36.0262     9.2490     7.0161     8.1682
  144.5000     8.0222   124.8827     0.0240     2.4763     0.1007   -35.9721     9.5723     6.5883     7.9889
  145.0000     8.0247   123.2279     0.0240     2.4754     0.0998   -35.9179     9.6541     6.3715     7.8818
