~VERSION INFORMATION
 VERS.                2.0:   CWLS LOG ASCII STANDARD - VERSION 2.0
 WRAP.                 NO:   ONE LINE PER DEPTH STEP
~WELL INFORMATION
#MNEM.UNIT      DATA TYPE    INFORMATION
#----------   ------------   ------------------------------
 STRT.F           32.0000:   START DEPTH
 STOP.F          812.0000:   STOP DEPTH
 STEP.F            0.5000:   STEP LENGTH
 NULL.          -999.2500:   NO VALUE
 COMP. FENIX & SCISSON INC:   COMPANY
 WELL.       75 SX #15-15:   WELL
 FLD .             TEAPOT:   FIELD
 LOC .      S15 T38N R78W:   LOCATION
 CNTY.            NATRONA:   COUNTY
 STAT.            WYOMING:   STATE
 CTRY. UNITED STATES OF AMERICA:   COUNTRY
 SRVC.              Welex:   SERVICE COMPANY
 DATE.        28-FEB-1977:   LOGDATE
 API .       490251030100:   API NUMBER
~CURVE INFORMATION
#MNEM.UNIT       API CODE    CURVE DESCRIPTION
#----------   ------------   ------------------------------
 DEPT.F                  :   
 SPR .MV     07 010 01 00:   SPONTANEOUS POTENTIAL
 ILD .OHMM   07 120 46 00:   INDUCTION LOG DEEP
 SGRD.OHMM   07 220 05 00:   SHALLOW RESISTIVITY
 ILM .OHMM   07 120 44 00:   INDUCTION LOG MEDIUM
 GRD .GAPI   45 310 01 00:   GAMMA RAY FROM DENSITY LOG
 CALD.IN     45 280 60 00:   CALIPER FROM DENSITY LOG
 RHOB.G/C3   45 350 01 00:   BULK DENSITY
 DPHI.DEC    45 890 12 00:   DENSITY POROSITY SANDSTONE
 CORR.G/C3   45 356 01 00:   DENSITY CORRECTION
~PARAMETER INFORMATION
#MNEM.UNIT          VALUE    DESCRIPTION
#----------   ------------   ------------------------------
 PD  .                 GL:   PERMANENT DATUM
 EPD .F              5264:   ELEVATION PERMANENT DATUM
 LMF .                 GL:   LOG MEASURED FROM
 DMF .                 GL:   DRILLING MEASURED FROM
 EGL .F              5264:   GROUND LEVEL
 DATE.          2-28-1977:   RUN DATE
 RUN .                  1:   RUN NUMBER
 DD  .F               830:   DEPTH DRILLER
 DL  .F               814:   DEPTH LOGGER
 BLI .F               812:   BOTTOM LOG INTERVAL
 TLI .F                42:   TOP LOG INTERVAL
 CS  .IN            8.625:   CASING SIZE
 CBD .F                40:   CASING BOTTOM DRILLER
 CBL .F                42:   CASING BOTTOM LOGGER
 BS  .IN            7.875:   BIT SIZE
 BSD .F               830:   BIT SIZE AT DEPTH
 DFT .           CHEM-GEL:   DRILLING FLUID TYPE
 DFD .                9.3:   DRILLING FLUID DENSITY
 DFV .                 38:   DRILLING FLUID VISCOSITY
 DFPH.               10.5:   DRILLING FLUID PH
 DFL .               16.2:   DRILLING FLUID LOSS
 MSS .          FLOW LINE:   MUD SAMPLE SOURCE
 RMS .OHMM           0.44:   RESISTIVITY MUD SAMPLE
 MST .F                62:   MUD SAMPLE TEMPERATURE
 RMF .OHMM            .38:   RESISTIVITY MUD FILTRATE SAMPLE
 MFST.F                62:   MUD FILTRATE SAMPLE TEMPERATURE
 RMC .OHMM           0.79:   RESISTIVITY MUD CAKE
 MCST.F                62:   MUD CAKE SAMPLE TEMPERATURE
 MFSS.           MEASURED:   MUD FILTRATE SAMPLE SOURCE
 MCSS.           MEASURED:   MUD CAKE SAMPLE SOURCE
 RMB .OHMM           .368:   RESISTIVITY MUD AT BHT
 BHT .F                74:   BOTTOM HOLE TEMPERATURE
 TCS .HRS               3:   TIME CURCULATED STOPPED
 MRT .F                74:   MAXIMUM RECORDED TEMPERATURE
 LUN .               8611:   LOGGING UNIT NUMBER
 LUL .           GILLETTE:   LOGGING UNIT LOCATION
 ENGI.               DOAK:   RECORDING ENGINEER
 WITN.               JAPP:   WITNESSED BY
 CLNT.            A2DTECH:   CLIENT CODE
 ORIG.       2", 5" PRINT:   ORIGIN OF DATA
 UWI .       490251030100:   UNIQUE WELL ID
 DICO. A2D Technologies, Inc.:   DIGITIZING COMPANY
~OTHER INFORMATION
~A   DEPT      SPR        ILD       SGRD        ILM         GRD        CALD       RHOB       DPHI      CORR  
# ...
  360.5000   -47.5339     8.8915    13.5897    10.5800   122.3749     7.7037     2.4655     0.1042     0.0229
  361.0000   -47.5540     9.0844    13.2770    10.7851   122.2807     7.7027     2.4708     0.1050     0.0215
  361.5000   -47.5741     9.2689    13.0500    10.9941   121.0711     7.7016     2.4694     0.1066     0.0202
  362.0000   -47.5946     9.4119    14.1396    11.2071   118.4952     7.7005     2.4631     0.1094     0.0188
  362.5000   -47.6200     9.5280    13.2749    11.3531   115.9283     7.6998     2.4570     0.1119     0.0174
  363.0000   -47.6514     9.4318    13.9627    10.5202   113.3336     7.6995     2.4509     0.1150     0.0161
  363.5000   -47.6828     9.3481    15.6686     9.8443   110.7575     7.6973     2.4475     0.1166     0.0147
  364.0000   -47.7143     9.2649    14.4275     9.6137   110.1924     7.6951     2.4446     0.1159     0.0134
  364.5000   -47.7458     9.1825    12.2316     9.6168   117.9771     7.6930     2.4467     0.1152     0.0120
  365.0000   -47.7774     9.1009    12.3829     9.6900   123.3744     7.6908     2.4491     0.1145     0.0106
  365.5000   -47.8041     9.0200    12.5982     9.8277   128.8970     7.6887     2.4468     0.1164     0.0092
  366.0000   -47.7945     8.9399    12.8229     9.9674   129.7686     7.6866     2.4449     0.1169     0.0105
  366.5000   -47.7856     8.8518    13.0326    10.0700   126.9009     7.6844     2.4508     0.1161     0.0126
  367.0000   -47.7768     8.9356    12.9820    10.0700   124.3653     7.6821     2.4570     0.1124     0.0147
  367.5000   -47.7680     9.0570    12.9255    10.0700   127.4336     7.6794     2.4632     0.1083     0.0167
  368.0000   -47.7592     9.1801    12.9131    10.0700   131.1907     7.7219     2.4694     0.1043     0.0188
  368.5000   -47.7504     9.3048    13.7019    10.0619   135.0337     7.7342     2.4755     0.1002     0.0208
  369.0000   -47.7416     9.4313    14.6239    10.0271   135.7002     7.7469     2.4817     0.0962     0.0229
  369.5000   -47.7328     9.6168    15.6686     9.9933   127.3081     7.7598     2.4880     0.0921     0.0249
  370.0000   -47.7240     9.5842    14.3163     9.9538   120.6296     7.7725     2.4930     0.0906     0.0250
  370.5000   -47.7152     9.5260    13.6468     9.8899   116.2264     7.7734     2.4789     0.0997     0.0226
  371.0000   -47.7065     9.4681    13.6106     9.8259   122.4799     7.7611     2.4632     0.1060     0.0199
  371.5000   -47.6977     9.4106    13.5672     9.7624   126.4109     7.7488     2.4516     0.1123     0.0171
  372.0000   -47.6889     9.3534    13.5236     9.6993   130.3174     7.7364     2.4491     0.1154     0.0150
  372.5000   -47.6801     9.2966    13.2587     9.6366   132.3041     7.7241     2.4464     0.1165     0.0157
  373.0000   -47.6713     9.2402    12.9215     9.5743   128.6276     7.7118     2.4437     0.1176     0.0163
  373.5000   -47.6625     9.1840    12.6774     9.5286   122.3546     7.6994     2.4410     0.1198     0.0169
  374.0000   -47.6537     9.1282    12.8795     9.5613   123.6014     7.6871     2.4430     0.1191     0.0175
  374.5000   -47.6449     9.0728    13.1134     9.5920   123.9861     7.6747     2.4492     0.1157     0.0181
  375.0000   -47.6361     9.0176    13.3977     9.6168   122.8046     7.6621     2.4557     0.1123     0.0187
  375.5000   -47.6273     8.9629    13.2501     9.5478   123.2134     7.6703     2.4534     0.1090     0.0181
  376.0000   -47.6186     8.9214    13.0697     9.4793   126.0456     7.6867     2.4492     0.1154     0.0163
  376.5000   -47.6093     8.8951    12.9131     9.4114   129.7298     7.7034     2.4495     0.1149     0.0144
  377.0000   -47.5823     8.8689    12.9131     9.3547   130.8389     7.7200     2.4508     0.1136     0.0125
  377.5000   -47.5311     8.8427    12.9733     9.5984   126.7224     7.7365     2.4520     0.1122     0.0114
  378.0000   -47.4802     8.8167    13.0326     9.8134   121.5164     7.7532     2.4532     0.1108     0.0147
  378.5000   -47.4291     8.7907    12.9257     9.8862   117.9876     7.7594     2.4582     0.1094     0.0180
  379.0000   -47.3780     8.7647    12.8022     9.8862   121.0894     7.7595     2.4654     0.1081     0.0213
  379.5000   -47.3270     8.7389    12.6800     9.8958   124.1124     7.7595     2.4727     0.1048     0.0237
  380.0000   -47.2759     8.7131    12.5612     9.9518   124.9000     7.7566     2.4800     0.0974     0.0255
  380.5000   -47.2249     8.6875    13.0482    10.0081   125.5647     7.7351     2.4873     0.0898     0.0272
  381.0000   -47.1739     8.6618    13.7514    10.0700   126.2428     7.7135     2.4942     0.0898     0.0288
  381.5000   -47.1228     8.6363    15.0840    10.0189   126.9316     7.6920     2.4914     0.0933     0.0256
  382.0000   -47.0718     8.6105    12.0871     9.9479   127.9183     7.6705     2.4817     0.0997     0.0224
  382.5000   -47.0178     8.5782    12.0929     9.8775   130.0428     7.6490     2.4720     0.1060     0.0191
  383.0000   -47.0463     8.5378    12.2790     9.8075   132.1413     7.6274     2.4622     0.1112     0.0159
  383.5000   -47.1026     8.4976    12.4024     9.7380   134.1352     7.6058     2.4525     0.1154     0.0126
  384.0000   -47.1595     8.4576    12.5270     9.6690   133.7891     7.5834     2.4428     0.1196     0.0093
  384.5000   -47.2161     8.4178    12.6774     9.6005   129.7333     7.6051     2.4330     0.1238     0.0060
  385.0000   -47.2727     8.3781    12.6308     9.5325   128.6917     7.6354     2.4277     0.1277     0.0058
  385.5000   -47.3293     8.3387    12.5552     9.4650   135.6720     7.6657     2.4245     0.1270     0.0069
  386.0000   -47.3860     8.2994    12.4802     9.3973   143.5274     7.6960     2.4226     0.1242     0.0081
  386.5000   -47.4426     8.2604    12.4055     9.3550   144.9767     7.7263     2.4292     0.1213     0.0093
  387.0000   -47.4994     8.2215    12.3313     9.3892   140.2191     7.7564     2.4357     0.1183     0.0105
  387.5000   -47.5563     8.1827    12.2576     9.4151   136.0164     7.7799     2.4422     0.1155     0.0117
  388.0000   -47.5980     8.1476    12.1843     9.4411   133.7300     7.7793     2.4488     0.1133     0.0129
  388.5000   -47.5330     8.1688    12.1114     9.4668   131.7961     7.7776     2.4536     0.1133     0.0141
  389.0000   -47.4692     8.1991    12.0389     9.4921   129.8725     7.7717     2.4576     0.1133     0.0153
  389.5000   -47.4056     8.2409    11.9945     9.5215   126.1641     7.7659     2.4617     0.1121     0.0164
  390.0000   -47.3420     8.3297    12.2374     9.6761   120.2949     7.7601     2.4658     0.1093     0.0197
  390.5000   -47.2785     8.4190    12.4408     9.8218   122.2403     7.7543     2.4699     0.1066     0.0243
  391.0000   -47.2150     8.5093    12.6480     9.9660   125.2930     7.7484     2.4739     0.1039     0.0288
  391.5000   -47.1514     8.6005    12.8579    10.1125   128.3925     7.7426     2.4780     0.1011     0.0334
  392.0000   -47.0879     8.6927    13.0722    10.2612   131.4816     7.7368     2.4821     0.0984     0.0380
  392.5000   -47.0213     8.7859    13.2749    10.4122   134.5755     7.7310     2.4862     0.0957     0.0426
  393.0000   -47.0271     8.8803    14.2899    10.5656   137.5453     7.7255     2.4903     0.0929     0.0471
  393.5000   -47.0565     8.9753    13.7501    10.7208   138.6371     7.7178     2.4936     0.0902     0.0517
  394.0000   -47.0864     9.0259    13.0288    10.9403   138.8280     7.6694     2.4960     0.0893     0.0563
  394.5000   -47.1161     9.0425    13.0961    10.8762   137.0939     7.6211     2.4985     0.0887     0.0609
  395.0000   -47.1456     9.0593    13.1799    10.7723   133.5206     7.5731     2.5027     0.0869     0.0647
  395.5000   -47.1749     9.0763    13.2634    10.6694   134.5732     7.5248     2.5072     0.0831     0.0639
  396.0000   -47.2074     9.0996    13.3479    10.5675   135.6264     7.4771     2.5119     0.0793     0.0631
  396.5000   -47.3247     9.0417    13.3971    10.4666   136.5172     7.4522     2.5046     0.0819     0.0624
