~VERSION INFORMATION
 VERS.                2.0:   CWLS LOG ASCII STANDARD - VERSION 2.0
 WRAP.                 NO:   ONE LINE PER DEPTH STEP
~WELL INFORMATION
#MNEM.UNIT      DATA TYPE    INFORMATION
#----------   ------------   ------------------------------
 STRT.F          660.0000:   START DEPTH
 STOP.F         2899.5000:   STOP DEPTH
 STEP.F            0.5000:   STEP LENGTH
 NULL.          -999.2500:   NO VALUE
 COMP. LAWRENCE/ALLISON INC:   COMPANY
 WELL. NPR #3 22 X 10 #22-10:   WELL
 FLD .             TEAPOT:   FIELD
 LOC .      S10 T38N R78W:   LOCATION
 CNTY.            NATRONA:   COUNTY
 STAT.            WYOMING:   STATE
 CTRY. UNITED STATES OF AMERICA:   COUNTRY
 SRVC.            Unknown:   SERVICE COMPANY
 DATE.        11-SEP-1986:   LOGDATE
 API .       490251106200:   API NUMBER
~CURVE INFORMATION
#MNEM.UNIT       API CODE    CURVE DESCRIPTION
#----------   ------------   ------------------------------
 DEPT.F                  :   
 ROP .MIN/FT 91 810 01 00:   RATE OF DRILLING PENETRATION
 TGAS.UNITS  91 830 01 00:   TOTAL GAS FROM HOTWIRE
~PARAMETER INFORMATION
#MNEM.UNIT          VALUE    DESCRIPTION
#----------   ------------   ------------------------------
 DATE.          9-11-1986:   RUN DATE
 DD  .F              2900:   DEPTH DRILLER
 TLI .F              1380:   TOP LOG INTERVAL
 WITN. R. HUSK/K. FREDERICK:   WITNESSED BY
 CLNT.            A2DTECH:   CLIENT CODE
 ORIG.           5" PRINT:   ORIGIN OF DATA
 UWI .       490251106200:   UNIQUE WELL ID
 DICO. A2D Technologies, Inc.:   DIGITIZING COMPANY
~OTHER INFORMATION
~A   DEPT      ROP         TGAS 
# ...
 1875.0000     1.2812   214.2171
 1875.5000     1.2809   214.5199
 1876.0000     1.3122   214.8228
 1876.5000     1.3820   215.1257
 1877.0000     1.4459   215.4285
 1877.5000     1.4990   215.7314
 1878.0000     1.5359   216.0343
 1878.5000     1.5496   216.3372
 1879.0000     1.5431   216.6400
 1879.5000     1.5387   216.9429
 1880.0000     1.5374   217.2953
 1880.5000     1.5354   217.3387
 1881.0000     1.5334   217.3906
 1881.5000     1.5315   217.4425
 1882.0000     1.5295   217.4944
 1882.5000     1.5275   217.5462
 1883.0000     1.5256   217.5981
 1883.5000     1.5788   217.6500
 1884.0000     1.6687   217.7019
 1884.5000     1.7408   217.7538
 1885.0000     1.7762   217.8057
 1885.5000     1.7897   217.8576
 1886.0000     1.8000   217.9095
 1886.5000     1.8123   217.9613
 1887.0000     1.8118   218.0132
 1887.5000     1.8217   218.0651
 1888.0000     1.8627   218.1170
 1888.5000     1.9350   218.1689
 1889.0000     2.0073   218.2208
 1889.5000     2.0588   218.2726
 1890.0000     2.0686   218.3245
 1890.5000     2.0577   218.3764
 1891.0000     2.0595   218.4283
 1891.5000     2.0867   218.4802
 1892.0000     2.1469   218.5321
 1892.5000     2.1894   218.5840
 1893.0000     2.2320   218.6358
 1893.5000     2.2504   218.6877
 1894.0000     2.1934   218.7396
 1894.5000     2.0955   218.7915
 1895.0000     1.9725   218.8434
 1895.5000     1.8517   218.8953
 1896.0000     1.7921   218.9472
 1896.5000     1.7916   218.9990
 1897.0000     1.7911   219.0509
 1897.5000     1.7905   219.1028
 1898.0000     1.7457   219.1547
 1898.5000     1.6431   219.2066
 1899.0000     1.5454   219.2585
 1899.5000     1.4513   219.3103
 1900.0000     1.3540   219.3581
 1900.5000     1.3102   219.3582
 1901.0000     1.3109   219.3583
 1901.5000     1.3114   219.3584
 1902.0000     1.3119   219.3585
 1902.5000     1.3124   219.3586
 1903.0000     1.3129   219.3587
 1903.5000     1.3134   219.3588
 1904.0000     1.3079   219.3589
 1904.5000     1.2439   219.3590
 1905.0000     1.1335   219.3591
 1905.5000     1.0579   219.3592
 1906.0000     1.0042   219.3593
 1906.5000     1.0047   219.3594
 1907.0000     1.0093   219.3595
 1907.5000     1.0161   219.3596
 1908.0000     1.0016   219.3597
 1908.5000     0.9585   219.3598
 1909.0000     0.9106   219.3599
 1909.5000     0.8547   219.3600
 1910.0000     0.8247   219.3601
 1910.5000     0.8439   219.3602
 1911.0000     0.8850   219.3604
 1911.5000     0.9476   219.3605
 1912.0000     1.0001   219.3605
 1912.5000     1.0214   219.3607
 1913.0000     1.0219   219.3608
 1913.5000     1.0224   219.3609
 1914.0000     1.0125   219.3610
 1914.5000     1.0130   219.3611
 1915.0000     1.0135   219.3612
 1915.5000     1.0140   219.3613
 1916.0000     1.0146   219.3614
 1916.5000     1.0151   219.3615
 1917.0000     1.0156   219.3616
 1917.5000     1.0161   219.3617
 1918.0000     1.0208   219.3618
 1918.5000     1.0275   219.3619
 1919.0000     1.0332   219.3620
 1919.5000     1.0390   219.3621
 1920.0000     1.0188   219.3458
 1920.5000     1.0859   219.2437
 1921.0000     1.1384   219.1416
 1921.5000     1.1843   219.0395
 1922.0000     1.1924   218.9374
 1922.5000     1.1309   218.8353
 1923.0000     1.0875   218.7332
 1923.5000     1.0387   218.6311
 1924.0000     0.9770   218.5290
 1924.5000     0.9197   218.4269
 1925.0000     0.8585   218.3248
 1925.5000     0.8118   218.2227
 1926.0000     0.8150   218.1207
 1926.5000     0.8696   218.0186
 1927.0000     0.9160   217.9165
 1927.5000     0.9685   217.8144
 1928.0000     0.9908   217.7123
 1928.5000     0.9847   217.6102
 1929.0000     0.9839   217.5081
 1929.5000     0.9773   217.4060
 1930.0000     0.9780   217.3039
 1930.5000     0.9815   217.2018
 1931.0000     0.9874   217.0997
 1931.5000     0.9904   216.9976
 1932.0000     0.9896   216.8955
 1932.5000     0.9962   216.7934
 1933.0000     0.9984   216.6913
 1933.5000     0.9977   216.5892
 1934.0000     0.9969   216.4871
 1934.5000     0.9960   216.3850
 1935.0000     0.9952   216.2829
 1935.5000     0.9944   216.1808
 1936.0000     1.0249   216.0788
 1936.5000     1.1073   215.9767
 1937.0000     1.1793   215.8746
 1937.5000     1.2409   215.7725
 1938.0000     1.2817   215.6704
 1938.5000     1.2808   215.5683
 1939.0000     1.2698   215.4662
 1939.5000     1.2684   215.3641
 1940.0000     1.2579   215.2703
 1940.5000     1.1969   215.2708
 1941.0000     1.1141   215.2712
 1941.5000     1.0513   215.2716
 1942.0000     1.0052   215.2721
 1942.5000     1.0060   215.2725
 1943.0000     1.0142   215.2729
 1943.5000     1.0133   215.2734
 1944.0000     1.0146   215.2738
 1944.5000     1.0221   215.2742
 1945.0000     1.0213   215.2747
 1945.5000     1.0155   215.2751
 1946.0000     0.9802   215.2755
 1946.5000     0.9027   215.2760
 1947.0000     0.8325   215.2764
 1947.5000     0.8032   215.2768
 1948.0000     0.7879   215.2773
 1948.5000     0.7872   215.2777
 1949.0000     0.7828   215.2781
 1949.5000     0.7752   215.2785
 1950.0000     0.7783   215.2790
 1950.5000     0.8002   215.2794
 1951.0000     0.8543   215.2798
 1951.5000     0.9186   215.2803
 1952.0000     0.9660   215.2807
 1952.5000     0.9935   215.2811
 1953.0000     0.9984   215.2816
 1953.5000     0.9977   215.2820
 1954.0000     1.0020   215.2824
 1954.5000     1.0065   215.2829
 1955.0000     1.0111   215.2833
 1955.5000     1.0153   215.2837
 1956.0000     1.0203   215.2841
 1956.5000     1.0477   215.2846
 1957.0000     1.1011   215.2850
 1957.5000     1.1883   215.2854
 1958.0000     1.2487   215.2859
 1958.5000     1.2407   215.2863
 1959.0000     1.2149   215.2867
 1959.5000     1.1930   215.2872
 1960.0000     1.1781   215.3470
 1960.5000     1.1721   215.4670
 1961.0000     1.1677   215.5871
 1961.5000     1.1634   215.7072
 1962.0000     1.1591   215.8273
 1962.5000     1.1548   215.9474
 1963.0000     1.1505   216.0675
 1963.5000     1.1461   216.1876
 1964.0000     1.1413   216.3076
 1964.5000     1.0995   216.4277
 1965.0000     1.0473   216.5478
 1965.5000     1.0052   216.6679
 1966.0000     0.9948   216.7880
 1966.5000     0.9945   216.9081
 1967.0000     0.9925   217.0282
 1967.5000     0.9836   217.1483
 1968.0000     0.9834   217.2683
 1968.5000     0.9831   217.3884
 1969.0000     0.9791   217.5085
 1969.5000     0.9722   217.6286
 1970.0000     0.9767   217.7487
 1970.5000     0.9505   217.8688
 1971.0000     0.8906   217.9889
 1971.5000     0.8359   218.1089
 1972.0000     0.8082   226.5034
 1972.5000     0.8043   250.0703
 1973.0000     0.8041   273.0001
 1973.5000     0.8037   291.9776
 1974.0000     0.8243   306.5961
 1974.5000     0.8760   320.7459
 1975.0000     0.9277   333.9131
 1975.5000     0.9691   353.0710
 1976.0000     1.0107   326.3698
 1976.5000     1.0214   295.5684
 1977.0000     1.0307   262.7169
 1977.5000     1.0304   229.8654
 1978.0000     1.0325   207.2645
 1978.5000     1.0403   205.1646
 1979.0000     1.0400   205.1139
 1979.5000     1.0359   205.0626
 1980.0000     1.0395   205.0114
 1980.5000     1.0083   204.9601
 1981.0000     0.9667   204.9089
 1981.5000     0.9252   204.8576
 1982.0000     0.9040   204.8064
 1982.5000     0.8836   204.7551
 1983.0000     0.8836   204.7039
 1983.5000     0.8836   204.6526
 1984.0000     0.8836   204.6014
 1984.5000     0.8880   204.5501
 1985.0000     0.9217   204.4989
 1985.5000     0.9623   204.4476
 1986.0000     0.9898   204.3964
 1986.5000     0.9979   204.3451
 1987.0000     0.9979   204.2939
 1987.5000     0.9979   204.2426
 1988.0000     0.9979   204.1913
 1988.5000     0.9979   204.1401
 1989.0000     0.9979   204.0888
 1989.5000     0.9979   204.0376
 1990.0000     0.9979   203.9863
 1990.5000     0.9979   203.9351
 1991.0000     0.9979   203.8838
 1991.5000     0.9979   203.8326
 1992.0000     0.9979   203.7813
 1992.5000     0.9979   203.7301
 1993.0000     1.0038   203.6788
 1993.5000     1.0083   203.6276
 1994.0000     1.0147   203.5763
 1994.5000     1.0254   203.5251
 1995.0000     1.0360   203.4738
 1995.5000     1.0395   203.4225
 1996.0000     1.0395   203.3713
