~VERSION INFORMATION
 VERS.                2.0:   CWLS LOG ASCII STANDARD - VERSION 2.0
 WRAP.                 NO:   ONE LINE PER DEPTH STEP
~WELL INFORMATION
#MNEM.UNIT      DATA TYPE    INFORMATION
#----------   ------------   ------------------------------
 STRT.F           38.0000:   START DEPTH
 STOP.F         1202.0000:   STOP DEPTH
 STEP.F            0.5000:   STEP LENGTH
 NULL.          -999.2500:   NO VALUE
 COMP.       INTEX OIL CO:   COMPANY
 WELL.     72 S 14 #72-14:   WELL
 FLD .            WILDCAT:   FIELD
 LOC .      S14 T38N R78W:   LOCATION
 CNTY.            NATRONA:   COUNTY
 STAT.            WYOMING:   STATE
 CTRY. UNITED STATES OF AMERICA:   COUNTRY
 SRVC.       Schlumberger:   SERVICE COMPANY
 DATE.        26-AUG-1966:   LOGDATE
 API .       490250970800:   API NUMBER
~CURVE INFORMATION
#MNEM.UNIT       API CODE    CURVE DESCRIPTION
#----------   ------------   ------------------------------
 DEPT.F                  :   
 SPR .MV     05 010 01 00:   SPONTANEOUS POTENTIAL FROM RES.
 ASN .OHMM   05 041 16 00:   AMPLIFIED SHORT NORMAL 16"
 ILD .OHMM   05 120 46 00:   INDUCTION LOG DEEP
 CILD.MMHO   05 110 46 00:   CONDUCTIVITY INDUCTION LOG DEEP
 CORR.G/C3   45 356 01 00:   DENSITY CORRECTION
 GRD .GAPI   45 310 01 00:   GAMMA RAY FROM DENSITY LOG
 CALD.IN     45 280 60 00:   CALIPER FROM DENSITY LOG
 DPHI.DEC    45 890 12 00:   DENSITY POROSITY SANDSTONE
 RHOB.G/C3   45 350 01 00:   BULK DENSITY
~PARAMETER INFORMATION
#MNEM.UNIT          VALUE    DESCRIPTION
#----------   ------------   ------------------------------
 PD  .                 GL:   PERMANENT DATUM
 EPD .F              5265:   ELEVATION PERMANENT DATUM
 LMF .                 KB:   LOG MEASURED FROM
 DAPD.F                 5:   FEET ABOVE PERMANENT DATUM
 DMF .                 KB:   DRILLING MEASURED FROM
 EKB .F              5270:   KELLING BUSHING
 DATE.        26-AUG-1966:   RUN DATE
 RUN .                  1:   RUN NUMBER
 DD  .F              1201:   DEPTH DRILLER
 DL  .F              1203:   DEPTH LOGGER
 BLI .F              1202:   BOTTOM LOG INTERVAL
 TLI .F                46:   TOP LOG INTERVAL
 CS  .IN            8.625:   CASING SIZE
 BS  .IN             6.75:   BIT SIZE
 BSD .F              1201:   BIT SIZE AT DEPTH
 DFT .     CHEM- GEL- OIL:   DRILLING FLUID TYPE
 DFD .                9.4:   DRILLING FLUID DENSITY
 MRT .F                94:   MAXIMUM RECORDED TEMPERATURE
 LUN .               3527:   LOGGING UNIT NUMBER
 LUL .             CASPER:   LOGGING UNIT LOCATION
 ENGI.             KNOBEL:   RECORDING ENGINEER
 WITN.                MAY:   WITNESSED BY
 CLNT.            A2DTECH:   CLIENT CODE
 ORIG.       2", 5" PRINT:   ORIGIN OF DATA
 UWI .       490250970800:   UNIQUE WELL ID
 DICO. A2D Technologies, Inc.:   DIGITIZING COMPANY
~OTHER INFORMATION
~A   DEPT      SPR        ASN        ILD       CILD       CORR        GRD       CALD       DPHI       RHOB   
# ...
  111.0000   -26.4398     7.6643     7.3829   148.8129     0.0471   101.5976     7.1458     0.1185     2.4599
  111.5000   -26.2857     7.6659     7.5309   148.8219     0.0504   100.0811     7.1465     0.1119     2.4719
  112.0000   -26.2828     7.5435     7.6038   148.8291     0.0531    96.9581     7.1471     0.1092     2.4779
  112.5000   -26.2799     7.7253     7.7513   148.0856     0.0531    98.0825     7.1477     0.1095     2.4787
  113.0000   -26.1264     7.9208     7.8242   145.7209     0.0512    98.9817     7.1482     0.1149     2.4749
  113.5000   -25.9729     8.0862     7.8971   142.0958     0.0472    98.0941     7.1488     0.1218     2.4538
  114.0000   -25.9693     8.0565     7.8878   142.8538     0.0442   103.2441     7.1494     0.1329     2.4413
  114.5000   -26.1177     7.7865     7.5919   146.6148     0.0479   103.4743     7.1500     0.1343     2.4414
  115.0000   -26.5659     7.5405     7.4396   149.6250     0.0494   105.7164     7.1357     0.1322     2.4414
  115.5000   -26.4124     7.3667     7.2873   152.6352     0.0494   107.0644     7.1363     0.1328     2.4406
  116.0000   -25.9577     7.2919     7.1350   155.7355     0.0487   104.3885     7.1369     0.1418     2.4321
  116.5000   -25.8043     7.2171     7.1329   158.6575     0.0474   102.3832     7.0928     0.1430     2.4191
  117.0000   -26.8556     7.1424     7.1306   160.9169     0.0450   100.8250     7.0336     0.1499     2.4049
  117.5000   -27.3038     7.1577     7.1280   163.9272     0.0375   101.5024     6.9896     0.1565     2.3990
  118.0000   -26.8491     7.2480     7.0508   166.1866     0.0315   102.4015     7.0200     0.1607     2.4012
  118.5000   -26.3951     7.2784     7.0486   168.4461     0.0330   100.8450     7.0355     0.1604     2.4057
  119.0000   -27.1445     7.1436     6.9714   171.4564     0.0323    99.0633     7.0361     0.1601     2.4073
  119.5000   -27.4428     6.8886     6.8190   174.4683     0.0263    98.1741     7.0367     0.1637     2.3953
  120.0000   -27.2886     6.7087     6.6666   177.4785     0.0230   102.4299     7.0373     0.1678     2.3826
  120.5000   -26.6833     6.5889     6.5139   179.7380     0.0303   103.3307     7.0379     0.1622     2.3872
  121.0000   -25.9274     6.4820     6.3616   181.9975     0.0458   101.3255     7.0235     0.1618     2.3939
  121.5000   -24.8703     6.4244     6.2093   183.5062     0.0511   100.6598     7.0242     0.1543     2.4022
  122.0000   -26.9759     6.4096     6.2071   184.2642     0.0503   100.6682     7.0097     0.1526     2.4104
  122.5000   -31.2501     6.4099     6.2049   176.7657     0.0485   100.8984     6.9954     0.1520     2.4082
  123.0000   -26.3670     6.5153     6.4394   171.5177     0.0465   100.6798     6.9811     0.1481     2.4105
  123.5000   -26.5154     6.8009     6.7256   167.0204     0.0459   100.0175     6.9669     0.1466     2.4165
  124.0000   -27.2648     7.1411     6.9487   162.5231     0.0451    95.5533     6.9675     0.1475     2.4248
  124.5000   -27.7137     7.4322     7.1717   158.7766     0.0474    91.0890     6.9532     0.1433     2.4285
  125.0000   -26.8072     7.4925     7.3948   155.0300     0.0508    93.1076     6.9687     0.1406     2.4256
  125.5000   -26.2012     7.4177     7.5428   151.9146     0.0528    94.6791     6.9693     0.1478     2.4159
  126.0000   -26.0477     7.3129     7.3149   149.7910     0.0549    93.7915     6.9699     0.1466     2.4226
  126.5000   -26.0448     7.1777     7.0875   153.5520     0.0533    94.4689     6.9407     0.1453     2.4167
  127.0000   -25.8913     7.0133     6.9352   158.8145     0.0460    96.9345     6.9264     0.1501     2.4130
  127.5000   -25.8885     6.9085     6.7078   164.8277     0.0386    98.5060     6.9270     0.1540     2.4108
  128.0000   -25.8856     6.8337     6.5555   170.8409     0.0448    99.6304     6.9723     0.1501     2.4107
  128.5000   -26.0326     6.7289     6.4014   176.2835     0.0525   100.0842     7.1368     0.1453     2.4198
  129.0000   -26.0297     6.6090     6.1752   183.6199     0.0470   100.0954     7.1523     0.1483     2.4200
  129.5000   -26.1781     6.4733     6.0229   188.1316     0.0400   101.2347     7.1529     0.1489     2.4154
  130.0000   -26.1745     6.2343     5.8706   192.6434     0.0382   100.5216     7.1535     0.1453     2.4199
  130.5000   -26.3222     6.0544     5.7934   197.1551     0.0362    98.9931     7.1528     0.1444     2.4200
  131.0000   -26.3192     5.9496     5.7161   200.1653     0.0346   100.1684     7.1249     0.1534     2.4110
  131.5000   -26.3157     5.8598     5.5638   203.2356     0.0301    99.8092     7.1234     0.1522     2.4020
  132.0000   -26.1622     5.7850     5.5611   206.1876     0.0348    96.5186     7.1112     0.1450     2.4174
  132.5000   -26.0087     5.7245     5.4839   209.1978     0.0385    94.9553     7.0968     0.1393     2.4305
  133.0000   -25.8553     5.6654     5.4067   210.7065     0.0393    96.3456     7.0976     0.1396     2.4244
  133.5000   -25.7018     5.6358     5.4045   212.2152     0.0203    99.2584     7.0535     0.1417     2.4231
  134.0000   -25.5482     5.6361     5.4023   212.2224     0.0109   101.7241     7.0094     0.1417     2.4291
  134.5000   -25.3941     5.6213     5.3251   212.2298     0.0191   101.9543     6.9949     0.1414     2.4299
  135.0000   -25.3912     5.6216     5.3224   211.4879     0.0317    99.7255     7.1149     0.1396     2.4015
  135.5000   -25.3883     5.6219     5.3202   209.2429     0.0349    97.4967     7.1751     0.1588     2.3963
  136.0000   -25.5367     5.6223     5.3181   206.2471     0.0285    98.1740     7.1757     0.1594     2.3971
  136.5000   -25.8343     5.6226     5.3915   203.2513     0.0238   100.1926     7.1762     0.1557     2.4001
  137.0000   -25.8072     5.6379     5.4640   200.2556     0.0229   101.3170     7.1618     0.1536     2.4046
  137.5000   -25.3760     5.7433     5.5368   197.2598     0.0290   101.7707     7.1327     0.1498     2.4106
  138.0000   -25.2225     5.8787     5.6843   194.1743     0.0237   101.1067     7.1184     0.1453     2.4166
  138.5000   -25.2196     6.0018     5.7572   191.2682     0.0191    99.9957     7.1190     0.1378     2.4249
  139.0000   -25.3675     6.1646     5.8307   188.2742     0.0203    98.4375     7.1045     0.1282     2.4414
  139.5000   -25.6657     6.2249     5.9036   185.2784     0.0316    96.6558     7.0904     0.1180     2.4616
  140.0000   -25.8134     6.1801     5.9759   183.0334     0.0478    97.5567     7.0612     0.1165     2.4691
  140.5000   -26.1117     6.3156     6.1239   181.5390     0.0478    97.7852     7.0618     0.1306     2.4542
  141.0000   -26.2587     6.3159     6.1212   180.7058     0.0425    96.0052     7.0624     0.1450     2.4131
  141.5000   -26.4071     6.2862     6.1191   183.0569     0.0384    94.6706     7.0779     0.1524     2.4071
  142.0000   -26.7047     6.2415     6.1169   186.0671     0.0381    93.3343     7.1083     0.1548     2.4034
  142.5000   -26.8525     6.1817     5.9646   189.0773     0.0418    94.2368     7.1237     0.1572     2.3997
  143.0000   -26.8489     6.0769     5.8874   191.3368     0.0445    96.7025     7.1093     0.1608     2.3937
  143.5000   -26.6954     5.9721     5.7350   193.5963     0.0471    98.4975     7.0653     0.1641     2.3908
  144.0000   -26.2407     5.8673     5.6573   195.8558     0.0448    97.8335     7.0361     0.1668     2.3848
  144.5000   -26.0872     5.7755     5.5800   198.1170     0.0387    97.1696     6.9771     0.1695     2.3759
  145.0000   -26.0843     5.7177     5.5028   199.6257     0.0419    95.8350     6.9477     0.1725     2.3699
  145.5000   -26.0813     5.7181     5.5006   201.1344     0.0487    94.5004     6.9187     0.1737     2.3752
  146.0000   -26.0778     5.7634     5.4985   201.8924     0.0569    93.1657     6.9015     0.1689     2.3820
  146.5000   -26.0749     5.8388     5.4962   202.6504     0.0558    94.5137     7.0540     0.1632     2.3880
  147.0000   -26.0720     5.8991     5.6438   202.6577     0.0545    97.8736     7.0695     0.1593     2.3947
