~VERSION INFORMATION
 VERS.                2.0:   CWLS LOG ASCII STANDARD - VERSION 2.0
 WRAP.                 NO:   ONE LINE PER DEPTH STEP
~WELL INFORMATION
#MNEM.UNIT      DATA TYPE    INFORMATION
#----------   ------------   ------------------------------
 STRT.F           61.0000:   START DEPTH
 STOP.F          527.0000:   STOP DEPTH
 STEP.F            0.5000:   STEP LENGTH
 NULL.          -999.2500:   NO VALUE
 COMP.       F D SERV INC:   COMPANY
 WELL.  82-5 SX 10 #82-10:   WELL
 FLD .             TEAPOT:   FIELD
 LOC .      S10 T38N R78W:   LOCATION
 CNTY.            NATRONA:   COUNTY
 STAT.            WYOMING:   STATE
 CTRY. UNITED STATES OF AMERICA:   COUNTRY
 SRVC.     Atlas Wireline:   SERVICE COMPANY
 DATE.        08-FEB-1993:   LOGDATE
 API .       490252258800:   API NUMBER
~CURVE INFORMATION
#MNEM.UNIT       API CODE    CURVE DESCRIPTION
#----------   ------------   ------------------------------
 DEPT.F                  :   
 C13 .IN     45 280 13 00:   CALIPER
 GRD .GAPI   45 310 01 00:   GAMMA RAY FROM DENSITY LOG
 NPHI.DEC    42 890 03 00:   NEUTRON POROSITY SANDSTONE
 PORZ.DEC    45 890 12 00:   DENSITY POROSITY SANDSTONE
 ZCOR.G/C3   45 356 01 00:   DENSITY CORRECTION
 ZDEN.G/C3   45 350 01 00:   BULK DENSITY
 RILD.OHMM   07 120 46 00:   INDUCTION LOG DEEP RESISTIVITY
 RILM.OHMM   07 120 44 00:   RESITIVITY LONG MEDIUM
~PARAMETER INFORMATION
#MNEM.UNIT          VALUE    DESCRIPTION
#----------   ------------   ------------------------------
 PD  .                 GL:   PERMANENT DATUM
 EPD .F              5166:   ELEVATION PERMANENT DATUM
 LMF .                 KB:   LOG MEASURED FROM
 DAPD.F                10:   FEET ABOVE PERMANENT DATUM
 DMF .                 KB:   DRILLING MEASURED FROM
 EKB .F              5176:   KELLING BUSHING
 EDF .F              5175:   DRILLING FLOOR
 EGL .F              5166:   GROUND LEVEL
 DATE.        08-FEB-1993:   RUN DATE
 RUN .                  1:   RUN NUMBER
 DD  .F               530:   DEPTH DRILLER
 DL  .F               532:   DEPTH LOGGER
 BLI .F               529:   BOTTOM LOG INTERVAL
 TLI .F                96:   TOP LOG INTERVAL
 CS  .IN            8.625:   CASING SIZE
 CBD .F                90:   CASING BOTTOM DRILLER
 CBL .F                96:   CASING BOTTOM LOGGER
 BS  .IN            7.875:   BIT SIZE
 BSD .F               530:   BIT SIZE AT DEPTH
 DFT .                AIR:   DRILLING FLUID TYPE
 MRT .F                60:   MAXIMUM RECORDED TEMPERATURE
 LUN .            HL 6274:   LOGGING UNIT NUMBER
 LUL .             CASPER:   LOGGING UNIT LOCATION
 ENGI.          V. RAUTIO:   RECORDING ENGINEER
 WITN.          G. STRONG:   WITNESSED BY
 CLNT.            A2DTECH:   CLIENT CODE
 ORIG.           5" PRINT:   ORIGIN OF DATA
 UWI .       490252258800:   UNIQUE WELL ID
 DICO. A2D Technologies, Inc.:   DIGITIZING COMPANY
~OTHER INFORMATION
~A   DEPT      C13        GRD       NPHI       PORZ       ZCOR       ZDEN       RILD       RILM   
# ...
  182.5000     8.1301   164.3529     0.3065     0.0982     0.0089     2.4844     8.5339     8.4745
  183.0000     8.1302   161.0425     0.3005     0.1006     0.0045     2.4807     8.5361     8.4182
  183.5000     8.1304   160.1416     0.3000     0.1030     0.0000     2.4785     8.5977     8.4795
  184.0000     8.1306   160.7476     0.2994     0.1042    -0.0059     2.4785     8.7200     8.4226
  184.5000     8.1307   160.7504     0.3026     0.1042     0.0001     2.4808     8.7228     8.4254
  185.0000     8.1308   159.2471     0.3038     0.1036     0.0121     2.4809     8.7251     8.4281
  185.5000     8.1310   157.1422     0.3038     0.1030     0.0227     2.4794     8.7274     8.4890
  186.0000     8.1161   157.1449     0.3017     0.1042     0.0182     2.4778     8.6694     8.4326
  186.5000     8.1162   157.1477     0.2997     0.1054     0.0123     2.4795     8.5523     8.4348
  187.0000     8.1164   157.1506     0.2981     0.1039     0.0045     2.4840     8.4955     8.4375
  187.5000     8.1015   157.1540     0.2987     0.1018     0.0004     2.4839     8.3807     8.4397
  188.0000     8.1167   158.6628     0.2990     0.1018     0.0004     2.4736     8.3256     8.3831
  188.5000     8.1319   158.9669     0.3035     0.1048     0.0020     2.4706     8.3283     8.3279
  189.0000     8.1170   158.3672     0.3032     0.1090     0.0065     2.4759     8.3305     8.2154
  189.5000     8.1021   157.1659     0.3014     0.1066     0.0125     2.4774     8.2751     8.2181
  190.0000     8.1173   154.7590     0.3008     0.1051     0.0141     2.4722     8.2773     8.1630
  190.5000     8.1325   155.0637     0.3002     0.1075     0.0111     2.4708     8.2800     7.9976
  191.0000     8.1326   157.1749     0.3015     0.1087     0.0112     2.4738     8.1117     7.8856
  191.5000     8.1177   160.4910     0.3015     0.1078     0.0067     2.4768     7.9469     7.7298
  192.0000     8.1330   159.5909     0.3021     0.1063     0.0008     2.4769     7.6252     7.5727
  192.5000     8.1331   157.7864     0.3027     0.1048    -0.0037     2.4769     7.4068     7.2662
  193.0000     8.1332   157.1867     0.3027     0.1048    -0.0006     2.4762     7.0697     6.9220
  193.5000     8.1334   157.1903     0.3066     0.1060     0.0054     2.4755     6.8307     6.5982
  194.0000     8.1335   158.3979     0.3147     0.1078     0.0069     2.4688     6.6457     6.4195
  194.5000     8.1337   160.8103     0.3205     0.1114     0.0055     2.4636     6.5559     6.4212
  195.0000     8.1339   165.6331     0.3280     0.1162     0.0070     2.4583     6.5581     6.4675
  195.5000     8.1340   166.2379     0.3319     0.1177     0.0131     2.4569     6.6054     6.5599
  196.0000     8.1492   165.6380     0.3274     0.1138     0.0176     2.4629     6.7459     6.6532
  196.5000     8.1343   164.3665     0.3180     0.1090     0.0176     2.4712     6.9379     6.7948
  197.0000     8.1495   163.2346     0.3144     0.1060     0.0147     2.4766     7.1347     6.9393
  197.5000     8.1346   162.9362     0.3157     0.1054     0.0117     2.4773     7.2865     7.1438
  198.0000     8.1347   162.3373     0.3168     0.1081     0.0073     2.4751     7.4415     7.3393
  198.5000     8.1349   162.3408     0.3156     0.1084     0.0058     2.4736     7.5999     7.5475
  199.0000     8.1350   162.6448     0.3141     0.1075     0.0119     2.4759     7.7621     7.6549
  199.5000     8.1352   162.3464     0.3123     0.1039     0.0164     2.4804     7.8725     7.7154
  200.0000     8.1350   162.3342     0.3111     0.0997     0.0195     2.4857     7.8765     7.7658
  200.5000     8.1312   162.1400     0.3105     0.1018     0.0159     2.4836     7.8924     7.7664
  201.0000     8.1273   161.1446     0.3117     0.1054     0.0121     2.4768     7.9083     7.7670
  201.5000     8.1234   158.7349     0.3123     0.1090     0.0062     2.4715     7.9241     7.7139
  202.0000     8.1203   156.3253     0.3126     0.1123     0.0047     2.4663     7.8765     7.6612
  202.5000     8.1353   157.2289     0.3126     0.1129     0.0033     2.4633     7.8226     7.5563
  203.0000     8.1353   159.0361     0.3126     0.1102     0.0004     2.4686     7.7155     7.5568
  203.5000     8.1353   158.4337     0.3138     0.1075    -0.0026     2.4731     7.6627     7.4533
  204.0000     8.1203   156.3052     0.3153     0.1066    -0.0010     2.4739     7.6103     7.2501
  204.5000     8.1053   156.0241     0.3171     0.1087     0.0020     2.4724     7.5062     7.1506
  205.0000     8.1053   157.2289     0.3189     0.1087     0.0051     2.4724     7.2981     7.0041
  205.5000     8.1053   156.9277     0.3213     0.1090     0.0022     2.4717     6.9562     6.8601
  206.0000     8.1053   157.8313     0.3237     0.1099     0.0067     2.4680     6.5360     6.4016
  206.5000     8.1053   159.6385     0.3249     0.1126     0.0128     2.4643     6.0149     5.8911
  207.0000     8.1053   161.4458     0.3261     0.1135     0.0158     2.4628     5.5738     5.4970
  207.5000     8.1053   162.3494     0.3270     0.1138     0.0099     2.4583     5.3471     5.1223
  208.0000     8.1053   159.6385     0.3306     0.1153    -0.0020     2.4381     5.2013     4.9550
  208.5000     8.1203   158.4337     0.3387     0.1258    -0.0080     2.3983     5.1657     4.9210
  209.0000     8.1053   157.5100     0.3547     0.1402     0.0071     2.3833     5.2020     4.9214
  209.5000     8.1053   157.2289     0.3575     0.1595     0.0191     2.3953     5.2750     4.9905
  210.0000     8.1053   156.9277     0.3447     0.1613     0.0057     2.4299     5.5376     5.2028
  210.5000     8.1053   157.5301     0.3237     0.1475    -0.0047     2.4544     5.8626     5.4997
  211.0000     8.1053   159.6385     0.3185     0.1286    -0.0032     2.4742     6.3178     5.9781
  211.5000     8.1053   159.0361     0.3197     0.1150     0.0104     2.4825     6.6784     6.5865
  212.0000     8.1053   158.4337     0.3164     0.1077     0.0149     2.4863     7.1087     7.0597
  212.5000     8.1053   159.9398     0.3140     0.1023     0.0105     2.4863     7.3599     7.3090
  213.0000     8.1203   162.3494     0.3113     0.1005     0.0016     2.4856     7.5151     7.4170
  213.5000     8.1053   164.4578     0.3104     0.0999     0.0076     2.4886     7.5678     7.6205
  214.0000     8.1053   163.5341     0.3128     0.1002     0.0137     2.4924     7.6739     7.6740
  214.5000     8.1053   162.6506     0.3143     0.0990     0.0137     2.4954     7.8903     7.8357
  215.0000     8.1203   162.9518     0.3110     0.0957     0.0108     2.4977     7.8908     7.9457
  215.5000     8.1353   164.4578     0.3100     0.0939     0.0049     2.4962     8.0014     8.0015
  216.0000     8.1353   165.0602     0.3122     0.0918     0.0017     2.4955     8.0064     8.0577
  216.5000     8.1203   162.9518     0.3130     0.0930     0.0050     2.4955     8.1143     8.1142
  217.0000     8.1053   161.4458     0.3121     0.0939     0.0140     2.4955     8.1713     8.2281
  217.5000     8.1053   159.0361     0.3121     0.0942     0.0201     2.4963     8.1718     8.2859
  218.0000     8.1053   156.6265     0.3121     0.0942     0.0216     2.4978     8.2293     8.3441
  218.5000     8.1053   155.4217     0.3121     0.0939     0.0157     2.4986     8.3447     8.4026
  219.0000     8.1053   156.6667     0.3118     0.0933     0.0096     2.4949     8.3452     8.4618
  219.5000     8.0902   160.2410     0.3121     0.0933     0.0023     2.4889     8.4623     8.4623
  220.0000     8.1053   158.4337     0.3127     0.0927    -0.0051     2.4889     8.5811     8.4628
  220.5000     8.1053   157.5301     0.3124     0.0951    -0.0019     2.4949     8.6413     8.5817
  221.0000     8.1203   157.2289     0.3109     0.0996     0.0025     2.4994     8.7625     8.7020
  221.5000     8.1203   158.4337     0.3088     0.0975    -0.0004     2.4987     8.8854     8.7026
  222.0000     8.1203   159.6385     0.3067     0.0920    -0.0019     2.4950     8.8861     8.8246
  222.5000     8.1203   158.4337     0.3073     0.0923    -0.0033     2.4935     8.8866     8.9485
