~VERSION INFORMATION
 VERS.                2.0:   CWLS LOG ASCII STANDARD - VERSION 2.0
 WRAP.                 NO:   ONE LINE PER DEPTH STEP
~WELL INFORMATION
#MNEM.UNIT      DATA TYPE    INFORMATION
#----------   ------------   ------------------------------
 STRT.F           94.0000:   START DEPTH
 STOP.F          939.0000:   STOP DEPTH
 STEP.F            0.5000:   STEP LENGTH
 NULL.          -999.2500:   NO VALUE
 COMP. U S NAVY/INTEX OIL CO:   COMPANY
 WELL.    NPR #3 #88-S-27:   WELL
 FLD .             TEAPOT:   FIELD
 LOC .      S27 T39N R78W:   LOCATION
 CNTY.            NATRONA:   COUNTY
 STAT.            WYOMING:   STATE
 CTRY. UNITED STATES OF AMERICA:   COUNTRY
 SRVC.       Schlumberger:   SERVICE COMPANY
 DATE.        30-JUL-1963:   LOGDATE
 API .       490250658100:   API NUMBER
~CURVE INFORMATION
#MNEM.UNIT       API CODE    CURVE DESCRIPTION
#----------   ------------   ------------------------------
 DEPT.F                  :   
 SPR .MV     05 010 01 00:   SPONTANEOUS POTENTIAL FROM RES.
 CILD.MMHO   05 110 46 00:   CONDUCTIVITY INDUCTION LOG DEEP
 ASN .OHMM   05 041 16 00:   AMPLIFIED SHORT NORMAL 16"
 ILD .OHMM   05 120 46 00:   INDUCTION LOG DEEP
 GR  .GAPI   30 310 01 00:   GAMMA RAY
~PARAMETER INFORMATION
#MNEM.UNIT          VALUE    DESCRIPTION
#----------   ------------   ------------------------------
 PD  .                 GL:   PERMANENT DATUM
 EPD .F              5069:   ELEVATION PERMANENT DATUM
 LMF .                 KB:   LOG MEASURED FROM
 DAPD.F                 5:   FEET ABOVE PERMANENT DATUM
 DMF .                 KB:   DRILLING MEASURED FROM
 EKB .F              5074:   KELLING BUSHING
 EGL .F              5069:   GROUND LEVEL
 DATE.          7-30-1969:   RUN DATE
 RUN .                  1:   RUN NUMBER
 DD  .F               940:   DEPTH DRILLER
 DL  .F               940:   DEPTH LOGGER
 BLI .F               939:   BOTTOM LOG INTERVAL
 TLI .F                94:   TOP LOG INTERVAL
 CS  .IN            8.625:   CASING SIZE
 CBD .F                10:   CASING BOTTOM DRILLER
 BS  .IN             6.75:   BIT SIZE
 BSD .F               940:   BIT SIZE AT DEPTH
 DFT .            GEL/OIL:   DRILLING FLUID TYPE
 DFD .                9.6:   DRILLING FLUID DENSITY
 DFV .                 40:   DRILLING FLUID VISCOSITY
 DFPH.                  9:   DRILLING FLUID PH
 DFL .                  6:   DRILLING FLUID LOSS
 MSS .          FLOW LINE:   MUD SAMPLE SOURCE
 RMS .OHMM           2.94:   RESISTIVITY MUD SAMPLE
 MST .F                89:   MUD SAMPLE TEMPERATURE
 RMF .OHMM           2.19:   RESISTIVITY MUD FILTRATE SAMPLE
 MFST.F                87:   MUD FILTRATE SAMPLE TEMPERATURE
 MFSS.           MEASURED:   MUD FILTRATE SAMPLE SOURCE
 TCS .HRS               1:   TIME CURCULATED STOPPED
 LUN .               4507:   LOGGING UNIT NUMBER
 LUL .               CSPR:   LOGGING UNIT LOCATION
 ENGI.            WINKLER:   RECORDING ENGINEER
 WITN.          JORGENSEN:   WITNESSED BY
 CLNT.            A2DTECH:   CLIENT CODE
 ORIG.           5" PRINT:   ORIGIN OF DATA
 UWI .       490250658100:   UNIQUE WELL ID
 DICO. A2D Technologies, Inc.:   DIGITIZING COMPANY
~OTHER INFORMATION
~A   DEPT      SPR        CILD         ASN        ILD       GR   
# ...
  643.0000   -37.3230   116.0773    10.4881     8.9915  -999.2500
  643.5000   -37.4524   116.0824    10.4511     8.9010  -999.2500
  644.0000   -37.4223   116.0680    10.3463     8.8074  -999.2500
  644.5000   -37.2926   116.8735    10.2298     8.7141  -999.2500
  645.0000   -37.1534   118.7117    10.1159     8.6210  -999.2500
  645.5000   -37.0103   120.5500    10.0058     8.5278  -999.2500
  646.0000   -36.8656   122.3883     9.8959     8.4346  -999.2500
  646.5000   -36.7190   124.1206     9.8597     8.3418  -999.2500
  647.0000   -36.6690   124.1206     9.8475     8.2924  -999.2500
  647.5000   -37.1387   123.0092     9.7955     8.3639  -999.2500
  648.0000   -37.5904   120.6302     9.7592     8.5206  -999.2500
  648.5000   -37.5036   118.2513     9.8284     8.6757  -999.2500
  649.0000   -37.3144   116.0804    10.0127     8.6978  -999.2500
  649.5000   -37.1303   118.4054    10.2457     8.5580  -999.2500
  650.0000   -36.9414   121.1055    10.4188     8.4007  -999.2500
  650.5000   -36.8433   122.1105     9.7000     8.3906  -999.2500
  651.0000   -37.1431   120.2238     9.5271     8.4641  -999.2500
  651.5000   -37.5602   117.5384    10.0271     8.6083  -999.2500
  652.0000   -37.9806   114.8529    10.4244     8.7584  -999.2500
  652.5000   -38.4038   115.4821    10.2278     8.6603  -999.2500
  653.0000   -38.8325   120.0452    10.2635     8.3993  -999.2500
  653.5000   -38.7314   124.6084    10.3101     8.1372  -999.2500
  654.0000   -38.2998   129.1715     9.5636     7.8758  -999.2500
  654.5000   -37.8766   133.7346     8.9844     7.6132  -999.2500
  655.0000   -37.4510   138.2977     9.1463     7.4085  -999.2500
  655.5000   -37.2497   143.2161     9.1532     7.2501  -999.2500
  656.0000   -37.3708   146.6211     8.6496     7.0937  -999.2500
  656.5000   -37.4477   150.3136     8.1303     6.9375  -999.2500
  657.0000   -37.4497   154.2714     8.0823     6.7809  -999.2500
  657.5000   -37.4496   156.2814     7.9913     6.6168  -999.2500
  658.0000   -37.4508   154.9447     7.8850     6.6908  -999.2500
  658.5000   -37.5219   152.4271     8.0083     6.8363  -999.2500
  659.0000   -37.5995   149.9095     8.1734     6.9839  -999.2500
  659.5000   -37.6477   147.3920     8.2417     7.1320  -999.2500
  660.0000   -37.4413   144.8708     8.2838     7.2799  -999.2500
  660.5000   -37.2440   142.3656     8.3120     7.2875  -999.2500
  661.0000   -37.2486   140.1771     8.3105     7.2866  -999.2500
  661.5000   -37.2524   140.2010     8.3776     7.2868  -999.2500
  662.0000   -37.0797   140.0326     8.4393     7.3173  -999.2500
  662.5000   -36.8539   138.8926     8.3363     7.4098  -999.2500
  663.0000   -36.9986   137.7525     8.3303     7.5014  -999.2500
  663.5000   -37.2054   136.6125     8.3330     7.5935  -999.2500
  664.0000   -37.1713   135.4725     8.5033     7.6846  -999.2500
  664.5000   -36.6684   134.3324     8.7050     7.6895  -999.2500
  665.0000   -36.7065   133.1924     8.9110     7.7216  -999.2500
  665.5000   -36.8235   132.0523     9.0237     7.8170  -999.2500
  666.0000   -36.8500   130.9123     9.1175     7.9113  -999.2500
  666.5000   -36.6554   129.7723     9.1089     7.9922  -999.2500
  667.0000   -36.7501   128.6322     9.0625     7.9897  -999.2500
  667.5000   -36.9314   129.3161     9.0151     7.9537  -999.2500
  668.0000   -37.0485   131.4294     8.9961     7.8520  -999.2500
  668.5000   -36.9765   133.5305     8.9917     7.7514  -999.2500
  669.0000   -36.8474   135.6281     8.8594     7.6506  -999.2500
  669.5000   -36.8400   137.7261     8.7190     7.5499  -999.2500
  670.0000   -36.5509   139.1960     8.5795     7.4501  -999.2500
  670.5000   -36.2566   139.1960     8.4617     7.3869  -999.2500
  671.0000   -36.3109   139.1960     8.4099     7.3804  -999.2500
  671.5000   -36.6514   138.1909     8.4307     7.4991  -999.2500
  672.0000   -36.5032   138.1909     8.5111     7.5226  -999.2500
  672.5000   -36.1122   137.4809     8.6116     7.5540  -999.2500
  673.0000   -36.0527   136.7616     8.6998     7.5847  -999.2500
  673.5000   -36.3948   136.0414     8.7673     7.6152  -999.2500
  674.0000   -36.2350   135.3212     8.7948     7.6457  -999.2500
  674.5000   -36.0970   134.5988     8.7457     7.6768  -999.2500
  675.0000   -35.9076   134.1654     8.6844     7.6865  -999.2500
  675.5000   -35.7126   134.9509     8.6732     7.6307  -999.2500
  676.0000   -35.9502   135.9254     8.6854     7.5723  -999.2500
  676.5000   -36.4496   136.9000     8.6898     7.5141  -999.2500
  677.0000   -36.9605   137.8745     8.5772     7.4564  -999.2500
  677.5000   -37.0484   138.8491     8.4610     7.3988  -999.2500
  678.0000   -37.0495   139.8236     8.3820     7.3619  -999.2500
  678.5000   -37.0493   140.8867     8.3597     7.2894  -999.2500
  679.0000   -37.0478   142.0056     8.3368     7.2861  -999.2500
  679.5000   -36.9842   143.1245     8.3144     7.2874  -999.2500
  680.0000   -36.5633   144.2434     8.2890     7.2809  -999.2500
  680.5000   -36.1078   145.3624     8.2012     7.1164  -999.2500
  681.0000   -35.8289   147.3568     8.0755     6.9323  -999.2500
  681.5000   -36.2901   152.3920     7.8952     6.6771  -999.2500
  682.0000   -36.8378   159.0050     7.7663     6.4251  -999.2500
  682.5000   -37.4090   166.5578     7.6921     6.1732  -999.2500
  683.0000   -37.2907   174.1168     7.5340     5.9212  -999.2500
  683.5000   -36.4598   179.0257     7.2226     5.6784  -999.2500
  684.0000   -35.6546   182.3457     6.9451     5.5355  -999.2500
  684.5000   -35.0257   183.9912     6.8684     5.3974  -999.2500
  685.0000   -35.0373   185.4271     6.7153     5.3761  -999.2500
  685.5000   -35.0312   186.4322     5.8654     5.3769  -999.2500
  686.0000   -35.3663   183.0916     6.3020     5.4265  -999.2500
  686.5000   -35.7508   177.8940     7.2190     5.6672  -999.2500
  687.0000   -36.0477   172.6964     7.7051     5.9014  -999.2500
  687.5000   -36.0622   167.4988     7.5747     6.1352  -999.2500
  688.0000   -36.4759   162.2951     7.5064     6.3689  -999.2500
  688.5000   -36.8919   157.0845     7.5402     6.6051  -999.2500
  689.0000   -37.3290   154.2722     7.5700     6.6819  -999.2500
  689.5000   -37.2118   154.2714     7.5994     6.6845  -999.2500
  690.0000   -36.7230   154.1262     7.6286     6.7282  -999.2500
  690.5000   -36.2099   153.5667     7.6579     6.8888  -999.2500
  691.0000   -36.0426   153.0073     7.6870     6.7998  -999.2500
  691.5000   -36.2693   152.4478     7.7088     6.6756  -999.2500
  692.0000   -36.4442   152.9327     7.7108     6.5810  -999.2500
  692.5000   -36.3670   154.2776     7.6209     6.5840  -999.2500
  693.0000   -36.2369   157.6944     7.4584     6.5909  -999.2500
  693.5000   -36.4436   160.8141     7.2983     6.3055  -999.2500
  694.0000   -36.4547   168.4598     7.1390     5.9868  -999.2500
  694.5000   -36.1528   178.2635     6.9792     5.6670  -999.2500
  695.0000   -35.8162   192.2900     6.8120     5.3477  -999.2500
  695.5000   -35.4814   206.3166     6.5934     5.0297  -999.2500
  696.0000   -35.4434   217.2161     6.3519     4.7172    57.7535
  696.5000   -35.4569   223.6181     5.9832     4.5751    60.2302
  697.0000   -34.9082   222.3920     5.6558     4.5733    57.8365
  697.5000   -34.2997   220.6030     5.6361     4.5706    59.0402
  698.0000   -33.6823   219.1357     5.6165     4.6694    60.1984
  698.5000   -34.1314   214.1005     5.5840     4.8078    62.2053
  699.0000   -34.5637   204.6935     5.8995     5.0340    66.9782
  699.5000   -34.9954   192.5004     6.5552     5.3580    74.3954
  700.0000   -35.0396   180.2459     6.9300     5.6799    68.7747
  700.5000   -34.8380   167.7883     7.1966     6.0023    60.8102
  701.0000   -34.6355   159.9097     7.3952     6.3261    51.8232
  701.5000   -34.8646   153.5302     7.5366     6.6073    55.0835
  702.0000   -35.0458   149.2462     7.6744     6.8111    61.1326
  702.5000   -34.8919   149.2462     7.7967     6.8864    63.1673
  703.0000   -34.6799   148.9634     7.8601     6.9646    70.2740
  703.5000   -34.8630   146.8716     7.9571     7.0424    68.9541
