~VERSION INFORMATION
 VERS.                2.0:   CWLS LOG ASCII STANDARD - VERSION 2.0
 WRAP.                 NO:   ONE LINE PER DEPTH STEP
~WELL INFORMATION
#MNEM.UNIT      DATA TYPE    INFORMATION
#----------   ------------   ------------------------------
 STRT.F           30.0000:   START DEPTH
 STOP.F          502.0000:   STOP DEPTH
 STEP.F            0.5000:   STEP LENGTH
 NULL.          -999.2500:   NO VALUE
 COMP.   FLUOR DANIEL INC:   COMPANY
 WELL. NPR 3  74-66 SX-1 #66-10:   WELL
 FLD .             TEAPOT:   FIELD
 LOC .      S10 T38N R78W:   LOCATION
 CNTY.            NATRONA:   COUNTY
 STAT.            WYOMING:   STATE
 CTRY. UNITED STATES OF AMERICA:   COUNTRY
 SRVC.           Gearhart:   SERVICE COMPANY
 DATE.        19-JUL-1987:   LOGDATE
 API .       490251114700:   API NUMBER
~CURVE INFORMATION
#MNEM.UNIT       API CODE    CURVE DESCRIPTION
#----------   ------------   ------------------------------
 DEPT.F                  :   
 RLL .OHMM   07 220 00 00:   LATEROLOG RESISTIVITY
 RILD.OHMM   07 120 46 00:   INDUCTION LOG DEEP RESISTIVITY
 RILM.OHMM   07 120 44 00:   INDUCTION LOG MEDIUM RESISTIVITY
 GRR .GAPI   07 310 01 00:   GAMMA RAY FROM RES. LOG
 SPR .MV     07 010 01 00:   SPONTANEOUS POTENTIAL FROM RES. LOG
~PARAMETER INFORMATION
#MNEM.UNIT          VALUE    DESCRIPTION
#----------   ------------   ------------------------------
 PD  .                 GL:   PERMANENT DATUM
 EPD .F              5163:   ELEVATION PERMANENT DATUM
 LMF .                 KB:   LOG MEASURED FROM
 DAPD.F                 8:   FEET ABOVE PERMANENT DATUM
 DMF .                 KB:   DRILLING MEASURED FROM
 EKB .F              5171:   KELLING BUSHING
 EDF .F              5169:   DRILLING FLOOR
 EGL .F              5163:   GROUND LEVEL
 DATE.            7-19-87:   RUN DATE
 RUN .                  1:   RUN NUMBER
 DD  .F               500:   DEPTH DRILLER
 DL  .F               502:   DEPTH LOGGER
 BLI .F               500:   BOTTOM LOG INTERVAL
 TLI .F                30:   TOP LOG INTERVAL
 CS  .IN            8.625:   CASING SIZE
 CBD .F                40:   CASING BOTTOM DRILLER
 CBL .F                48:   CASING BOTTOM LOGGER
 BS  .IN            7.875:   BIT SIZE
 BSD .F               500:   BIT SIZE AT DEPTH
 DFT .                MUD:   DRILLING FLUID TYPE
 DFD .                8.9:   DRILLING FLUID DENSITY
 DFV .                 40:   DRILLING FLUID VISCOSITY
 MSS .            MUD PIT:   MUD SAMPLE SOURCE
 RMS .OHMM             .4:   RESISTIVITY MUD SAMPLE
 MST .F                70:   MUD SAMPLE TEMPERATURE
 RMF .OHMM             .3:   RESISTIVITY MUD FILTRATE SAMPLE
 MFST.F                70:   MUD FILTRATE SAMPLE TEMPERATURE
 RMC .OHMM            .32:   RESISTIVITY MUD CAKE
 MCST.F                70:   MUD CAKE SAMPLE TEMPERATURE
 MFSS.              CHART:   MUD FILTRATE SAMPLE SOURCE
 MCSS.              CHART:   MUD CAKE SAMPLE SOURCE
 RMB .OHMM            .35:   RESISTIVITY MUD AT BHT
 BHT .F                80:   BOTTOM HOLE TEMPERATURE
 TCS .HRS            2230:   TIME CURCULATED STOPPED
 TLAB.HRS            2330:   TIME LOGGER AT BOTTOM
 MRT .F                80:   MAXIMUM RECORDED TEMPERATURE
 LUN .               7597:   LOGGING UNIT NUMBER
 LUL .           GILLETTE:   LOGGING UNIT LOCATION
 ENGI.         WEATHERMON:   RECORDING ENGINEER
 WITN.             STRONG:   WITNESSED BY
 CLNT.            A2DTECH:   CLIENT CODE
 ORIG.       2", 5" PRINT:   ORIGIN OF DATA
 UWI .       490251114700:   UNIQUE WELL ID
 DICO. A2D Technologies, Inc.:   DIGITIZING COMPANY
~OTHER INFORMATION
~A   DEPT      RLL       RILD       RILM         GRR       SPR   
# ...
  457.0000    10.0693     9.5096     9.2409    95.5698  -101.8699
  457.5000     9.9889     9.6992     9.5976    95.9178  -101.9794
  458.0000     9.9611     9.7512     9.5020    97.6905  -102.0965
  458.5000    10.0523     9.8359     9.3985    99.5883  -102.0453
  459.0000    10.1381     9.9550     9.1951   100.3902  -101.9415
  459.5000    10.2246    10.0765     8.9930   100.4077  -101.6529
  460.0000    10.5900    10.1853     9.1585   100.4086  -101.2216
  460.5000    10.9638    10.3729     9.3296   100.4016  -100.9720
  461.0000    11.0965    10.5614     9.5040    99.7741  -101.2696
  461.5000    11.4257    10.7539     9.6816    99.0563  -101.5458
  462.0000    11.7983    10.9498     9.8626    98.4626  -101.6542
  462.5000    11.9588    11.1493    10.0469   100.4359  -101.4858
  463.0000    12.0283    11.3524    10.2346   102.4658  -101.3211
  463.5000    12.1058    11.5592    10.4619   104.4560  -101.1554
  464.0000    12.1837    11.6823    10.7383   106.4576  -100.7884
  464.5000    12.2862    11.8396    11.0220   106.9808  -100.3560
  465.0000    12.4853    11.9990    11.3132   104.8533  -100.1620
  465.5000    12.6870    12.1605    11.6121   100.9664  -100.3146
  466.0000    12.8049    12.2335    11.6991    97.4274  -100.4694
  466.5000    12.4249    12.2622    11.7394    97.1793  -100.5045
  467.0000    12.1298    12.2911    11.7798    97.5883  -100.5081
  467.5000    11.8412    12.3200    11.8204    98.7992  -100.5191
  468.0000    11.5512    12.3489    11.8611    98.2537  -100.3868
  468.5000    11.2489    12.3779    11.9407    95.0593  -100.4896
  469.0000    11.4920    12.4073    12.0756    92.3740  -100.6897
  469.5000    11.7511    12.4501    12.2120    90.0733  -101.5901
  470.0000    12.0111    12.4160    12.3500    87.9182  -101.8633
  470.5000    12.2768    12.3493    12.4895    88.7825  -101.3505
  471.0000    12.3470    12.2834    12.6306    91.0979  -102.2810
  471.5000    12.3692    12.2179    12.7732    93.3612  -102.9381
  472.0000    12.3902    12.1527    12.9176    95.6303  -102.9267
  472.5000    12.4114    12.0879    13.0635    97.8808  -102.9181
  473.0000    12.4328    11.9959    13.2113    99.2325  -103.4059
  473.5000    12.4502    12.0085    13.3603    97.2009  -103.9360
  474.0000    12.6904    12.0322    13.5357    95.1846  -103.9956
  474.5000    12.9372    12.0556    13.4092    94.7713  -104.0438
  475.0000    13.1642    12.0787    13.2581    96.0414  -104.0930
  475.5000    12.8720    12.1079    13.1088    97.4100  -104.1345
  476.0000    12.5561    11.9121    12.6230    98.7842  -104.3484
  476.5000    12.2479    11.6542    11.8932    99.2622  -104.5957
  477.0000    11.9470    11.4018    11.2035    99.3721  -104.8400
  477.5000    11.6521    11.1548    10.6103    99.4777  -105.5501
  478.0000    11.3419    10.9934    10.1500    99.6220  -106.6018
  478.5000    11.4843    10.9146    10.0681    98.0484  -106.9151
  479.0000    11.6829    10.8360     9.9611  -999.2500  -107.0889
  479.5000    11.8831    10.7581     9.5738  -999.2500  -107.4398
  480.0000    11.9959    10.5164     9.1973  -999.2500  -107.8945
  480.5000    11.3535    10.1899     9.0094  -999.2500  -108.5889
  481.0000    10.9289     9.8735     8.9098  -999.2500  -108.7892
  481.5000    10.5202     9.5670     8.7849  -999.2500  -108.3009
  482.0000    10.1268     9.2699     8.5241  -999.2500  -108.8021
  482.5000    10.0128     8.9930     8.2714  -999.2500  -109.7870
  483.0000     9.9622     8.9930     8.0440  -999.2500  -109.5294
  483.5000     9.9119     8.9930     8.0787  -999.2500  -109.4756
  484.0000     9.8689     8.9930     8.1111  -999.2500  -109.8816
  484.5000     9.8689     8.9930     8.1438  -999.2500  -110.2290
  485.0000     9.8689     8.9930     8.1765  -999.2500  -110.5483
  485.5000     9.8689     8.9930     8.2094  -999.2500  -110.7337
  486.0000     9.9634     8.9930     8.2424  -999.2500  -110.2554
  486.5000    10.1652     8.9930     8.2714  -999.2500  -110.0386
  487.0000    10.3383     8.9930     8.1668  -999.2500  -110.2600
  487.5000    10.1480     8.9931     8.0748  -999.2500  -110.7094
  488.0000     9.8614     8.9929     7.9839  -999.2500  -110.7577
  488.5000     9.4357     8.9951     7.8939  -999.2500  -110.0391
  489.0000     8.9930     8.9476     7.8049  -999.2500  -109.9010
  489.5000     8.9930     8.8816     7.7174  -999.2500  -110.2212
  490.0000     8.9930     8.7539     7.6271  -999.2500  -999.2500
  490.5000     9.0414     8.4141     7.5359  -999.2500  -999.2500
  491.0000     9.1240     7.6417     7.4457  -999.2500  -999.2500
  491.5000     9.2472  -999.2500     7.3567  -999.2500  -999.2500
  492.0000     9.1365  -999.2500     7.2687  -999.2500  -999.2500
  492.5000     8.9181  -999.2500     7.1950  -999.2500  -999.2500
  493.0000     8.7060  -999.2500     7.1554  -999.2500  -999.2500
  493.5000     8.5847  -999.2500     7.0528  -999.2500  -999.2500
  494.0000     8.3479  -999.2500     6.9972  -999.2500  -999.2500
  494.5000     8.3490  -999.2500  -999.2500  -999.2500  -999.2500
  495.0000     8.1382  -999.2500  -999.2500  -999.2500  -999.2500
  495.5000     7.9140  -999.2500  -999.2500  -999.2500  -999.2500
  496.0000     7.8228  -999.2500  -999.2500  -999.2500  -999.2500
  496.5000     7.8228  -999.2500  -999.2500  -999.2500  -999.2500
  497.0000     7.8228  -999.2500  -999.2500  -999.2500  -999.2500
  497.5000     7.8228  -999.2500  -999.2500  -999.2500  -999.2500
  498.0000     8.4866  -999.2500  -999.2500  -999.2500  -999.2500
  498.5000     8.8090  -999.2500  -999.2500  -999.2500  -999.2500
  499.0000     9.0672  -999.2500  -999.2500  -999.2500  -999.2500
  499.5000     9.1617  -999.2500  -999.2500  -999.2500  -999.2500
  500.0000     9.0770  -999.2500  -999.2500  -999.2500  -999.2500
  500.5000     9.0770  -999.2500  -999.2500  -999.2500  -999.2500
  501.0000     9.0770  -999.2500  -999.2500  -999.2500  -999.2500
  501.5000     9.0770  -999.2500  -999.2500  -999.2500  -999.2500
  502.0000     9.0770  -999.2500  -999.2500  -999.2500  -999.2500
