~VERSION INFORMATION
 VERS.                2.0:   CWLS LOG ASCII STANDARD - VERSION 2.0
 WRAP.                 NO:   ONE LINE PER DEPTH STEP
~WELL INFORMATION
#MNEM.UNIT      DATA TYPE    INFORMATION
#----------   ------------   ------------------------------
 STRT.F           26.0000:   START DEPTH
 STOP.F          520.0000:   STOP DEPTH
 STEP.F            0.5000:   STEP LENGTH
 NULL.          -999.2500:   NO VALUE
 COMP. LAWRENCE/ALLISON INC:   COMPANY
 WELL.   52-15 STX #52-10:   WELL
 FLD .             TEAPOT:   FIELD
 LOC .      S10 T38N R78W:   LOCATION
 CNTY.            NATRONA:   COUNTY
 STAT.            WYOMING:   STATE
 CTRY. UNITED STATES OF AMERICA:   COUNTRY
 SRVC.           Gearhart:   SERVICE COMPANY
 DATE.        23-JUL-1987:   LOGDATE
 API .       490251114600:   API NUMBER
~CURVE INFORMATION
#MNEM.UNIT       API CODE    CURVE DESCRIPTION
#----------   ------------   ------------------------------
 DEPT.F                  :   
 RLL .OHMM   07 220 00 00:   LATEROLOG RESISTIVITY
 RILD.OHMM   07 120 46 00:   INDUCTION LOG DEEP RESISTIVITY
 RILM.OHMM   07 120 44 00:   INDUCTION LOG MEDIUM RESISTIVITY
 GRR .GAPI   07 310 01 00:   GAMMA RAY FROM RES. LOG.
~PARAMETER INFORMATION
#MNEM.UNIT          VALUE    DESCRIPTION
#----------   ------------   ------------------------------
 PD  .                 GL:   PERMANENT DATUM
 EPD .F              5195:   ELEVATION PERMANENT DATUM
 LMF .                 KB:   LOG MEASURED FROM
 DAPD.F                 8:   FEET ABOVE PERMANENT DATUM
 DMF .                 KB:   DRILLING MEASURED FROM
 EKB .F              5203:   KELLING BUSHING
 EDF .F              5201:   DRILLING FLOOR
 EGL .F              5195:   GROUND LEVEL
 DATE.          7-23-1987:   RUN DATE
 RUN .                  1:   RUN NUMBER
 DD  .F               519:   DEPTH DRILLER
 DL  .F               520:   DEPTH LOGGER
 BLI .F               519:   BOTTOM LOG INTERVAL
 TLI .F                30:   TOP LOG INTERVAL
 CS  .IN            8.625:   CASING SIZE
 CBD .F                48:   CASING BOTTOM DRILLER
 CBL .F                48:   CASING BOTTOM LOGGER
 BS  .IN            7.875:   BIT SIZE
 BSD .F               519:   BIT SIZE AT DEPTH
 DFT .                MUD:   DRILLING FLUID TYPE
 DFD .                8.9:   DRILLING FLUID DENSITY
 DFV .                 40:   DRILLING FLUID VISCOSITY
 MSS .            MUD PIT:   MUD SAMPLE SOURCE
 RMS .OHMM            .37:   RESISTIVITY MUD SAMPLE
 MST .F                70:   MUD SAMPLE TEMPERATURE
 RMF .OHMM            .29:   RESISTIVITY MUD FILTRATE SAMPLE
 MFST.F                70:   MUD FILTRATE SAMPLE TEMPERATURE
 RMC .OHMM             .5:   RESISTIVITY MUD CAKE
 MCST.F                70:   MUD CAKE SAMPLE TEMPERATURE
 MFSS.              CHART:   MUD FILTRATE SAMPLE SOURCE
 MCSS.              CHART:   MUD CAKE SAMPLE SOURCE
 RMB .OHMM            .35:   RESISTIVITY MUD AT BHT
 BHT .F                80:   BOTTOM HOLE TEMPERATURE
 TCS .HRS            1100:   TIME CURCULATED STOPPED
 TLAB.HRS            1534:   TIME LOGGER AT BOTTOM
 MRT .F                80:   MAXIMUM RECORDED TEMPERATURE
 LUN .               7597:   LOGGING UNIT NUMBER
 LUL .           GILLETTE:   LOGGING UNIT LOCATION
 ENGI.         WEATHERMON:   RECORDING ENGINEER
 WITN.         MR. STRONG:   WITNESSED BY
 CLNT.            A2DTECH:   CLIENT CODE
 ORIG.       2", 5" PRINT:   ORIGIN OF DATA
 UWI .       490251114600:   UNIQUE WELL ID
 DICO. A2D Technologies, Inc.:   DIGITIZING COMPANY
~OTHER INFORMATION
~A   DEPT      RLL       RILD       RILM         GRR  
# ...
  245.0000     8.7902     7.8246     7.1274   109.0268
  245.5000     8.9060     8.0857     7.3424   106.6836
  246.0000     9.0254     8.3555     7.5638   104.3285
  246.5000     9.1409     8.6466     7.7379   102.7137
  247.0000     9.0994     8.6632     7.7377   101.5121
  247.5000     9.0510     8.6887     7.7368   102.6717
  248.0000     9.0029     8.7138     7.7367   104.1126
  248.5000     8.9731     8.7392     7.7367   105.0846
  249.0000     9.2062     8.7646     7.7367   105.2848
  249.5000     9.4472     8.7902     7.7367   105.5445
  250.0000     9.6143     8.8084     7.7366   105.9939
  250.5000     9.7552     8.8083     7.7922   106.4350
  251.0000     9.8560     8.8083     7.8713   106.8717
  251.5000     9.8911     8.8082     7.9516   107.8979
  252.0000     9.9348     8.8088     8.0285   109.2650
  252.5000     9.7961     8.8077     7.9545   109.0870
  253.0000     9.5811     8.8644     7.8834   103.6504
  253.5000     9.3965     8.9093     7.8087   101.9667
  254.0000     9.3981     8.9544     7.8087   101.2116
  254.5000     9.5044     8.9731     8.1267   101.8304
  255.0000     9.6420     9.1477     8.4095   102.4302
  255.5000     9.7816     9.3119     8.7023   102.6196
  256.0000     9.9359     8.8004     9.0566   102.6243
  256.5000    10.2825     8.1035     9.1409   102.6142
  257.0000    10.6769     7.4618     8.6562   102.2807
  257.5000    11.0020     6.9119     7.6667   101.9371
  258.0000    11.0020     6.5536     6.4523   101.7677
  258.5000     8.8931     6.3687     5.4229   105.7370
  259.0000     7.5806     6.4055     4.8145   112.9250
  259.5000     7.1675     6.4474     4.8256   118.2697
  260.0000     7.1177     6.4883     4.9146   118.9814
  260.5000     8.0445     6.5335     5.8800   112.6045
  261.0000     9.2878     6.7576     6.7966   106.2327
  261.5000    10.7232     7.4605     7.1448   102.1840
  262.0000    11.8486     8.2264     7.4954    99.0388
  262.5000    11.8486     9.0709     7.9773    98.4505
  263.0000    11.5992    10.0050     8.7328    99.3723
  263.5000    11.3427    10.9029     9.1486    99.9827
  264.0000    11.1044    10.9009     9.3046   100.4247
  264.5000    11.1846    10.9005     9.4632    99.7822
  265.0000    11.2613    10.9660     9.6111   100.1979
  265.5000    11.3387    11.5466     9.7353   101.3280
  266.0000    11.4174    12.1579     9.8569   102.4384
  266.5000    12.2578    13.2344     9.9359   102.6672
  267.0000    13.4376    14.7270    10.9801   100.3344
  267.5000    15.1098    16.2363    12.6507    96.4883
  268.0000    16.9900    17.8185    14.5755    88.0325
  268.5000    19.1042    19.4099    16.7932    79.5562
  269.0000    21.4816    21.2258    19.3484    71.1039
  269.5000    24.1547    23.3601    20.2537    63.9368
  270.0000    25.8744    25.5664    20.5299    59.7118
  270.5000    27.4458    26.7016    20.6528    57.3540
  271.0000    28.5732    27.3336    20.2602    59.8827
  271.5000    26.8884    27.7736    20.0305    61.9984
  272.0000    25.1880    28.3097    19.8033    63.8819
  272.5000    24.8655    28.1289    19.5420    64.1947
  273.0000    24.4316    27.9052    19.7688    65.2062
  273.5000    24.0171    27.6833    20.0929    67.9053
  274.0000    23.5208    27.5336    21.3524    70.0918
  274.5000    24.0027    28.0509    22.8703    69.3036
  275.0000    24.6688    28.4489    22.7867    64.3795
  275.5000    25.3306    28.8526    22.6650    60.5505
  276.0000    26.1801    29.2620    23.1656    59.1724
  276.5000    27.5816    29.6772    23.9623    60.9248
  277.0000    30.5112    30.2047    24.7865    62.8680
  277.5000    31.9201    30.0981    25.6084    63.9140
  278.0000    32.1418    29.9561    26.4011    63.8888
  278.5000    32.2310    29.8125    27.0280    65.0453
  279.0000    29.2496    29.6694    27.0280    67.1079
  279.5000    27.0304    29.5263    26.1014    69.2165
  280.0000    24.8655    29.3787    25.4836    70.5282
  280.5000    24.8655    29.6450    24.8655    70.9850
  281.0000    25.5664    29.9304    24.8655    69.8655
  281.5000    26.8893    30.2068    25.9557    68.2692
  282.0000    28.7334    30.6619    27.0849    66.6781
  282.5000    30.4880    31.1375    28.2631    65.0905
  283.0000    30.2692    31.8923    28.8392    63.5042
  283.5000    29.6521    32.6654    26.9248    62.8126
  284.0000    27.4781    33.1395    25.3236    63.1530
  284.5000    25.3306    33.0425    25.3352    66.4712
  285.0000    25.0970    32.9478    24.8969    69.9293
  285.5000    27.4817    32.8755    24.7068    69.3914
  286.0000    29.2352    32.0242    24.5181    67.8707
  286.5000    30.7871    31.3365    24.3309    66.2821
  287.0000    30.7831    30.6636    24.1838    65.1344
  287.5000    29.3787    30.0052    23.6717    66.5841
  288.0000    26.8394    29.3609    23.1779    68.1316
  288.5000    24.6220    28.7304    22.6945    69.5576
  289.0000    22.8911    28.1135    22.2212    70.0585
  289.5000    22.6423    27.5098    21.6389    71.0404
  290.0000    21.9806    26.9191    21.3985    73.1448
  290.5000    21.6685    26.3409    21.0991    75.2523
  291.0000    21.3515    25.7754    20.8068    75.9872
  291.5000    21.0391    25.2220    20.5448    75.3521
  292.0000    20.7312    24.6362    20.1937    73.9494
  292.5000    20.6593    24.2113    19.9076    72.6970
  293.0000    20.7903    23.7753    20.0682    75.0535
  293.5000    20.9236    23.3472    20.2716    77.9988
  294.0000    21.0449    22.9268    20.4771    79.6450
  294.5000    20.8788    22.5140    20.6593    79.6358
  295.0000    20.7243    22.2488    20.5627    80.0770
  295.5000    20.5718    22.5242    20.4593    80.9135
  296.0000    20.4205    22.7307    20.3564    81.7205
  296.5000    20.2783    22.9391    20.2799    82.1216
  297.0000    20.3491    23.0888    20.7052    81.2601
  297.5000    20.4940    22.9938    21.2072    80.4319
  298.0000    20.6400    22.9211    21.7213    79.1198
  298.5000    20.7870    22.8760    22.2488    77.3919
  299.0000    20.9350    23.3417    22.3916    75.6773
  299.5000    21.0457    23.7398    22.6271    74.4692
  300.0000    20.6240    24.1887    22.8651    74.9786
  300.5000    20.2928    24.1878    23.1056    75.4454
  301.0000    20.0945    23.9961    23.3246    75.8951
  301.5000    20.3624    23.8550    23.4379    77.1795
  302.0000    20.6593    23.7153    23.5208    78.6203
  302.5000    20.5869    23.5764    23.1139    79.7085
  303.0000    20.4449    23.4383    22.7435    79.8758
  303.5000    20.3038    23.3039    22.3791    80.0621
  304.0000    20.1637    23.0341    22.0436    80.2413
  304.5000    20.0246    22.7730    22.1387    80.4425
  305.0000    19.8865    22.5148    22.2283    81.4806
  305.5000    19.7493    22.2595    22.2488    82.6357
  306.0000    19.5102    22.0072    21.8811    84.2008
  306.5000    19.4591    21.7592    21.6832    85.6876
  307.0000    19.4082    21.6403    21.4870    82.5986
  307.5000    19.3574    21.4963    21.1471    81.3920
  308.0000    19.3068    21.3716    20.7662    80.2675
  308.5000    19.2563    21.2477    20.3923    79.1910
  309.0000    19.1849    21.1245    20.2799    76.0186
  309.5000    19.2016    21.0331    20.2799    74.2478
  310.0000    19.2349    20.9980    20.2798    72.4486
  310.5000    19.2681    20.9629    20.2799    73.7763
  311.0000    19.3014    20.9280    20.2801    76.9654
  311.5000    19.3347    20.8931    20.2795    79.7578
  312.0000    19.3635    20.8509    20.2819    80.0222
  312.5000    19.1489    20.8533    20.0762    79.0790
  313.0000    18.9392    20.5329    19.8293    77.9000
  313.5000    18.7317    20.3129    19.5850    76.6264
  314.0000    18.5265    20.0954    19.3437    77.8530
  314.5000    18.3236    19.8801    19.1054    79.4366
  315.0000    18.1228    19.6672    18.8700    81.0787
  315.5000    17.9244    19.4565    18.6375    80.7491
  316.0000    17.7281    19.3049    18.4079    80.1509
  316.5000    17.5726    19.2012    18.2238    80.2458
  317.0000    17.3847    19.0943    18.0708    80.5089
  317.5000    17.1982    18.8246    17.9192    80.7821
