~VERSION INFORMATION
 VERS.                2.0:   CWLS LOG ASCII STANDARD - VERSION 2.0
 WRAP.                 NO:   ONE LINE PER DEPTH STEP
~WELL INFORMATION
#MNEM.UNIT      DATA TYPE    INFORMATION
#----------   ------------   ------------------------------
 STRT.F           14.0000:   START DEPTH
 STOP.F          581.5000:   STOP DEPTH
 STEP.F            0.5000:   STEP LENGTH
 NULL.          -999.2500:   NO VALUE
 COMP. LAWRENCE/ALLISON INC:   COMPANY
 WELL.   41-11 STX #10-10:   WELL
 FLD .              NPR 3:   FIELD
 LOC .      S10 T38N R78W:   LOCATION
 CNTY.            NATRONA:   COUNTY
 STAT.            WYOMING:   STATE
 CTRY. UNITED STATES OF AMERICA:   COUNTRY
 SRVC.           Gearhart:   SERVICE COMPANY
 DATE.        03-JUL-1986:   LOGDATE
 API .       490251107900:   API NUMBER
~CURVE INFORMATION
#MNEM.UNIT       API CODE    CURVE DESCRIPTION
#----------   ------------   ------------------------------
 DEPT.F                  :   
 GRR .GAPI   07 310 01 00:   GAMMA RAY FROM RES. LOG.
 RILM.OHMM   07 120 44 00:   INDUCTION LOG MEDIUM RESISTIVITY
 RILD.OHMM   07 120 46 00:   INDUCTION LOG DEEP RESISTIVITY
~PARAMETER INFORMATION
#MNEM.UNIT          VALUE    DESCRIPTION
#----------   ------------   ------------------------------
 PD  .                 GL:   PERMANENT DATUM
 EPD .F              5233:   ELEVATION PERMANENT DATUM
 LMF .                 KB:   LOG MEASURED FROM
 DAPD.F                 5:   FEET ABOVE PERMANENT DATUM
 DMF .                 KB:   DRILLING MEASURED FROM
 EKB .F              5238:   KELLING BUSHING
 EGL .F              5233:   GROUND LEVEL
 DATE.             7-3-86:   RUN DATE
 RUN .                  1:   RUN NUMBER
 DD  .F               590:   DEPTH DRILLER
 DL  .F               591:   DEPTH LOGGER
 BLI .F               581:   BOTTOM LOG INTERVAL
 TLI .F                14:   TOP LOG INTERVAL
 CS  .IN            8.625:   CASING SIZE
 CBD .F                47:   CASING BOTTOM DRILLER
 CBL .F                47:   CASING BOTTOM LOGGER
 BS  .IN            7.875:   BIT SIZE
 BSD .F               590:   BIT SIZE AT DEPTH
 DFT .                AIR:   DRILLING FLUID TYPE
 TCS .HRS            0900:   TIME CURCULATED STOPPED
 TLAB.HRS            1100:   TIME LOGGER AT BOTTOM
 MRT .F                80:   MAXIMUM RECORDED TEMPERATURE
 LUN .               7609:   LOGGING UNIT NUMBER
 LUL .           GILLETTE:   LOGGING UNIT LOCATION
 ENGI.              BAUER:   RECORDING ENGINEER
 WITN.              FIVAS:   WITNESSED BY
 CLNT.            A2DTECH:   CLIENT CODE
 ORIG.       2", 5" PRINT:   ORIGIN OF DATA
 UWI .       490251107900:   UNIQUE WELL ID
 DICO. A2D Technologies, Inc.:   DIGITIZING COMPANY
~OTHER INFORMATION
~A   DEPT       GRR      RILM       RILD   
   14.0000    79.7160  -999.2500  -999.2500
   14.5000    79.7160  -999.2500  -999.2500
   15.0000    82.5558  -999.2500  -999.2500
   15.5000    80.7131  -999.2500  -999.2500
   16.0000    81.4942  -999.2500  -999.2500
   16.5000    82.2952  -999.2500  -999.2500
   17.0000    82.3617  -999.2500  -999.2500
   17.5000    81.3233  -999.2500  -999.2500
   18.0000    77.6990  -999.2500  -999.2500
   18.5000    74.8477  -999.2500  -999.2500
   19.0000    74.0350  -999.2500  -999.2500
   19.5000    74.0238  -999.2500  -999.2500
   20.0000    73.2378  -999.2500  -999.2500
   20.5000    71.1164  -999.2500  -999.2500
   21.0000    70.2920  -999.2500  -999.2500
   21.5000    73.9225  -999.2500  -999.2500
   22.0000    78.0929  -999.2500  -999.2500
   22.5000    82.1112  -999.2500  -999.2500
   23.0000    84.0903  -999.2500  -999.2500
   23.5000    85.8420  -999.2500  -999.2500
   24.0000    85.2495  -999.2500  -999.2500
   24.5000    83.7673  -999.2500  -999.2500
   25.0000    82.0131  -999.2500  -999.2500
   25.5000    79.8427  -999.2500  -999.2500
   26.0000    77.6791  -999.2500  -999.2500
   26.5000    75.5096  -999.2500  -999.2500
   27.0000    73.2612  -999.2500  -999.2500
   27.5000    73.4968  -999.2500  -999.2500
   28.0000    74.8894  -999.2500  -999.2500
   28.5000    77.1332  -999.2500  -999.2500
   29.0000    79.3833  -999.2500  -999.2500
   29.5000    80.1143  -999.2500  -999.2500
   30.0000    80.1269  -999.2500  -999.2500
   30.5000    80.1271  -999.2500  -999.2500
   31.0000    80.1103  -999.2500  -999.2500
   31.5000    79.4269  -999.2500  -999.2500
   32.0000    78.6915  -999.2500  -999.2500
   32.5000    77.9469  -999.2500  -999.2500
   33.0000    77.9258  -999.2500  -999.2500
   33.5000    78.2836  -999.2500  -999.2500
   34.0000    78.6522  -999.2500  -999.2500
   34.5000    79.2442  -999.2500  -999.2500
   35.0000    80.3549  -999.2500  -999.2500
   35.5000    81.4642  -999.2500  -999.2500
   36.0000    82.5097  -999.2500  -999.2500
   36.5000    82.0603  -999.2500  -999.2500
   37.0000    82.1996  -999.2500  -999.2500
   37.5000    82.9612  -999.2500  -999.2500
   38.0000    81.9432  -999.2500  -999.2500
   38.5000    79.8011  -999.2500  -999.2500
   39.0000    78.5637  -999.2500  -999.2500
   39.5000    79.3886  -999.2500  -999.2500
   40.0000    81.6811  -999.2500  -999.2500
   40.5000    82.3862  -999.2500  -999.2500
   41.0000    79.9122  -999.2500  -999.2500
   41.5000    77.2282  -999.2500  -999.2500
   42.0000    76.1746  -999.2500  -999.2500
   42.5000    75.3853  -999.2500  -999.2500
   43.0000    74.5923  -999.2500  -999.2500
   43.5000    73.7597  -999.2500  -999.2500
   44.0000    74.0937  -999.2500  -999.2500
   44.5000    76.7031  -999.2500  -999.2500
   45.0000    79.4314  -999.2500  -999.2500
   45.5000    82.0477  -999.2500    47.9005
   46.0000    89.2288  1099.9127    34.9555
   46.5000    98.0585   627.2762    10.8808
   47.0000   105.0655   569.5023    10.9789
   47.5000   102.3391   250.3649     5.7830
   48.0000    98.9026    56.8067     4.5079
   48.5000   100.6640    12.8892     4.3425
   49.0000   104.1467     6.3946     4.4729
   49.5000   110.0910     5.4576     5.0483
   50.0000   115.6815     5.3833     6.2239
   50.5000   118.7180     5.6783     7.6732
   51.0000   115.6082     6.4844     9.4601
   51.5000   112.0132     7.6127     9.9724
   52.0000   108.9406     8.9377     9.6471
   52.5000   109.9366    10.4957     9.1425
   53.0000   111.5373    12.3212     8.8320
   53.5000   110.8784    13.4555     8.9577
   54.0000   108.7695    13.4494     9.1253
   54.5000   106.8923    12.7855     9.2961
   55.0000   109.4484    11.9080     9.4700
   55.5000   112.4386    11.0569     9.6337
   56.0000   115.4326    10.2666     9.7878
   56.5000   115.8143     9.5327     9.8465
   57.0000   113.2807     9.4288     9.9142
   57.5000   110.8263     9.6489     9.9846
   58.0000   110.4494     9.8249    10.0555
   58.5000   110.0274    10.0041    10.1269
   59.0000   109.2623    10.1866    10.1989
   59.5000   107.7066    10.3724    10.2713
   60.0000   106.5135    10.5616    10.3443
   60.5000   106.7967    10.6991    10.4178
   61.0000   108.1503    10.8448    10.4918
   61.5000   107.7579    10.9924    10.5848
   62.0000   105.2201    11.1553    10.7330
   62.5000   101.6256    11.1123    10.9482
   63.0000    98.3945    11.0654    10.9189
   63.5000    98.8413    11.0187    10.8628
   64.0000   101.9404    10.9721    10.8082
   64.5000   105.9601    10.9395    10.7539
   65.0000   109.3410    10.8579    10.6999
   65.5000   109.1035    10.7769    10.6462
   66.0000   108.5192    10.6965    10.4746
   66.5000   108.5233    10.6168    10.3060
   67.0000   108.5333    10.5425    10.2342
   67.5000   108.0173    10.5038    10.2034
   68.0000   107.4148    10.4653    10.1727
   68.5000   107.6073    10.4270    10.1421
   69.0000   108.0035    10.3887    10.1115
   69.5000   108.4441    10.3507    10.0811
   70.0000   107.2374    10.3127    10.0508
   70.5000   105.4549    10.2749    10.0205
   71.0000   104.3301    10.2372     9.9903
   71.5000   105.9614    10.1997     9.9603
   72.0000   107.4907    10.1609     9.9303
   72.5000   107.7106    10.1366     9.9004
   73.0000   105.2827    10.1115     9.8706
   73.5000   102.8784    10.0865     9.8409
   74.0000   100.8925    10.0616     9.8112
   74.5000   103.3714    10.0367     9.7817
   75.0000   106.0429    10.0119     9.7523
   75.5000   108.6688     9.9872     9.7229
   76.0000   111.2938     9.9625     9.6936
   76.5000   112.8599     9.9379     9.6645
   77.0000   113.8480     9.9133     9.6354
   77.5000   116.6295     9.8896     9.6066
   78.0000   119.3947     9.8318     9.5383
   78.5000   122.1247     9.7242     9.4562
   79.0000   123.9620     9.6173     9.3743
   79.5000   123.9608     9.5115     9.2931
   80.0000   122.8528     9.3910     9.2127
   80.5000   121.7330     9.2139     9.0854
   81.0000   121.0852     9.0400     8.9011
   81.5000   120.4455     8.8695     8.7205
   82.0000   119.7713     8.7022     8.5437
   82.5000   118.2781     8.5381     8.3742
   83.0000   118.2364     8.3770     8.2092
   83.5000   118.2604     8.2190     8.0473
   84.0000   118.2531     8.0639     7.8221
   84.5000   117.7819     7.9696     7.8955
   85.0000   116.0730     8.1503     7.9072
   85.5000   114.4104     8.5460     8.0141
   86.0000   113.5530     9.3412     8.1222
   86.5000   114.0245    10.2894     8.2321
   87.0000   114.5094    11.4204     8.3438
   87.5000   114.1882    12.3625     8.4694
   88.0000   112.1753    12.4785     8.6397
   88.5000   109.4601    11.8695     8.8134
   89.0000   105.9087    10.9635     8.9906
   89.5000   102.5498    10.1266     9.1683
   90.0000   101.0224     9.3536     9.1330
   90.5000   100.2300     9.2117     9.0776
   91.0000   100.6919     9.1631     9.0226
   91.5000   103.8973     9.1157     8.9678
   92.0000   106.9183     9.0680     8.9135
   92.5000   106.4737     9.0203     8.8594
   93.0000   104.4940     8.9717     8.8057
   93.5000   104.6135     8.8357     8.6720
   94.0000   106.8293     8.8991     8.7545
   94.5000   110.3132     9.0274     8.8633
   95.0000   115.0908     9.1539     8.9762
   95.5000   115.1217     9.2818     9.0902
   96.0000   112.2040     9.3519     9.2056
   96.5000   109.4190     9.3717     9.2543
   97.0000   110.2425     9.3915     9.2220
   97.5000   111.7704     9.4114     9.1825
   98.0000   111.7392     9.4288     9.1432
   98.5000   110.0277     9.3882     9.1040
   99.0000   110.0862     9.3522     9.0650
   99.5000   111.3786     9.3164     9.0261
  100.0000   109.9956     9.2807     8.9983
  100.5000   107.4479     9.2451     8.9743
  101.0000   105.3032     9.2097     8.9519
  101.5000   106.9186     9.1745     8.9298
  102.0000   110.2915     9.1393     8.9076
  102.5000   112.7857     9.1043     8.8856
  103.0000   113.6801     9.0694     8.8636
  103.5000   113.0013     9.0347     8.8416
  104.0000   111.1976     9.0001     8.8197
  104.5000   109.2309     8.9656     8.7979
