~VERSION INFORMATION
 VERS.                2.0:   CWLS LOG ASCII STANDARD - VERSION 2.0
 WRAP.                 NO:   ONE LINE PER DEPTH STEP
~WELL INFORMATION
#MNEM.UNIT      DATA TYPE    INFORMATION
#----------   ------------   ------------------------------
 STRT.F           92.0000:   START DEPTH
 STOP.F          810.0000:   STOP DEPTH
 STEP.F            0.5000:   STEP LENGTH
 NULL.          -999.2500:   NO VALUE
 COMP. U S NAVY/INTEX OIL CO:   COMPANY
 WELL. NPR #3 #86 S 34-34:   WELL
 FLD .        EAST TEAPOT:   FIELD
 LOC .      S34 T39N R78W:   LOCATION
 CNTY.            NATRONA:   COUNTY
 STAT.            WYOMING:   STATE
 CTRY. UNITED STATES OF AMERICA:   COUNTRY
 SRVC. Schlumberger Well Surveying Corp:   SERVICE COMPANY
 DATE.        22-JUL-1962:   LOGDATE
 API .       490250652900:   API NUMBER
~CURVE INFORMATION
#MNEM.UNIT       API CODE    CURVE DESCRIPTION
#----------   ------------   ------------------------------
 DEPT.F                  :   
 GR  .GAPI   30 310 01 00:   GAMMA RAY
 SPR .MV     05 010 01 00:   SPONTANEOUS POTENTIAL FROM RES.
 CILD.MMHO   05 110 46 00:   CONDUCTIVITY INDUCTION LOG DEEP
 ASN .OHMM   05 041 16 00:   AMPLIFIED SHORT NORMAL 16"
 ILD .OHMM   05 120 46 00:   INDUCTION LOG DEEP
 CALM.IN     15 280 01 00:   CALIPER FROM MICRO LOG
~PARAMETER INFORMATION
#MNEM.UNIT          VALUE    DESCRIPTION
#----------   ------------   ------------------------------
 PD  .                 GL:   PERMANENT DATUM
 EPD .F              5094:   ELEVATION PERMANENT DATUM
 LMF .                 KB:   LOG MEASURED FROM
 DAPD.F                 5:   FEET ABOVE PERMANENT DATUM
 DMF .                 KB:   DRILLING MEASURED FROM
 EKB .F              5099:   KELLING BUSHING
 EGL .F              5094:   GROUND LEVEL
 DATE.            7-22-62:   RUN DATE
 RUN .                  1:   RUN NUMBER
 DD  .F               810:   DEPTH DRILLER
 DL  .F               811:   DEPTH LOGGER
 BLI .F               810:   BOTTOM LOG INTERVAL
 TLI .F               100:   TOP LOG INTERVAL
 BS  .IN             6.75:   BIT SIZE
 BSD .F               810:   BIT SIZE AT DEPTH
 DFT .                GEL:   DRILLING FLUID TYPE
 DFD .               10.3:   DRILLING FLUID DENSITY
 DFV .                 43:   DRILLING FLUID VISCOSITY
 RMS .OHMM              4:   RESISTIVITY MUD SAMPLE
 MST .F                75:   MUD SAMPLE TEMPERATURE
 RMF .OHMM            2.9:   RESISTIVITY MUD FILTRATE SAMPLE
 MFST.F                75:   MUD FILTRATE SAMPLE TEMPERATURE
 RMC .OHMM            3.8:   RESISTIVITY MUD CAKE
 MCST.F                75:   MUD CAKE SAMPLE TEMPERATURE
 TCS .HRS               1:   TIME CURCULATED STOPPED
 LUN .               2503:   LOGGING UNIT NUMBER
 ENGI.           ELLERMAN:   RECORDING ENGINEER
 WITN.          JORGENSON:   WITNESSED BY
 CLNT.            A2DTECH:   CLIENT CODE
 ORIG.   1", 2", 5" PRINT:   ORIGIN OF DATA
 UWI .       490250652900:   UNIQUE WELL ID
 DICO. A2D Technologies, Inc.:   DIGITIZING COMPANY
~OTHER INFORMATION
~A   DEPT       GR        SPR       CILD        ASN        ILD       CALM   
# ...
  716.0000    74.2538   -34.7918    92.9078    11.0347    10.6204     6.8160
  716.5000    73.8030   -33.9861    93.3898    10.9310    10.5069     6.8154
  717.0000    66.9247   -33.5231    93.8719    10.8271    10.3934     6.8154
  717.5000    55.4590   -33.4666    94.3539    10.7234    10.2804     6.8154
  718.0000    61.4701   -34.6376    94.8359    10.6441    10.1650     6.8154
  718.5000    66.3251   -34.8843    94.4420    10.7058    10.1910     6.8154
  719.0000    61.6451   -34.8189    93.5276    10.7674    10.2930     6.8154
  719.5000    58.6369   -34.3741    92.6132    10.8284    10.3967     6.8155
  720.0000    52.4464   -33.9354    91.6987    10.8894    10.5006     6.8153
  720.5000    55.0732   -33.5019    90.7843    10.9508    10.6040     6.8078
  721.0000    53.0652   -33.2275    89.8687    11.0113    10.7094     6.7688
  721.5000    50.2616   -33.3469    88.9499    11.0380    10.6891     6.7307
  722.0000    44.9679   -33.6645    88.7723    10.9166    10.5972     6.6923
  722.5000    48.7597   -34.2487    90.1888    10.7984    10.5039     6.6531
  723.0000    53.5718   -35.3425    91.9116    10.6806    10.4105     6.6961
  723.5000    67.5690   -36.5128    93.6408    10.5629    10.3172     6.7507
  724.0000    72.6979   -37.6781    95.3686    10.4451    10.2239     6.8056
  724.5000    70.0356   -38.6313    97.0959    10.3272    10.1306     6.8598
  725.0000    60.9986   -38.2116    98.8231    10.2094    10.0373     6.8914
  725.5000    52.2019   -37.1510   100.5504    10.0932     9.9442     6.8587
  726.0000    52.8577   -35.7599   102.2776    10.0708     9.8505     6.8280
  726.5000    51.3719   -34.3558   103.3230    10.1653     9.7912     6.7974
  727.0000    58.2378   -32.9369   103.3230    10.2342     9.7535     6.7668
  727.5000    54.3561   -32.2641   102.3364    10.3065     9.7181     6.7362
  728.0000    50.5383   -32.1922    99.5016    10.4996     9.8406     6.7057
  728.5000    41.6762   -32.1903    96.5406    10.9600    10.1879     6.6750
  729.0000    39.5161   -32.2932    93.5796    11.6753    10.5431     6.6347
  729.5000    25.7708   -32.4146    88.8785    12.4070    11.1163     6.5501
  730.0000    14.0649   -32.5389    83.6968    13.1425    11.7037     6.5788
  730.5000    20.1875   -32.9694    78.5151    13.5782    12.3055     6.5877
  731.0000    44.2394   -34.1304    73.3333    13.7981    13.1556     6.4621
  731.5000    37.5013   -36.5326    68.1516    13.9975    14.0267     6.5247
  732.0000    43.7073   -38.5064    62.9699    16.2542    14.8982     6.5756
  732.5000    35.8599   -40.3815    58.1192    18.0179    15.7727     6.5113
  733.0000    44.6731   -42.2568    54.8806    18.5906    16.6423     6.6218
  733.5000    48.6668   -44.1303    53.6886    17.6967    17.0159     6.7130
  734.0000    46.0844   -46.0267    54.0587    16.9923    17.0206     6.6031
  734.5000    43.9004   -46.8772    54.4289    17.3329    16.9124     6.5902
  735.0000    35.7580   -47.3731    54.7990    18.1874    16.8028     6.6423
  735.5000    29.9986   -48.0019    55.1691    17.8433    16.6956     6.6945
  736.0000    34.2605   -48.7750    55.5556    17.2977    16.4167     6.7313
  736.5000    41.0040   -44.5397    57.2066    17.4840    16.0874     6.6906
  737.0000    47.5946   -41.6584    58.9339    17.0818    15.7571     6.6507
  737.5000    41.7905   -41.1249    60.6611    16.5298    15.4303     6.6101
  738.0000    47.7470   -41.8914    61.9609    15.9619    15.1785     6.6070
  738.5000    43.3779   -42.6679    62.4624    15.8323    15.0901     6.5928
  739.0000    54.9641   -43.3277    62.9639    16.0289    14.9982     6.5552
  739.5000    51.5270   -42.3769    63.4653    16.2957    14.9027     6.5129
  740.0000    45.8042   -40.6086    63.9668    15.9966    14.7337     6.4980
  740.5000    44.5424   -40.6986    64.4682    15.5138    14.5556     6.5458
  741.0000    39.4253   -41.6114    65.0260    15.0241    14.3773     6.5611
  741.5000    45.4532   -41.9667    65.9387    15.2171    14.1992     6.5529
  742.0000    60.4837   -41.1762    66.8522    15.3607    14.0215     6.5488
  742.5000    56.7744   -40.4931    67.7757    15.2022    13.8429     6.5701
  743.0000    68.4613   -40.6070    68.6466    15.0063    13.6971     6.5878
  743.5000    60.4435   -40.5476    69.5102    14.8041    13.5755     6.5764
  744.0000    49.1379   -39.9691    70.3738    14.5866    13.4526     6.5628
  744.5000    41.2163   -40.4676    71.2374    14.5483    13.3871     6.5490
  745.0000    39.2977   -41.7295    72.0986    14.7447    13.3230     6.5351
  745.5000    55.2343   -41.3061    72.9718    14.9396    13.2580     6.5265
  746.0000    66.2851   -41.1980    73.7911    15.0940    13.1214     6.5781
  746.5000    62.6719   -41.3889    74.6028    14.3888    12.9568     6.6331
  747.0000    56.4275   -40.6120    75.4145    13.7313    12.7919     6.6353
  747.5000    50.9875   -38.7429    76.2262    13.0578    12.6284     6.6200
  748.0000    47.4944   -37.6333    77.0379    13.4315    12.4618     6.6184
  748.5000    43.4062   -38.4955    77.8496    13.2752    12.2960     6.6665
  749.0000    35.4331   -39.5369    78.6613    13.0406    12.1295     6.6919
  749.5000    39.4848   -40.5805    79.4731    12.8003    11.9633     6.6343
  750.0000    42.5797   -41.5171    80.2848    12.5608    11.7972     6.5549
  750.5000    37.4498   -41.6287    81.0965    12.3217    11.6311     6.4872
  751.0000    41.9295   -41.7739    81.9082    12.0825    11.4650     6.5406
  751.5000    44.3238   -42.2401    82.7199    11.8433    11.2988     6.5944
  752.0000    59.2049   -42.7140    83.5929    11.6041    11.1327     6.6298
  752.5000    54.9313   -43.1884    85.0415    11.3650    10.9666     6.6340
  753.0000    58.9922   -43.6923    86.6085    11.1257    10.8005     6.6375
  753.5000    62.1106   -43.1596    88.1755    10.8870    10.6343     6.6410
  754.0000    55.9182   -42.0736    89.7425    10.6466    10.4685     6.6445
  754.5000    65.6581   -40.7667    91.3094    10.5418    10.3016     6.6480
  755.0000    57.7650   -39.4671    92.9387    10.5399    10.2088     6.6501
  755.5000    58.3676   -38.1673    94.6106    10.5398    10.1703     6.6519
  756.0000    75.6911   -36.8630    96.3517    10.5400    10.1330     6.6537
  756.5000    68.2928   -35.5457    98.1308    10.5400    10.0958     6.6555
  757.0000    71.1636   -34.6907    98.5095    10.5400    10.0584     6.6572
  757.5000    67.3332   -33.8204    98.9954    10.5400    10.0211     6.6590
  758.0000    55.3606   -33.6443    99.4813    10.5400     9.9838     6.6608
  758.5000    56.3336   -33.6684    99.9672    10.5400     9.9465     6.6626
  759.0000    53.1385   -33.8456   100.4530    10.5401     9.9092     6.6644
  759.5000    51.1601   -34.0186   100.9389    10.5394     9.8719     6.6662
  760.0000    54.8022   -34.1966   101.4248    10.5009     9.8344     6.6680
  760.5000    59.2639   -33.9591   101.9107    10.4052     9.7879     6.6698
  761.0000    56.9162   -33.4434   102.3966    10.3104     9.7281     6.6716
  761.5000    56.3164   -32.9242   102.8825    10.2154     9.6684     6.6734
  762.0000    60.9362   -32.4013   103.3683    10.1204     9.6087     6.6752
  762.5000    52.1667   -32.0835   103.8542    10.0252     9.5490     6.6769
  763.0000    58.0349   -31.8934   104.3401     9.9302     9.4893     6.6787
  763.5000    52.7380   -31.7789   104.8260     9.9068     9.4299     6.6805
  764.0000    56.5920   -31.7794   105.3127     9.8952     9.4045     6.6823
  764.5000    44.8442   -31.7805   105.7978     9.8837     9.4196     6.6841
  765.0000    44.1930   -31.8739   106.2837     9.8722     9.4345     6.6859
  765.5000    52.8292   -32.3638   106.0425     9.8605     9.4494     6.6877
  766.0000    68.5225   -32.8513   105.4621     9.8490     9.4643     6.6895
  766.5000    67.6428   -32.8741   104.8817     9.8372     9.4793     6.6913
  767.0000    69.3397   -32.6571   104.3014     9.8252     9.4942     6.6909
  767.5000    79.8339   -32.1561   103.7210     9.8143     9.5091     6.6717
