~VERSION INFORMATION
 VERS.                2.0:   CWLS LOG ASCII STANDARD - VERSION 2.0
 WRAP.                 NO:   ONE LINE PER DEPTH STEP
~WELL INFORMATION
#MNEM.UNIT      DATA TYPE    INFORMATION
#----------   ------------   ------------------------------
 STRT.F          550.0000:   START DEPTH
 STOP.F         2078.5000:   STOP DEPTH
 STEP.F            0.5000:   STEP LENGTH
 NULL.          -999.2500:   NO VALUE
 COMP. BROWN JOHN E&C INC:   COMPANY
 WELL. 58-61 STX-10 #58-10:   WELL
 FLD .             TEAPOT:   FIELD
 LOC .      S10 T38N R78W:   LOCATION
 CNTY.            NATRONA:   COUNTY
 STAT.            WYOMING:   STATE
 CTRY. UNITED STATES OF AMERICA:   COUNTRY
 SRVC.            Unknown:   SERVICE COMPANY
 DATE.        07-SEP-1991:   LOGDATE
 API .       490251108000:   API NUMBER
~CURVE INFORMATION
#MNEM.UNIT       API CODE    CURVE DESCRIPTION
#----------   ------------   ------------------------------
 DEPT.F                  :   
 ROP .MIN/FT 91 810 01 00:   RAT OF DRILLING PENETRATION
 TGAS.UNITS  91 830 01 00:   TOTAL GAS FROM HOTWIRE
~PARAMETER INFORMATION
#MNEM.UNIT          VALUE    DESCRIPTION
#----------   ------------   ------------------------------
 EKB .F              5216:   KELLING BUSHING
 EGL .F              5206:   GROUND LEVEL
 DATE.             9-7-91:   RUN DATE
 DD  .F              2079:   DEPTH DRILLER
 TCS .HRS            1815:   TIME CURCULATED STOPPED
 TLAB.HRS            1930:   TIME LOGGER AT BOTTOM
 ENGI.         HUSK/TOWER:   RECORDING ENGINEER
 WITN.             HENDRY:   WITNESSED BY
 CLNT.            A2DTECH:   CLIENT CODE
 ORIG.           5" PRINT:   ORIGIN OF DATA
 UWI .       490251108000:   UNIQUE WELL ID
 DICO. A2D Technologies, Inc.:   DIGITIZING COMPANY
~OTHER INFORMATION
~A   DEPT        ROP       TGAS 
# ...
 1522.0000     0.9197     8.5354
 1522.5000     1.0602     8.5918
 1523.0000     1.2927     8.6482
 1523.5000     1.5264     8.7075
 1524.0000     1.7627     8.7655
 1524.5000     1.8465     8.6771
 1525.0000     1.6527     7.6446
 1525.5000     1.4927     6.8457
 1526.0000     1.3337     6.0320
 1526.5000     1.1885     5.3478
 1527.0000     1.1204     5.2776
 1527.5000     1.0594     5.3279
 1528.0000     0.9729     5.3738
 1528.5000     0.8920     5.4145
 1529.0000     0.9477     5.4556
 1529.5000     1.0142     5.4966
 1530.0000     1.0828     5.5377
 1530.5000     1.0977     5.5788
 1531.0000     1.1083     5.6200
 1531.5000     1.1180     5.6617
 1532.0000     1.1283     5.7019
 1532.5000     1.1379     5.7406
 1533.0000     1.1554     5.4345
 1533.5000     1.2221     4.6938
 1534.0000     1.3053     3.9553
 1534.5000     1.3243     3.2635
 1535.0000     1.3508     3.2576
 1535.5000     1.3766     3.2893
 1536.0000     1.4024     3.3179
 1536.5000     1.4156     3.3460
 1537.0000     1.4366     3.3739
 1537.5000     1.4571     3.4018
 1538.0000     1.4684     3.4297
 1538.5000     1.4368     3.4576
 1539.0000     1.3581     3.4856
 1539.5000     1.2799     3.5135
 1540.0000     1.2016     3.5414
 1540.5000     1.1235     3.5693
 1541.0000     1.0432     3.5972
 1541.5000     0.9959     3.6251
 1542.0000     0.9718     3.6530
 1542.5000     0.9483     3.6809
 1543.0000     0.9249     3.7089
 1543.5000     0.9004     3.7368
 1544.0000     0.8940     3.7647
 1544.5000     0.9004     3.7926
 1545.0000     0.9280     3.8205
 1545.5000     0.9549     3.8484
 1546.0000     0.9817     3.8763
 1546.5000     1.0086     3.9042
 1547.0000     1.0354     3.9322
 1547.5000     1.0622     3.9601
 1548.0000     1.0824     3.9880
 1548.5000     1.0505     4.0159
 1549.0000     1.0065     4.0438
 1549.5000     0.9616     4.0717
 1550.0000     0.9191     4.0996
 1550.5000     0.9242     4.1276
 1551.0000     1.0654     4.1555
 1551.5000     1.2056     4.1834
 1552.0000     1.2847     4.2113
 1552.5000     1.3454     4.2392
 1553.0000     1.4049     4.2671
 1553.5000     1.4651     4.2950
 1554.0000     1.5239     4.3229
 1554.5000     1.4696     4.3509
 1555.0000     1.3994     4.3788
 1555.5000     1.3263     4.4067
 1556.0000     1.2924     4.4346
 1556.5000     1.2619     4.4625
 1557.0000     1.2322     4.4904
 1557.5000     1.2021     4.5183
 1558.0000     1.1727     4.5462
 1558.5000     1.2446     4.5742
 1559.0000     1.3321     4.6021
 1559.5000     1.4200     4.6300
 1560.0000     1.5077     4.6579
 1560.5000     1.5953     4.6858
 1561.0000     1.6830     4.7137
 1561.5000     1.7706     4.7423
 1562.0000     1.8574     4.7586
 1562.5000     1.9221     4.7713
 1563.0000     1.9313     4.7838
 1563.5000     1.9390     4.7962
 1564.0000     1.9886     4.8088
 1564.5000     2.2218     4.8212
 1565.0000     2.4533     4.8337
 1565.5000     2.6386     4.8463
 1566.0000     2.6956     4.8587
 1566.5000     2.7582     4.8713
 1567.0000     2.8210     4.8837
 1567.5000     2.8838     4.8962
 1568.0000     2.9213     4.9088
 1568.5000     2.9077     4.9212
 1569.0000     2.8783     4.9338
 1569.5000     2.8406     4.9462
 1570.0000     2.7626     4.9587
 1570.5000     2.6267     4.9713
 1571.0000     2.4915     4.9837
 1571.5000     2.3565     4.9963
 1572.0000     2.2205     5.0087
 1572.5000     2.2019     5.0212
 1573.0000     2.2975     5.0338
 1573.5000     2.3942     5.0462
 1574.0000     2.4176     5.0588
 1574.5000     2.3019     5.0712
 1575.0000     2.1843     5.0837
 1575.5000     2.0661     5.0963
 1576.0000     2.0619     5.1087
 1576.5000     2.1078     5.1213
 1577.0000     2.1539     5.1337
 1577.5000     2.2012     5.1462
 1578.0000     2.1893     5.1588
 1578.5000     1.9612     5.1712
 1579.0000     1.7233     5.1838
 1579.5000     1.4883     5.1962
 1580.0000     1.2825     5.2088
 1580.5000     1.2641     5.2217
 1581.0000     1.2362     5.2350
 1581.5000     1.1948     5.2448
 1582.0000     1.1533     5.1540
 1582.5000     1.1116     4.7855
 1583.0000     1.0699     4.4280
 1583.5000     1.0285     4.0719
 1584.0000     0.9924     3.7144
 1584.5000     1.0003     3.3389
 1585.0000     1.0427     3.5449
 1585.5000     1.0850     3.9561
 1586.0000     1.1272     4.3745
 1586.5000     1.1694     4.7963
 1587.0000     1.2116     5.2318
 1587.5000     1.2544     5.2562
 1588.0000     1.2915     5.1630
 1588.5000     1.2722     5.0378
 1589.0000     1.1873     4.9126
 1589.5000     1.1049     4.7875
 1590.0000     1.0225     4.6624
 1590.5000     0.9937     4.5376
 1591.0000     1.0533     4.4126
 1591.5000     1.1361     4.2836
 1592.0000     1.1885     4.2558
 1592.5000     1.1972     4.2648
 1593.0000     1.2007     4.2751
 1593.5000     1.2047     4.2854
 1594.0000     1.2427     4.2955
 1594.5000     1.3278     4.3057
 1595.0000     1.4574     4.3158
 1595.5000     1.7264     4.3259
 1596.0000     1.9579     4.3360
 1596.5000     1.9683     4.3461
 1597.0000     1.9446     4.3563
 1597.5000     1.9316     4.3664
 1598.0000     1.9426     4.3765
 1598.5000     2.0717     4.3866
 1599.0000     2.2345     4.3968
 1599.5000     2.3981     4.4069
 1600.0000     2.5502     4.4170
 1600.5000     2.5428     4.4271
 1601.0000     2.2476     4.4373
 1601.5000     1.9269     4.4474
 1602.0000     1.6070     4.4575
 1602.5000     1.5410     4.4676
 1603.0000     1.5042     4.4777
 1603.5000     1.5089     4.4879
 1604.0000     1.5562     4.4980
 1604.5000     1.6627     4.5081
 1605.0000     1.7669     4.5182
 1605.5000     1.8704     4.5283
 1606.0000     1.9306     4.5385
 1606.5000     1.9059     4.5486
 1607.0000     1.8520     4.5587
 1607.5000     1.8319     4.5688
 1608.0000     1.8365     4.5789
 1608.5000     1.9859     4.5891
 1609.0000     2.1606     4.5992
 1609.5000     2.3369     4.6093
 1610.0000     2.5141     4.6194
 1610.5000     2.7140     4.6295
 1611.0000     2.6028     4.6397
 1611.5000     2.4540     4.6498
 1612.0000     2.3040     4.6599
 1612.5000     2.1875     4.6700
 1613.0000     2.1469     4.6802
 1613.5000     2.1205     4.6903
 1614.0000     2.1523     4.7004
 1614.5000     2.2685     4.7105
 1615.0000     2.4540     4.7207
 1615.5000     2.6399     4.7308
 1616.0000     2.8308     4.7408
 1616.5000     2.9072     4.7505
 1617.0000     2.8774     4.7637
 1617.5000     2.8364     4.7764
 1618.0000     2.8143     4.7889
 1618.5000     2.8498     4.8015
 1619.0000     2.8837     4.8141
 1619.5000     2.9172     4.8266
 1620.0000     2.9513     4.8392
 1620.5000     3.0829     4.8518
 1621.0000     3.2303     4.8643
 1621.5000     3.3781     4.8769
 1622.0000     3.5259     4.8895
 1622.5000     3.6682     4.9020
 1623.0000     3.7474     4.9146
 1623.5000     3.8245     4.9271
 1624.0000     3.8949     4.9397
 1624.5000     3.9469     4.9523
 1625.0000     2.7894     4.9648
 1625.5000     1.8228     4.9774
 1626.0000     1.1898     4.9900
 1626.5000     1.1015     5.0025
 1627.0000     1.0475     5.0151
 1627.5000     0.9966     5.0276
 1628.0000     0.9499     5.0402
 1628.5000     0.8940     5.0528
 1629.0000     0.8898     5.0653
 1629.5000     0.9261     5.0779
 1630.0000     0.9626     5.0904
 1630.5000     0.9994     5.1030
 1631.0000     1.0363     5.1156
 1631.5000     1.0879     5.1281
 1632.0000     1.2425     5.1407
 1632.5000     1.3458     5.1533
 1633.0000     1.3996     5.1658
 1633.5000     1.4534     5.1784
 1634.0000     1.5069     5.1909
 1634.5000     1.5604     5.2035
 1635.0000     1.6135     5.2161
 1635.5000     1.7443     5.2288
 1636.0000     1.9103     5.2410
 1636.5000     2.0766     5.2413
 1637.0000     2.2432     5.2066
 1637.5000     2.4091     5.1733
 1638.0000     2.5744     5.1400
 1638.5000     2.7114     5.1067
 1639.0000     2.8104     5.0733
 1639.5000     2.9057     5.0400
 1640.0000     2.9496     5.0067
 1640.5000     2.8198     4.9733
 1641.0000     2.6700     4.9400
 1641.5000     2.5185     4.9067
 1642.0000     2.3672     4.8733
 1642.5000     2.2171     4.8397
 1643.0000     2.0712     4.8025
