~VERSION INFORMATION
 VERS.                2.0:   CWLS LOG ASCII STANDARD - VERSION 2.0
 WRAP.                 NO:   ONE LINE PER DEPTH STEP
~WELL INFORMATION
#MNEM.UNIT      DATA TYPE    INFORMATION
#----------   ------------   ------------------------------
 STRT.F           30.0000:   START DEPTH
 STOP.F          507.0000:   STOP DEPTH
 STEP.F            0.5000:   STEP LENGTH
 NULL.          -999.2500:   NO VALUE
 COMP. FENIX & SCISSON INC:   COMPANY
 WELL.      NPR-3 #42S-10:   WELL
 FLD .             TEAPOT:   FIELD
 LOC .      S10 T38N R78W:   LOCATION
 CNTY.            NATRONA:   COUNTY
 STAT.            WYOMING:   STATE
 CTRY. UNITED STATES OF AMERICA:   COUNTRY
 SRVC.            Unknown:   SERVICE COMPANY
 DATE.        15-JUL-1978:   LOGDATE
 API .       490251065700:   API NUMBER
~CURVE INFORMATION
#MNEM.UNIT       API CODE    CURVE DESCRIPTION
#----------   ------------   ------------------------------
 DEPT.F                  :   
 SPR .MV     07 010 01 00:   SPONTANEOUS POTENTIAL
 ILD .OHMM   07 120 46 00:   INDUCTION LOG DEEP
 SN  .OHMM   07 040 16 00:   SHORT NORMAL
 CALD.IN     45 280 60 00:   CALIPER FROM DENSITY LOG
 GRD .GAPI   45 310 01 00:   GAMMA RAY FROM DENSITY LOG
 CORR.G/C3   45 356 01 00:   DENSITY CORRECTION
 RHOB.G/C3   45 350 01 00:   BULK DENSITY
 DPHI.DEC    45 890 12 00:   DENSITY POROSITY SANDSTONE
~PARAMETER INFORMATION
#MNEM.UNIT          VALUE    DESCRIPTION
#----------   ------------   ------------------------------
 PD  .                 GL:   PERMANENT DATUM
 EPD .F              5204:   ELEVATION PERMANENT DATUM
 LMF .                 KB:   LOG MEASURED FROM
 DAPD.F                 4:   FEET ABOVE PERMANENT DATUM
 DMF .                 KB:   DRILLING MEASURED FROM
 EKB .F              5208:   KELLING BUSHING
 EGL .F              5204:   GROUND LEVEL
 DATE.        15-JUL-1978:   RUN DATE
 RUN .                  1:   RUN NUMBER
 DD  .F               500:   DEPTH DRILLER
 DL  .F               511:   DEPTH LOGGER
 BLI .F               504:   BOTTOM LOG INTERVAL
 TLI .F                30:   TOP LOG INTERVAL
 CS  .IN            8.625:   CASING SIZE
 CBD .F                40:   CASING BOTTOM DRILLER
 CBL .F                40:   CASING BOTTOM LOGGER
 BS  .IN            7.875:   BIT SIZE
 BSD .F               500:   BIT SIZE AT DEPTH
 DFT .                KCL:   DRILLING FLUID TYPE
 DFD .                8.7:   DRILLING FLUID DENSITY
 DFV .                 32:   DRILLING FLUID VISCOSITY
 DFPH.                9.0:   DRILLING FLUID PH
 RMS .OHMM           0.18:   RESISTIVITY MUD SAMPLE
 MST .F                78:   MUD SAMPLE TEMPERATURE
 RMF .OHMM           0.16:   RESISTIVITY MUD FILTRATE SAMPLE
 MFST.F                88:   MUD FILTRATE SAMPLE TEMPERATURE
 RMC .OHMM           0.28:   RESISTIVITY MUD CAKE
 MCST.F                88:   MUD CAKE SAMPLE TEMPERATURE
 MFSS.               MEAS:   MUD FILTRATE SAMPLE SOURCE
 MCSS.               MEAS:   MUD CAKE SAMPLE SOURCE
 TCS .HRS               1:   TIME CURCULATED STOPPED
 LUN .               2958:   LOGGING UNIT NUMBER
 LUL .               CASP:   LOGGING UNIT LOCATION
 ENGI.              HONEA:   RECORDING ENGINEER
 WITN.           MCGINLEY:   WITNESSED BY
 CLNT.            A2DTECH:   CLIENT CODE
 ORIG.           5" PRINT:   ORIGIN OF DATA
 UWI .       490251065700:   UNIQUE WELL ID
 DICO. A2D Technologies, Inc.:   DIGITIZING COMPANY
~OTHER INFORMATION
~A   DEPT      SPR        ILD         SN       CALD        GRD       CORR       RHOB       DPHI   
# ...
  313.5000   -18.6864    24.0156    11.4280     9.8456    56.3442     0.0134     2.3548     0.2020
  314.0000   -18.6754    24.3580    11.4144     9.8332    57.7197     0.0120     2.3624     0.1996
  314.5000   -18.6666    24.5361    11.4198     9.8209    58.3243     0.0122     2.3647     0.1956
  315.0000   -18.8090    24.2131    11.4252     9.8085    57.0179     0.0124     2.3641     0.1899
  315.5000   -19.0961    23.7285    11.4307     9.8116    56.7393     0.0155     2.3717     0.1898
  316.0000   -19.3875    22.9362    11.3576     9.7986    59.7419     0.0187     2.3830     0.1865
  316.5000   -19.8236    21.8676    11.2851     9.8017    61.6983     0.0204     2.3854     0.1841
  317.0000   -19.9642    20.8489    11.0612     9.8190    62.6146     0.0220     2.3870     0.1838
  317.5000   -20.2531    20.0146    10.9152     9.8215    61.7478     0.0192     2.3886     0.1834
  318.0000   -20.3934    19.6121    10.8442     9.8239    60.2804     0.0119     2.3790     0.1962
  318.5000   -20.6826    19.3541    10.7024     9.8264    61.6486     0.0075     2.3619     0.2001
  319.0000   -20.9718    18.8350    10.6341     9.8289    62.2677     0.0077     2.3627     0.1952
  319.5000   -21.1121    18.8445    10.6391     9.8313    62.2924     0.0184     2.3681     0.1955
  320.0000   -21.2523    18.9822    10.5699     9.8487    62.1686     0.0275     2.3779     0.1832
  320.5000   -21.3925    18.7306    10.5025     9.8512    62.4966     0.0276     2.3870     0.1881
  321.0000   -21.2325    18.4724    10.5087     9.8542    62.9671     0.0263     2.3811     0.1974
  321.5000   -21.3749    18.3632    10.5168     9.8418    63.4376     0.0250     2.3650     0.2037
  322.0000   -21.5152    18.3725    10.5290     9.8443    61.6793     0.0281     2.3559     0.1878
  322.5000   -21.6554    18.5067    10.5413     9.8467    59.3266     0.0388     2.3695     0.1755
  323.0000   -21.6444    18.7705    10.5535     9.8337    58.1626     0.0449     2.3965     0.1907
  323.5000   -21.7868    19.0380    10.5658     9.8368    58.4845     0.0361     2.3757     0.1924
  324.0000   -21.9248    19.1771    10.5780     9.8244    59.9951     0.0168     2.3728     0.1939
  324.5000   -21.9160    19.1848    10.5903     9.8269    61.8029     0.0155     2.3737     0.1921
  325.0000   -22.0566    19.3250    10.6025     9.8442    63.4621     0.0157     2.3768     0.1884
  325.5000   -22.0475    19.3328    10.6148     9.8630    63.0029     0.0158     2.3806     0.1891
  326.0000   -22.0387    19.3406    10.6270     9.8943    61.6524     0.0160     2.3830     0.1898
  326.5000   -22.0298    19.3485    10.6382     9.7632    61.1589     0.0162     2.3853     0.1868
  327.0000   -22.0209    19.3563    10.6432     9.7360    61.3384     0.0164     2.3817     0.1942
  327.5000   -22.1833    19.3642    10.7217     9.7385    61.9574     0.0165     2.3729     0.1954
  328.0000   -22.5996    19.2393    10.8009     9.6964    63.7652     0.0167     2.3670     0.1947
  328.5000   -22.7398    18.9613    10.8060     9.6692    66.1674     0.0153     2.3679     0.1869
  329.0000   -22.7288    18.6063    10.8111     9.6562    63.6661     0.0140     2.3762     0.1827
  329.5000   -22.7200    18.4845    10.8162     9.6444    61.4620     0.0127     2.3830     0.1865
  330.0000   -22.5622    18.3647    10.8213     9.6469    61.3373     0.0098     2.3861     0.1874
  330.5000   -22.8514    18.2463    10.8265     9.6346    61.0657     0.0055     2.3847     0.1923
  331.0000   -23.2919    18.0063    10.7561     9.6371    60.3358     0.0042     2.3764     0.1977
  331.5000   -23.7280    17.7676    10.7624     9.6253    59.9264     0.0059     2.3676     0.1974
  332.0000   -23.8682    17.5321    10.7675     9.5981    60.7003     0.0120     2.3716     0.1929
  332.5000   -23.8594    17.2998    10.7726     9.5560    61.9137     0.0137     2.3770     0.1907
  333.0000   -23.7016    17.1681    10.7039     9.5133    63.1271     0.0153     2.3786     0.1904
  333.5000   -23.6928    16.9604    10.7091     9.4274    64.3406     0.0170     2.3794     0.1918
  334.0000   -23.6840    16.8528    10.7153     9.3112    65.2568     0.0171     2.3743     0.1957
  334.5000   -23.9786    16.8596    10.7943     9.2685    65.7273     0.0173     2.3677     0.1935
  335.0000   -24.2772    16.7492    10.7995     9.2716    66.0492     0.0175     2.3663     0.1887
  335.5000   -24.5758    16.7577    10.8046     9.2592    66.0739     0.0191     2.3709     0.1788
  336.0000   -24.9879    16.6497    10.8097     9.1867    66.2472     0.0253     2.3968     0.1683
  336.5000   -25.1303    16.6564    10.8152     9.1285    66.5691     0.0299     2.4092     0.1626
  337.0000   -25.4174    16.7781    10.8199     9.0886    66.9034     0.0346     2.4206     0.1533
  337.5000   -25.4086    16.7849    10.8255     9.0917    67.5111     0.0377     2.4371     0.1362
  338.0000   -25.5510    16.9075    10.8302     9.0787    67.8320     0.0379     2.4633     0.1171
  338.5000   -25.8380    17.1485    10.8353     9.0817    66.0799     0.0335     2.4896     0.1077
  339.0000   -26.1295    17.8843    10.8409     9.0688    63.4300     0.0247     2.5181     0.0958
  339.5000   -26.4166    18.7831    10.8456     9.0718    62.1174     0.0127     2.5301     0.0956
  340.0000   -26.7051    19.9741    10.8507     9.0589    61.8388     0.0042     2.5295     0.1007
  340.5000   -26.8475    20.8235    10.8559     9.0470    62.3155     0.0014     2.5131     0.1089
  341.0000   -27.1346    21.5603    10.8612     9.0347    62.4888     0.0015     2.5017     0.1174
  341.5000   -27.2770    21.8676    10.8674     9.0224    62.2155     0.0002     2.4753     0.1373
  342.0000   -27.5663    21.7266    10.7968     9.0100    62.0921     0.0019     2.4478     0.1493
  342.5000   -27.8533    21.2918    10.7278     8.9976    62.5681     0.0020     2.4233     0.1627
  343.0000   -27.8445    20.5809    10.5875     9.0007    63.6642     0.0037     2.4129     0.1695
  343.5000   -27.9851    19.8936    10.4478     9.0180    65.2932     0.0053     2.4026     0.1757
  344.0000   -27.9760    18.9668    10.3799     9.0205    65.4603     0.0086     2.3945     0.1778
  344.5000   -27.9671    18.0832    10.3136     9.0075    63.1138     0.0146     2.3953     0.1759
  345.0000   -27.9583    16.7732    10.1787     9.0254    61.0521     0.0193     2.3977     0.1729
  345.5000   -27.9493    15.5566    10.1836     9.0129    61.6773     0.0224     2.4033     0.1646
  346.0000   -27.9404    14.8252    10.1173     9.0155    62.8908     0.0241     2.4232     0.1573
  346.5000   -28.0788    14.4368    10.0538     9.0328    63.5099     0.0242     2.4316     0.1560
  347.0000   -28.0700    14.2469     9.9213     9.0353    62.9402     0.0259     2.4295     0.1563
  347.5000   -28.2102    14.3510     9.9260     9.0383    62.6672     0.0245     2.4311     0.1556
  348.0000   -28.2014    14.4558     9.8626     9.0408    63.2869     0.0232     2.4350     0.1541
  348.5000   -28.1926    14.5599     9.7996     9.0433    63.6092     0.0204     2.4351     0.1549
  349.0000   -28.1838    14.3670     9.8054     9.0606    63.6345     0.0174     2.4322     0.1570
  349.5000   -28.3262    14.1766     9.8101     9.0630    64.5559     0.0133     2.4368     0.1584
  350.0000   -28.1659    14.2819     9.8136     9.0797    65.5380     0.0135     2.4318     0.1575
  350.5000   -28.4551    14.0905     9.8068     9.0670    66.4213     0.0146     2.4294     0.1587
  351.0000   -28.7385    13.9987     9.8005     9.0561    67.3057     0.0168     2.4297     0.1604
  351.5000   -29.0247    13.9088     9.7942     9.0432    68.0748     0.0170     2.4253     0.1586
  352.0000   -29.1624    13.8170     9.7880     9.0455    68.5468     0.0157     2.4329     0.1555
  352.5000   -29.2996    13.6341     9.7817     9.0478    68.5730     0.0144     2.4353     0.1543
  353.0000   -29.2874    13.5454     9.7754     9.0347    68.6003     0.0131     2.4324     0.1555
  353.5000   -29.4247    13.5500     9.7692     9.0377    69.8207     0.0118     2.4310     0.1554
