~VERSION INFORMATION
 VERS.                2.0:   CWLS LOG ASCII STANDARD - VERSION 2.0
 WRAP.                 NO:   ONE LINE PER DEPTH STEP
~WELL INFORMATION
#MNEM.UNIT      DATA TYPE    INFORMATION
#----------   ------------   ------------------------------
 STRT.F           34.0000:   START DEPTH
 STOP.F          662.0000:   STOP DEPTH
 STEP.F            0.5000:   STEP LENGTH
 NULL.          -999.2500:   NO VALUE
 COMP. FENIX & SCISSON INC:   COMPANY
 WELL.     55 S 34 #34-34:   WELL
 FLD .          N.P.R. #3:   FIELD
 LOC .      S34 T39N R78W:   LOCATION
 CNTY.            NATRONA:   COUNTY
 STAT.            WYOMING:   STATE
 CTRY. UNITED STATES OF AMERICA:   COUNTRY
 SRVC.       Schlumberger:   SERVICE COMPANY
 DATE.        15-MAR-1977:   LOGDATE
 API .       490251030500:   API NUMBER
~CURVE INFORMATION
#MNEM.UNIT       API CODE    CURVE DESCRIPTION
#----------   ------------   ------------------------------
 DEPT.F                  :   
 GRD .GAPI   45 310 01 00:   GAMMA RAY FROM DENSITY LOG
 CORR.G/C3   45 356 01 00:   DENSITY CORRECTION
 RHOB.G/C3   45 350 01 00:   BULK DENSITY
 DPOR.DEC    45 890 12 00:   DENSITY POROSITY SANDSTONE
 SPR .MV     07 010 01 00:   SPONTANEOUS POTENTIAL
 LL8 .OHMM   07 220 08 00:   LATEROLOG-8 RES.
 ILD .OHMM   07 120 46 00:   INDUCTION LOG DEEP
 ILM .OHMM   07 120 44 00:   INDUCTION LOG MEDIUM
 CALD.IN     45 280 60 00:   CALIPER
~PARAMETER INFORMATION
#MNEM.UNIT          VALUE    DESCRIPTION
#----------   ------------   ------------------------------
 PD  .                 GL:   PERMANENT DATUM
 EPD .F              5087:   ELEVATION PERMANENT DATUM
 LMF .                 GL:   LOG MEASURED FROM
 DMF .                 GL:   DRILLING MEASURED FROM
 EKB .F              5091:   KELLING BUSHING
 EGL .F              5087:   GROUND LEVEL
 DATE.            3-15-77:   RUN DATE
 RUN .                  1:   RUN NUMBER
 DD  .F               670:   DEPTH DRILLER
 DL  .F               663:   DEPTH LOGGER
 BLI .F               657:   BOTTOM LOG INTERVAL
 TLI .F                40:   TOP LOG INTERVAL
 CS  .IN            8.625:   CASING SIZE
 CBD .F                40:   CASING BOTTOM DRILLER
 CBL .F                40:   CASING BOTTOM LOGGER
 BS  .IN            7.875:   BIT SIZE
 BSD .F               670:   BIT SIZE AT DEPTH
 DFT .                KCL:   DRILLING FLUID TYPE
 DFD .                8.6:   DRILLING FLUID DENSITY
 DFV .                 31:   DRILLING FLUID VISCOSITY
 DFPH.                  8:   DRILLING FLUID PH
 DFL .                8.8:   DRILLING FLUID LOSS
 MSS .                PIT:   MUD SAMPLE SOURCE
 RMS .OHMM           .246:   RESISTIVITY MUD SAMPLE
 MST .F                76:   MUD SAMPLE TEMPERATURE
 RMF .OHMM           .243:   RESISTIVITY MUD FILTRATE SAMPLE
 MFST.F                76:   MUD FILTRATE SAMPLE TEMPERATURE
 MFSS.                  M:   MUD FILTRATE SAMPLE SOURCE
 RMB .OHMM           .267:   RESISTIVITY MUD AT BHT
 BHT .F                70:   BOTTOM HOLE TEMPERATURE
 TCS .HRS            1800:   TIME CURCULATED STOPPED
 TLAB.HRS            2200:   TIME LOGGER AT BOTTOM
 MRT .F                70:   MAXIMUM RECORDED TEMPERATURE
 LUN .               5642:   LOGGING UNIT NUMBER
 LUL .               CSPR:   LOGGING UNIT LOCATION
 ENGI.             MARTIN:   RECORDING ENGINEER
 WITN.              BURKE:   WITNESSED BY
 CLNT.            A2DTECH:   CLIENT CODE
 ORIG. 2", 2.5", 5" PRINT:   ORIGIN OF DATA
 UWI .       490251030500:   UNIQUE WELL ID
 DICO. A2D Technologies, Inc.:   DIGITIZING COMPANY
~OTHER INFORMATION
~A   DEPT       GRD      CORR       RHOB       DPOR        SPR        LL8        ILD        ILM       CALD   
# ...
  508.5000    89.9285     0.0332     2.3881     0.1559   -34.9267    19.6168    16.7082    17.4240     8.8896
  509.0000    88.6919     0.0315     2.3822     0.1612   -35.0969    19.1419    16.3102    17.0837     8.8577
  509.5000    87.3786     0.0195     2.3652     0.1732   -35.1007    18.7105    16.3109    17.4091     8.8295
  510.0000    86.0566     0.0418     2.3813     0.1673   -35.1004    18.2889    16.3791    18.0551     8.7542
  510.5000    86.4099     0.0571     2.3672     0.1623   -35.1007    17.8768    16.4280    20.0570     8.5838
  511.0000    86.6098     0.0516     2.3606     0.1735   -35.0996    17.7024    16.4770    22.3272     8.2959
  511.5000    86.0352     0.0642     2.3811     0.1635   -34.9351    17.6497    16.5263    23.1835     8.0115
  512.0000    85.9596     0.0767     2.4005     0.1515   -34.7496    17.5972    16.5757    19.8879     7.9469
  512.5000    87.3325     0.0496     2.3879     0.1587   -34.5640    17.5450    16.6182    17.9877     8.0147
  513.0000    88.3241     0.0247     2.3692     0.1699   -34.3788    17.4928    16.4857    17.6564     8.0815
  513.5000    87.0203     0.0174     2.3800     0.1655   -34.1960    17.4410    16.3473    17.3114     8.1216
  514.0000    86.6837     0.0176     2.3900     0.1589   -34.1846    17.4007    16.2150    16.9702     8.1483
  514.5000    87.7161     0.0249     2.4004     0.1524   -34.3571    17.3126    15.8952    16.5303     8.1748
  515.0000    88.7714     0.0321     2.4025     0.1463   -34.5627    17.2102    15.3371    15.9499     8.2248
  515.5000    89.0265     0.0283     2.3841     0.1617   -34.9339    17.1079    14.7986    15.3898     8.3100
  516.0000    87.1947     0.0224     2.3627     0.1788   -35.3048    17.0063    14.0771    14.7411     8.5288
  516.5000    85.9845     0.0140     2.3542     0.1792   -35.5734    16.9052    14.1987    14.9096     8.8053
  517.0000    84.8161     0.0062     2.3565     0.1755   -35.7278    16.8050    14.4031    15.1243     8.8344
  517.5000    83.0748     0.0075     2.3620     0.1719   -35.8822    16.7051    14.6058    15.2948     8.8316
  518.0000    81.1478     0.0150     2.3665     0.1691   -36.0367    16.6177    14.2678    14.9288     8.8529
  518.5000    83.4287     0.0129     2.3596     0.1742   -36.1913    16.4652    14.0430    14.6854     8.8496
  519.0000    86.8706     0.0061     2.3517     0.1805   -36.3460    16.3920    13.8215    14.4461     8.8466
  519.5000    89.2954     0.0009     2.3442     0.1868   -36.5006    16.3159    13.6035    14.2106     8.8432
  520.0000    89.0987     0.0046     2.3524     0.1796   -36.6552    16.2402    13.3884    13.9479     8.8398
  520.5000    87.7853     0.0141     2.3661     0.1722   -36.8098    16.1649    13.3194    14.0412     8.8364
  521.0000    85.1008     0.0223     2.3798     0.1648   -36.9645    16.0899    13.4544    14.1813     8.8331
  521.5000    82.4296     0.0237     2.3780     0.1619   -37.1190    16.0153    13.5463    14.3228     8.8330
  522.0000    81.4713     0.0325     2.3742     0.1663   -37.2735    15.9410    13.6388    14.4657     8.8330
  522.5000    84.2166     0.0441     2.4169     0.1516   -37.4279    15.8692    13.7320    14.6100     8.8330
  523.0000    85.6540     0.0327     2.4199     0.1351   -37.6604    15.9666    13.8258    14.7558     8.8330
  523.5000    86.0508     0.0243     2.4156     0.1347   -37.9608    16.1195    13.9202    14.9030     8.8330
  524.0000    86.4691     0.0297     2.4169     0.1458   -38.2607    16.2739    14.0153    15.0517     8.8330
  524.5000    85.7978     0.0364     2.4165     0.1433   -38.5606    16.3142    14.2075    15.2019     8.8330
  525.0000    84.1202     0.0170     2.4025     0.1525   -38.8606    16.0699    14.2377    15.2948     8.8330
  525.5000    82.3753     0.0104     2.3873     0.1616   -39.1611    15.8630    14.2900    15.1121     8.8330
  526.0000    81.9667     0.0048     2.3758     0.1667   -39.4610    15.6579    14.3390    14.8776     8.8331
  526.5000    83.1587     0.0019     2.3963     0.1573   -39.7064    15.4280    14.0729    14.6968     8.8330
  527.0000    84.3263     0.0036     2.3885     0.1527   -39.7034    15.4364    13.8770    14.4922     8.8329
  527.5000    83.4929     0.0168     2.3812     0.1651   -39.5940    15.1544    13.6839    14.2075     8.8111
  528.0000    81.9558     0.0421     2.3871     0.1618   -39.4681    15.2669    13.5675    14.2796     8.7617
  528.5000    83.0599     0.0655     2.4010     0.1543   -39.3422    15.3643    13.7320    14.4036     8.7185
  529.0000    86.2451     0.0816     2.3996     0.1487   -39.2164    15.4364    13.8515    14.5291     8.5564
  529.5000    90.0533     0.0557     2.3907     0.1585   -39.0906    17.7253    13.9720    14.6557     8.3360
  530.0000    92.2490     0.0326     2.4053     0.1513   -38.9671    16.6560    14.0937    14.7831     8.1145
  530.5000    91.1139     0.0494     2.4233     0.1367   -38.9775    15.4364    14.2170    14.9118     7.9952
  531.0000    89.4659     0.0649     2.4354     0.1304   -39.1396    15.1544    14.3403    15.0154     7.9786
  531.5000    87.6448     0.0569     2.4325     0.1298   -39.3010    15.2163    14.3408    15.0171     8.0012
  532.0000    87.6031     0.0602     2.4175     0.1378   -39.4630    15.3620    14.1246    14.7479     8.0323
  532.5000    88.7961     0.0432     2.4026     0.1477   -39.6245    15.5091    13.9194    14.5349     8.0638
  533.0000    90.5325     0.0342     2.3953     0.1599   -39.7873    15.6552    13.7180    14.3246     8.0962
  533.5000    92.0960     0.0444     2.4081     0.1559   -40.0216    15.7329    13.5197    14.1176     8.0923
  534.0000    91.0892     0.0685     2.4303     0.1354   -40.4391    15.4691    13.3243    13.9135     8.0845
  534.5000    89.3278     0.0772     2.4529     0.1245   -40.8535    15.2152    13.1316    13.7115     8.0762
  535.0000    87.7664     0.0711     2.4653     0.1170   -41.2682    14.9601    12.9564    13.5209     8.1719
  535.5000    86.2767     0.0536     2.4662     0.1230   -41.6816    14.7093    12.7762    13.3448     8.3316
  536.0000    85.2275     0.0347     2.4439     0.1293   -42.0960    14.4622    12.6113    13.1729     8.4896
  536.5000    85.7115     0.0160     2.4225     0.1356   -42.4283    14.2190    12.4484    13.0028     8.6199
  537.0000    86.5399     0.0028     2.4146     0.1407   -42.6915    14.0760    12.2877    12.8375     8.6581
  537.5000    86.9199     0.0080     2.4144     0.1424   -42.9502    14.3328    12.2593    12.8375     8.6702
  538.0000    86.5636     0.0134     2.4207     0.1401   -43.2093    14.5479    12.2593    12.9526     8.6821
  538.5000    87.0551     0.0126     2.4206     0.1367   -43.4688    14.7411    12.2593    13.0633     8.6935
  539.0000    89.0464     0.0070     2.4332     0.1359   -43.7076    14.7411    12.2593    13.1749     8.6656
  539.5000    91.3773     0.0051     2.4313     0.1359   -43.7854    14.4172    12.2593    13.2875     8.6176
  540.0000    92.0329     0.0086     2.4439     0.1311   -43.8616    14.1802    12.2591    13.4430     8.5125
  540.5000    92.2619     0.0007     2.4321     0.1330   -43.9382    13.9471    12.2505    13.3147     8.4066
  541.0000    93.9919     0.0061     2.4200     0.1371   -44.0146    13.7178    12.2303    13.1144     8.3308
  541.5000    94.5331     0.0177     2.4279     0.1392   -44.0832    13.6932    12.2103    12.9170     8.2921
  542.0000    94.6869     0.0499     2.4629     0.1210   -44.3689    13.8060    12.1899    12.7226     8.3183
  542.5000    94.8642     0.0385     2.4525     0.1076   -44.6730    14.0771    12.1702    12.6030     8.3947
  543.0000    95.5512     0.0105     2.4370     0.1190   -44.9769    13.9782    12.1468    12.7197     8.4052
  543.5000    94.9689     0.0005     2.4281     0.1214   -45.2801    13.8952    12.3949    13.0414     8.3420
  544.0000    94.0086     0.0159     2.4481     0.1108   -45.5833    13.8200    12.7953    13.4397     8.2803
  544.5000    93.4575     0.0116     2.4741     0.1019   -45.8867    14.9930    13.2066    13.8528     8.3224
