~VERSION INFORMATION
 VERS.                2.0:   CWLS LOG ASCII STANDARD - VERSION 2.0
 WRAP.                 NO:   ONE LINE PER DEPTH STEP
~WELL INFORMATION
#MNEM.UNIT      DATA TYPE    INFORMATION
#----------   ------------   ------------------------------
 STRT.F           88.0000:   START DEPTH
 STOP.F          991.0000:   STOP DEPTH
 STEP.F            0.5000:   STEP LENGTH
 NULL.          -999.2500:   NO VALUE
 COMP. US NAVY /INTEX OIL CO.:   COMPANY
 WELL.    NPR #3 #S-11 63:   WELL
 FLD .             TEAPOT:   FIELD
 LOC .      S11 T38N R78W:   LOCATION
 CNTY.            NATRONA:   COUNTY
 STAT.            WYOMING:   STATE
 CTRY. UNITED STATES OF AMERICA:   COUNTRY
 SRVC.       Schlumberger:   SERVICE COMPANY
 DATE.        24-JUL-1964:   LOGDATE
 API .       490250636200:   API NUMBER
~CURVE INFORMATION
#MNEM.UNIT       API CODE    CURVE DESCRIPTION
#----------   ------------   ------------------------------
 DEPT.F                  :   
 SPR .MV     05 010 01 00:   SPONTANEOUS POTENTIAL FROM RES.
 ASN .OHMM   05 041 16 00:   AMPLIFIED SHORT NORMAL 16"
 ILD .OHMM   05 120 46 00:   INDUCTION LOG DEEP
 CILD.MMHO   05 110 46 00:   CONDUCTIVITY INDUCTION LOG DEEP
 CALS.IN     60 280 50 00:   CALIPER FROM SONIC LOG
 DT  .US/F   60 520 33 00:   INTERVAL TRANSIT TIME
 GR  .GAPI   30 310 01 00:   GAMMA RAY
~PARAMETER INFORMATION
#MNEM.UNIT          VALUE    DESCRIPTION
#----------   ------------   ------------------------------
 PD  .                 GL:   PERMANENT DATUM
 LMF .                 KB:   LOG MEASURED FROM
 DAPD.F                 5:   FEET ABOVE PERMANENT DATUM
 DMF .                 KB:   DRILLING MEASURED FROM
 EKB .F              5914:   KELLING BUSHING
 DATE.          7-24-1964:   RUN DATE
 RUN .                  1:   RUN NUMBER
 DD  .F               990:   DEPTH DRILLER
 DL  .F               992:   DEPTH LOGGER
 BLI .F               991:   BOTTOM LOG INTERVAL
 TLI .F               990:   TOP LOG INTERVAL
 CS  .IN            8.625:   CASING SIZE
 CBD .F                15:   CASING BOTTOM DRILLER
 BS  .IN             6.75:   BIT SIZE
 BSD .F               990:   BIT SIZE AT DEPTH
 DFT .            GEL OIL:   DRILLING FLUID TYPE
 DFD .                9.2:   DRILLING FLUID DENSITY
 DFV .                 47:   DRILLING FLUID VISCOSITY
 MSS .            MUD PIT:   MUD SAMPLE SOURCE
 RMS .OHMM           1.24:   RESISTIVITY MUD SAMPLE
 MST .F                75:   MUD SAMPLE TEMPERATURE
 RMF .OHMM           .801:   RESISTIVITY MUD FILTRATE SAMPLE
 MFST.F                80:   MUD FILTRATE SAMPLE TEMPERATURE
 MFSS.                 FP:   MUD FILTRATE SAMPLE SOURCE
 RMB .OHMM           1.09:   RESISTIVITY MUD AT BHT
 BHT .F                85:   BOTTOM HOLE TEMPERATURE
 TCS .HRS              .5:   TIME CURCULATED STOPPED
 MRT .F                85:   MAXIMUM RECORDED TEMPERATURE
 LUN .               2572:   LOGGING UNIT NUMBER
 LUL .                 MC:   LOGGING UNIT LOCATION
 ENGI.             BOWLER:   RECORDING ENGINEER
 WITN.          JORGENSEN:   WITNESSED BY
 CLNT.            A2DTECH:   CLIENT CODE
 ORIG.      2" & 5" PRINT:   ORIGIN OF DATA
 UWI .       490250636200:   UNIQUE WELL ID
 DICO. A2D Technologies, Inc.:   DIGITIZING COMPANY
~OTHER INFORMATION
~A   DEPT      SPR          ASN        ILD      CILD      CALS         DT         GR   
# ...
  679.5000   -28.5213     9.4783     7.7206   124.6601     6.7664    99.0029    69.3937
  680.0000   -28.5170     9.4064     7.7234   125.3792     6.7810    99.2256    67.5910
  680.5000   -28.5128     9.3469     7.6510   125.3339     6.7667    99.5971    69.7039
  681.0000   -28.5085     9.2875     7.6533   125.2976     6.7525    99.8198    82.6602
  681.5000   -28.5042     9.2283     7.5811   125.2611     6.7238   100.0424    84.4719
  682.0000   -28.5000     9.2137     7.5833   125.2239     6.7095   100.1906    83.8740
  682.5000   -28.4956     9.2145     7.5860   124.4335     6.6664   100.3388    80.4147
  683.0000   -28.4912     9.2300     7.6625   123.6510     6.6233   100.1023    70.6300
  683.5000   -28.4861     9.2456     7.7391   122.1222     6.5803    99.6670    73.4949
  684.0000   -28.4819     9.2762     7.8901   121.3397     6.5516    99.5920    67.6270
  684.5000   -28.4776     9.2918     7.9667   119.8109     6.5229    99.8891    67.4809
  685.0000   -28.6198     9.3523     7.9689   119.0283     6.5231    99.7393    65.2264
  685.5000   -28.6144     9.3829     7.9710   118.9921     6.6097    99.6641    67.7911
  686.0000   -28.7566     9.3536     7.8978   119.7514     6.7107    99.9612    68.0957
  686.5000   -29.0430     9.2343     7.6689   121.9046     6.7829   101.0029    66.8965
  687.0000   -29.1831     9.0849     7.5311   124.8535     6.7974   101.3000    68.7082
  687.5000   -29.1788     8.9656     7.3101   130.0320     6.8120   101.4482    69.3151
  688.0000   -29.0291     8.7713     7.0896   135.2197     6.8265   101.5220    69.9221
  688.5000   -28.8785     8.5470     6.9430   141.8998     6.8411   101.8315    72.4868
  689.0000   -28.7289     8.3376     6.7214   147.0874     6.8412   102.5877    73.6961
  689.5000   -28.5793     8.1422     6.5003   151.5288     6.8558   103.4556    76.2609
  690.0000   -28.2843     7.9300     6.3541   153.7313     6.8559   103.9016    80.9340
  690.5000   -27.9894     7.7398     6.2076   153.6940     6.8417   104.0500    83.0470
  691.0000   -27.8397     7.7103     6.1354   153.6498     6.8418   103.7512    80.6418
  691.5000   -27.6901     7.7710     6.1381   151.3747     6.8419   103.0803    74.9234
  692.0000   -27.5405     7.8765     6.1403   150.5922     6.8421   102.3350    66.6437
  692.5000   -27.5363     7.9821     6.2168   148.3171     6.8422   101.6641    67.8530
  693.0000   -27.5320     8.0126     6.2934   146.7883     6.8424   101.3656    66.5032
  693.5000   -27.5276     7.9832     6.3700   145.2595     6.8425   101.8116    64.3993
  694.0000   -27.5224     8.0290     6.4466   144.4770     6.8400   102.3321    67.8677
  694.5000   -27.5182     8.0780     6.5232   142.9110     6.8346   102.4058    72.0890
  695.0000   -27.5139     8.1650     6.5997   142.1642     6.8292   102.1693    77.5152
  695.5000   -27.5096     8.2256     6.7507   142.1204     6.8238   101.8085    78.2727
  696.0000   -27.4800     8.1962     6.7530   141.3378     6.8185   101.5844    75.2652
  696.5000   -27.2961     8.1666     6.8300   140.5553     6.8290   101.5092    68.1914
  697.0000   -27.1976     8.2123     6.9810   139.0265     6.8291   101.5085    63.3766
  697.5000   -27.3402     8.2879     7.0576   138.2440     6.8293   101.7311    74.9775
  698.0000   -27.4820     8.3784     7.1342   137.4615     6.8294   101.8795    75.5925
  698.5000   -27.7706     8.4691     7.2107   135.9327     6.8296   101.2084    77.5467
  699.0000   -28.0577     8.5629     7.2873   135.1493     6.8297   100.6120    77.2500
  699.5000   -28.4917     8.6652     7.3639   134.3586     6.8298   100.4624    76.8006
  700.0000   -28.9242     8.7266     7.3661   134.2758     6.8300   100.3564    79.0663
  700.5000   -29.0674     8.7386     7.2521   133.5900     6.8319    99.9374    82.3902
  701.0000   -29.2093     8.6667     7.1443   132.7703     6.8339    99.7850    83.7559
  701.5000   -29.0611     8.5921     7.0708   134.2337     6.8360    99.7821    83.2543
  702.0000   -28.6008     8.5176     7.0715   135.7044     6.8380   100.5238    79.8423
  702.5000   -28.1826     8.4431     7.0723   137.9068     6.8400   101.1166    79.2473
  703.0000   -27.8891     8.3686     7.0730   138.6312     6.8421   101.4860    77.8979
  703.5000   -27.7409     8.3090     7.0737   138.5948     6.8434   101.7064    76.3979
  704.0000   -27.8842     8.2795     7.0744   139.3120     6.8288   101.7781    75.8012
  704.5000   -27.8806     8.2799     7.0751   139.2829     6.8287   101.6262    75.8075
  705.0000   -27.8778     8.3103     7.0759   139.2537     6.8285   101.0176    75.5122
  705.5000   -28.0203     8.3584     7.0768   139.2239     6.8428   100.8012    73.5604
  706.0000   -28.3237     8.4313     7.0775   139.1882     6.8427   100.9466    71.1568
  706.5000   -28.4507     8.4917     7.0782   139.1591     6.8425   101.0926    65.7300
  707.0000   -28.7379     8.5371     7.0789   139.1300     6.8423   101.3131    69.0603
  707.5000   -28.8811     8.5225     7.0797   139.1008     6.8278   101.9803    74.9398
  708.0000   -29.0237     8.4480     7.0804   139.0717     6.8276   103.4674    82.0241
  708.5000   -29.0201     8.4035     7.0811   139.0426     6.8275   102.7936    81.2771
  709.0000   -29.0173     8.3889     7.0818   139.0135     6.8274   102.4929    83.3998
  709.5000   -29.0145     8.4043     7.0826   139.7313     6.8272   102.2666    86.3082
  710.0000   -29.0117     8.3578     7.0835   140.4478     6.8271   102.1147    88.2229
  710.5000   -29.0081     8.2254     7.0842   140.4926     6.8269   102.0367    88.3794
  711.0000   -29.0053     8.1509     7.0849   141.1358     6.8268   101.9593    84.3740
  711.5000   -29.0025     8.1813     7.0856   141.8529     6.8266   101.9564    82.4611
  712.0000   -28.9997     8.1968     7.0864   143.3163     6.8265   101.9535    77.4034
  712.5000   -28.9969     8.1821     7.0871   144.0335     6.8264   101.9506    79.9458
  713.0000   -28.9940     8.1526     7.0134   144.7433     6.8407   101.8733    83.6468
  713.5000   -28.9912     8.1231     6.8653   146.9530     6.7973   101.8704    81.4891
  714.0000   -28.8430     8.0636     6.7916   149.9090     6.7539   102.0164    80.5900
  714.5000   -28.6735     7.9862     6.7925   153.6112     6.7537   102.3927    83.0071
  715.0000   -28.4006     7.8397     6.4955   158.8060     6.7848   102.7544    84.2180
  715.5000   -28.1071     7.7202     6.2732   162.7317     6.8111   103.2728    83.7721
  716.0000   -27.8136     7.5857     6.1251   169.9345     6.8254   103.8655    81.3685
  716.5000   -27.6654     7.4062     5.9026   176.6218     6.8252   104.1605    78.3625
  717.0000   -27.5180     7.1068     5.6801   180.3240     6.8251   104.6788    71.2886
  717.5000   -27.8052     6.8074     5.5320   184.7725     6.8249   105.1971    76.8684
  718.0000   -27.8023     6.5679     5.3095   188.4820     6.8248   105.8644    79.1320
  718.5000   -27.6386     6.3435     5.3104   191.4379     6.8246   106.5316    65.7358
  719.0000   -27.2146     6.1932     5.3111   192.1551     6.8101   107.1283    68.1515
  719.5000   -27.0664     6.1794     5.3119   191.3724     6.8099   107.4938    66.5008
  720.0000   -26.9182     6.3449     5.3126   187.6119     6.8098   107.1179    62.4391
  720.5000   -26.9154     6.4953     5.3877   183.7014     6.8096   106.8171    65.7583
  721.0000   -26.9126     6.7506     5.5372   174.8598     6.8095   106.7398    65.1619
  721.5000   -26.9098     6.9909     5.6124   168.1143     6.8238   106.7369    67.1272
  722.0000   -27.0523     7.1413     5.6875   162.1150     6.8236   106.7340    69.6935
  722.5000   -27.1948     7.2916     5.8370   156.8620     6.8235   106.8062    70.7537
  723.0000   -27.1913     7.4120     5.9867   154.5941     6.8233   106.5792    78.5910
  723.5000   -27.4799     7.4728     6.1363   153.0724     6.8232   105.1587    83.1150
  724.0000   -27.6224     7.5346     6.2114   152.2970     6.8230   104.2473    73.0307
  724.5000   -27.7642     7.5933     6.3609   151.5217     6.8229   103.6659    71.6798
