~VERSION INFORMATION
 VERS.                2.0:   CWLS LOG ASCII STANDARD - VERSION 2.0
 WRAP.                 NO:   ONE LINE PER DEPTH STEP
~WELL INFORMATION
#MNEM.UNIT      DATA TYPE    INFORMATION
#----------   ------------   ------------------------------
 STRT.F           29.0000:   START DEPTH
 STOP.F          500.0000:   STOP DEPTH
 STEP.F            0.5000:   STEP LENGTH
 NULL.          -999.2500:   NO VALUE
 COMP.    FENIX & SCISSON:   COMPANY
 WELL.        NPR #48-S-3:   WELL
 FLD .             TEAPOT:   FIELD
 LOC .       S3 T38N R78W:   LOCATION
 CNTY.            NATRONA:   COUNTY
 STAT.            WYOMING:   STATE
 CTRY. UNITED STATES OF AMERICA:   COUNTRY
 SRVC.              Welex:   SERVICE COMPANY
 DATE.        24-APR-1977:   LOGDATE
 API .       490251034900:   API NUMBER
~CURVE INFORMATION
#MNEM.UNIT       API CODE    CURVE DESCRIPTION
#----------   ------------   ------------------------------
 DEPT.F                  :   
 SPR .MV     07 010 01 00:   SPONTANEOUS POTENTIAL
 ILD .OHMM   07 120 46 00:   INDUCTION LOG DEEP
 ILM .OHMM   07 120 44 00:   INDUCTION LOG MEDIUM
 SGRD.OHMM   07 221 05 00:   SHALLOW SHORT GUARD RESISTIVITY
 GRD .GAPI   45 310 01 00:   GAMMA RAY FROM DENSITY LOG
 CALD.IN     45 280 60 00:   CALIPER FROM DENSITY LOG
 CORR.G/C3   45 356 01 00:   DENSITY CORRECTION
 RHOB.G/C3   45 350 01 00:   BULK DENSITY
 DPHI.DEC    45 890 12 00:   DENSITY POROSITY SANDSTONE
~PARAMETER INFORMATION
#MNEM.UNIT          VALUE    DESCRIPTION
#----------   ------------   ------------------------------
 PD  .                 GL:   PERMANENT DATUM
 EPD .F              5199:   ELEVATION PERMANENT DATUM
 LMF .                 GL:   LOG MEASURED FROM
 DMF .                 GL:   DRILLING MEASURED FROM
 EGL .F              5199:   GROUND LEVEL
 DATE.        24-APR-1977:   RUN DATE
 RUN .                  1:   RUN NUMBER
 DD  .F               500:   DEPTH DRILLER
 DL  .F               499:   DEPTH LOGGER
 BLI .F               497:   BOTTOM LOG INTERVAL
 TLI .F                30:   TOP LOG INTERVAL
 CS  .IN            8.625:   CASING SIZE
 BS  .IN               12:   BIT SIZE
 BSD .F               500:   BIT SIZE AT DEPTH
 DFT .             KCLMUD:   DRILLING FLUID TYPE
 DFD .                8.9:   DRILLING FLUID DENSITY
 TCS .HRS               1:   TIME CURCULATED STOPPED
 MRT .F                70:   MAXIMUM RECORDED TEMPERATURE
 ENGI.          T. JOYNER:   RECORDING ENGINEER
 WITN.            R. LYON:   WITNESSED BY
 CLNT.            A2DTECH:   CLIENT CODE
 ORIG.           5" PRINT:   ORIGIN OF DATA
 UWI .       490251034900:   UNIQUE WELL ID
 DICO. A2D Technologies, Inc.:   DIGITIZING COMPANY
~OTHER INFORMATION
~A   DEPT      SPR        ILD        ILM       SGRD        GRD         CALD      CORR        RHOB     DPHI   
# ...
  284.5000   -44.3699     9.5887    13.1571    15.7285   116.9967     7.8674     0.0050     2.4359     0.1261
  285.0000   -43.7586     9.8022    14.0193    15.9596   114.5256     7.8519     0.0057     2.4269     0.1309
  285.5000   -42.9861    10.3775    15.4634    16.8764   105.0584     7.8515     0.0064     2.4089     0.1401
  286.0000   -42.2393    11.5304    17.4138    19.6569    98.3449     7.8511     0.0072     2.3908     0.1482
  286.5000   -41.6282    13.3807    20.5827    25.9253    93.2708     7.8357     0.0072     2.3789     0.1584
  287.0000   -40.8685    16.4578    23.8288    27.0386    88.1966     7.8203     0.0079     2.3631     0.1748
  287.5000   -40.2572    19.4440    27.2080    26.4966    80.5872     7.7750     0.0079     2.3414     0.1883
  288.0000   -39.4976    22.2034    30.2190    34.4723    77.5995     7.7596     0.0079     2.3226     0.1987
  288.5000   -38.7656    24.9874    33.1021    39.5952    75.9531     7.7143     0.0086     2.2941     0.2113
  289.0000   -38.1574    27.3499    23.9471    31.9908    73.7106     7.6990     0.0086     2.2634     0.2258
  289.5000   -37.8459    29.3171    14.0786    28.8569    71.6170     7.6685     0.0078     2.2619     0.2352
  290.0000   -37.3860    30.5643    12.6197    30.7307    73.9927     7.6532     0.0078     2.2679     0.2302
  290.5000   -36.9262    30.7778    12.3755    31.3933    76.3702     7.6527     0.0078     2.2708     0.2275
  291.0000   -36.4663    30.1432    13.3705    30.7688    78.5986     7.6674     0.0078     2.2768     0.2254
  291.5000   -36.0064    29.1451    14.3455    26.8170    79.9329     7.6668     0.0078     2.2820     0.2220
  292.0000   -35.6949    28.1465    15.0755    26.4615    80.5435     7.6963     0.0077     2.2865     0.2159
  292.5000   -35.3834    27.2126    15.8428    29.1696    81.2582     7.7107     0.0077     2.2917     0.2129
  293.0000   -34.7752    26.1630    16.3080    29.3854    81.9963     7.7103     0.0085     2.2969     0.2126
  293.5000   -34.4637    25.3309    16.6698    27.8278    82.7362     7.7397     0.0092     2.3029     0.2117
  294.0000   -34.0038    24.4997    16.9356    26.3447    80.1857     7.7692     0.0099     2.3066     0.2091
  294.5000   -33.5440    23.8544    17.6807    28.4455    79.4398     7.7986     0.0099     2.3096     0.2049
  295.0000   -33.2325    23.0660    18.8455    32.2296    81.2211     7.8132     0.0099     2.3118     0.2016
  295.5000   -32.9210    22.6088    20.2440    29.4811    81.6629     7.8276     0.0099     2.3080     0.2034
  296.0000   -32.6095    22.4747    22.5186    29.9096    77.9283     7.8272     0.0099     2.3088     0.2067
  296.5000   -32.2980    22.8152    24.4839    33.1938    75.3497     7.8267     0.0106     2.3118     0.2010
  297.0000   -31.9865    22.8372    26.0658    34.1445    76.8692     7.8262     0.0114     2.3170     0.1951
  297.5000   -31.9717    23.0179    27.8984    36.3560    79.6937     7.8109     0.0121     2.3222     0.1888
  298.0000   -31.9569    23.2000    29.7265    33.9516    81.0297     7.8104     0.0128     2.3332     0.1817
  298.5000   -31.9422    23.3836    32.1155    36.6533    78.7824     7.7951     0.0128     2.3574     0.1708
  299.0000   -31.7790    23.2449    34.4574    41.8171    75.6469     7.7796     0.0135     2.3783     0.1602
  299.5000   -31.7643    22.9478    34.0262    46.7303    76.2360     7.7792     0.0151     2.3820     0.1632
  300.0000   -31.7811    22.9287    31.9862    41.9179    79.5862     7.7779     0.0158     2.3536     0.1733
  300.5000   -31.8884    22.4997    29.6927    28.4663    81.9588     7.7723     0.0158     2.3392     0.1789
  301.0000   -31.5771    22.2218    29.1024    26.9517    84.3315     7.7667     0.0157     2.3421     0.1839
  301.5000   -31.4170    21.6389    28.1446    30.7584    88.1189     7.7611     0.0157     2.3510     0.1812
  302.0000   -31.2570    21.0678    27.2123    28.7278    88.7076     7.7302     0.0165     2.3622     0.1747
  302.5000   -31.2453    21.0864    26.1237    25.3895    87.6545     7.7293     0.0172     2.3748     0.1687
  303.0000   -31.5304    21.1054    26.7008    28.5728    89.1324     7.7285     0.0157     2.3897     0.1556
  303.5000   -31.5187    21.1244    27.6646    32.8282    91.1421     7.7276     0.0157     2.3949     0.1506
  304.0000   -31.5070    20.9967    28.2695    38.6208    92.3921     7.7268     0.0149     2.3885     0.1529
  304.5000   -31.4954    20.7313    28.8876    28.2441    90.4423     7.7257     0.0134     2.3722     0.1596
  305.0000   -31.4837    20.6021    29.1138    25.1349    87.9982     7.7248     0.0126     2.3474     0.1743
  305.5000   -31.3234    20.4782    29.1396    27.9797    85.5044     7.7090     0.0111     2.3293     0.1908
  306.0000   -31.3116    20.2148    28.3494    31.0039    88.6217     7.6932     0.0096     2.3173     0.1977
  306.5000   -31.2974    20.0933    26.8050    27.1841    90.5491     7.6774     0.0096     2.3164     0.1998
  307.0000   -31.4370    20.1155    24.8924    25.3895    92.1786     7.6764     0.0095     2.3201     0.1954
  307.5000   -31.5737    20.1333    24.0956    26.8513    93.6886     7.6907     0.0095     2.3200     0.1936
  308.0000   -31.8587    20.1511    24.9709    30.6381    94.9879     7.7048     0.0095     2.3214     0.1963
  308.5000   -31.9954    20.1689    25.6940    29.6206    96.0211     7.7485     0.0095     2.3206     0.1967
  309.0000   -31.9808    20.0471    24.8428    26.3599    97.2035     7.7634     0.0095     2.3197     0.1967
  309.5000   -31.9692    19.9268    23.3210    25.8339   100.0252     7.8064     0.0095     2.3189     0.1967
  310.0000   -31.9575    19.6708    21.6709    28.2863    98.0180     7.8056     0.0095     2.3196     0.1965
  310.5000   -31.9458    19.5439    21.0981    29.9150    95.8300     7.8047     0.0094     2.3224     0.1962
  311.0000   -31.9341    19.1336    21.1171    30.1447    93.8826     7.8188     0.0094     2.3224     0.1959
  311.5000   -31.9225    18.5372    21.1429    29.5488    93.1276     7.8329     0.0094     2.3223     0.1957
  312.0000   -32.0594    18.1687    21.4497    27.9742    92.6705     7.8470     0.0094     2.3252     0.1945
  312.5000   -32.0475    17.8114    21.7679    27.0374    93.1052     7.8459     0.0086     2.3288     0.1901
  313.0000   -32.0356    17.5862    22.0947    27.1023    94.7347     7.8451     0.0086     2.3370     0.1859
  313.5000   -32.0237    17.4766    22.4222    28.6368    99.9408     7.8442     0.0086     2.3459     0.1812
  314.0000   -32.0095    17.3715    22.7546    29.4552   100.9741     7.8583     0.0086     2.3548     0.1782
  314.5000   -32.1491    17.3907    23.0919    27.1334    99.7720     7.8573     0.0086     2.3547     0.1765
  315.0000   -32.1346    17.6485    23.5968    27.7271    97.9712     7.8716     0.0086     2.3561     0.1741
  315.5000   -32.2712    17.7867    23.7816    28.5248    96.0239     7.8705     0.0093     2.3597     0.1715
  316.0000   -32.2596    18.3017    24.3016    28.3497    94.0765     7.8696     0.0093     2.3672     0.1676
  316.5000   -32.3992    18.8316    24.6618    27.7893    92.7253     7.8538     0.0100     2.3805     0.1605
  317.0000   -32.5359    19.5113    25.0274    27.4235    91.2130     7.8229     0.0108     2.3962     0.1530
  317.5000   -32.6726    20.4970    25.3984    27.2552    89.4243     7.8071     0.0115     2.4114     0.1429
  318.0000   -32.9547    21.6923    26.4977    27.8516    88.5202     7.7913     0.0122     2.4230     0.1388
  318.5000   -33.0914    22.9573    28.2241    29.6593    87.9142     7.7904     0.0122     2.4326     0.1346
  319.0000   -33.3765    24.4351    29.8558    32.0235    89.6926     7.7894     0.0122     2.4445     0.1287
  319.5000   -33.5134    25.8477    29.6737    36.6214    94.3382     7.7885     0.0114     2.4482     0.1234
  320.0000   -33.7982    27.1536    27.8353    41.2368    94.1413     7.8028     0.0098     2.4406     0.1222
  320.5000   -33.4896    27.7472    24.9026    45.0244    91.8959     7.8018     0.0091     2.4165     0.1342
