~VERSION INFORMATION
 VERS.                2.0:   CWLS LOG ASCII STANDARD - VERSION 2.0
 WRAP.                 NO:   ONE LINE PER DEPTH STEP
~WELL INFORMATION
#MNEM.UNIT      DATA TYPE    INFORMATION
#----------   ------------   ------------------------------
 STRT.F           27.0000:   START DEPTH
 STOP.F          566.0000:   STOP DEPTH
 STEP.F            0.5000:   STEP LENGTH
 NULL.          -999.2500:   NO VALUE
 COMP.    FENIX & SCISSON:   COMPANY
 WELL. S-3 NPR #3 #86-S-3:   WELL
 FLD .             TEAPOT:   FIELD
 LOC .       S3 T38N R78W:   LOCATION
 CNTY.            NATRONA:   COUNTY
 STAT.            WYOMING:   STATE
 CTRY. UNITED STATES OF AMERICA:   COUNTRY
 SRVC.       Schlumberger:   SERVICE COMPANY
 DATE.        08-APR-1977:   LOGDATE
 API .       490251032900:   API NUMBER
~CURVE INFORMATION
#MNEM.UNIT       API CODE    CURVE DESCRIPTION
#----------   ------------   ------------------------------
 DEPT.F                  :   
 CALD.IN     45 280 60 00:   CALIPER FROM DENSITY LOG
 GRD .GAPI   45 310 01 00:   GAMMA RAY FROM DENSITY LOG
 CORR.G/C3   45 356 01 00:   DENSITY CORRECTION
 RHOB.G/C3   45 350 01 00:   BULK DENSITY
 DPHI.DEC    45 890 12 00:   DENSITY POROSITY SANDSTONE
 SPR .MV     07 010 01 00:   SPONTANEOUS POTENTIAL
 ILD .OHMM   07 120 46 00:   INDUCTION LOG DEEP
 ILM .OHMM   07 120 44 00:   INDUCTION LOG MEDIUM
 LL8 .OHMM   07 220 08 00:   LATEROLOG-8 RES.
~PARAMETER INFORMATION
#MNEM.UNIT          VALUE    DESCRIPTION
#----------   ------------   ------------------------------
 PD  .                 GL:   PERMANENT DATUM
 EPD .F              5147:   ELEVATION PERMANENT DATUM
 LMF .                 KB:   LOG MEASURED FROM
 DMF .                 KB:   DRILLING MEASURED FROM
 EGL .F              5147:   GROUND LEVEL
 DATE.        08-APR-1977:   RUN DATE
 RUN .                  1:   RUN NUMBER
 DD  .F               570:   DEPTH DRILLER
 DL  .F               567:   DEPTH LOGGER
 BLI .F               566:   BOTTOM LOG INTERVAL
 TLI .F                27:   TOP LOG INTERVAL
 CS  .IN            8.625:   CASING SIZE
 CBD .F                40:   CASING BOTTOM DRILLER
 CBL .F                33:   CASING BOTTOM LOGGER
 BS  .IN            7.875:   BIT SIZE
 BSD .F               570:   BIT SIZE AT DEPTH
 DFT .                KCL:   DRILLING FLUID TYPE
 DFD .                8.6:   DRILLING FLUID DENSITY
 DFV .                 31:   DRILLING FLUID VISCOSITY
 DFPH.                9.5:   DRILLING FLUID PH
 DFL .                8.6:   DRILLING FLUID LOSS
 MSS .           FLOWLINE:   MUD SAMPLE SOURCE
 RMS .OHMM          0.306:   RESISTIVITY MUD SAMPLE
 MST .F                78:   MUD SAMPLE TEMPERATURE
 RMF .OHMM          0.230:   RESISTIVITY MUD FILTRATE SAMPLE
 MFST.F                78:   MUD FILTRATE SAMPLE TEMPERATURE
 MFSS.               MEAS:   MUD FILTRATE SAMPLE SOURCE
 RMB .OHMM          0.341:   RESISTIVITY MUD AT BHT
 BHT .F                70:   BOTTOM HOLE TEMPERATURE
 TCS .HRS              20:   TIME CURCULATED STOPPED
 MRT .F                70:   MAXIMUM RECORDED TEMPERATURE
 LUN .               5642:   LOGGING UNIT NUMBER
 LUL .               CSPR:   LOGGING UNIT LOCATION
 ENGI.             MARTIN:   RECORDING ENGINEER
 WITN.               LYON:   WITNESSED BY
 CLNT.            A2DTECH:   CLIENT CODE
 ORIG.       2", 5" PRINT:   ORIGIN OF DATA
 UWI .       490251032900:   UNIQUE WELL ID
 DICO. A2D Technologies, Inc.:   DIGITIZING COMPANY
~OTHER INFORMATION
~A   DEPT     CALD         GRD      CORR       RHOB       DPHI        SPR        ILD        ILM        LL8   
# ...
   63.5000     8.2348   120.0142     0.0227     2.4337     0.1218   -75.9222     7.9149     7.9661     9.2405
   64.0000     8.2224   120.6310     0.0363     2.4533     0.1224   -76.0667     7.8072     7.8567     8.7446
   64.5000     8.2116   121.0988     0.0289     2.4429     0.1263   -76.3595     7.7009     7.6956     8.4491
   65.0000     8.2148   122.4607     0.0207     2.4302     0.1247   -76.5021     7.4918     7.6428     8.4514
   65.5000     8.2330   122.1834     0.0178     2.4408     0.1233   -76.4926     7.4928     7.6435     8.6914
   66.0000     8.2363   117.1370     0.0163     2.4454     0.1298   -76.4851     7.4422     7.5911     9.0003
   66.5000     8.2395   114.4751     0.0141     2.4320     0.1364   -76.4775     7.4432     7.5917     9.2553
   67.0000     8.2577   113.8945     0.0075     2.4298     0.1348   -76.4700     7.4960     7.5923     8.7585
   67.5000     8.2908   115.2617     0.0098     2.4337     0.1297   -76.4640     7.4970     7.6456     8.4632
   68.0000     8.2642   116.1765     0.0136     2.4405     0.1221   -76.4565     7.4980     7.6462     8.4655
   68.5000     8.2079   115.7501     0.0122     2.4466     0.1191   -76.4489     7.4991     7.6467     8.5268
   69.0000     8.1813   115.1747     0.0078     2.4565     0.1148   -76.4415     7.5001     7.6472     8.8299
   69.5000     8.1846   114.8971     0.0123     2.4672     0.1235   -76.4339     7.5012     7.6477     9.0179
   70.0000     8.1879   115.0671     0.0199     2.4386     0.1184   -76.4265     7.5543     7.6483     9.2099
   70.5000     8.2061   115.2370     0.0313     2.4643     0.1174   -76.2557     7.6078     7.7020     9.0229
   71.0000     8.2540   115.0989     0.0253     2.4573     0.1201   -75.8109     7.6617     7.8102     8.9624
   71.5000     8.2573   114.1759     0.0217     2.4463     0.1219   -75.3528     7.7160     7.8651     8.7804
   72.0000     8.2010   110.6698     0.0135     2.4297     0.1272   -75.1951     7.7170     7.8656     8.7835
   72.5000     8.0552   106.6757    -0.0008     2.4331     0.1259   -75.1876     7.8257     7.9209     9.0329
   73.0000     8.1628   108.1919     0.0159     2.4482     0.1239   -75.1800     7.9358     8.0321     9.6169
   73.5000     8.2257   109.8520     0.0047     2.4115     0.1385   -75.1725     7.9369     8.0327     9.8210
   74.0000     8.2587   109.5746    -0.0028     2.4033     0.1311   -75.1649     7.9931     8.0891     8.5528
   74.5000     8.2769   108.8449     0.0191     2.4409     0.1217   -75.3075     8.1057     8.2027     8.7957
   75.0000     8.2504   110.6592     0.0124     2.4478     0.1323   -75.4501     8.1631     8.3178     9.2355
   75.5000     8.2238   111.1270    -0.0010     2.4020     0.1366   -75.7433     8.1642     8.3184     9.8326
   76.0000     8.3020   111.4457     0.0141     2.4179     0.1194   -75.8874     8.3366     8.4352     9.8353
   76.5000     8.3198   111.9135     0.0239     2.4541     0.1158   -76.3303     8.3957     8.5536     9.5691
   77.0000     8.2776   112.0832     0.0315     2.4639     0.1113   -76.4710     8.3968     8.5542     9.3100
   77.5000     8.2518   112.4020     0.0436     2.4798     0.0989   -76.4634     8.5742     8.7346     9.3126
   78.0000     8.2850   115.9994     0.0542     2.4867     0.0977   -76.3057     8.6349     8.7960     9.5109
   78.5000     8.3032   117.9575     0.0498     2.4845     0.1109   -76.2982     8.6961     8.7966    10.1258
   79.0000     8.2899   117.6802     0.0333     2.4508     0.1204   -76.1405     8.8185     8.7973    10.4858
   79.5000     8.2500   114.4222     0.0341     2.4584     0.1147   -75.8326     8.8809     8.8591    10.4155
   80.0000     8.2533   111.9093     0.0320     2.4742     0.1089   -75.6749     8.8822     8.9214    10.3465
   80.5000     8.2715   113.5694     0.0192     2.4924     0.1041   -75.5172     8.8834     8.9841    10.1364
   81.0000     8.2897   115.0804     0.0193     2.4883     0.1008   -75.2094     8.8846     9.0472     9.8627
   81.5000     8.3078   115.5482     0.0225     2.4834     0.1013   -75.2018     8.8859     9.0479     9.7966
   82.0000     8.2961   115.1217     0.0270     2.4761     0.1103   -75.1943     8.8871     9.0485     9.8000
   82.5000     8.3002   113.3541     0.0233     2.4593     0.1163   -75.0366     9.0748     9.0491     9.8709
   83.0000     8.3035   112.7779     0.0218     2.4492     0.1210   -75.0290     9.1391     9.2400    10.1512
   83.5000     8.2910   113.6935     0.0194     2.4381     0.1264   -75.0215     9.1403     9.2407    10.6587
   84.0000     8.2794   115.8006     0.0153     2.4351     0.1246   -75.0139     9.2051     9.3056    11.0376
   84.5000     8.2835   114.9271     0.0199     2.4548     0.1194   -75.0064     9.3995     9.5019    11.3510
   85.0000     8.2867   114.9478     0.0214     2.4534     0.1179   -74.9988     9.4660     9.5687    11.5921
   85.5000     8.2900   114.8195     0.0215     2.4339     0.1197   -74.9913     9.6659     9.7706    11.6759
   86.0000     8.2933   114.2345     0.0201     2.4490     0.1238   -74.8335     9.8701     9.9767    11.6943
   86.5000     8.2808   113.6686     0.0186     2.4559     0.1190   -74.6758    10.1485    10.1871    11.8603
   87.0000     8.2849   113.3913     0.0187     2.4530     0.1178   -74.5181    10.4348    10.4744    11.9311
   87.5000     8.3031   113.4625     0.0181     2.4508     0.1204   -74.3605    10.5817    10.6954    11.9344
   88.0000     8.3063   117.3126     0.0151     2.4486     0.1210   -74.3529    10.8051    10.9210    11.6920
   88.5000     8.3096   116.4391     0.0092     2.4427     0.1230   -74.3468    11.0333    11.0743    11.7892
   89.0000     8.3278   113.1811    -0.0028     2.4248     0.1302   -74.1622    11.1115    11.3079    12.0646
   89.5000     8.3311   104.4090    -0.0035     2.4519     0.1200   -73.8814    11.3461    11.3874    12.8426
   90.0000     8.3343   102.7852     0.0260     2.4926     0.1025   -73.7237    11.3477    11.5473    13.5639
   90.5000     8.3219   105.4936     0.0463     2.4739     0.1055   -73.7162    11.4281    11.5481    14.2157
   91.0000     8.3102   107.3027     0.0156     2.4462     0.1280   -73.7087    11.4297    11.4691    14.2196
   91.5000     8.2837   109.1117    -0.0024     2.4200     0.1427   -73.7012    11.4312    11.5497    13.7071
   92.0000     8.2572   113.0055     0.0037     2.4253     0.1363   -73.6878    11.4328    11.5505    12.9826
   92.5000     8.2612   114.9636     0.0104     2.4382     0.1249   -73.2358    11.3556    11.5513    12.6324
   93.0000     8.2794   116.7727     0.0121     2.4390     0.1236   -73.0781    11.3571    11.3930    12.3073
   93.5000     8.3125   116.4953     0.0146     2.4481     0.1167   -73.0705    11.1253    11.3938    12.0574
   94.0000     8.3307   115.4728     0.0273     2.4738     0.1094   -73.2132    10.8983    11.3156    12.0608
   94.5000     8.3190   115.7915     0.0165     2.4505     0.1193   -73.8062    10.5291    10.9309    12.0642
   95.0000     8.2925   118.0477     0.0154     2.4371     0.1262   -74.2491    10.2431    10.6325    12.3211
   95.5000     8.2958   117.9047     0.0249     2.4509     0.1159   -74.2415    10.1735    10.4141    12.4101
   96.0000     8.2684   116.4002     0.0344     2.4779     0.1130   -74.3844    10.1753    10.3429    12.4135
   96.5000     8.2419   115.7253     0.0239     2.4672     0.1147   -74.3766    10.1767    10.4158    12.0737
   97.0000     8.2161   116.1938     0.0210     2.4600     0.1152   -74.2189    10.1781    10.4165    11.6662
   97.5000     8.2194   115.7426     0.0173     2.4617     0.1140   -74.2113    10.1795    10.4897    11.4325
   98.0000     8.2078   114.8983     0.0324     2.4760     0.1092   -74.2038    10.1809    10.4178    11.4356
   98.5000     8.2259   114.3177     0.0280     2.4821     0.1142   -74.1962    10.2530    10.4187    11.4404
   99.0000     8.2143   115.5358     0.0228     2.4394     0.1277   -74.0385    10.2544    10.4194    11.6824
   99.5000     8.2317   120.0275     0.0153     2.4349     0.1196   -73.7306    10.2559    10.4201    11.6856
