~VERSION INFORMATION
 VERS.                2.0:   CWLS LOG ASCII STANDARD - VERSION 2.0
 WRAP.                 NO:   ONE LINE PER DEPTH STEP
~WELL INFORMATION
#MNEM.UNIT      DATA TYPE    INFORMATION
#----------   ------------   ------------------------------
 STRT.F           70.0000:   START DEPTH
 STOP.F          990.0000:   STOP DEPTH
 STEP.F            0.5000:   STEP LENGTH
 NULL.          -999.2500:   NO VALUE
 COMP. U S NAVY/INTEX OIL CO:   COMPANY
 WELL.      NPR 3 #55 S-2:   WELL
 FLD .            WILDCAT:   FIELD
 LOC .       S2 T38N R78W:   LOCATION
 CNTY.            NATRONA:   COUNTY
 STAT.            WYOMING:   STATE
 CTRY. UNITED STATES OF AMERICA:   COUNTRY
 SRVC.         Lane Wells:   SERVICE COMPANY
 DATE.        23-MAR-1960:   LOGDATE
 API .       490250968000:   API NUMBER
~CURVE INFORMATION
#MNEM.UNIT       API CODE    CURVE DESCRIPTION
#----------   ------------   ------------------------------
 DEPT.F                  :   
 SPR .MV     05 010 01 00:   SPONTANEOUS POTENTIAL FROM RES.
 ASN .OHMM   05 041 16 00:   AMPLIFIED SHORT NORMAL 16"
 ILD .OHMM   05 120 46 00:   INDUCTION LOG DEEP
 CILD.MMHO   05 110 46 00:   CONDUCTIVITY INDUCTION LOG DEEP
~PARAMETER INFORMATION
#MNEM.UNIT          VALUE    DESCRIPTION
#----------   ------------   ------------------------------
 PD  .                 GL:   PERMANENT DATUM
 EPD .F              5163:   ELEVATION PERMANENT DATUM
 LMF .                 KB:   LOG MEASURED FROM
 DAPD.F                 5:   FEET ABOVE PERMANENT DATUM
 DMF .                 KB:   DRILLING MEASURED FROM
 EKB .F              5168:   KELLING BUSHING
 EGL .F              5163:   GROUND LEVEL
 DATE.        23-MAR-1960:   RUN DATE
 RUN .                  1:   RUN NUMBER
 DD  .F              1010:   DEPTH DRILLER
 DL  .F               992:   DEPTH LOGGER
 BLI .F               990:   BOTTOM LOG INTERVAL
 TLI .F                70:   TOP LOG INTERVAL
 CS  .IN            8.625:   CASING SIZE
 CBD .F                12:   CASING BOTTOM DRILLER
 BS  .IN            7.875:   BIT SIZE
 BSD .F              1010:   BIT SIZE AT DEPTH
 DFT .   GEL-OIL EMULSION:   DRILLING FLUID TYPE
 DFD .                9.5:   DRILLING FLUID DENSITY
 DFV .                 40:   DRILLING FLUID VISCOSITY
 MSS .           FLOWLINE:   MUD SAMPLE SOURCE
 RMS .OHMM            2.8:   RESISTIVITY MUD SAMPLE
 MST .F                74:   MUD SAMPLE TEMPERATURE
 RMF .OHMM            2.0:   RESISTIVITY MUD FILTRATE SAMPLE
 MFST.F                74:   MUD FILTRATE SAMPLE TEMPERATURE
 RMC .OHMM            3.9:   RESISTIVITY MUD CAKE
 MCST.F                74:   MUD CAKE SAMPLE TEMPERATURE
 MFSS.          MUD PRESS:   MUD FILTRATE SAMPLE SOURCE
 MCSS.          MUD PRESS:   MUD CAKE SAMPLE SOURCE
 RMB .OHMM            2.8:   RESISTIVITY MUD AT BHT
 BHT .F                74:   BOTTOM HOLE TEMPERATURE
 MRT .F                74:   MAXIMUM RECORDED TEMPERATURE
 LUN .             L-4474:   LOGGING UNIT NUMBER
 LUL .             CASPER:   LOGGING UNIT LOCATION
 ENGI.             NELSON:   RECORDING ENGINEER
 WITN.          JORGENSEN:   WITNESSED BY
 CLNT.            A2DTECH:   CLIENT CODE
 ORIG.       2", 5" PRINT:   ORIGIN OF DATA
 UWI .       490250968000:   UNIQUE WELL ID
 DICO. A2D Technologies, Inc.:   DIGITIZING COMPANY
~OTHER INFORMATION
~A   DEPT      SPR          ASN        ILD      CILD  
# ...
  216.0000   -44.3551     6.3494     5.3469   192.8206
  216.5000   -44.1460     6.2075     5.2155   197.8022
  217.0000   -43.9258     6.1314     5.1470   201.6666
  217.5000   -43.6678     6.0614     5.1462   204.6934
  218.0000   -43.5300     6.0199     5.1456   206.9049
  218.5000   -43.5286     5.9949     5.1449   207.7426
  219.0000   -43.5273     6.0295     5.1441   208.7912
  219.5000   -43.6806     6.1307     5.1436   208.1639
  220.0000   -43.9342     6.1878     5.1428   207.4176
  220.5000   -44.2978     6.2285     5.1422   206.4882
  221.0000   -44.7513     6.2392     5.1515   205.6503
  221.5000   -45.0968     6.2333     5.2088   204.6704
  222.0000   -45.1776     6.1977     5.2082   202.6008
  222.5000   -45.1569     6.1585     5.2075   200.5494
  223.0000   -44.6521     6.0993     5.2068   199.1758
  223.5000   -44.3347     6.1024     5.1381   197.8022
  224.0000   -44.1220     6.1999     5.1373   197.8022
  224.5000   -44.0588     6.3063     5.1367   198.5668
  225.0000   -44.0572     6.2880     5.0680   201.0076
  225.5000   -44.1926     6.2058     5.0674   204.6704
  226.0000   -44.3278     6.0882     4.9841   207.1063
  226.5000   -44.4631     5.9670     4.9299   208.7912
  227.0000   -44.5985     5.8367     4.9292   210.9980
  227.5000   -44.7334     5.7612     4.9286   212.9120
  228.0000   -44.8689     5.7966     4.9279   214.2858
  228.5000   -45.0041     5.8426     4.9272   214.2858
  229.0000   -45.0797     5.9115     4.9265   212.8479
  229.5000   -45.1381     6.0466     4.9939   209.7343
  230.0000   -45.1364     6.2367     4.9932   206.6853
  230.5000   -45.1353     6.2591     5.0383   204.6704
  231.0000   -45.1339     6.2365     5.0600   203.2968
  231.5000   -44.9959     6.1518     5.0591   203.2968
  232.0000   -44.8579     6.0664     5.0585   203.2968
  232.5000   -44.7198     6.1136     5.0647   203.2968
  233.0000   -44.5820     6.1729     5.1251   203.2968
  233.5000   -44.4440     6.1541     5.1245   203.2968
  234.0000   -44.3060     6.1029     5.1238   203.2968
  234.5000   -44.3046     6.0723     5.1231   203.2968
  235.0000   -44.4397     6.0857     5.1315   203.2968
  235.5000   -44.6277     6.1238     5.1898   201.9230
  236.0000   -44.8470     6.1814     5.2127   201.1172
  236.5000   -45.0626     6.2687     5.2564   200.2792
  237.0000   -45.1176     6.3591     5.2939   199.1758
  237.5000   -45.1159     6.4660     5.3345   197.8022
  238.0000   -45.1147     6.5502     5.3905   196.4286
  238.5000   -45.1134     6.6309     5.3898   195.5540
  239.0000   -44.9754     6.6519     5.4571   194.7161
  239.5000   -44.9469     6.5909     5.4565   193.6814
  240.0000   -44.8359     6.5605     5.5239   193.6814
  240.5000   -44.6432     6.6198     5.5911   193.6814
  241.0000   -44.5592     6.7541     5.5624   193.6814
  241.5000   -44.2029     6.8050     5.5204   193.6814
  242.0000   -44.0109     6.7697     5.4104   193.6814
  242.5000   -43.8728     6.6687     5.3685   195.7648
  243.0000   -43.8716     6.3883     5.3156   198.1500
  243.5000   -44.0084     6.1846     5.2165   203.2968
  244.0000   -44.2259     6.0696     5.1102   207.4729
  244.5000   -44.5507     6.0153     5.1095   212.9120
  245.0000   -44.6856     5.9469     5.0408   215.0641
  245.5000   -44.8210     5.9049     4.9721   215.6594
  246.0000   -44.8197     5.8474     4.9714   215.6594
  246.5000   -44.8183     5.8343     4.9708   215.1145
  247.0000   -44.8169     5.8930     4.9699   214.2765
  247.5000   -44.6788     5.9599     4.9694   212.0648
  248.0000   -44.6193     6.0511     5.0367   209.8535
  248.5000   -44.5396     6.1278     5.0710   207.4176
  249.0000   -44.4522     6.1771     5.1035   205.4304
  249.5000   -44.0954     6.2232     5.1706   203.2968
  250.0000   -43.8523     6.2585     5.2381   202.3809
  250.5000   -43.7917     6.2802     5.2374   201.9230
  251.0000   -43.7131     6.3156     5.2367   200.5494
  251.5000   -43.8484     6.3397     5.2360   200.5494
  252.0000   -43.9838     6.3454     5.2353   200.5494
  252.5000   -44.2553     6.3667     5.2347   201.9230
  253.0000   -44.5879     6.3752     5.1660   201.9230
  253.5000   -44.7992     6.3936     5.1653   201.9230
  254.0000   -44.7095     6.3935     5.0966   203.2968
  254.5000   -44.4214     6.3798     5.0958   203.2968
  255.0000   -43.8387     6.3651     5.0952   203.2968
  255.5000   -43.4408     6.3522     5.0941   203.2968
  256.0000   -42.8798     6.3347     5.0259   203.2968
  256.5000   -43.1045     6.2975     5.0252   203.2968
  257.0000   -43.3220     6.2637     5.0244   203.5807
  257.5000   -43.5586     6.2130     5.0238   204.6704
  258.0000   -43.8935     6.1475     5.0231   204.6704
  258.5000   -44.1109     6.1116     5.0664   206.0440
  259.0000   -44.2377     6.0792     5.0899   206.0440
  259.5000   -44.0636     6.0934     5.0891   204.6704
  260.0000   -43.6884     6.1542     5.1201   203.2968
  260.5000   -43.4139     6.2692     5.1608   201.2683
  261.0000   -43.2759     6.3194     5.2231   200.4305
  261.5000   -43.3663     6.3370     5.2906   197.8022
  262.0000   -43.4845     6.3504     5.3578   197.3810
  262.5000   -43.8182     6.3685     5.3572   195.0550
  263.0000   -43.8820     6.4182     5.4317   190.8606
  263.5000   -43.9523     6.4796     5.5597   186.4381
  264.0000   -43.9505     6.6765     5.6490   181.3186
  264.5000   -43.9494     7.0151     5.7626   176.2177
  265.0000   -43.9480     7.3047     5.8980   171.7032
  265.5000   -43.7439     7.6284     6.0428   169.5375
  266.0000   -43.5237     7.7925     6.1686   167.5824
  266.5000   -43.3973     7.8598     6.1681   167.5824
  267.0000   -43.3962     7.8389     6.1673   167.5824
  267.5000   -43.3947     7.5835     6.1667   168.9789
  268.0000   -43.3935     7.2876     6.1542   171.1905
  268.5000   -43.5417     7.0967     6.0292   173.7270
  269.0000   -43.9369     6.9443     5.9343   177.1978
  269.5000   -44.1539     6.8657     5.8918   180.5723
  270.0000   -44.4808     6.8072     5.8504   182.6924
  270.5000   -44.4791     6.7699     5.8084   182.6924
  271.0000   -43.8893     6.7698     5.8217   182.2986
  271.5000   -43.2470     6.8312     5.8497   179.9450
  272.0000   -42.9308     6.9736     5.8884   176.5020
  272.5000   -42.8346     7.1068     5.9739   171.5431
  273.0000   -42.9727     7.2863     6.1075   167.5824
  273.5000   -43.2724     7.5196     6.2945   163.9099
  274.0000   -43.7866     7.7802     6.3928   159.3406
  274.5000   -43.9652     8.0341     6.5735   157.8113
  275.0000   -44.3305     8.1610     6.7007   154.9908
  275.5000   -44.4658     8.2924     6.8547   152.4726
  276.0000   -44.4809     8.4259     6.9714   150.5678
  276.5000   -44.5997     8.5296     6.9708   149.7252
  277.0000   -44.5983     8.4688     6.9637   149.7252
  277.5000   -44.5969     8.3422     6.9012   150.0229
  278.0000   -44.5956     8.1692     6.7438   151.0990
  278.5000   -44.4577     8.0480     6.6279   153.0723
  279.0000   -44.4561     7.9148     6.4558   156.7216
  279.5000   -44.4549     7.6654     6.2097   160.2426
  280.0000   -44.3169     7.2952     6.0135   164.1939
  280.5000   -44.1059     7.0251     5.9217   170.3296
  281.0000   -44.0223     6.9106     5.8762   175.7880
  281.5000   -43.9028     6.8758     5.8755   178.5714
  282.0000   -43.9016     7.0661     5.9537   175.8242
  282.5000   -43.9002     7.2256     6.0781   173.0770
  283.0000   -44.0355     7.2699     6.1709   171.7032
  283.5000   -44.1906     7.1762     6.2129   170.3296
  284.0000   -44.4424     7.0928     6.1442   170.5309
  284.5000   -44.8096     7.2967     6.1304   173.0770
  285.0000   -45.1229     7.2920     5.9387   174.9543
  285.5000   -45.4701     7.0678     5.8700   177.1978
  286.0000   -45.5302     6.8473     5.7324   180.1830
  286.5000   -44.9820     6.7597     5.6224   183.2328
  287.0000   -44.3370     6.6566     5.5125   186.8132
  287.5000   -43.8866     6.5409     5.3911   190.1326
  288.0000   -43.6721     6.4342     5.3224   190.9707
  288.5000   -43.6107     6.3705     5.3186   192.3076
