~VERSION INFORMATION
 VERS.                2.0:   CWLS LOG ASCII STANDARD - VERSION 2.0
 WRAP.                 NO:   ONE LINE PER DEPTH STEP
~WELL INFORMATION
#MNEM.UNIT      DATA TYPE    INFORMATION
#----------   ------------   ------------------------------
 STRT.F           42.0000:   START DEPTH
 STOP.F          866.0000:   STOP DEPTH
 STEP.F            0.5000:   STEP LENGTH
 NULL.          -999.2500:   NO VALUE
 COMP. FENIX & SCISSON INC:   COMPANY
 WELL.      NPR-SX #47-11:   WELL
 FLD .             TEAPOT:   FIELD
 LOC .      S11 T38N R78W:   LOCATION
 CNTY.            NATRONA:   COUNTY
 STAT.            WYOMING:   STATE
 CTRY. UNITED STATES OF AMERICA:   COUNTRY
 SRVC.            Unknown:   SERVICE COMPANY
 DATE.        25-FEB-1978:   LOGDATE
 API .       490251058700:   API NUMBER
~CURVE INFORMATION
#MNEM.UNIT       API CODE    CURVE DESCRIPTION
#----------   ------------   ------------------------------
 DEPT.F                  :   
 SPR .MV     07 010 01 00:   SPONTANEOUS POTENTIAL
 SN  .OHMM   07 040 16 00:   SHORT NORMAL 16'
 ILD .OHMM   07 120 46 00:   INDUCTION LOG DEEP
 CORR.G/C3   45 356 01 00:   DENSITY CORRECTION
 RHOB.G/C3   45 350 01 00:   BULK DENSITY
 DPHI.DEC    45 890 12 00:   DENSITY POROSITY SANDSTONE
 CALD.IN     45 280 60 00:   CALIPER FROM DENSITY LOG
 GRD .GAPI   45 310 01 00:   GAMMA RAY FROM DENSITY LOG
~PARAMETER INFORMATION
#MNEM.UNIT          VALUE    DESCRIPTION
#----------   ------------   ------------------------------
 PD  .                 GL:   PERMANENT DATUM
 EPD .F              5202:   ELEVATION PERMANENT DATUM
 LMF .                 KB:   LOG MEASURED FROM
 DAPD.F                 4:   FEET ABOVE PERMANENT DATUM
 DMF .                 KB:   DRILLING MEASURED FROM
 EKB .F              5206:   KELLING BUSHING
 EGL .F              5202:   GROUND LEVEL
 DATE.            2-25-78:   RUN DATE
 RUN .                  1:   RUN NUMBER
 DD  .F               870:   DEPTH DRILLER
 DL  .F               870:   DEPTH LOGGER
 BLI .F               865:   BOTTOM LOG INTERVAL
 TLI .F                47:   TOP LOG INTERVAL
 CS  .IN            8.625:   CASING SIZE
 CBD .F                40:   CASING BOTTOM DRILLER
 CBL .F                47:   CASING BOTTOM LOGGER
 BS  .IN            7.875:   BIT SIZE
 BSD .F               870:   BIT SIZE AT DEPTH
 DFT .                KCL:   DRILLING FLUID TYPE
 DFD .                8.7:   DRILLING FLUID DENSITY
 DFV .                 35:   DRILLING FLUID VISCOSITY
 DFL .                4.8:   DRILLING FLUID LOSS
 MSS .         CIRCULATED:   MUD SAMPLE SOURCE
 RMS .OHMM            1.5:   RESISTIVITY MUD SAMPLE
 MST .F                70:   MUD SAMPLE TEMPERATURE
 RMF .OHMM            .75:   RESISTIVITY MUD FILTRATE SAMPLE
 MFST.F                74:   MUD FILTRATE SAMPLE TEMPERATURE
 RMC .OHMM            1.8:   RESISTIVITY MUD CAKE
 MCST.F                68:   MUD CAKE SAMPLE TEMPERATURE
 MFSS.              PRESS:   MUD FILTRATE SAMPLE SOURCE
 RMB .OHMM            1.5:   RESISTIVITY MUD AT BHT
 BHT .F                70:   BOTTOM HOLE TEMPERATURE
 TCS .HRS               2:   TIME CURCULATED STOPPED
 MRT .F                70:   MAXIMUM RECORDED TEMPERATURE
 LUN .               2958:   LOGGING UNIT NUMBER
 LUL .               CASP:   LOGGING UNIT LOCATION
 CLNT.            A2DTECH:   CLIENT CODE
 ORIG.        2" 5" PRINT:   ORIGIN OF DATA
 UWI .       490251058700:   UNIQUE WELL ID
 DICO. A2D Technologies, Inc.:   DIGITIZING COMPANY
~OTHER INFORMATION
~A   DEPT      SPR         SN        ILD       CORR       RHOB       DPHI         CALD      GRD   
# ...
  487.5000   -23.4485     8.2211     7.8880     0.0492     2.4165     0.1379     8.6199    92.5001
  488.0000   -23.3928     8.1795     7.8100     0.0459     2.4259     0.1429     8.6192    87.6280
  488.5000   -23.3744     8.1461     7.7808     0.0362     2.4273     0.1507     8.6186    87.6926
  489.0000   -23.3571     8.1186     7.7479     0.0232     2.4181     0.1568     8.6180    86.0656
  489.5000   -23.3396     8.0912     7.7148     0.0102     2.4048     0.1530     8.6174    85.1197
  490.0000   -23.3221     8.0639     7.6819     0.0080     2.3966     0.1483     8.6167    86.3929
  490.5000   -23.3045     8.0367     7.6491     0.0162     2.4061     0.1440     8.6161    91.5915
  491.0000   -23.2869     8.0118     7.6164     0.0166     2.4129     0.1418     8.6155    90.4042
  491.5000   -23.2693     8.0031     7.5807     0.0200     2.4141     0.1352     8.6149    90.1874
  492.0000   -23.2516     7.9944     7.5905     0.0259     2.4276     0.1352     8.6143    90.9728
  492.5000   -23.2345     7.9857     7.6013     0.0270     2.4379     0.1340     8.6136    91.1079
  493.0000   -23.2176     7.9770     7.6122     0.0266     2.4357     0.1323     8.6130    90.3226
  493.5000   -23.2938     7.9684     7.6229     0.0285     2.4401     0.1311     8.6124    91.3295
  494.0000   -23.4821     7.9598     7.6336     0.0269     2.4461     0.1368     8.6117    90.2336
  494.5000   -23.6703     7.9510     7.6448     0.0234     2.4392     0.1420     8.6111    88.0261
  495.0000   -23.8536     7.9424     7.6511     0.0200     2.4304     0.1459     8.6105    84.3229
  495.5000   -23.8963     7.8336     7.4648     0.0166     2.4214     0.1477     8.6099    86.7201
  496.0000   -23.3093     7.6652     7.3158     0.0147     2.4135     0.1471     8.6093    86.0826
  496.5000   -22.7234     7.5005     7.1698     0.0153     2.4135     0.1494     8.6091    88.5658
  497.0000   -22.7002     7.3392     7.0266     0.0145     2.4133     0.1549     8.6091    85.9648
  497.5000   -22.7972     7.2386     6.8864     0.0130     2.4051     0.1549     8.6091    88.8720
  498.0000   -22.4877     7.1322     6.7488     0.0099     2.3994     0.1561     8.6091    92.7222
  498.5000   -22.4419     6.9940     6.6139     0.0055     2.4003     0.1533     8.6091    92.2652
  499.0000   -22.4782     6.8483     6.4820     0.0036     2.4057     0.1504     8.6091    91.0967
  499.5000   -22.5181     6.7675     6.3012     0.0068     2.4114     0.1475     8.6091    90.2407
  500.0000   -22.5578     6.7116     6.3585     0.0076     2.4187     0.1446     8.6091    90.0981
  500.5000   -22.5971     6.6627     6.4392     0.0080     2.4188     0.1425     8.6091    90.4487
  501.0000   -22.6365     6.8137     6.5209     0.0084     2.4200     0.1416     8.6091    93.0195
  501.5000   -22.6758     6.9450     6.6037     0.0114     2.4321     0.1409     8.6091    94.2254
  502.0000   -22.7152     7.0427     6.6875     0.0157     2.4383     0.1389     8.6091    96.4537
  502.5000   -22.7546     7.1061     6.7723     0.0199     2.4346     0.1370     8.6091    93.2163
  503.0000   -22.7936     7.1720     6.7853     0.0207     2.4309     0.1356     8.6091    94.9786
  503.5000   -22.8601     7.1044     6.7853     0.0210     2.4274     0.1362     8.6091    94.9319
  504.0000   -22.9419     7.0407     6.8344     0.0213     2.4261     0.1370     8.6091    94.9782
  504.5000   -23.0239     7.0764     6.8942     0.0215     2.4252     0.1378     8.6091    94.5500
  505.0000   -23.1059     7.1632     6.9545     0.0209     2.4239     0.1386     8.6091    91.3900
  505.5000   -23.1880     7.2511     7.0407     0.0193     2.4214     0.1377     8.6091    92.0350
  506.0000   -23.2701     7.3012     7.0209     0.0166     2.4205     0.1357     8.6091    91.6339
  506.5000   -23.3516     7.2585     6.9872     0.0147     2.4222     0.1337     8.6091    94.1685
  507.0000   -23.3965     7.2245     6.9536     0.0160     2.4304     0.1346     8.6091    94.9374
  507.5000   -23.3136     7.1907     6.9202     0.0150     2.4317     0.1360     8.6091    93.6708
  508.0000   -23.2288     7.1571     6.8870     0.0125     2.4274     0.1363     8.6091    91.4493
  508.5000   -23.1914     7.1236     6.8539     0.0161     2.4295     0.1295     8.6091    90.2672
  509.0000   -23.1584     7.0903     6.8210     0.0191     2.4427     0.1339     8.6091    89.9460
  509.5000   -23.1264     7.0572     6.7853     0.0166     2.4339     0.1382     8.6091    90.3526
  510.0000   -23.0942     7.0405     6.7817     0.0168     2.4251     0.1410     8.6091    91.0482
  510.5000   -23.0619     7.0408     6.7772     0.0188     2.4206     0.1413     8.6091    93.5672
  511.0000   -23.0296     7.0407     6.7730     0.0207     2.4212     0.1397     8.6091    95.6018
  511.5000   -22.9974     7.0407     6.7687     0.0240     2.4217     0.1382     8.6091    94.6954
  512.0000   -22.9651     7.0407     6.7645     0.0285     2.4222     0.1385     8.6091    95.6488
  512.5000   -22.9329     7.0407     6.7602     0.0237     2.4225     0.1389     8.6091   101.1054
  513.0000   -22.9006     7.0407     6.7560     0.0175     2.4212     0.1392     8.6091    99.7662
  513.5000   -22.8682     7.0407     6.7518     0.0111     2.4198     0.1395     8.6091    97.7730
  514.0000   -22.8362     7.0407     6.7475     0.0075     2.4184     0.1398     8.6091    95.9269
  514.5000   -22.8078     7.0407     6.7433     0.0101     2.4177     0.1376     8.6091    94.2191
  515.0000   -22.8087     7.0407     6.7391     0.0152     2.4196     0.1362     8.6091    95.7601
  515.5000   -22.8088     7.0407     6.7349     0.0171     2.4274     0.1329     8.6091    94.7873
  516.0000   -22.8088     7.0407     6.7306     0.0181     2.4277     0.1276     8.6091    94.7272
  516.5000   -22.8084     7.0407     6.7264     0.0181     2.4371     0.1320     8.6091    93.2969
  517.0000   -22.8072     7.0407     6.7083     0.0130     2.4459     0.1356     8.6091    94.1636
  517.5000   -22.8173     7.0060     6.6187     0.0077     2.4345     0.1317     8.6091    95.8166
  518.0000   -23.0214     6.7808     6.5300     0.0193     2.4270     0.1280     8.6091    94.7704
  518.5000   -23.2045     6.6611     6.4190     0.0313     2.4413     0.1282     8.6091    96.2669
  519.0000   -22.9075     6.6611     6.4178     0.0328     2.4455     0.1330     8.6091    96.6396
  519.5000   -22.5539     6.6248     6.4213     0.0285     2.4468     0.1398     8.6091    92.9343
  520.0000   -22.2234     6.5761     6.2992     0.0224     2.4349     0.1462     8.6091    92.1634
  520.5000   -22.3188     6.4626     6.2445     0.0164     2.4142     0.1466     8.6091    91.2250
  521.0000   -22.3624     6.2012     6.1904     0.0174     2.4064     0.1466     8.6091    90.0436
  521.5000   -22.0872     5.9764     6.1367     0.0174     2.4073     0.1447     8.6091    92.9009
  522.0000   -21.8210     5.8279     5.9744     0.0178     2.4049     0.1385     8.6091    96.0677
  522.5000   -21.8109     5.6832     5.8006     0.0273     2.4069     0.1323     8.6091    99.2971
  523.0000   -21.8120     5.5420     5.6318     0.0370     2.4257     0.1288     8.6091    99.1152
  523.5000   -21.8269     5.4360     5.5360     0.0408     2.4426     0.1303     8.6091   100.3090
  524.0000   -21.8457     5.4820     5.5378     0.0413     2.4510     0.1322     8.6091    98.9195
  524.5000   -21.8647     5.5380     5.5383     0.0412     2.4601     0.1314     8.6091   103.1048
  525.0000   -21.8836     5.5946     5.5359     0.0406     2.4530     0.1314     8.6091    99.3379
  525.5000   -21.9025     5.6407     5.7243     0.0325     2.4514     0.1375     8.6091   100.5057
  526.0000   -21.9215     6.0522     5.8630     0.0177     2.4414     0.1339     8.6091    96.6733
  526.5000   -21.9404     6.4194     6.0052     0.0096     2.4258     0.1279     8.6091    99.5489
  527.0000   -21.9592     6.4910     6.1508     0.0129     2.4289     0.1246     8.6091    99.6128
  527.5000   -21.9777     6.5656     6.2440     0.0128     2.4461     0.1238     8.6091   100.8337
