~VERSION INFORMATION
 VERS.                2.0:   CWLS LOG ASCII STANDARD - VERSION 2.0
 WRAP.                 NO:   ONE LINE PER DEPTH STEP
~WELL INFORMATION
#MNEM.UNIT      DATA TYPE    INFORMATION
#----------   ------------   ------------------------------
 STRT.F           34.0000:   START DEPTH
 STOP.F          534.0000:   STOP DEPTH
 STEP.F            0.5000:   STEP LENGTH
 NULL.          -999.2500:   NO VALUE
 COMP.    FENIX & SCISSON:   COMPANY
 WELL.      33 SX 3 #33-3:   WELL
 FLD .             TEAPOT:   FIELD
 LOC .       S3 T38N R78W:   LOCATION
 CNTY.            NATRONA:   COUNTY
 STAT.            WYOMING:   STATE
 CTRY. UNITED STATES OF AMERICA:   COUNTRY
 SRVC.       Schlumberger:   SERVICE COMPANY
 DATE.        23-FEB-1977:   LOGDATE
 API .       490251028500:   API NUMBER
~CURVE INFORMATION
#MNEM.UNIT       API CODE    CURVE DESCRIPTION
#----------   ------------   ------------------------------
 DEPT.F                  :   
 SPR .MV     07 010 01 00:   SPONTANEOUS POTENTIAL
 LL8 .OHMM   07 220 08 00:   LATEROLOG-8 RES.
 ILD .OHMM   07 120 46 00:   INDUCTION LOG DEEP
 ILM .OHMM   07 120 44 00:   INDUCTION LOG MEDIUM
 CALD.IN     45 280 60 00:   CALIPER
 GRD .GAPI   45 310 01 00:   GAMMA RAY FROM DENSITY LOG
 RHOB.G/C3   45 350 01 00:   BULK DENSITY
 DPOR.DEC    45 890 12 00:   DENSITY POROSITY SANDSTONE
 CORR.G/C3   45 356 01 00:   DENSITY CORRECTION
~PARAMETER INFORMATION
#MNEM.UNIT          VALUE    DESCRIPTION
#----------   ------------   ------------------------------
 PD  .                 GL:   PERMANENT DATUM
 EPD .F              5170:   ELEVATION PERMANENT DATUM
 LMF .                 KB:   LOG MEASURED FROM
 DAPD.F                 5:   FEET ABOVE PERMANENT DATUM
 DMF .                 KB:   DRILLING MEASURED FROM
 EKB .F              5175:   KELLING BUSHING
 EGL .F              5170:   GROUND LEVEL
 DATE.            2-23-77:   RUN DATE
 RUN .                  1:   RUN NUMBER
 DD  .F               550:   DEPTH DRILLER
 DL  .F               535:   DEPTH LOGGER
 BLI .F               525:   BOTTOM LOG INTERVAL
 TLI .F                47:   TOP LOG INTERVAL
 CS  .IN            8.625:   CASING SIZE
 CBD .F                40:   CASING BOTTOM DRILLER
 CBL .F                47:   CASING BOTTOM LOGGER
 BS  .IN            7.875:   BIT SIZE
 BSD .F               550:   BIT SIZE AT DEPTH
 DFT .                KCL:   DRILLING FLUID TYPE
 DFD .                  9:   DRILLING FLUID DENSITY
 DFV .                 36:   DRILLING FLUID VISCOSITY
 MSS .            MUDTANK:   MUD SAMPLE SOURCE
 RMS .OHMM           .255:   RESISTIVITY MUD SAMPLE
 MST .F                74:   MUD SAMPLE TEMPERATURE
 RMF .OHMM           .246:   RESISTIVITY MUD FILTRATE SAMPLE
 MFST.F                74:   MUD FILTRATE SAMPLE TEMPERATURE
 RMC .OHMM            .38:   RESISTIVITY MUD CAKE
 MCST.F                74:   MUD CAKE SAMPLE TEMPERATURE
 MFSS.                  M:   MUD FILTRATE SAMPLE SOURCE
 MCSS.                  C:   MUD CAKE SAMPLE SOURCE
 RMB .OHMM            .34:   RESISTIVITY MUD AT BHT
 BHT .F                55:   BOTTOM HOLE TEMPERATURE
 TCS .HRS            0600:   TIME CURCULATED STOPPED
 TLAB.HRS            0730:   TIME LOGGER AT BOTTOM
 MRT .F                55:   MAXIMUM RECORDED TEMPERATURE
 LUN .               5642:   LOGGING UNIT NUMBER
 LUL .               CSPR:   LOGGING UNIT LOCATION
 ENGI.                FIX:   RECORDING ENGINEER
 WITN.         STUEBINGER:   WITNESSED BY
 CLNT.            A2DTECH:   CLIENT CODE
 ORIG.       2", 5" PRINT:   ORIGIN OF DATA
 UWI .       490251028500:   UNIQUE WELL ID
 DICO. A2D Technologies, Inc.:   DIGITIZING COMPANY
~OTHER INFORMATION
~A   DEPT      SPR        LL8        ILD        ILM       CALD         GRD      RHOB       DPOR       CORR   
# ...
  362.5000   -20.0758    15.8061    14.1491    16.9059     8.3754    81.4492     2.4946     0.1223     0.0715
  363.0000   -20.4770    15.6505    14.1076    16.5526     8.3663    82.9297     2.4734     0.1168     0.0465
  363.5000   -20.9214    15.5813    13.8243    16.3674     8.2988    84.5115     2.4492     0.1237     0.0437
  364.0000   -21.5480    15.5169    13.5466    16.2117     8.3183    84.6062     2.4422     0.1408     0.0300
  364.5000   -22.1690    15.2376    13.2746    15.9162     8.3778    83.8277     2.4282     0.1385     0.0289
  365.0000   -22.3844    14.9437    13.0080    15.6264     8.3758    83.6692     2.4159     0.1431     0.0207
  365.5000   -22.4793    14.6553    12.7467    15.3422     8.3757    85.2739     2.4203     0.1402     0.0049
  366.0000   -22.7332    14.3723    12.4908    15.0632     8.3758    86.6270     2.4258     0.1368     0.0143
  366.5000   -23.1441    14.0947    12.2399    14.7899     8.3772    86.3509     2.4186     0.1410     0.0077
  367.0000   -23.5059    13.8216    11.9937    14.5232     8.3812    80.7266     2.4103     0.1476     0.0034
  367.5000   -23.1476    13.5559    11.7517    14.2803     8.3852    82.0967     2.4122     0.1453     0.0099
  368.0000   -22.7368    13.1421    11.4382    14.1491     8.3892    85.2847     2.4213     0.1408     0.0156
  368.5000   -22.5220    13.1796    11.4431    14.1491     8.3933    88.4491     2.4301     0.1368     0.0201
  369.0000   -22.5205    13.2346    11.3380    14.1491     8.3951    90.2899     2.4388     0.1212     0.0251
  369.5000   -22.5188    13.3725    11.3380    14.1927     8.3702    88.8176     2.4465     0.1204     0.0324
  370.0000   -22.4186    13.6286    11.8851    14.2579     8.3438    88.0648     2.4359     0.1327     0.0357
  370.5000   -22.1938    14.0215    12.5487    14.4127     8.3177    88.0196     2.4114     0.1438     0.0162
  371.0000   -21.9217    14.6419    13.2514    14.8988     8.2955    87.9307     2.4041     0.1516     0.0228
  371.5000   -21.6107    15.2874    14.3511    15.8038     8.2979    87.8435     2.4061     0.1489     0.0288
  372.0000   -21.3012    17.4153    15.7581    19.6979     8.3081    85.1736     2.4069     0.1475     0.0262
  372.5000   -20.9913    22.1853    17.3032    25.3113     8.3181    80.3886     2.3835     0.1590     0.0358
  373.0000   -20.6813    28.2616    18.9991    32.5244     8.3282    75.5735     2.3609     0.1748     0.0470
  373.5000   -20.3714    37.6361    20.8612    40.5227     8.3351    71.1330     2.3421     0.1889     0.0318
  374.0000   -20.0614    34.3716    23.4952    39.7710     8.2897    69.4020     2.3693     0.1664     0.0201
  374.5000   -19.7553    28.8115    28.2703    38.0115     8.2426    71.3936     2.3905     0.1534     0.0426
  375.0000   -19.4508    29.9905    28.1360    39.4363     8.1952    74.4798     2.3403     0.1918     0.0294
  375.5000   -19.1517    32.4994    27.9699    38.8648     8.1777    78.0406     2.2942     0.2194     0.0161
  376.0000   -19.0166    35.1943    27.8049    38.3260     8.1970    78.0669     2.2855     0.2224     0.0224
  376.5000   -18.8879    39.4112    27.6408    37.7948     8.2158    73.9786     2.2767     0.2249     0.0290
  377.0000   -18.7583    38.4984    27.4777    37.0116     8.2058    70.6858     2.2674     0.2344     0.0219
  377.5000   -18.6286    36.1852    27.3156    37.2882     8.1945    70.6594     2.2941     0.2356     0.0331
  378.0000   -18.4990    34.0142    27.2457    38.7374     8.1834    73.0306     2.3099     0.2095     0.0482
  378.5000   -18.3696    31.8849    26.9954    40.2906     8.1725    75.2223     2.2925     0.2160     0.0209
  379.0000   -18.2383    32.4443    26.9954    42.0412     8.1617    77.4755     2.3039     0.2129     0.0283
  379.5000   -18.0936    33.0321    26.9954    42.8244     8.1540    76.9998     2.2918     0.2191     0.0291
  380.0000   -17.8911    33.6723    27.0173    40.3282     8.1187    75.6580     2.2756     0.2288     0.0161
  380.5000   -17.6862    34.0206    27.1726    37.8466     8.0945    74.3412     2.2756     0.2288     0.0286
  381.0000   -17.2680    32.9697    27.3288    36.2847     8.0708    73.5511     2.2986     0.2177     0.0464
  381.5000   -16.2112    31.9124    27.4860    34.9319     8.0601    73.9774     2.3170     0.2076     0.0623
  382.0000   -16.2932    31.0774    27.6440    33.6940     8.1367    74.4608     2.3312     0.1985     0.0589
  382.5000   -16.7220    31.7184    27.7533    33.3652     8.2147    74.9212     2.3296     0.1988     0.0534
  383.0000   -17.1580    32.1694    26.9368    34.4789     8.2912    73.8039     2.3024     0.2080     0.0409
  383.5000   -17.5878    30.9801    26.2221    35.5001     8.3575    71.1138     2.2843     0.2261     0.0272
  384.0000   -18.3621    29.7149    25.5265    35.6066     8.3562    69.6613     2.3030     0.2157     0.0203
  384.5000   -18.7698    29.3334    24.8493    33.6886     8.3672    71.6409     2.3234     0.2008     0.0245
  385.0000   -18.8189    30.1569    24.1900    32.5362     8.3784    73.6326     2.3477     0.1920     0.0300
  385.5000   -18.8676    29.6770    23.7235    30.4365     8.3893    73.4352     2.3396     0.1893     0.0336
  386.0000   -18.9141    28.6954    23.6337    30.1569     8.3953    72.3400     2.3374     0.1981     0.0188
  386.5000   -18.9608    27.7463    23.5505    29.6054     8.4033    72.3541     2.3365     0.1909     0.0294
  387.0000   -19.0077    27.2468    23.5055    29.3332     8.4123    73.1827     2.3234     0.2011     0.0185
  387.5000   -19.0544    26.6265    23.2850    29.0588     8.4214    73.9390     2.3102     0.2117     0.0346
  388.0000   -19.1003    26.0515    23.2927    29.7816     8.4305    73.5855     2.3105     0.2048     0.0262
  388.5000   -19.1524    25.4858    23.2894    30.4371     8.4395    72.7495     2.3481     0.1915     0.0206
  389.0000   -19.3502    25.0742    23.3866    31.0035     8.4486    71.9757     2.3912     0.1705     0.0227
  389.5000   -19.5486    25.4695    23.5404    32.6446     8.4552    72.8348     2.4316     0.1494     0.0253
  390.0000   -19.7460    29.1470    23.6953    34.3162     8.4472    73.6524     2.4684     0.1268     0.0276
  390.5000   -19.9433    36.5075    23.8511    39.0699     8.4395    69.9214     2.4923     0.1098     0.0297
  391.0000   -20.1405    43.6222    23.9434    39.0647     8.4318    66.0747     2.5162     0.0968     0.0590
  391.5000   -20.3374    35.2903    23.8877    35.3819     8.4241    65.1401     2.5172     0.1066     0.0506
  392.0000   -20.5352    28.8612    23.5169    32.3657     8.4164    67.9340     2.4751     0.1268     0.0310
  392.5000   -20.7375    25.3066    23.7140    30.1569     8.4159    70.7489     2.4280     0.1474     0.0338
  393.0000   -20.9274    25.0154    22.9079    29.0639     8.4272    73.5443     2.3816     0.1701     0.0243
  393.5000   -21.1340    24.6509    22.2356    27.8704     8.4384    76.3337     2.3508     0.1773     0.0318
  394.0000   -21.0016    24.2917    21.5858    25.5737     8.4495    78.4499     2.3317     0.1895     0.0378
  394.5000   -20.8865    23.9378    20.9569    24.6186     8.4606    76.0428     2.3182     0.2059     0.0098
  395.0000   -20.7761    23.5890    20.3475    24.1693     8.4716    75.4565     2.3427     0.1842     0.0406
  395.5000   -20.6644    23.2483    19.7250    24.1542     8.4827    78.7905     2.3742     0.1705     0.0483
  396.0000   -20.5528    22.9832    19.7250    25.0491     8.4938    79.7684     2.3551     0.1796     0.0283
  396.5000   -20.4412    22.7212    19.7016    25.7092     8.4893    79.2364     2.3343     0.1897     0.0080
  397.0000   -20.3295    22.6537    19.6586    26.9954     8.4811    78.4986     2.3222     0.2030     0.0090
  397.5000   -20.2172    22.6537    19.6157    26.9954     8.4728    79.1447     2.3266     0.1986     0.0246
  398.0000   -20.1049    22.9779    19.5729    26.9954     8.4644    79.9829     2.3481     0.1900     0.0417
  398.5000   -19.9976    23.3319    19.5302    26.4297     8.4561    80.8163     2.3686     0.1781     0.0588
