~VERSION INFORMATION
 VERS.                2.0:   CWLS LOG ASCII STANDARD - VERSION 2.0
 WRAP.                 NO:   ONE LINE PER DEPTH STEP
~WELL INFORMATION
#MNEM.UNIT      DATA TYPE    INFORMATION
#----------   ------------   ------------------------------
 STRT.F           82.0000:   START DEPTH
 STOP.F         1194.0000:   STOP DEPTH
 STEP.F            0.5000:   STEP LENGTH
 NULL.          -999.2500:   NO VALUE
 COMP.       INTEX OIL CO:   COMPANY
 WELL.   76S-11 NPR #3-11:   WELL
 FLD .             TEAPOT:   FIELD
 LOC .      S11 T38N R78W:   LOCATION
 CNTY.            NATRONA:   COUNTY
 STAT.            WYOMING:   STATE
 CTRY. UNITED STATES OF AMERICA:   COUNTRY
 SRVC.       Schlumberger:   SERVICE COMPANY
 DATE.        30-AUG-1966:   LOGDATE
 API .       490250972800:   API NUMBER
~CURVE INFORMATION
#MNEM.UNIT       API CODE    CURVE DESCRIPTION
#----------   ------------   ------------------------------
 DEPT.F                  :   
 SPR .MV     05 010 01 00:   SPONTANEOUS POTENTIAL FROM RES.
 CILD.MMHO   05 110 46 00:   CONDUCTIVITY INDUCTION LOG DEEP
 ILD .OHMM   05 120 46 00:   INDUCTION LOG DEEP
 ASN .OHMM   05 041 16 00:   AMPLIFIED SHORT NORMAL 16"
 CALD.IN     45 280 60 00:   CALIPER FROM DENSITY LOG
 CORR.G/C3   45 356 01 00:   DENSITY CORRECTION
 RHOB.G/C3   45 350 01 00:   BULK DENSITY
 DPHI.DEC    45 890 12 00:   DENSITY POROSITY SANDSTONE
 GRD .GAPI   45 310 01 00:   GAMMA RAY FROM DENSITY LOG
~PARAMETER INFORMATION
#MNEM.UNIT          VALUE    DESCRIPTION
#----------   ------------   ------------------------------
 PD  .                 GL:   PERMANENT DATUM
 EPD .F              5261:   ELEVATION PERMANENT DATUM
 LMF .                 KB:   LOG MEASURED FROM
 DAPD.F                 5:   FEET ABOVE PERMANENT DATUM
 DMF .                 KB:   DRILLING MEASURED FROM
 EKB .F              5266:   KELLING BUSHING
 EGL .F              5261:   GROUND LEVEL
 DATE.            8-30-66:   RUN DATE
 RUN .                  1:   RUN NUMBER
 DD  .F              1191:   DEPTH DRILLER
 DL  .F              1191:   DEPTH LOGGER
 BLI .F              1190:   BOTTOM LOG INTERVAL
 TLI .F                87:   TOP LOG INTERVAL
 CS  .IN            8.625:   CASING SIZE
 CBD .F                10:   CASING BOTTOM DRILLER
 BS  .IN             6.75:   BIT SIZE
 BSD .F              1191:   BIT SIZE AT DEPTH
 DFT .           CHEM-GEL:   DRILLING FLUID TYPE
 DFD .                9.8:   DRILLING FLUID DENSITY
 DFV .                 60:   DRILLING FLUID VISCOSITY
 MSS .         CIRCULATED:   MUD SAMPLE SOURCE
 RMS .OHMM            .76:   RESISTIVITY MUD SAMPLE
 MST .F                85:   MUD SAMPLE TEMPERATURE
 RMF .OHMM            .46:   RESISTIVITY MUD FILTRATE SAMPLE
 MFST.F                88:   MUD FILTRATE SAMPLE TEMPERATURE
 MFSS.                  M:   MUD FILTRATE SAMPLE SOURCE
 RMB .OHMM           .695:   RESISTIVITY MUD AT BHT
 BHT .F                93:   BOTTOM HOLE TEMPERATURE
 TCS .HRS               1:   TIME CURCULATED STOPPED
 MRT .F                93:   MAXIMUM RECORDED TEMPERATURE
 LUN .               3527:   LOGGING UNIT NUMBER
 LUL .               CSPR:   LOGGING UNIT LOCATION
 ENGI.               HAUG:   RECORDING ENGINEER
 WITN.                MAY:   WITNESSED BY
 CLNT.            A2DTECH:   CLIENT CODE
 ORIG. 2", 2.5", 5" PRINT:   ORIGIN OF DATA
 UWI .       490250972800:   UNIQUE WELL ID
 DICO. A2D Technologies, Inc.:   DIGITIZING COMPANY
~OTHER INFORMATION
~A   DEPT      SPR        CILD       ILD          ASN     CALD       CORR       RHOB       DPHI        GRD   
# ...
  775.5000   -47.1169   162.1756     5.8529     8.5898     7.2840     0.0423     2.4904     0.0948   124.8794
  776.0000   -46.9662   162.1756     5.8808     8.3353     7.2812     0.0538     2.4949     0.0961   125.6802
  776.5000   -46.7643   161.0748     5.9303     8.2486     7.2821     0.0686     2.5017     0.0948   126.0920
  777.0000   -46.5618   158.4254     6.0020     8.4151     7.2819     0.0839     2.5060     0.0889   126.6945
  777.5000   -46.5452   155.7760     6.1379     8.6567     7.2793     0.0781     2.5054     0.0867   124.1989
  778.0000   -46.7152   153.1265     6.3011     8.8991     7.2352     0.0561     2.4946     0.0943   120.8830
  778.5000   -46.8568   150.4771     6.3925     9.1290     7.1685     0.0433     2.4856     0.1039   117.6659
  779.0000   -46.7491   147.8277     6.4944     9.2044     7.1856     0.0378     2.4762     0.1022   114.4925
  779.5000   -46.5003   145.1783     6.5856     9.2082     7.2113     0.0340     2.4860     0.1014   111.8234
  780.0000   -46.5961   142.2156     6.6916     9.2781     7.2398     0.0298     2.4735     0.1037   111.6516
  780.5000   -46.9724   143.1549     6.7358     9.3412     7.2681     0.0357     2.4791     0.1055   112.2849
  781.0000   -47.0154   144.2785     6.7081     9.2952     7.2811     0.0520     2.4918     0.1008   112.8824
  781.5000   -46.7826   145.3999     6.6899     9.2227     7.2749     0.0637     2.4979     0.0952   113.4676
  782.0000   -46.5674   146.5204     6.6665     9.1536     7.2706     0.0609     2.4936     0.0921   114.0939
  782.5000   -46.4862   147.6416     6.6460     9.1558     7.2663     0.0545     2.4897     0.0973   114.6631
  783.0000   -46.6269   148.7656     6.6240     9.2253     7.2616     0.0485     2.4890     0.1008   115.1706
  783.5000   -46.7569   149.8900     6.6026     9.1701     7.2571     0.0445     2.4869     0.1024   114.4421
  784.0000   -46.8898   149.9115     6.5812     9.0588     7.2526     0.0491     2.4977     0.0981   113.7573
  784.5000   -46.9805   149.2552     6.5592     8.9588     7.2480     0.0410     2.5113     0.0891   113.0349
  785.0000   -47.0813   148.6277     6.5391     8.8883     7.2430     0.0357     2.5241     0.0801   112.2281
  785.5000   -47.1586   148.0002     6.5350     8.8659     7.2476     0.0515     2.5388     0.0692   112.6916
  786.0000   -47.2805   147.3728     6.5429     8.9295     7.2677     0.0643     2.5291     0.0760   113.8458
  786.5000   -47.0828   145.2906     6.5994     9.0389     7.2874     0.0648     2.5008     0.0913   114.9492
  787.0000   -46.6635   142.6802     6.6557     9.1233     7.3078     0.0648     2.5125     0.0850   115.9232
  787.5000   -46.3502   140.0699     6.7114     9.2429     7.3215     0.0927     2.5241     0.0779   117.0489
  788.0000   -46.5085   137.4595     6.7675     9.3815     7.3212     0.0899     2.5292     0.0700   116.4363
  788.5000   -46.8312   134.2728     6.8231     9.5171     7.3215     0.0971     2.5362     0.0720   115.5521
  789.0000   -46.7403   134.6214     6.8797     9.6514     7.3215     0.0937     2.5238     0.0785   115.8358
  789.5000   -46.4773   135.2456     6.9316     9.7874     7.3215     0.0889     2.5163     0.0850   117.2644
  790.0000   -46.2196   135.8701     6.9372     9.7850     7.3215     0.0778     2.5031     0.0914   118.3211
  790.5000   -46.1229   136.5019     6.9363     9.7180     7.3214     0.0553     2.4878     0.0992   117.5879
  791.0000   -46.3254   137.1390     6.9364     9.6644     7.3214     0.0596     2.4999     0.0948   116.9530
  791.5000   -46.4461   137.7802     6.9368     9.6052     7.3214     0.0740     2.5119     0.0863   116.1316
  792.0000   -46.2284   138.4257     6.9355     9.5470     7.3214     0.0836     2.5244     0.0755   116.5973
  792.5000   -45.9283   139.0646     6.9380     9.4979     7.3214     0.0794     2.5251     0.0772   118.2982
  793.0000   -46.0788   139.7035     6.9333     9.5184     7.3214     0.0830     2.5222     0.0791   118.0829
  793.5000   -46.2923   140.3424     6.9425     9.5509     7.3214     0.0901     2.5120     0.0787   116.8363
  794.0000   -46.4482   140.9813     6.8620     9.5604     7.3214     0.0803     2.4928     0.0957   113.7001
  794.5000   -46.2849   141.4455     6.8220     9.4591     7.3214     0.0727     2.4982     0.0940   111.7780
  795.0000   -45.9661   141.9740     6.8158     9.4641     7.3214     0.0720     2.5024     0.0906   111.5614
  795.5000   -45.9178   142.5024     6.7973     9.5722     7.3214     0.0712     2.5033     0.0937   111.1075
  796.0000   -46.1827   143.0308     6.7853     9.6419     7.3215     0.0624     2.4897     0.0991   110.8294
  796.5000   -46.5099   143.5592     6.7698     9.5640     7.3214     0.0536     2.4740     0.1047   111.1903
  797.0000   -46.6121   144.0876     6.7561     9.4066     7.3215     0.0463     2.4806     0.1070   111.2551
  797.5000   -46.3495   144.6160     6.7415     9.2521     7.3214     0.0510     2.4903     0.0991   109.9076
  798.0000   -46.3519   145.2096     6.7274     9.1177     7.3210     0.0553     2.5087     0.0924   109.0852
  798.5000   -46.4903   145.0044     6.7131     9.0600     7.3154     0.0550     2.5032     0.0850   111.0867
  799.0000   -46.6594   144.7704     6.6989     9.0482     7.3107     0.0479     2.4904     0.0909   112.9190
  799.5000   -46.4932   144.5364     6.6846     9.0870     7.3056     0.0518     2.4881     0.1008   114.1649
  800.0000   -46.1001   144.3005     6.6703     9.2338     7.3006     0.0459     2.4956     0.0968   114.2710
  800.5000   -46.1524   144.0644     6.6560     9.3131     7.2957     0.0480     2.5020     0.0929   114.4652
  801.0000   -46.3260   143.8264     6.6418     9.2314     7.2906     0.0529     2.5040     0.0889   115.1609
  801.5000   -46.4433   143.5882     6.6275     9.1465     7.2856     0.0547     2.5041     0.0850   116.1981
  802.0000   -46.2271   143.3511     6.6132     9.0610     7.2819     0.0376     2.5026     0.0904   117.2573
  802.5000   -45.8485   143.4956     6.5989     8.9591     7.2817     0.0227     2.4976     0.0958   117.8916
  803.0000   -45.7701   144.3565     6.5847     8.9329     7.2816     0.0276     2.4885     0.1007   118.0081
  803.5000   -46.1043   145.2197     6.5704     9.0316     7.2743     0.0339     2.4796     0.1036   118.1883
  804.0000   -46.4210   146.0844     6.5561     9.1812     7.2653     0.0450     2.4727     0.1057   118.3561
  804.5000   -46.6463   146.9423     6.5419     9.2102     7.2562     0.0628     2.4906     0.1035   118.5077
  805.0000   -46.3706   147.8001     6.5275     9.1301     7.2467     0.0830     2.4967     0.0992   118.7208
  805.5000   -46.1228   148.6580     6.5132     9.0627     7.2416     0.0765     2.4887     0.0977   118.7986
  806.0000   -46.2509   149.5159     6.4988     8.9952     7.2421     0.0664     2.4858     0.0997   118.9887
  806.5000   -46.4543   150.3737     6.4847     8.9798     7.2421     0.0558     2.4888     0.1016   117.2597
  807.0000   -46.2997   151.1976     6.4700     8.9675     7.2420     0.0446     2.4952     0.0968   117.1636
  807.5000   -45.9822   150.0945     6.4563     8.9565     7.2422     0.0416     2.5015     0.0961   117.1338
  808.0000   -45.9571   149.0335     6.4408     8.9484     7.2421     0.0349     2.5045     0.0858   117.2692
  808.5000   -46.2066   147.9725     6.4407     8.9362     7.2419     0.0188     2.4996     0.0884   120.6597
  809.0000   -46.4413   146.9114     6.4857     8.9395     7.2429     0.0248     2.4947     0.0940   123.2221
  809.5000   -46.2686   145.8504     6.5317     9.0033     7.2411     0.0514     2.4933     0.0992   122.3507
  810.0000   -45.9171   144.7894     6.5776     9.1263     7.2402     0.0632     2.4891     0.0992   121.5175
  810.5000   -45.7157   143.7283     6.6237     9.2320     7.1843     0.0671     2.4911     0.0935   120.6336
  811.0000   -45.8364   142.9777     6.6694     9.3202     7.1148     0.0784     2.5034     0.0879   119.7424
  811.5000   -45.9855   142.5195     6.7159     9.3900     7.0802     0.0923     2.5134     0.0860   118.8833
