~VERSION INFORMATION
 VERS.                2.0:   CWLS LOG ASCII STANDARD - VERSION 2.0
 WRAP.                 NO:   ONE LINE PER DEPTH STEP
~WELL INFORMATION
#MNEM.UNIT      DATA TYPE    INFORMATION
#----------   ------------   ------------------------------
 STRT.F            8.0000:   START DEPTH
 STOP.F          419.0000:   STOP DEPTH
 STEP.F            0.5000:   STEP LENGTH
 NULL.          -999.2500:   NO VALUE
 COMP. LAWRENCE/ALLISON INC:   COMPANY
 WELL.   62-46 -SX #10-10:   WELL
 FLD .             TEAPOT:   FIELD
 LOC .      S10 T38N R78W:   LOCATION
 CNTY.            NATRONA:   COUNTY
 STAT.            WYOMING:   STATE
 CTRY. UNITED STATES OF AMERICA:   COUNTRY
 SRVC.           Gearhart:   SERVICE COMPANY
 DATE.        27-MAY-1988:   LOGDATE
 API .       490251120800:   API NUMBER
~CURVE INFORMATION
#MNEM.UNIT       API CODE    CURVE DESCRIPTION
#----------   ------------   ------------------------------
 DEPT.F                  :   
 GRR .GAPI   07 310 01 00:   GAMMA RAY
 ILD .OHMM   07 120 46 00:   INDUCTION LOG DEEP
 ILM .OHMM   07 120 44 00:   INDUCTION LOG MEDIUM
~PARAMETER INFORMATION
#MNEM.UNIT          VALUE    DESCRIPTION
#----------   ------------   ------------------------------
 PD  .                 GL:   PERMANENT DATUM
 EPD .F              5157:   ELEVATION PERMANENT DATUM
 LMF .                 KB:   LOG MEASURED FROM
 DAPD.F                 5:   FEET ABOVE PERMANENT DATUM
 DMF .                 KB:   DRILLING MEASURED FROM
 EKB .F              5162:   KELLING BUSHING
 EGL .F              5157:   GROUND LEVEL
 DATE.        27-MAY-1988:   RUN DATE
 RUN .                  1:   RUN NUMBER
 DD  .F               449:   DEPTH DRILLER
 DL  .F               437:   DEPTH LOGGER
 BLI .F               419:   BOTTOM LOG INTERVAL
 CS  .IN            8.625:   CASING SIZE
 CBD .F                45:   CASING BOTTOM DRILLER
 CBL .F                45:   CASING BOTTOM LOGGER
 BS  .IN            7.875:   BIT SIZE
 BSD .F               449:   BIT SIZE AT DEPTH
 DFT .                AIR:   DRILLING FLUID TYPE
 TLAB.HRS            0910:   TIME LOGGER AT BOTTOM
 MRT .F                70:   MAXIMUM RECORDED TEMPERATURE
 LUN .               7597:   LOGGING UNIT NUMBER
 LUL .           GILLETTE:   LOGGING UNIT LOCATION
 ENGI.          HUCKFELDT:   RECORDING ENGINEER
 WITN.             STRONG:   WITNESSED BY
 CLNT.            A2DTECH:   CLIENT CODE
 ORIG.           5" PRINT:   ORIGIN OF DATA
 UWI .       490251120800:   UNIQUE WELL ID
 DICO. A2D Technologies, Inc.:   DIGITIZING COMPANY
~OTHER INFORMATION
~A    DEPT      GRR       ILD        ILM   
# ...
  281.0000    88.4770    24.5813    24.1471
  281.5000    88.4569    24.5793    23.8055
  282.0000    89.0456    24.5777    23.4694
  282.5000    89.9388    24.5760    22.9758
  283.0000    91.7401    24.5740    22.8115
  283.5000    92.6383    24.4005    22.8078
  284.0000    90.7867    24.0587    22.8047
  284.5000    90.1578    23.8888    22.9636
  285.0000    90.7465    23.7197    22.9598
  285.5000    91.0308    23.5523    23.1189
  286.0000    91.3151    23.2224    22.7918
  286.5000    91.2900    23.0584    22.3125
  287.0000    90.6322    22.5760    21.8431
  287.5000    88.8094    22.1040    21.3712
  288.0000    88.4849    21.6420    20.7864
  288.5000    87.2472    21.1895    20.2064
  289.0000    85.9929    20.6011    19.6426
  289.5000    84.4622    20.1704    18.9565
  290.0000    87.1818    19.6106    18.3015
  290.5000    90.2059    19.3359    17.7909
  291.0000    91.0990    19.0648    17.7885
  291.5000    89.5518    18.9302    17.7861
  292.0000    88.6185    18.7965    17.9094
  292.5000    88.5984    18.6638    18.0620
  293.0000    90.4047    18.5317    18.1586
  293.5000    92.2061    18.4008    18.1556
  294.0000    90.6639    18.2709    18.0252
  294.5000    88.8173    18.1419    18.0228
  295.0000    87.8840    18.1404    17.8942
  295.5000    88.1683    18.2673    17.7390
  296.0000    89.0614    18.0111    17.6390
  296.5000    90.5584    17.6346    17.3693
  297.0000    91.4521    17.3873    17.2652
  297.5000    91.7358    17.0238    16.9020
  298.0000    89.5798    16.7853    16.6634
  298.5000    89.2603    16.5502    16.3124
  299.0000    91.6705    16.4331    15.9693
  299.5000    93.5048    16.2029    15.8551
  300.0000    94.9789    16.0885    15.6313
  300.5000    95.2637    15.7533    15.5217
  301.0000    95.5574    15.7533    15.3046
  301.5000    95.8476    15.7533    14.9847
  302.0000    95.8295    15.8643    14.6715
  302.5000    95.8119    15.8643    14.5685
  303.0000    95.7976    15.8643    14.5685
  303.5000    95.7833    15.8643    14.9847
  304.0000    95.4642    15.9760    15.3046
  304.5000    94.8379    15.9760    15.6313
  305.0000    94.2148    16.0886    15.8530
  305.5000    94.8094    16.2019    15.9651
  306.0000    96.9224    16.2019    16.0779
  306.5000    97.2161    16.4310    16.0779
  307.0000    95.3718    16.4310    15.9651
  307.5000    92.0089    16.4310    15.8530
  308.0000    88.3381    16.3161    15.6313
  308.5000    87.7150    16.2019    15.3006
  309.0000    88.9184    16.2019    14.8795
  309.5000    91.6449    15.8643    14.5685
  310.0000    94.6701    15.6431    14.1639
  310.5000    95.8735    15.3171    13.7705
  311.0000    96.4716    14.8930    13.4827
  311.5000    95.5059    14.4806    13.2941
  312.0000    94.0042    14.3793    13.0162
  312.5000    96.1172    14.4806    13.0162
  313.0000    97.9294    15.0205    13.0162
  313.5000    98.5240    16.2019    13.3881
  314.0000    97.2885    17.1379    14.0725
  314.5000    95.4477    18.1279    14.9847
  315.0000    94.8246    19.7212    16.6540
  315.5000    92.0670    23.1768    19.1726
  316.0000    87.7909    26.5596    25.5896
  316.5000    84.4281    30.6906    30.0885
  317.0000    81.3697    34.0987    33.9147
  317.5000    78.0033    37.0956    37.9774
  318.0000    76.7714    40.3560    42.1880
  318.5000    77.9747    42.0921    44.0086
  319.0000    77.6519    43.2908    44.3196
  319.5000    75.8117    43.5958    42.4493
  320.0000    77.3195    43.5958    41.0163
  320.5000    78.8273    43.5958    41.3061
  321.0000    79.7443    44.2122    42.4861
  321.5000    78.1863    44.5508    44.0086
  322.0000    76.3456    44.8373    44.6328
  322.5000    75.1136    44.5237    44.3196
  323.0000    73.8122    43.5958    43.3749
  323.5000    72.3418    42.3886    41.3061
  324.0000    75.3716    41.5053    39.5973
  324.5000    79.9235    40.6403    37.9592
  325.0000    82.3410    39.5150    36.6460
  325.5000    82.0223    37.8852    35.8800
  326.0000    82.3125    36.8361    35.1300
  326.5000    82.9072    35.5656    34.6387
  327.0000    84.1104    34.5808    33.4404
  327.5000    84.4005    33.6233    32.7414
  328.0000    82.8606    33.1545    31.3869
  328.5000    80.7124    32.6922    30.3011
  329.0000    81.3064    32.0109    29.2528
  329.5000    84.0318    31.5646    28.6413
  330.0000    85.8440    30.4759    28.4404
  330.5000    84.8970    29.8408    28.2408
  331.0000    83.3766    29.4248    27.8459
  331.5000    82.7535    29.4248    27.8459
  332.0000    82.4348    29.6320    27.6505
  332.5000    82.7249    29.6320    27.6505
  333.0000    83.0115    29.6320    27.4565
  333.5000    83.9104    29.4248    27.4565
  334.0000    84.5050    29.4248    27.2638
  334.5000    86.0092    29.2189    27.4565
  335.0000    87.2126    29.2189    27.6505
  335.5000    88.1116    29.2189    27.8459
  336.0000    89.0105    29.2189    28.2408
  336.5000    90.2139    29.2189    28.6413
  337.0000    88.6740    29.0145    28.8437
  337.5000    86.2244    29.0145    28.6413
  338.0000    84.3795    28.6100    28.2408
  338.5000    85.8878    28.4099    27.8459
  339.0000    86.4859    28.0138    27.2638
  339.5000    86.1637    27.6232    26.6939
  340.0000    84.6068    27.2381    26.3206
  340.5000    82.7830    26.8583    26.1359
  341.0000    81.8555    26.6704    25.7704
  341.5000    82.7544    26.4839    25.5896
  342.0000    85.2846    26.1146    25.2318
  342.5000    88.2018    25.7505    24.7043
  343.0000    89.7095    25.3915    23.9969
  343.5000    90.0000    24.8624    23.1873
  344.0000    90.5942    24.5065    22.8630
  344.5000    91.4896    24.0048    22.5433
  345.0000    92.9974    23.8369    22.2281
  345.5000    94.5052    23.5046    21.7634
  346.0000    94.7953    23.3401    21.4591
  346.5000    93.2554    23.3401    21.3085
  347.0000    92.0235    23.1768    21.3085
  347.5000    91.6997    22.6938    21.1590
  348.0000    91.6869    22.3774    21.0105
  348.5000    92.8903    22.0655    20.4270
  349.0000    93.4848    21.4545    20.1413
  349.5000    93.1659    21.1465    19.8518
  350.0000    91.9306    20.7145    19.3081
  350.5000    89.4915    20.5747    19.0429
  351.0000    89.1811    20.2909    18.7794
  351.5000    89.7829    19.8731    18.5205
  352.0000    91.6035    19.4628    18.2661
  352.5000    93.1213    18.9277    18.2698
  353.0000    91.5920    18.5190    18.0180
  353.5000    90.3267    18.1543    17.7705
  354.0000    88.8392    17.6561    17.7741
  354.5000    87.3114    17.4134    17.4060
  355.0000    87.0012    17.1740    17.2873
  355.5000    88.2131    17.0467    17.0491
  356.0000    89.4249    16.7061    16.8140
  356.5000    91.2456    16.5917    16.5831
  357.0000    87.8898    16.3645    16.3537
  357.5000    86.9708    16.2532    16.0159
  358.0000    87.5982    16.1429    15.7951
  358.5000    91.8284    15.9210    15.5773
  359.0000    90.9094    15.8128    15.4711
  359.5000    89.3815    15.7061    15.3657
  360.0000    88.7669    15.5986    15.2609
  360.5000    90.6108    15.4934    15.1577
  361.0000    92.7113    15.3881    15.0544
  361.5000    93.0114    15.3920    14.9525
  362.0000    93.3100    15.3950    14.8498
  362.5000    93.6073    15.3981    14.7486
  363.0000    93.9058    15.4012    14.8566
  363.5000    94.2044    15.4044    14.9647
  364.0000    95.4149    15.4082    14.8625
  364.5000    97.5400    15.4113    14.6584
  365.0000    99.3607    15.3058    14.6614
  365.5000   100.8755    15.0962    14.5613
  366.0000    99.6521    14.9936    14.5562
  366.5000    97.8198    14.7883    14.3636
  367.0000    96.2920    14.5843    14.2657
  367.5000    95.0585    14.2840    14.2693
  368.0000    94.4539    14.0876    14.0726
  368.5000    96.5776    13.7968    13.9766
  369.0000    98.3983    13.7031    13.8814
  369.5000    99.6101    13.4209    13.7867
  370.0000   100.2132    13.4236    13.5974
  370.5000    99.9015    13.4263    13.5040
  371.0000    99.5913    13.4290    13.5074
  371.5000    99.8914    13.4323    13.4153
