~VERSION INFORMATION
 VERS.                2.0:   CWLS LOG ASCII STANDARD - VERSION 2.0
 WRAP.                 NO:   ONE LINE PER DEPTH STEP
~WELL INFORMATION
#MNEM.UNIT      DATA TYPE    INFORMATION
#----------   ------------   ------------------------------
 STRT.F           37.5000:   START DEPTH
 STOP.F          525.5000:   STOP DEPTH
 STEP.F            0.5000:   STEP LENGTH
 NULL.          -999.2500:   NO VALUE
 COMP. LAWRENCE/ALLISON INC:   COMPANY
 WELL.    74-11 SX #10-10:   WELL
 FLD .             TEAPOT:   FIELD
 LOC .      S10 T38N R78W:   LOCATION
 CNTY.            NATRONA:   COUNTY
 STAT.            WYOMING:   STATE
 CTRY. UNITED STATES OF AMERICA:   COUNTRY
 SRVC.            Unknown:   SERVICE COMPANY
 DATE.        08-AUG-1984:   LOGDATE
 API .       490251097800:   API NUMBER
~CURVE INFORMATION
#MNEM.UNIT       API CODE    CURVE DESCRIPTION
#----------   ------------   ------------------------------
 DEPT.F                  :   
 CNC .DEC    42 890 03 00:   NEUTRON POROSITY SANDSTONE
 AC  .US/F   60 520 00 00:   ACCOUSTIC
 GRD .GAPI   45 310 01 00:   GAMMA RAY FROM DENSITY LOG
 CALD.IN     45 280 60 00:   CALIPER FROM DENSITY LOG
 CORR.G/C3   45 356 01 00:   DENSITY CORRECTION
 DPHI.DEC    45 890 12 00:   DENSITY POROSITY SANDSTONE
 DEN .G/C3   45 350 01 00:   COMPENSATED BULK DENSTIY
 RILD.OHMM   07 120 46 00:   RESISTIVITY INDUCTION LOG DEEP
 RILM.OHMM   07 120 44 00:   RESISTIVITY INDUCTION LOG MEDIUM
 RFOC.OHMM   07 220 04 00:   RESISTIVITY FOCUSED LOG
 SPR .MV     07 010 01 00:   SPONTANEOUS POTENTIAL FROM RES.
~PARAMETER INFORMATION
#MNEM.UNIT          VALUE    DESCRIPTION
#----------   ------------   ------------------------------
 PD  .                 GL:   PERMANENT DATUM
 EPD .F              5180:   ELEVATION PERMANENT DATUM
 LMF .                 GL:   LOG MEASURED FROM
 DMF .                 GL:   DRILLING MEASURED FROM
 EGL .F              5180:   GROUND LEVEL
 DATE.             8-8-84:   RUN DATE
 RUN .                  1:   RUN NUMBER
 DD  .F               525:   DEPTH DRILLER
 DL  .F               526:   DEPTH LOGGER
 BLI .F               525:   BOTTOM LOG INTERVAL
 TLI .F                42:   TOP LOG INTERVAL
 CS  .IN            9.625:   CASING SIZE
 CBD .F                42:   CASING BOTTOM DRILLER
 CBL .F                42:   CASING BOTTOM LOGGER
 BS  .IN            7.875:   BIT SIZE
 BSD .F               525:   BIT SIZE AT DEPTH
 DFT .          KCL WATER:   DRILLING FLUID TYPE
 MSS .           FLOWLINE:   MUD SAMPLE SOURCE
 RMS .OHMM           .141:   RESISTIVITY MUD SAMPLE
 MST .F                78:   MUD SAMPLE TEMPERATURE
 RMF .OHMM            .12:   RESISTIVITY MUD FILTRATE SAMPLE
 MFST.F                78:   MUD FILTRATE SAMPLE TEMPERATURE
 RMC .OHMM             .2:   RESISTIVITY MUD CAKE
 MCST.F                78:   MUD CAKE SAMPLE TEMPERATURE
 MFSS.               MEAS:   MUD FILTRATE SAMPLE SOURCE
 MCSS.               MEAS:   MUD CAKE SAMPLE SOURCE
 RMB .OHMM            .13:   RESISTIVITY MUD AT BHT
 BHT .F                89:   BOTTOM HOLE TEMPERATURE
 MRT .F                89:   MAXIMUM RECORDED TEMPERATURE
 LUN .               6307:   LOGGING UNIT NUMBER
 LUL .               GLTE:   LOGGING UNIT LOCATION
 ENGI.            JOHNSON:   RECORDING ENGINEER
 WITN.              FIVAS:   WITNESSED BY
 CLNT.            A2DTECH:   CLIENT CODE
 ORIG.           5" PRINT:   ORIGIN OF DATA
 UWI .       490251097800:   UNIQUE WELL ID
 DICO. A2D Technologies, Inc.:   DIGITIZING COMPANY
~OTHER INFORMATION
~A   DEPT      CNC         AC        GRD       CALD       CORR       DPHI        DEN       RILD       RILM       RFOC        SPR   
# ...
  464.5000     0.2806    92.9370    97.4670     7.8590     0.0770     0.1180     2.4850    12.3060     8.2990    14.1590   -60.0780
  465.0000     0.3063    93.2630    93.6660     7.8590     0.0790     0.1190     2.4820    12.2190     8.1370    13.5850   -60.1260
  465.5000     0.3099    93.3400    93.1710     7.8590     0.0640     0.1210     2.4780    12.2190     7.9990    12.9860   -60.2410
  466.0000     0.3090    93.5430    97.4280     7.8590     0.0430     0.1230     2.4750    11.7490     7.5030    12.3780   -60.3580
  466.5000     0.3077    94.0260   101.7360     7.8590     0.0390     0.1220     2.4790    11.2190     7.2500    11.7700   -60.5780
  467.0000     0.3055    94.7430   102.9450     7.8590     0.0480     0.1200     2.4820    10.6890     7.0240    11.1610   -60.9040
  467.5000     0.3036    95.4600    98.9790     7.8590     0.0590     0.1180     2.4850    10.1590     6.7770    10.7410   -61.2290
  468.0000     0.3023    96.1770    96.8150     7.8590     0.0700     0.1180     2.4860     9.4920     6.3940    10.4330   -61.5540
  468.5000     0.3032    96.8490    99.7360     7.8590     0.0820     0.1180     2.4850     8.5280     5.9730    10.0760   -61.8800
  469.0000     0.3176    97.4630   100.3720     7.8590     0.0890     0.1190     2.4810     7.5630     5.4580     9.8290   -62.2050
  469.5000     0.3537    98.7410   101.2260     7.8590     0.0950     0.1260     2.4560     6.5980     4.7510     9.6240   -62.5300
  470.0000     0.4215   100.4450   104.2540     7.8590     0.1010     0.1450     2.4100     5.6330     4.0440     8.8380   -62.8540
  470.5000     0.4323   103.4760   107.5510     7.8590     0.0930     0.1710     2.3650     4.6680     3.3370     7.5530   -63.1800
  471.0000     0.4372   108.1970   108.9280     7.8590     0.0810     0.1960     2.3200     3.7030     2.8480     6.3940   -63.4120
  471.5000     0.4406   113.1790   107.6910     7.8590     0.0600     0.2230     2.2850     3.1910     2.7060     5.2780   -62.7890
  472.0000     0.3724   118.1600   103.0330     7.8590     0.0390     0.2450     2.2690     3.1260     2.6490     3.9000   -62.0050
  472.5000     0.3392   123.1420    98.3130     7.8590     0.0630     0.2430     2.2930     3.0980     2.8060     4.1330   -61.2160
  473.0000     0.3345   128.3600    93.4960     7.8590     0.0900     0.2220     2.3390     3.1260     3.0120     4.4380   -60.4260
  473.5000     0.3286   126.6480    93.2350     7.8590     0.0650     0.1990     2.3850     3.8770     3.2180     4.7320   -59.6490
  474.0000     0.3154   121.3760    93.5240     7.8590     0.0470     0.1690     2.4310     4.6450     3.6460     5.5850   -59.4630
  474.5000     0.2948   115.4350    94.1000     7.8590     0.0480     0.1380     2.4720     5.4140     4.2300     7.8110   -59.2050
  475.0000     0.3008   109.4940    94.6900     7.8590     0.0500     0.1250     2.4740     6.1830     4.8150     9.7960   -58.9320
  475.5000     0.3132   102.4490    94.1920     7.8590     0.0650     0.1220     2.4750     6.9520     5.3400    10.0700   -58.6570
  476.0000     0.3167   100.2230    93.3090     7.8590     0.0790     0.1200     2.4830     7.7200     5.8250     9.9500   -58.3810
  476.5000     0.3083    99.6030    94.8050     7.8590     0.0840     0.1180     2.4820     8.4890     6.3110     9.7960   -58.1060
  477.0000     0.3064    98.9980    96.5510     7.8590     0.0660     0.1210     2.4780     9.4410     6.6810    10.1170   -57.8400
  477.5000     0.3039    98.3930    98.2940     7.8590     0.0550     0.1240     2.4740    10.1630     7.0360    10.3810   -57.6910
  478.0000     0.3035    97.7870   100.7730     7.8590     0.0620     0.1220     2.4770    10.1360     7.0960    10.7240   -57.5490
  478.5000     0.3314    97.4180   104.0830     7.8590     0.0690     0.1200     2.4810    10.1040     6.8400    10.6420   -57.4070
  479.0000     0.3381    97.1860   107.3480     7.8590     0.0640     0.1180     2.4850    10.0720     6.9530    10.6800   -57.2650
  479.5000     0.3403    97.6640   108.6030     7.8590     0.0590     0.1150     2.4910    10.0400     7.0620    10.7410   -57.1240
  480.0000     0.3277    98.0580   109.0930     7.8590     0.0540     0.1130     2.4960    10.0080     7.1710    10.7230   -57.0450
  480.5000     0.3250    98.4520   109.6230     7.8590     0.0490     0.1110     2.5000     9.9780     7.2810    10.6850   -57.2030
  481.0000     0.3318    98.8460   111.6350     7.8590     0.0480     0.1090     2.5020    10.1140     7.0960    10.6470   -57.5470
  481.5000     0.3352    99.2400   113.6280     7.8590     0.0580     0.1080     2.5030    10.2710     7.0730    10.8260   -57.8890
  482.0000     0.3290    99.4130   113.3520     7.8590     0.0670     0.1070     2.5050    10.3520     7.0510    11.1440   -58.2320
  482.5000     0.3075    99.4130   109.7640     7.8590     0.0700     0.1070     2.5050     9.9780     7.0310    10.8980   -58.5750
  483.0000     0.2991    99.4130   106.1720     7.8590     0.0710     0.1070     2.5050    10.0060     7.0010    10.6250   -58.9170
  483.5000     0.2982    99.4130   105.2130     7.8590     0.0830     0.1050     2.5050    10.0650     6.9740    10.5900   -59.2110
  484.0000     0.3087    99.4130   105.6050     7.8590     0.0930     0.1030     2.5100    10.1230     6.9460    10.5450   -59.0280
  484.5000     0.3090    99.4130   105.4870     7.8590     0.0910     0.1010     2.5160    10.1630     6.9190    10.5910   -58.8450
  485.0000     0.3102    99.4130   103.0450     7.8590     0.0800     0.0990     2.5210    10.0840     6.8910    10.6570   -58.6630
  485.5000     0.3101    99.4130   102.1560     7.8590     0.0760     0.0970     2.5210    10.0130     6.8640    10.7410   -58.4810
  486.0000     0.3095    99.5470   104.0770     7.8590     0.0720     0.1000     2.5140     9.9420     6.8400    10.6110   -58.2690
  486.5000     0.3045    99.7520   108.3440     7.8590     0.0680     0.1030     2.5070     9.8710     6.8250    10.4340   -58.0440
  487.0000     0.2998    99.9570   112.6390     7.8590     0.0670     0.1060     2.5050     9.7960     6.8050    10.3520   -57.8200
  487.5000     0.3022   100.1620   113.8860     7.8590     0.0760     0.1060     2.5030     9.9800     6.7770    10.3650   -57.5950
  488.0000     0.3303   100.0630   112.5540     7.8590     0.0840     0.1060     2.5010     9.9970     6.8010    10.4000   -57.3710
  488.5000     0.3372    99.8350   109.8010     7.8590     0.0790     0.1060     2.4990    10.0150     6.8440    10.4360   -57.1470
  489.0000     0.3260    99.6070   107.0390     7.8560     0.0730     0.1070     2.4990    10.0320     6.8880    10.4720   -56.9210
  489.5000     0.3195    99.4130   104.2840     7.8530     0.0670     0.1090     2.4950    10.0490     6.9310    10.5080   -56.6900
  490.0000     0.3173    99.2170   101.8200     7.8510     0.0620     0.1110     2.4910    10.0700     6.9670    10.5450   -56.7940
  490.5000     0.3182    99.0080   105.2700     7.8480     0.0630     0.1140     2.4870     9.9630     6.8640    10.2830   -56.9760
  491.0000     0.3194    99.2060   109.2740     7.8450     0.0640     0.1160     2.4830     9.8250     6.7770    10.1940   -57.1600
  491.5000     0.3103    99.4630   111.3900     7.8420     0.0670     0.1160     2.4870     9.6880     6.7890    10.1050   -57.3440
  492.0000     0.3091    99.7190   109.4320     7.8400     0.0600     0.1140     2.4930     9.5500     6.8020    10.0700   -57.5290
  492.5000     0.3090    99.8180   107.3580     7.8370     0.0520     0.1120     2.4980     9.4410     6.8150    10.1320   -57.7020
  493.0000     0.3084    99.5510   106.9940     7.8340     0.0510     0.1110     2.4990     9.3250     6.8270    10.1940   -58.0350
  493.5000     0.2997    99.3310   107.8250     7.8310     0.0630     0.1100     2.4980     9.1840     6.8400    10.2550   -58.1740
  494.0000     0.3117    99.0080   108.5780     7.8290     0.0650     0.1090     2.4930     8.8830     6.5750    10.3520   -58.0300
  494.5000     0.3321    99.4310   112.2160     7.8260     0.0580     0.1120     2.4880     8.5890     6.3160    10.1990   -57.8880
