~VERSION INFORMATION
 VERS.                2.0:   CWLS LOG ASCII STANDARD - VERSION 2.0
 WRAP.                 NO:   ONE LINE PER DEPTH STEP
~WELL INFORMATION
#MNEM.UNIT      DATA TYPE    INFORMATION
#----------   ------------   ------------------------------
 STRT.F          664.0000:   START DEPTH
 STOP.F         1880.0000:   STOP DEPTH
 STEP.F            0.5000:   STEP LENGTH
 NULL.          -999.2500:   NO VALUE
 COMP. LAWRENCE/ALLISON INC:   COMPANY
 WELL.     NPR 3 TX #42-3:   WELL
 FLD .             TEAPOT:   FIELD
 LOC .       S3 T38N R78W:   LOCATION
 CNTY.            NATRONA:   COUNTY
 STAT.            WYOMING:   STATE
 CTRY. UNITED STATES OF AMERICA:   COUNTRY
 SRVC.            Unknown:   SERVICE COMPANY
 DATE.        23-JUN-1984:   LOGDATE
 API .       490251096800:   API NUMBER
~CURVE INFORMATION
#MNEM.UNIT       API CODE    CURVE DESCRIPTION
#----------   ------------   ------------------------------
 DEPT.F                  :   
 ROP .MIN/FT 91 810 01 00:   RAT OF DRILLING PENETRATION
 TGAS.UNITS  91 830 01 00:   TOTAL GAS FROM HOTWIRE
~PARAMETER INFORMATION
#MNEM.UNIT          VALUE    DESCRIPTION
#----------   ------------   ------------------------------
 EKB .F              5142:   KELLING BUSHING
 EGL .F              5132:   GROUND LEVEL
 DATE.            6-23-84:   RUN DATE
 BLI .F              1180:   BOTTOM LOG INTERVAL
 TLI .F               660:   TOP LOG INTERVAL
 CS  .IN            8.625:   CASING SIZE
 CBD .F               653:   CASING BOTTOM DRILLER
 LUN .               T-63:   LOGGING UNIT NUMBER
 ENGI.            JOHNSON:   RECORDING ENGINEER
 WITN.           SCHERGER:   WITNESSED BY
 CLNT.            A2DTECH:   CLIENT CODE
 ORIG.           5" PRINT:   ORIGIN OF DATA
 UWI .       490251096800:   UNIQUE WELL ID
 DICO. A2D Technologies, Inc.:   DIGITIZING COMPANY
~OTHER INFORMATION
~A   DEPT        ROP       TGAS 
# ...
 1393.0000     1.0000   169.4707
 1393.5000     1.0000   164.4054
 1394.0000     0.9167   157.2422
 1394.5000     0.8333   154.2748
 1395.0000     0.6875   151.2242
 1395.5000     0.5625   141.6874
 1396.0000     0.4792   137.0259
 1396.5000     0.4375   138.2543
 1397.0000     0.3958   138.4338
 1397.5000     0.4167   126.0258
 1398.0000     0.4375   105.2262
 1398.5000     0.5417    97.0141
 1399.0000     0.6667    94.0018
 1399.5000     0.8333    93.1731
 1400.0000     1.1252    90.2098
 1400.5000     1.1470    78.4094
 1401.0000     1.1272    67.3622
 1401.5000     1.1699    56.9746
 1402.0000     1.1709    48.6849
 1402.5000     1.2136    42.4931
 1403.0000     1.3188    39.4227
 1403.5000     1.4240    36.3778
 1404.0000     1.3417    33.3583
 1404.5000     1.2750    29.1603
 1405.0000     1.0903    25.1706
 1405.5000     0.9700    25.2980
 1406.0000     1.0543    30.6447
 1406.5000     1.2012    31.7701
 1407.0000     1.3272    29.7996
 1407.5000     1.3696    30.9504
 1408.0000     1.3502    93.9894
 1408.5000     1.2262   318.5669
 1409.0000     1.1230   450.0000
 1409.5000     0.9781   450.0000
 1410.0000     0.9375   450.0000
 1410.5000     0.8726    54.6643
 1411.0000     0.7730    48.4471
 1411.5000     0.6906    46.4766
 1412.0000     0.6292    44.4551
 1412.5000     0.6094    44.5826
 1413.0000     0.6313    40.4887
 1413.5000     0.6325    40.5944
 1414.0000     0.6543    41.7669
 1414.5000     0.6343    41.8689
 1415.0000     0.6355    39.8729
 1415.5000     0.6366    37.8514
 1416.0000     0.6376    37.9788
 1416.5000     0.6386    38.0807
 1417.0000     0.6605    40.2806
 1417.5000     0.7240    41.4336
 1418.0000     0.6833    41.5588
 1418.5000     0.5993    40.5863
 1419.0000     0.5604    40.7137
 1419.5000     0.4991    40.8157
 1420.0000     0.5208    41.9411
 1420.5000     0.5214    39.9779
 1421.0000     0.5010    40.1384
 1421.5000     0.4807    40.2669
 1422.0000     0.4604    41.4443
 1422.5000     0.4819    41.5727
 1423.0000     0.4824    43.7991
 1423.5000     0.4621    42.8785
 1424.0000     0.4416    41.9580
 1424.5000     0.4422    42.0891
 1425.0000     0.4428    42.2149
 1425.5000     0.4433    41.2944
 1426.0000     0.4646    39.3250
 1426.5000     0.4860    38.4044
 1427.0000     0.5073    37.5161
 1427.5000     0.5495    37.6445
 1428.0000     0.6542    37.7729
 1428.5000     0.7172    38.9503
 1429.0000     0.7802    39.0788
 1429.5000     0.8038    39.2072
 1430.0000     0.8229    40.3846
 1430.5000     0.8444    41.5647
 1431.0000     0.8449    40.6415
 1431.5000     0.8454    39.7531
 1432.0000     0.8459    39.8815
 1432.5000     0.8464    40.0100
 1433.0000     0.8469    40.1384
 1433.5000     0.8475    40.2669
 1434.0000     0.8480    39.3143
 1434.5000     0.8485    40.4916
 1435.0000     0.8490    39.6033
 1435.5000     0.8495    39.7317
 1436.0000     0.8500    43.0070
 1436.5000     0.8505    43.1381
 1437.0000     0.8510    42.2149
 1437.5000     0.8090    41.2944
 1438.0000     0.8125    41.4550
 1438.5000     0.9008    40.5023
 1439.0000     0.9782    40.6629
 1439.5000     1.0204    40.7914
 1440.0000     1.0626    99.6590
 1440.5000     1.1244   432.2281
 1441.0000     1.2489   449.0630
 1441.5000     1.3318   449.1147
 1442.0000     1.4562   449.1664
 1442.5000     1.6432   323.3440
 1443.0000     1.7705    43.3258
 1443.5000     1.9811    43.3775
 1444.0000     2.1207    43.4292
 1444.5000     2.2244    43.4809
 1445.0000     2.3072    42.4825
 1445.5000     2.3484    41.4863
 1446.0000     2.3688    38.3912
 1446.5000     2.1390    39.4930
 1447.0000     1.7843    39.5455
 1447.5000     1.5338    39.6081
 1448.0000     1.3041    39.6598
 1448.5000     1.2203    39.7115
 1449.0000     1.2198    39.7632
 1449.5000     1.2401    39.8149
 1450.0000     1.3229    39.8666
 1450.5000     1.4279    42.0162
 1451.0000     1.5330    48.3616
 1451.5000     1.6963    51.5601
 1452.0000     1.7582    51.6118
 1452.5000     1.8202    51.6635
 1453.0000     1.9447    54.8621
 1453.5000     2.1109    55.9627
 1454.0000     2.2980    56.0144
 1454.5000     2.2140    56.0664
 1455.0000     2.0468    56.1189
 1455.5000     2.0047    57.2203
 1456.0000     2.1291    58.3320
 1456.5000     2.2536    59.4327
 1457.0000     2.3573    60.5333
 1457.5000     2.4818    60.5850
 1458.0000     2.5646    60.6367
 1458.5000     2.5405    60.6884
 1459.0000     2.4384    60.7401
 1459.5000     2.3129    60.7918
 1460.0000     2.2708    59.7902
 1460.5000     2.2505    60.8654
 1461.0000     2.1677    59.8412
 1461.5000     2.1057    57.7688
 1462.0000     2.0853    75.6328
 1462.5000     2.0860   106.0779
 1463.0000     2.1698   111.3481
 1463.5000     2.2538   111.3735
 1464.0000     2.2959   111.3990
 1464.5000     2.0673   111.4248
 1465.0000     1.8177   111.4510
 1465.5000     1.6932   111.4818
 1466.0000     1.4229   108.3605
 1466.5000     1.2985   107.3306
 1467.0000     1.2157   107.3625
 1467.5000     1.1120   110.5348
 1468.0000     1.2584   111.6093
 1468.5000     1.4880   111.6347
 1469.0000     1.6969   111.6609
 1469.5000     1.9058    68.6851
 1470.0000     1.9687    50.8784
 1470.5000     1.7818    49.8485
 1471.0000     1.6573   191.4888
 1471.5000     1.5537   414.9748
 1472.0000     1.3875   447.4825
 1472.5000     1.2109   446.4582
 1473.0000     0.9928   446.4901
 1473.5000     1.0558   119.2407
 1474.0000     1.1605   115.0699
 1474.5000     1.2860   111.9490
 1475.0000     1.3906   110.7516
 1475.5000     1.5371   107.8105
 1476.0000     1.4542   106.7807
 1476.5000     1.3089   104.7146
 1477.0000     1.2052   104.7401
 1477.5000     1.0808   104.7656
 1478.0000     1.0396   105.8400
 1478.5000     0.9777   105.8655
 1479.0000     0.9782   106.9399
 1479.5000     0.9787   101.7270
 1480.0000     1.1250   102.7761
 1480.5000     1.2519    96.6410
 1481.0000     1.3750    84.1804
 1481.5000     1.4792    75.8480
 1482.0000     1.5833    62.4380
 1482.5000     1.7083    55.2222
 1483.0000     1.8125    51.1533
 1483.5000     1.9583    47.0844
 1484.0000     2.0625    46.1623
 1484.5000     2.1875    44.1871
 1485.0000     2.3125    44.3182
 1485.5000     2.4170    45.6380
 1486.0000     2.5250    47.7505
 1486.5000     2.3750    48.9264
 1487.0000     2.0000    49.0533
 1487.5000     1.7083    48.0995
 1488.0000     1.5208    48.2581
 1488.5000     1.6875    48.3850
 1489.0000     1.7917    48.5140
 1489.5000     1.9375    49.7194
 1490.0000     1.8958    50.8636
 1490.5000     1.6875    49.9415
 1491.0000     1.5403    50.1001
 1491.5000     1.3474    50.2270
 1492.0000     1.1875    50.3539
 1492.5000     1.2083    51.5297
 1493.0000     1.3125    52.7098
 1493.5000     1.5000    54.9620
 1494.0000     1.7083    56.1379
 1494.5000     1.8333    56.2648
 1495.0000     2.0625    56.3917
 1495.5000     2.2292    57.5675
 1496.0000     2.0833    57.6944
 1496.5000     1.5813    57.8234
 1497.0000     1.2427    57.9799
 1497.5000     1.0625    57.0261
 1498.0000     1.2917    56.1041
 1498.5000     1.5208    55.1820
 1499.0000     1.7500    55.3406
 1499.5000     1.9167    57.5654
 1500.0000     2.1250    59.7902
 1500.5000     1.7292    58.8479
 1501.0000     1.4792    59.0078
 1501.5000     1.3125    59.1357
 1502.0000     1.0625    59.2658
 1502.5000     1.2500    59.3969
 1503.0000     1.4792    59.5514
 1503.5000     1.7917    59.6794
 1504.0000     2.0000    59.8073
 1504.5000     2.1875   286.5086
 1505.0000     2.3333   448.1750
 1505.5000     2.5000   448.3029
 1506.0000     2.5625   448.4308
 1506.5000     2.4167   448.5588
 1507.0000     1.8333   363.3160
 1507.5000     1.2708   194.6199
 1508.0000     1.0000   167.8556
 1508.5000     1.1667   120.7807
 1509.0000     1.2708    89.4081
 1509.5000     1.3333    88.9599
 1510.0000     1.4792    85.4682
 1510.5000     1.4167    85.6281
 1511.0000     1.2500    85.7560
 1511.5000     1.1458    85.8839
 1512.0000     1.0000    86.0140
 1512.5000     1.1458    86.1451
 1513.0000     1.2917    86.2997
 1513.5000     1.4793    86.4276
 1514.0000     1.6465    86.5555
