~VERSION INFORMATION
 VERS.                2.0:   CWLS LOG ASCII STANDARD - VERSION 2.0
 WRAP.                 NO:   ONE LINE PER DEPTH STEP
~WELL INFORMATION
#MNEM.UNIT      DATA TYPE    INFORMATION
#----------   ------------   ------------------------------
 STRT.F           64.0000:   START DEPTH
 STOP.F          390.0000:   STOP DEPTH
 STEP.F            0.5000:   STEP LENGTH
 NULL.          -999.2500:   NO VALUE
 COMP. DEPARTMENT OF ENERGY:   COMPANY
 WELL. NPR-3 55-65-SX C-2 #55-3:   WELL
 FLD . TEAPOT NAVAL RESERVE:   FIELD
 LOC .       S3 T38N R78W:   LOCATION
 CNTY.            NATRONA:   COUNTY
 STAT.            WYOMING:   STATE
 CTRY. UNITED STATES OF AMERICA:   COUNTRY
 SRVC.      Dresser Atlas:   SERVICE COMPANY
 DATE.        29-JUN-1985:   LOGDATE
 API .       490251134500:   API NUMBER
~CURVE INFORMATION
#MNEM.UNIT       API CODE    CURVE DESCRIPTION
#----------   ------------   ------------------------------
 DEPT.F                  :   
 CALD.IN     45 280 60 00:   CALIPER FROM DENSITY LOG
 CNC .DEC    42 890 03 00:   NEUTRON POROSITY SANDSTONE
 CORR.G/C3   45 356 01 00:   DENSITY CORRECTION
 GRD .GAPI   45 310 01 00:   GAMMA RAY FROM DENSITY LOG
 PORD.DEC    45 890 12 00:   POROSITY DENSITY SANDSTONE
 RHOB.G/C3   45 350 01 00:   BULK DENSITY
 SPR .MV     07 010 01 00:   SPONTANEOUS POTENTIAL
 ILD .OHMM   06 120 46 00:   INDUCTION LOG DEEP
 ILM .OHMM   07 120 44 00:   INDUCTION LOG MEDIUM
~PARAMETER INFORMATION
#MNEM.UNIT          VALUE    DESCRIPTION
#----------   ------------   ------------------------------
 PD  .                 GL:   PERMANENT DATUM
 EPD .F              5168:   ELEVATION PERMANENT DATUM
 LMF .                 GL:   LOG MEASURED FROM
 DMF .                 GL:   DRILLING MEASURED FROM
 EGL .F              5168:   GROUND LEVEL
 DATE.        29-JUN-1985:   RUN DATE
 RUN .                  1:   RUN NUMBER
 DD  .F               394:   DEPTH DRILLER
 DL  .F               394:   DEPTH LOGGER
 BLI .F               386:   BOTTOM LOG INTERVAL
 CS  .IN                7:   CASING SIZE
 CBD .F                80:   CASING BOTTOM DRILLER
 CBL .F                82:   CASING BOTTOM LOGGER
 BS  .IN            4.875:   BIT SIZE
 BSD .F               394:   BIT SIZE AT DEPTH
 DFT .           FOAM AIR:   DRILLING FLUID TYPE
 TCS .HRS               5:   TIME CURCULATED STOPPED
 MRT .F               238:   MAXIMUM RECORDED TEMPERATURE
 LUN .               6274:   LOGGING UNIT NUMBER
 LUL .               GLTE:   LOGGING UNIT LOCATION
 ENGI.             RAUTIO:   RECORDING ENGINEER
 WITN.           JENNINGS:   WITNESSED BY
 CLNT.            A2DTECH:   CLIENT CODE
 ORIG.           5" PRINT:   ORIGIN OF DATA
 UWI .       490251134500:   UNIQUE WELL ID
 DICO. A2D Technologies, Inc.:   DIGITIZING COMPANY
~OTHER INFORMATION
~A   DEPT     CALD          CNC     CORR        GRD       PORD       RHOB        SPR        ILD        ILM   
# ...
  356.0000     5.0843     0.2694    -0.0316   108.9773     0.2378     2.2743  -119.1554     6.9509     6.9881
  356.5000     5.0843     0.2631    -0.0067   110.4907     0.2251     2.2811  -116.4404     6.2600     6.4297
  357.0000     5.0843     0.2585     0.0284   112.0041     0.2245     2.2677  -115.8371     5.8323     6.0403
  357.5000     5.0843     0.2549     0.0344   112.9150     0.2378     2.2509  -117.3454     5.5683     5.9159
  358.0000     5.0843     0.2580     0.0118   109.9103     0.2432     2.2494  -119.4570     5.5299     5.8749
  358.5000     5.0843     0.2713     0.0088   106.6044     0.2435     2.2502  -119.4570     5.4917     5.8749
  359.0000     5.0830     0.2831     0.0058   106.0075     0.2414     2.2547  -120.0643     5.5299     5.9159
  359.5000     5.0843     0.2858     0.0043   106.6191     0.2369     2.2683  -121.9346     5.5683     5.9571
  360.0000     5.0693     0.2867     0.0028   107.8313     0.2303     2.2796  -123.6802     5.6071     5.9985
  360.5000     5.0693     0.2862    -0.0018   109.6745     0.2260     2.2826  -121.8703     5.6461     6.0824
  361.0000     5.0843     0.2852    -0.0049   111.1611     0.2251     2.2788  -121.2670     5.7254     6.1674
  361.5000     5.0843     0.2840    -0.0108   111.7709     0.2244     2.2856  -121.8703     5.8858     6.2536
  362.0000     5.0843     0.2837     0.0012   112.0795     0.2200     2.2969  -121.2670     6.0094     6.2972
  362.5000     5.0843     0.2849     0.0328   112.0868     0.2137     2.3022  -999.2500     6.0512     6.3410
  363.0000     5.0843     0.2879     0.0343   112.0942     0.2103     2.3044  -999.2500     6.0512     6.3852
  363.5000     5.0843     0.2952     0.0192   112.1015     0.2103     2.2992  -999.2500     5.9679     6.3410
  364.0000     5.0843     0.3015     0.0207   112.1089     0.2176     2.2901  -999.2500     5.9267     6.2536
  364.5000     5.0843     0.3008     0.0222   112.0708     0.2200     2.2901  -999.2500     5.8048     6.1208
  365.0000     5.0994     0.2949     0.0222   112.1236     0.2176     2.2979  -999.2500     5.6853     5.9985
  365.5000     5.0994     0.2897     0.0142   112.1310     0.2094     2.3165  -999.2500     5.5683     5.9159
  366.0000     5.0994     0.2840    -0.0079   112.1385     0.1999     2.3271  -999.2500     5.5299     5.9159
  366.5000     5.0994     0.2807     0.0057   112.1475     0.1962     2.3293  -999.2500     5.4917     5.9159
  367.0000     5.0994     0.2788     0.0237   112.1549     0.1955     2.3248  -999.2500     5.4917     5.9159
  367.5000     5.0994     0.2779     0.0041   111.8592     0.1986     2.3173  -999.2500     5.4917     5.9159
  368.0000     5.0843     0.2803    -0.0184   111.8684     0.2052     2.3120  -999.2500     5.4917     5.8749
  368.5000     5.0843     0.2852    -0.0094   111.8757     0.2076     2.3112  -999.2500     5.4538     5.8749
  369.0000     5.0794     0.2915     0.0041   111.8831     0.2082     2.3097  -999.2500     5.3787     5.9159
  369.5000     5.0693     0.2973     0.0131   111.8904     0.2082     2.3037  -999.2500     5.3415     5.9571
  370.0000     5.0542     0.3000     0.0192   111.8978     0.2103     2.2962  -999.2500     5.2316     5.9159
  370.5000     5.0542     0.3076     0.0077   111.9052     0.2156     2.2879  -999.2500     5.1596     5.6745
  371.0000     5.0392     0.3106    -0.0260   111.9127     0.2260     2.2788  -999.2500     5.1240     5.3681
  371.5000     5.0392     0.3124    -0.0395  -999.2500     0.2303     2.2705  -999.2500     5.0886     5.1850
  372.0000     5.0241     0.3130    -0.0411  -999.2500     0.2300     2.2720  -999.2500     5.0535     5.0781
  372.5000     5.0241     0.3133    -0.0335  -999.2500     0.2260     2.2788  -999.2500     4.9495     5.0781
  373.0000     5.0173     0.3133    -0.0170  -999.2500     0.2221     2.2850  -999.2500     4.8476     5.0781
  373.5000     5.0090     0.3133    -0.0035  -999.2500     0.2200     2.2879  -999.2500     4.7479     5.0430
  374.0000     4.9940     0.3133    -0.0125  -999.2500     0.2230     2.2826  -999.2500     4.6502     4.9693
  374.5000     4.9940     0.3133    -0.0170  -999.2500     0.2251     2.2796  -999.2500     4.5545     4.8038
  375.0000     4.9789     0.3133    -0.0013  -999.2500     0.2242     2.2849  -999.2500     4.4608     4.6723
  375.5000     4.9789     0.3132     0.0266  -999.2500     0.2152     2.3044  -999.2500     4.3658     4.5444
  376.0000     4.9789     0.3130     0.0175  -999.2500     0.1992     2.3240  -999.2500     4.1621     4.4199
  376.5000     4.9789     0.3127     0.0100  -999.2500     0.1889     2.3353  -999.2500     4.0765     4.2396
  377.0000     4.9789     0.3127     0.0025  -999.2500     0.1865     2.3438  -999.2500     4.0204     4.0667
  377.5000     4.9789     0.3127    -0.0051  -999.2500     0.1856     2.3482  -999.2500     4.0204     3.9280
  378.0000     4.9940     0.3127     0.0190  -999.2500     0.1847     2.3497  -999.2500     4.0204     3.8471
  378.5000     4.9940     0.3127     0.0055  -999.2500     0.1811     2.3572  -999.2500     3.9926     3.8205
  379.0000     4.9940     0.3127     0.0024  -999.2500     0.1744     2.3632  -999.2500     3.9926     3.7940
  379.5000     4.9940     0.3127     0.0069  -999.2500     0.1735     2.3655  -999.2500     4.0204     3.7678
  380.0000     4.9940     0.3127     0.0009  -999.2500     0.1906     2.3353  -999.2500     4.0204     3.7417
  380.5000     4.9940     0.3127    -0.0081  -999.2500     0.1916     2.3368  -999.2500     4.0204     3.7417
  381.0000     4.9940     0.3127    -0.0066  -999.2500     0.1850     2.3545  -999.2500     4.0204     3.7417
  381.5000     4.9940     0.3127     0.0189  -999.2500     0.1744     2.3723  -999.2500     4.0204     3.7417
  382.0000     4.9940     0.3127     0.0280  -999.2500     0.1669     2.3806  -999.2500     4.0204     3.7417
  382.5000     4.9940     0.3127    -0.0066  -999.2500     0.1614     2.3858  -999.2500     4.0204     3.7417
  383.0000     4.9940     0.3130    -0.0036  -999.2500     0.1593     2.3904  -999.2500     4.0204     3.7417
  383.5000     4.9789     0.3136     0.0084  -999.2500     0.1578     2.3904  -999.2500     4.0204     3.7417
  384.0000     4.9639     0.3139     0.0281  -999.2500     0.1572     2.3904  -999.2500     3.9926     3.7158
  384.5000     4.8886     0.3142     0.0419  -999.2500     0.1572     2.3911  -999.2500     3.9926     3.7158
  385.0000     4.8133     0.3145     0.0520  -999.2500     0.1551     2.3942  -999.2500     3.9926     3.7158
  385.5000     4.8133     0.3148     0.0565  -999.2500     0.1518     2.4024  -999.2500     4.0204     3.7417
  386.0000     4.8283     0.3151     0.0595  -999.2500     0.1478     2.4084  -999.2500     4.0483     3.7417
  386.5000     4.8283     0.3151     0.0564  -999.2500     0.1451     2.4115  -999.2500  -999.2500  -999.2500
  387.0000     4.8283     0.3151     0.0534  -999.2500     0.1427     2.4175  -999.2500  -999.2500  -999.2500
  387.5000     4.8133     0.3151     0.0730  -999.2500     0.1376     2.4258  -999.2500  -999.2500  -999.2500
  388.0000     4.8133     0.3151     0.0778  -999.2500     0.1328     2.4356  -999.2500  -999.2500  -999.2500
  388.5000     4.8133     0.3151     0.0714  -999.2500     0.1267     2.4416  -999.2500  -999.2500  -999.2500
  389.0000     4.8133     0.3151     0.0780  -999.2500     0.1224     2.4485  -999.2500  -999.2500  -999.2500
  389.5000     4.8133     0.3154     0.1000  -999.2500     0.1219     2.4476  -999.2500  -999.2500  -999.2500
  390.0000     4.8283     0.3157     0.1065  -999.2500     0.1244     2.4416  -999.2500  -999.2500  -999.2500
