~VERSION INFORMATION
 VERS.                2.0:   CWLS LOG ASCII STANDARD - VERSION 2.0
 WRAP.                 NO:   ONE LINE PER DEPTH STEP
~WELL INFORMATION
#MNEM.UNIT      DATA TYPE    INFORMATION
#----------   ------------   ------------------------------
 STRT.F           18.0000:   START DEPTH
 STOP.F          501.0000:   STOP DEPTH
 STEP.F            0.5000:   STEP LENGTH
 NULL.          -999.2500:   NO VALUE
 COMP. FENIX & SCISSON INC:   COMPANY
 WELL.     NPR-3 SX #34-3:   WELL
 FLD .             TEAPOT:   FIELD
 LOC .       S3 T38N R78W:   LOCATION
 CNTY.            NATRONA:   COUNTY
 STAT.            WYOMING:   STATE
 CTRY. UNITED STATES OF AMERICA:   COUNTRY
 SRVC.            Unknown:   SERVICE COMPANY
 DATE.        13-JUL-1978:   LOGDATE
 API .       490251066600:   API NUMBER
~CURVE INFORMATION
#MNEM.UNIT       API CODE    CURVE DESCRIPTION
#----------   ------------   ------------------------------
 DEPT.F                  :   
 SPR .MV     05 010 01 00:   SPONTANEOUS POTENTIAL FROM RES.
 SN  .OHMM   05 040 16 00:   SHORT NORMAL 16"
 ILD .OHMM   05 120 46 00:   INDUCTION LOG DEEP
 CALD.IN     45 280 60 00:   CALIPER FROM DENSITY LOG
 GRD .GAPI   45 310 01 00:   GAMMA RAY FROM DENSITY LOG
 CORR.G/C3   45 356 01 00:   DENSITY CORRECTION
 DEN .G/C3   45 350 01 00:   COMPENSATED BULK DENSTIY
 DPHI.DEC    45 890 12 00:   DENSITY POROSITY SANDSTONE
~PARAMETER INFORMATION
#MNEM.UNIT          VALUE    DESCRIPTION
#----------   ------------   ------------------------------
 PD  .                 GL:   PERMANENT DATUM
 EPD .F              5209:   ELEVATION PERMANENT DATUM
 LMF .                 KB:   LOG MEASURED FROM
 DAPD.F                 4:   FEET ABOVE PERMANENT DATUM
 DMF .                 KB:   DRILLING MEASURED FROM
 EKB .F              5213:   KELLING BUSHING
 EGL .F              5209:   GROUND LEVEL
 DATE.            7-13-78:   RUN DATE
 RUN .                  1:   RUN NUMBER
 DD  .F               500:   DEPTH DRILLER
 DL  .F               507:   DEPTH LOGGER
 BLI .F               500:   BOTTOM LOG INTERVAL
 TLI .F                30:   TOP LOG INTERVAL
 CS  .IN            8.625:   CASING SIZE
 CBL .F                30:   CASING BOTTOM LOGGER
 BS  .IN            7.875:   BIT SIZE
 BSD .F               500:   BIT SIZE AT DEPTH
 DFT .                KCL:   DRILLING FLUID TYPE
 DFD .                8.6:   DRILLING FLUID DENSITY
 DFV .                 32:   DRILLING FLUID VISCOSITY
 DFPH.                  9:   DRILLING FLUID PH
 DFL .               12.2:   DRILLING FLUID LOSS
 MSS .          FLOW LINE:   MUD SAMPLE SOURCE
 RMS .OHMM            .22:   RESISTIVITY MUD SAMPLE
 MST .F                80:   MUD SAMPLE TEMPERATURE
 RMF .OHMM            .19:   RESISTIVITY MUD FILTRATE SAMPLE
 MFST.F                88:   MUD FILTRATE SAMPLE TEMPERATURE
 RMC .OHMM            .38:   RESISTIVITY MUD CAKE
 MCST.F                84:   MUD CAKE SAMPLE TEMPERATURE
 MFSS.               MEAS:   MUD FILTRATE SAMPLE SOURCE
 BHT .F                76:   BOTTOM HOLE TEMPERATURE
 TCS .HRS               1:   TIME CURCULATED STOPPED
 MRT .F                76:   MAXIMUM RECORDED TEMPERATURE
 LUN .               2958:   LOGGING UNIT NUMBER
 LUL .               CASP:   LOGGING UNIT LOCATION
 ENGI.             MILLER:   RECORDING ENGINEER
 WITN.           MCGINLEY:   WITNESSED BY
 CLNT.            A2DTECH:   CLIENT CODE
 ORIG. 2", 2.5", 5" PRINT:   ORIGIN OF DATA
 UWI .       490251066600:   UNIQUE WELL ID
 DICO. A2D Technologies, Inc.:   DIGITIZING COMPANY
~OTHER INFORMATION
~A   DEPT      SPR         SN        ILD       CALD        GRD       CORR        DEN       DPHI   
# ...
  342.0000   -13.6833    17.8176    22.0321     7.4981    55.8928     0.0076     2.4199     0.1581
  342.5000   -17.0972    17.8271    22.5091     7.5007    56.6619     0.0078     2.4245     0.1549
  343.0000   -23.1919    17.8366    22.2144     7.5034    59.0957     0.0080     2.4298     0.1607
  343.5000   -14.2525    17.9720    21.6235     7.5061    61.3847     0.0082     2.4126     0.1715
  344.0000   -21.0891    18.3549    21.9533     7.5093    62.2635     0.0083     2.3960     0.1769
  344.5000   -22.8661    18.7503    23.8451     7.5263    60.7914     0.0085     2.3854     0.1822
  345.0000   -22.8571    18.8900    25.9156     7.5140    55.4228     0.0089     2.3730     0.1894
  345.5000   -22.8466    19.1623    26.6557     7.5173    53.0482     0.0134     2.3663     0.1857
  346.0000   -22.8379    19.4386    27.4169     7.5199    51.4220     0.0151     2.3679     0.1893
  346.5000   -22.9802    19.5834    28.9876     7.5226    50.2450     0.0048     2.3522     0.2043
  347.0000   -22.8228    19.5939    29.8154     7.5252    51.0141    -0.0041     2.3335     0.2294
  347.5000   -22.9629    19.7399    31.0959     7.5123    51.6335    -0.0039     2.2990     0.2519
  348.0000   -22.9306    19.7508    30.8669     7.5000    51.7987    -0.0022     2.2691     0.2618
  348.5000   -22.9435    19.7636    30.0801     7.4734    49.8783    -0.0036     2.2474     0.2689
  349.0000   -22.9345    19.7741    29.8871     7.4312    47.8031    -0.0094     2.2167     0.2839
  349.5000   -22.9239    19.5114    29.9095     7.3740    47.2249    -0.0137     2.2017     0.2679
  350.0000   -22.9174    18.9287    28.5194     7.5264    46.7979    -0.0150     2.2393     0.2166
  350.5000   -22.9273    18.4869    27.5668     7.3943    46.5116     0.0017     2.3414     0.2063
  351.0000   -22.9364    18.1173    26.8302     7.3818    49.0785     0.0152     2.3414     0.2060
  351.5000   -22.9455    17.8778    26.1133     7.4890    54.1859     0.0063     2.3430     0.2039
  352.0000   -22.9547    17.6415    25.5913     7.4915    57.9541     0.0048     2.3461     0.1984
  352.5000   -22.9638    17.5266    25.0767     7.4790    59.1967     0.0200     2.3694     0.1867
  353.0000   -22.9729    17.4163    24.5783     7.4666    60.9795     0.0337     2.4002     0.1705
  353.5000   -22.9821    16.9512    24.2534     7.4996    62.6438     0.0368     2.4019     0.1698
  354.0000   -22.9702    16.6093    24.0983     7.5768    63.8590     0.0337     2.3958     0.1724
  354.5000   -22.9583    16.1684    24.4445     7.5793    65.8227     0.0295     2.4003     0.1703
  355.0000   -22.9443    15.9566    23.6304     7.5967    66.8837     0.0281     2.4049     0.1676
  355.5000   -22.9327    15.8527    23.1580     7.5992    64.6602     0.0237     2.3972     0.1753
  356.0000   -22.9210    15.7513    22.6951     7.6017    63.9249     0.0163     2.3912     0.1792
  356.5000   -22.7606    15.7606    22.3951     7.6042    63.7971     0.0104     2.3863     0.1744
  357.0000   -22.7490    15.7680    22.2492     7.6067    63.3653     0.0105     2.3916     0.1686
  357.5000   -22.7373    15.6672    22.1069     7.6092    63.0838     0.0106     2.4074     0.1641
  358.0000   -22.7257    15.6746    21.8147     7.6117    63.4650     0.0107     2.4165     0.1634
  358.5000   -22.7141    15.6820    21.5264     7.6142    65.5185     0.0108     2.4113     0.1641
  359.0000   -22.7024    15.6894    21.5391     7.6167    65.6858     0.0109     2.4083     0.1658
  359.5000   -22.8396    15.6968    21.4013     7.6198    65.7033     0.0095     2.4091     0.1585
  360.0000   -22.9739    15.7043    21.4116     7.6223    65.2718     0.0096     2.4167     0.1591
  360.5000   -22.8134    15.7119    21.5700     7.6248    64.9856     0.0097     2.4085     0.1692
  361.0000   -22.9535    15.7209    21.5823     7.6117    65.9057     0.0098     2.4003     0.1707
  361.5000   -22.9390    15.7283    21.7418     7.5992    66.6674     0.0038     2.3943     0.1746
  362.0000   -22.7814    15.8445    21.9024     7.6024    64.7433    -0.0020     2.3770     0.1865
  362.5000   -22.9186    15.7413    22.0642     7.5893    62.5153    -0.0049     2.3499     0.1976
  363.0000   -22.9041    15.6406    22.2272     7.5924    61.1846    -0.0048     2.3514     0.1946
  363.5000   -23.0417    15.5424    22.2377     7.5949    60.7541    -0.0016     2.3668     0.1945
  364.0000   -23.0296    15.4412    22.2482     7.5974    60.7760     0.0000     2.3556     0.1984
  364.5000   -23.1668    15.3439    22.2587     7.6148    60.7936    -0.0044     2.3519     0.1983
  365.0000   -23.3040    15.2459    22.2692     7.6173    60.8112    -0.0059     2.3564     0.1970
  365.5000   -23.5899    15.0445    22.2798     7.6199    61.2778    -0.0057     2.3625     0.1923
  366.0000   -23.8730    15.0518    22.2905     7.6229    61.5948    -0.0056     2.3588     0.1997
  366.5000   -24.1590    15.0605    22.3034     7.6254    62.0615    -0.0055     2.3483     0.2018
  367.0000   -24.2991    14.9624    22.3139     7.6279    61.3305    -0.0054     2.3446     0.1972
  367.5000   -24.4363    14.8685    22.1686     7.6304    60.4499    -0.0053     2.3597     0.1903
  368.0000   -24.7193    14.7716    22.0294     7.6179    59.2699    -0.0067     2.3660     0.1915
  368.5000   -24.7077    14.6772    21.7357     7.6204    56.7425    -0.0051     2.3583     0.1956
  369.0000   -24.8452    14.5833    21.3011     7.6073    56.0116    -0.0065     2.3583     0.1923
  369.5000   -24.8333    14.3922    21.1649     7.6104    58.7601    -0.0049     2.3630     0.1881
  370.0000   -24.8214    14.2985    21.0295     7.6129    60.2427    -0.0032     2.3738     0.1838
  370.5000   -24.8095    14.1110    20.7540     7.6004    60.2603     0.0013     2.3848     0.1789
  371.0000   -24.7954    13.9246    20.4797     7.5880    60.4276     0.0029     2.3848     0.1771
  371.5000   -24.7838    13.8356    20.0702     7.5756    60.7445     0.0060     2.3871     0.1792
  372.0000   -24.7722    13.8284    19.8050     7.5787    60.4583     0.0061     2.3962     0.1770
  372.5000   -24.7605    13.7536    19.6783     7.5656    60.1765     0.0047     2.3947     0.1737
  373.0000   -24.9006    13.6656    19.5524     7.5687    61.6955     0.0003     2.3835     0.1869
  373.5000   -24.8861    13.6737    19.5640     7.5712    63.6591    -0.0026     2.3693     0.1847
  374.0000   -24.8745    13.5846    19.4388     7.5737    65.6228    -0.0040     2.3709     0.1820
  374.5000   -25.0119    13.5926    19.4480     7.5762    65.4795     0.0007     2.3762     0.1757
  375.0000   -25.0000    13.5990    19.4572     7.5787    64.9094     0.0038     2.3890     0.1708
  375.5000   -24.9881    13.5104    19.6009     7.5812    64.7817     0.0054     2.3958     0.1723
  376.0000   -24.9738    13.5184    19.6102     7.5837    63.9011     0.0039     2.3921     0.1728
  376.5000   -25.1139    13.5248    19.6194     7.5862    63.0204     0.0041     2.3974     0.1710
  377.0000   -25.0994    13.5312    19.6287     7.5886    62.5845     0.0042     2.3777     0.1793
  377.5000   -25.2395    13.5377    19.6382     7.5912    62.6065     0.0013     2.3671     0.1919
  378.0000   -25.2249    13.4510    19.6496     7.5937    62.4700    -0.0061     2.3488     0.1997
  378.5000   -25.3650    13.3665    19.6588     7.5967    62.0428    -0.0090     2.3526     0.1981
  379.0000   -25.6510    13.3728    19.6681     7.5992    61.9102    -0.0087     2.3549     0.1966
  379.5000   -25.9341    13.2857    19.6774     7.6017    61.9282    -0.0073     2.3534     0.1951
  380.0000   -26.3690    13.2936    19.2840     7.6042    61.7961    -0.0072     2.3550     0.1926
  380.5000   -26.6587    13.2999    18.6399     7.6067    61.8144    -0.0086     2.3670     0.1893
  381.0000   -26.9408    13.2132    18.1418     7.6092    62.5841    -0.0070     2.3754     0.1857
  381.5000   -27.0751    13.1287    18.1504     7.6117    65.2963    -0.0009     2.3792     0.1820
  382.0000   -27.2123    12.9565    18.1590     7.6142    66.3574     0.0007     2.3784     0.1811
