~VERSION INFORMATION
 VERS.                2.0:   CWLS LOG ASCII STANDARD - VERSION 2.0
 WRAP.                 NO:   ONE LINE PER DEPTH STEP
~WELL INFORMATION
#MNEM.UNIT      DATA TYPE    INFORMATION
#----------   ------------   ------------------------------
 STRT.F           11.0000:   START DEPTH
 STOP.F          915.0000:   STOP DEPTH
 STEP.F            0.5000:   STEP LENGTH
 NULL.          -999.2500:   NO VALUE
 COMP. U S NAVY/INTEX OIL CO:   COMPANY
 WELL.       N.P.R. #3-35:   WELL
 FLD .           TEAPOT E:   FIELD
 LOC .      S35 T39N R78W:   LOCATION
 CNTY.            NATRONA:   COUNTY
 STAT.            WYOMING:   STATE
 CTRY. UNITED STATES OF AMERICA:   COUNTRY
 SRVC.       Schlumberger:   SERVICE COMPANY
 DATE.        25-JUL-1953:   LOGDATE
 API .       490250653700:   API NUMBER
~CURVE INFORMATION
#MNEM.UNIT       API CODE    CURVE DESCRIPTION
#----------   ------------   ------------------------------
 DEPT.F                  :   
 SPR .MV     05 010 01 00:   SPONTANEOUS POTENTIAL FROM RES.
 CILD.MMHO   05 110 46 00:   CONDUCTIVITY INDUCTION LOG DEEP
 ILD .OHMM   05 120 46 00:   INDUCTION LOG DEEP
 ASN .OHMM   05 041 16 00:   AMPLIFIED SHORT NORMAL 16"
 GR  .GAPI   30 310 01 00:   GAMMA RAY
~PARAMETER INFORMATION
#MNEM.UNIT          VALUE    DESCRIPTION
#----------   ------------   ------------------------------
 EPD .F              5097:   ELEVATION PERMANENT DATUM
 LMF .                 KB:   LOG MEASURED FROM
 DMF .                 KB:   DRILLING MEASURED FROM
 EKB .F              5102:   KELLING BUSHING
 EGL .F              5097:   GROUND LEVEL
 DATE.           7-2-1963:   RUN DATE
 RUN .                  1:   RUN NUMBER
 DD  .F               916:   DEPTH DRILLER
 DL  .F               916:   DEPTH LOGGER
 BLI .F               915:   BOTTOM LOG INTERVAL
 TLI .F                90:   TOP LOG INTERVAL
 CS  .IN            8.625:   CASING SIZE
 CBD .F                10:   CASING BOTTOM DRILLER
 BS  .IN             6.75:   BIT SIZE
 BSD .F               916:   BIT SIZE AT DEPTH
 DFT .            GEL/OIL:   DRILLING FLUID TYPE
 DFD .                9.6:   DRILLING FLUID DENSITY
 DFV .                 67:   DRILLING FLUID VISCOSITY
 DFPH.                  9:   DRILLING FLUID PH
 DFL .                4.2:   DRILLING FLUID LOSS
 MSS .          FLOW LINE:   MUD SAMPLE SOURCE
 RMS .OHMM           2.92:   RESISTIVITY MUD SAMPLE
 MST .F                86:   MUD SAMPLE TEMPERATURE
 RMF .OHMM            2.6:   RESISTIVITY MUD FILTRATE SAMPLE
 MFST.F                86:   MUD FILTRATE SAMPLE TEMPERATURE
 RMC .OHMM           2.49:   RESISTIVITY MUD CAKE
 MCST.F                86:   MUD CAKE SAMPLE TEMPERATURE
 MFSS.                  M:   MUD FILTRATE SAMPLE SOURCE
 MCSS.                  M:   MUD CAKE SAMPLE SOURCE
 TCS .HRS              .5:   TIME CURCULATED STOPPED
 LUN .               4507:   LOGGING UNIT NUMBER
 ENGI.             KNOBEL:   RECORDING ENGINEER
 WITN.          JORGENSON:   WITNESSED BY
 CLNT.            A2DTECH:   CLIENT CODE
 ORIG.       2", 5" PRINT:   ORIGIN OF DATA
 UWI .       490250653700:   UNIQUE WELL ID
 DICO. A2D Technologies, Inc.:   DIGITIZING COMPANY
~OTHER INFORMATION
~A   DEPT      SPR       CILD        ILD        ASN          GR  
# ...
  865.0000   -35.1782    80.9234    11.8018    12.2685  -999.2500
  865.5000   -34.8011    79.8783    11.9557    12.3393  -999.2500
  866.0000   -34.7335    79.3164    12.1091    12.4103  -999.2500
  866.5000   -34.6699    79.5653    12.2625    12.4802  -999.2500
  867.0000   -34.6780    79.8141    12.2586    12.5257  -999.2500
  867.5000   -34.8901    80.0630    12.0594    12.4238  -999.2500
  868.0000   -35.0115    80.5162    11.8620    12.3238  -999.2500
  868.5000   -34.8546    82.0697    11.6642    12.2244  -999.2500
  869.0000   -34.2875    83.6233    11.4664    12.1248  -999.2500
  869.5000   -33.6567    85.1768    11.2684    12.0253  -999.2500
  870.0000   -33.1434    86.7304    11.0690    11.9257  -999.2500
  870.5000   -33.1586    88.2839    10.8700    11.8262  -999.2500
  871.0000   -33.1598    89.8375    10.7815    11.7267  -999.2500
  871.5000   -33.2578    91.3911    10.6791    11.6271  -999.2500
  872.0000   -33.2953    91.8863    10.5747    11.5274  -999.2500
  872.5000   -33.1751    91.9840    10.4671    11.4283  -999.2500
  873.0000   -33.0546    92.0817    10.4329    11.3290  -999.2500
  873.5000   -32.9759    92.1794    10.4163    11.3084  -999.2500
  874.0000   -33.1660    92.2770    10.4008    11.3615  -999.2500
  874.5000   -33.3562    92.3747    10.3850    11.4147  -999.2500
  875.0000   -33.0543    92.4724    10.3692    11.4684  -999.2500
  875.5000   -32.7524    92.5700    10.3533    11.5221  -999.2500
  876.0000   -32.9420    92.6677    10.3375    11.5757  -999.2500
  876.5000   -33.1329    92.7654    10.3217    11.6292  -999.2500
  877.0000   -33.3205    92.8631    10.3058    11.6847  -999.2500
  877.5000   -33.5147    92.9607    10.2900    11.6974  -999.2500
  878.0000   -33.2775    93.0584    10.2742    11.6934  -999.2500
  878.5000   -32.8164    93.1561    10.2583    11.6889  -999.2500
  879.0000   -32.5806    93.2538    10.2425    11.6844  -999.2500
  879.5000   -32.6946    93.3514    10.2267    11.6799  -999.2500
  880.0000   -32.8080    93.4491    10.2108    11.6754  -999.2500
  880.5000   -32.9357    93.5468    10.1950    11.6709  -999.2500
  881.0000   -32.5959    93.6445    10.1791    11.6665  -999.2500
  881.5000   -32.1192    93.7421    10.1633    11.6620  -999.2500
  882.0000   -31.3839    93.8398    10.1475    11.6575  -999.2500
  882.5000   -30.8077    93.9619    10.1316    11.6531  -999.2500
  883.0000   -30.6761    94.1630    10.1158    11.6486  -999.2500
  883.5000   -30.5361    94.3642    10.1000    11.6441  -999.2500
  884.0000   -30.3547    94.5653    10.0841    11.6397  -999.2500
  884.5000   -30.0305    94.7663    10.0683    11.6352  -999.2500
  885.0000   -29.6996    94.9673    10.0525    11.6307  -999.2500
  885.5000   -29.6584    95.1683    10.0366    11.6263  -999.2500
  886.0000   -29.7732    95.3693    10.0208    11.6218  -999.2500
  886.5000   -29.8918    95.5703    10.0050    11.6173  -999.2500
  887.0000   -30.0104    95.7712     9.9891    11.6129  -999.2500
  887.5000   -30.1289    95.9722     9.9733    11.6084  -999.2500
  888.0000   -30.2474    96.1732     9.9574    11.6041  -999.2500
  888.5000   -30.3627    96.3742     9.9416    11.6000  -999.2500
  889.0000   -30.4379    96.5752     9.9258    11.5931  -999.2500
  889.5000   -30.1039    96.7762     9.9100    11.5094  -999.2500
  890.0000   -29.5187    96.9772     9.8941    11.4220  -999.2500
  890.5000   -28.9218    97.1781     9.8783    11.3347  -999.2500
  891.0000   -28.3881    97.3791     9.8624    11.2476  -999.2500
  891.5000   -27.4729    97.5801     9.8466    11.1605  -999.2500
  892.0000   -26.1885    97.7811     9.8307    11.0733  -999.2500
  892.5000   -24.9850    97.9821     9.8145    10.9864  -999.2500
  893.0000   -24.1820    98.1831     9.7955    10.8994  -999.2500
  893.5000   -23.6138    98.3840     9.7682    10.8888  -999.2500
  894.0000   -23.0905    98.5850     9.7408    10.9715  -999.2500
  894.5000   -22.5714    98.7860     9.7133    11.0532  -999.2500
  895.0000   -22.5452    98.9870     9.6857    11.1353  -999.2500
  895.5000   -22.6100    99.1880     9.6581    11.2173  -999.2500
  896.0000   -22.6777    99.3890     9.6299    11.2993  -999.2500
  896.5000   -22.7446    99.5913     9.6038    11.3812  -999.2500
  897.0000   -22.8124    99.7918     9.7122    11.4631  -999.2500
  897.5000   -22.8798    99.9902     9.8319    11.5446  -999.2500
  898.0000   -23.0960   100.2099     9.9197    11.6265  -999.2500
  898.5000   -23.4273    95.8702    10.0094    11.7423  -999.2500
  899.0000   -23.7600    91.1309    10.3583    12.1064  -999.2500
  899.5000   -24.0940    86.3915    10.6954    12.4732  -999.2500
  900.0000   -24.4307    81.6477    11.2598    12.8386  -999.2500
  900.5000   -24.7660    76.8988    12.0504    13.2709  -999.2500
  901.0000   -24.1931    72.1513    12.8398    14.2312  -999.2500
  901.5000   -25.2127    68.9176    13.6339    15.1914  -999.2500
  902.0000   -29.6847    66.2944    14.4467    16.1535  -999.2500
  902.5000   -34.4750    63.6524    14.8867    17.1156  -999.2500
  903.0000   -38.6828    61.0103    15.3584    18.0793  -999.2500
  903.5000   -41.6368    58.3683    15.8174    19.4612  -999.2500
  904.0000   -41.0710    57.6389    16.1790    19.2582  -999.2500
  904.5000   -39.2248    58.9110    15.8516    18.6818  -999.2500
  905.0000   -37.7498    60.1831    15.5364    18.3115  -999.2500
  905.5000   -37.9138    61.4546    15.2239    18.3039  -999.2500
  906.0000   -36.9969    62.7273    14.9101    18.0276  -999.2500
  906.5000   -39.6776    63.9994    14.5952    17.5521  -999.2500
  907.0000   -41.7713    65.2715    14.4733    17.2679  -999.2500
  907.5000   -41.0413    66.5439    14.3971    17.0646  -999.2500
  908.0000   -40.3506    67.8174    14.3219    16.7467  -999.2500
  908.5000   -38.4488    69.0927    14.2466    16.4259  -999.2500
  909.0000   -36.3364    70.3677    14.1711    16.1002  -999.2500
  909.5000   -34.9784  -999.2500    14.0956    15.8078  -999.2500
  910.0000   -36.4237  -999.2500    14.0203    16.1495  -999.2500
  910.5000   -33.7218  -999.2500    13.9453    16.4005  -999.2500
  911.0000   -31.9892  -999.2500    13.9038    15.9178  -999.2500
  911.5000   -33.8239  -999.2500    13.9037    15.5117  -999.2500
  912.0000   -34.6157  -999.2500    13.9034    15.1097  -999.2500
  912.5000   -34.5914  -999.2500    13.9034    15.0402  -999.2500
  913.0000   -32.9815  -999.2500    13.9035    14.9707  -999.2500
  913.5000   -31.8638  -999.2500    13.9035    14.9039  -999.2500
  914.0000   -32.7198  -999.2500    13.9035    14.8367  -999.2500
  914.5000   -32.2424  -999.2500    13.9035    14.7692  -999.2500
  915.0000   -30.3774  -999.2500  -999.2500    14.7018  -999.2500
