~VERSION INFORMATION
 VERS.                2.0:   CWLS LOG ASCII STANDARD - VERSION 2.0
 WRAP.                 NO:   ONE LINE PER DEPTH STEP
~WELL INFORMATION
#MNEM.UNIT      DATA TYPE    INFORMATION
#----------   ------------   ------------------------------
 STRT.F            5.0000:   START DEPTH
 STOP.F          668.0000:   STOP DEPTH
 STEP.F            0.5000:   STEP LENGTH
 NULL.          -999.2500:   NO VALUE
 COMP. LAWRENCE/ALLISON INC:   COMPANY
 WELL.    38-61 SX #38-34:   WELL
 FLD .             TEAPOT:   FIELD
 LOC .      S34 T39N R78W:   LOCATION
 CNTY.            NATRONA:   COUNTY
 STAT.            WYOMING:   STATE
 CTRY. UNITED STATES OF AMERICA:   COUNTRY
 SRVC.           Gearhart:   SERVICE COMPANY
 DATE.        18-AUG-1987:   LOGDATE
 API .       490251116700:   API NUMBER
~CURVE INFORMATION
#MNEM.UNIT       API CODE    CURVE DESCRIPTION
#----------   ------------   ------------------------------
 DEPT.F                  :   
 GRR .GAPI   07 310 01 00:   GAMMA RAY
 ILD .OHMM   07 120 46 00:   INDUCTION LOG DEEP
 ILM .OHMM   07 120 44 00:   INDUCTION LOG MEDIUM
~PARAMETER INFORMATION
#MNEM.UNIT          VALUE    DESCRIPTION
#----------   ------------   ------------------------------
 PD  .                 GL:   PERMANENT DATUM
 EPD .F              5175:   ELEVATION PERMANENT DATUM
 LMF .                 KB:   LOG MEASURED FROM
 DAPD.F                 8:   FEET ABOVE PERMANENT DATUM
 DMF .                 KB:   DRILLING MEASURED FROM
 EKB .F              5183:   KELLING BUSHING
 EGL .F              5175:   GROUND LEVEL
 DATE.        18-AUG-1987:   RUN DATE
 RUN .                  1:   RUN NUMBER
 DD  .F               665:   DEPTH DRILLER
 DL  .F               669:   DEPTH LOGGER
 BLI .F               667:   BOTTOM LOG INTERVAL
 CBD .F                47:   CASING BOTTOM DRILLER
 CBL .F                47:   CASING BOTTOM LOGGER
 BS  .IN            7.875:   BIT SIZE
 BSD .F               665:   BIT SIZE AT DEPTH
 DFT .           NONE AIR:   DRILLING FLUID TYPE
 TLAB.HRS            0830:   TIME LOGGER AT BOTTOM
 MRT .F                80:   MAXIMUM RECORDED TEMPERATURE
 LUN .               7597:   LOGGING UNIT NUMBER
 LUL .           GILLETTE:   LOGGING UNIT LOCATION
 ENGI.        K.HUCKFELDT:   RECORDING ENGINEER
 WITN.          G. STRONG:   WITNESSED BY
 CLNT.            A2DTECH:   CLIENT CODE
 ORIG.           5" PRINT:   ORIGIN OF DATA
 UWI .       490251116700:   UNIQUE WELL ID
 DICO. A2D Technologies, Inc.:   DIGITIZING COMPANY
~OTHER INFORMATION
~A    DEPT      GRR       ILD        ILM   
# ...
  278.0000   104.6702    11.6285    10.6794
  278.5000   107.7268    11.6346    10.5347
  279.0000   111.6995    11.5580    10.3926
  279.5000   113.2321    11.3274    10.3227
  280.0000   110.8218    11.1783    10.2498
  280.5000   109.0112    11.0298    10.1861
  281.0000   106.9089    10.9591    10.1182
  281.5000   107.2299    10.8903    10.1214
  282.0000   107.2469    10.7456    10.1242
  282.5000   106.9601    10.6753    10.0865
  283.0000   106.3692    10.6083    10.0595
  283.5000   106.6945    10.4673    10.0626
  284.0000   107.6234    10.4002    10.0654
  284.5000   110.3761    10.4070    10.0685
  285.0000   106.4460    10.4126    10.0709
  285.5000   102.5117    10.4193    10.0737
  286.0000   101.2731    10.4242    10.0765
  286.5000   102.2434    10.3579    10.0092
  287.0000   103.7845    10.1495    10.0125
  287.5000   105.6252    10.0733    10.0850
  288.0000   106.8581     9.9504    10.0882
  288.5000   106.8754     9.8867    10.0909
  289.0000   105.6807     9.8246    10.0229
  289.5000   104.4820     9.7629    10.0262
  290.0000   103.2827     9.6991     9.7545
  290.5000   104.5593     9.5713     9.4895
  291.0000   106.0572     9.3720     9.1677
  291.5000   106.6822     9.1276     8.8569
  292.0000   108.8269     8.9439     8.3805
  292.5000   113.4075     8.8249     8.1523
  293.0000   115.8562     8.7078     8.0419
  293.5000   116.4769     8.6520     8.1006
  294.0000   113.4266     8.6576     8.1598
  294.5000   109.8327     8.7226     8.1619
  295.0000   106.2023     8.7882     8.2210
  295.5000   102.5720     8.8551     8.2809
  296.0000   103.5052     8.9215     8.3991
  296.5000   106.8657     8.9885     8.5190
  297.0000   109.3144     8.9933     8.6405
  297.5000   109.9494     8.9990     8.7668
  298.0000   107.5291     9.0868     8.9513
  298.5000   105.4185     9.1983     9.2061
  299.0000   104.2198     9.2043     9.4026
  299.5000   105.7933     9.1441     9.6754
  300.0000   109.2323     8.9613     9.9454
  300.5000   110.9745     8.9038    10.0856
  301.0000   112.8241     8.9718    10.2276
  301.5000   114.6736     9.0033    10.2283
  302.0000   115.3073     9.1310    10.1580
  302.5000   115.9475     9.2610    10.0884
  303.0000   115.6694     9.3274    10.0892
  303.5000   115.3848     9.3292    10.0899
  304.0000   114.6727     9.3311    10.0906
  304.5000   113.9232     9.3330    10.0912
  305.0000   113.3475     9.3352    10.0920
  305.5000   112.4615     9.3370    10.0228
  306.0000   110.9676     9.2738     9.9540
  306.5000   111.6716     9.2070     9.8857
  307.0000   115.5850     9.0237     9.7500
  307.5000   116.5227     8.9630     9.6830
  308.0000   113.5090     8.9652     9.4837
  308.5000   109.8592     9.0294     9.4188
  309.0000   105.9618     9.0316     9.4196
  309.5000   109.3376     9.0964     9.3548
  310.0000   112.4029     9.0982     9.4208
  310.5000   112.4288     9.1000     9.4214
  311.0000   111.2452     9.1022     9.4222
  311.5000   110.9607     9.1040     9.4886
  312.0000   111.9048     9.1058     9.4233
  312.5000   114.0583     9.0445     9.3588
  313.0000   115.0024     8.9838     9.2303
  313.5000   115.3322     8.8615     9.1668
  314.0000   116.2699     8.8023     9.0409
  314.5000   119.3352     8.6826     8.9790
  315.0000   118.6626     8.5914     8.8557
  315.5000   111.7946     8.3899     8.7340
  316.0000   106.0453     8.2754     8.6140
  316.5000   103.3356     8.1064     8.4368
  317.0000   104.9099     7.9386     8.2632
  317.5000   107.9530     7.7254     8.0932
  318.0000   110.4104     7.5676     7.9268
  318.5000   112.5639     7.4126     7.7638
  319.0000   114.4134     7.2616     7.3444
  319.5000   116.5734     7.2127     6.8042
  320.0000   117.2071     7.2145     6.3037
  320.5000   116.9225     7.2159     6.0888
  321.0000   116.0429     7.2173     6.0470
  321.5000   115.1634     7.2191     6.3934
  322.0000   114.5748     7.1705     6.8540
  322.5000   113.9992     7.1720     7.3479
  323.0000   113.4172     7.2737     7.8775
  323.5000   112.7984     7.4866     8.1001
  324.0000   111.9555     7.6927     8.2140
  324.5000   111.3670     7.8019     8.2146
  325.0000   110.7849     7.8578     8.2726
  325.5000   110.2093     7.8594     8.2731
  326.0000   111.1534     7.7528     8.2162
  326.5000   112.3950     7.7544     8.2169
  327.0000   114.5485     7.6485     8.2175
  327.5000   116.4032     7.5440     8.1046
  328.0000   118.2541     7.3399     8.0490
  328.5000   119.4957     7.1900     7.8288
  329.0000   120.1294     7.0431     7.3546
  329.5000   119.8513     6.8514     6.9573
  330.0000   116.5401     6.5279     6.5358
  330.5000   114.7422     6.2627     6.1826
  331.0000   114.7681     6.0501     5.7679
  331.5000   115.4018     5.8855     5.4563
  332.0000   113.8643     5.8459     5.1975
  332.5000   111.5085     5.8881     4.8826
  333.0000   109.7107     5.9716     4.8155
  333.5000   108.2167     6.0985     5.1268
  334.0000   110.4276     6.3194     5.4962
  334.5000   112.5302     6.6316     5.9334
  335.0000   112.2456     6.9152     6.4501
  335.5000   113.1897     7.2611     6.7721
  336.0000   114.4560     7.5759     7.0610
  336.5000   115.3690     7.9508     7.2606
  337.0000   113.2737     8.1198     7.4184
  337.5000   112.3876     8.1780     7.5709
  338.0000   113.3253     8.1796     7.6774
  338.5000   116.3971     8.4708     7.7314
  339.0000   118.8545     8.5910     7.8403
  339.5000   119.7858     8.6526     7.8955
  340.0000   116.7785     8.6543     8.0066
  340.5000   114.0753     8.6564     8.0630
  341.0000   113.1828     8.6581     8.1765
  341.5000   113.5190     8.6598     8.2915
  342.0000   115.0646     8.6615     8.3499
  342.5000   116.6818     8.6633     8.4674
  343.0000   119.3780     8.6653     8.5271
  343.5000   120.9236     8.6671     8.5872
  344.0000   120.6390     8.6688     8.5877
  344.5000   119.4555     8.6705     8.6482
  345.0000   118.2720     8.6726     8.7092
  345.5000   117.0820     8.6741     8.7098
  346.0000   115.5881     8.6155     8.7104
  346.5000   113.7843     8.6176     8.7109
  347.0000   111.6948     8.5004     8.7116
  347.5000   110.8088     8.5025     8.7122
  348.0000   109.9228     8.5041     8.6524
  348.5000   109.0365     8.5059     8.5930
  349.0000   109.3730     8.4491     8.5341
  349.5000   111.2225     8.3922     8.4170
  350.0000   112.9695     8.2261     8.4762
  350.5000   114.2902     7.8324     8.3591
  351.0000   115.8519     7.5665     8.1299
  351.5000   114.6560     7.3097     7.9070
  352.0000   113.4601     6.9998     7.6369
  352.5000   115.0305     6.5893     7.3249
  353.0000   117.4562     6.2344     6.9642
  353.5000   118.3880     5.8577     6.4187
  354.0000   118.7118     5.3162     5.9876
  354.5000   118.7367     4.8581     5.5431
  355.0000   119.6685     4.3480     4.9977
  355.5000   118.4726     3.8225     4.3793
  356.0000   116.3648     3.2947     3.6552
  356.5000   113.6541     3.0318     3.0088
  357.0000   112.4532     2.8885     2.6921
  357.5000   111.8652     2.8099     2.5288
  358.0000   112.1945     2.7716     2.4424
  358.5000   109.1794     2.8111     2.4087
  359.0000   104.3361     2.8949     2.4766
  359.5000   100.1007     3.0996     2.5833
  360.0000   105.2927     3.3007     2.8067
  360.5000   111.6956     3.6633     3.0509
  361.0000   118.0985     4.1234     3.5304
  361.5000   121.1581     4.5771     4.5658
  362.0000   117.5354     5.1161     5.3203
  362.5000   115.7316     5.7253     5.8235
  363.0000   115.4468     6.2605     6.1680
  363.5000   116.4215     6.5737     6.5085
  364.0000   119.4436     6.7134     6.6457
  364.5000   122.5031     6.7619     6.7387
  365.0000   125.2585     6.7632     6.8331
  365.5000   126.4942     6.7645     6.8807
  366.0000   124.6954     6.7627     6.8331
  366.5000   123.7985     6.6738     6.7387
  367.0000   124.7579     6.5830     6.6457
  367.5000   126.5838     6.4042     6.5085
  368.0000   126.2997     6.1871     6.3242
  368.5000   125.1038     5.8946     6.0294
