~VERSION INFORMATION
 VERS.                2.0:   CWLS LOG ASCII STANDARD - VERSION 2.0
 WRAP.                 NO:   ONE LINE PER DEPTH STEP
~WELL INFORMATION
#MNEM.UNIT      DATA TYPE    INFORMATION
#----------   ------------   ------------------------------
 STRT.F           29.0000:   START DEPTH
 STOP.F          720.0000:   STOP DEPTH
 STEP.F            0.5000:   STEP LENGTH
 NULL.          -999.2500:   NO VALUE
 COMP.    FENIX & SCISSON:   COMPANY
 WELL. RES 3 TEAPOT DOM #21-S-14:   WELL
 FLD .        TEAPOT DOME:   FIELD
 LOC .      S14 T38N R78W:   LOCATION
 CNTY.            NATRONA:   COUNTY
 STAT.            WYOMING:   STATE
 CTRY. UNITED STATES OF AMERICA:   COUNTRY
 SRVC.            Unknown:   SERVICE COMPANY
 DATE.        25-MAY-1978:   LOGDATE
 API .       490251063300:   API NUMBER
~CURVE INFORMATION
#MNEM.UNIT       API CODE    CURVE DESCRIPTION
#----------   ------------   ------------------------------
 DEPT.F                  :   
 CALD.IN     45 280 60 00:   CALIPER FROM DENSITY LOG
 CORR.G/C3   45 356 01 00:   DENSITY CORRECTION
 DPHI.DEC    45 890 12 00:   DENSITY POROSITY SANDSTONE
 GRD .GAPI   45 310 01 00:   GAMMA RAY FROM DENSITY LOG
 RHOB.G/C3   45 350 01 00:   BULK DENSITY
 ILD .OHMM   05 120 46 00:   INDUCTION LOG DEEP
 SN  .OHMM   05 040 16 00:   SHORT NORMAL 16"
 SPR .MV     05 010 01 00:   SPONTANEOUS POTENTIAL FROM RES.
~PARAMETER INFORMATION
#MNEM.UNIT          VALUE    DESCRIPTION
#----------   ------------   ------------------------------
 PD  .                 GL:   PERMANENT DATUM
 EPD .F              5232:   ELEVATION PERMANENT DATUM
 LMF .                 KB:   LOG MEASURED FROM
 DAPD.F                 4:   FEET ABOVE PERMANENT DATUM
 DMF .                 KB:   DRILLING MEASURED FROM
 EKB .F              5236:   KELLING BUSHING
 EGL .F              5232:   GROUND LEVEL
 DATE.        25-MAY-1978:   RUN DATE
 RUN .                  1:   RUN NUMBER
 DD  .F               716:   DEPTH DRILLER
 DL  .F               727:   DEPTH LOGGER
 BLI .F               720:   BOTTOM LOG INTERVAL
 TLI .F                44:   TOP LOG INTERVAL
 CS  .IN            8.625:   CASING SIZE
 CBD .F                40:   CASING BOTTOM DRILLER
 CBL .F                44:   CASING BOTTOM LOGGER
 BS  .IN            7.875:   BIT SIZE
 BSD .F               716:   BIT SIZE AT DEPTH
 DFT .                KCL:   DRILLING FLUID TYPE
 DFD .                8.6:   DRILLING FLUID DENSITY
 DFV .                 31:   DRILLING FLUID VISCOSITY
 DFPH.                9.5:   DRILLING FLUID PH
 DFL .               10.8:   DRILLING FLUID LOSS
 MSS .            MUD PIT:   MUD SAMPLE SOURCE
 RMS .OHMM           0.32:   RESISTIVITY MUD SAMPLE
 MST .F                82:   MUD SAMPLE TEMPERATURE
 RMF .OHMM           0.34:   RESISTIVITY MUD FILTRATE SAMPLE
 MFST.F                72:   MUD FILTRATE SAMPLE TEMPERATURE
 RMC .OHMM            0.8:   RESISTIVITY MUD CAKE
 MCST.F                72:   MUD CAKE SAMPLE TEMPERATURE
 MFSS.               MEAS:   MUD FILTRATE SAMPLE SOURCE
 RMB .OHMM           0.35:   RESISTIVITY MUD AT BHT
 BHT .F                74:   BOTTOM HOLE TEMPERATURE
 TCS .HRS               1:   TIME CURCULATED STOPPED
 MRT .F                74:   MAXIMUM RECORDED TEMPERATURE
 LUN .               2958:   LOGGING UNIT NUMBER
 LUL .               CASP:   LOGGING UNIT LOCATION
 ENGI.             MILLER:   RECORDING ENGINEER
 WITN.           MCGINLEY:   WITNESSED BY
 CLNT.            A2DTECH:   CLIENT CODE
 ORIG.           5" PRINT:   ORIGIN OF DATA
 UWI .       490251063300:   UNIQUE WELL ID
 DICO. A2D Technologies, Inc.:   DIGITIZING COMPANY
~OTHER INFORMATION
~A   DEPT     CALD       CORR       DPHI         GRD      RHOB        ILD         SN        SPR   
# ...
  312.5000     7.4925    -0.0004     0.1190    81.3466     2.4725     7.8541     7.8431   -27.1577
  313.0000     7.4942    -0.0001     0.1195    85.5432     2.4741     7.8603     7.8493   -27.1399
  313.5000     7.4812    -0.0029     0.1189    89.5906     2.4757     7.8665     7.8555   -27.2745
  314.0000     7.4674    -0.0012     0.1173    89.1603     2.4780     7.8728     7.8618   -27.4126
  314.5000     7.4694     0.0005     0.1146    87.9838     2.4788     7.8249     7.8681   -27.5471
  315.0000     7.4710     0.0008     0.1137    87.5536     2.4812     7.7772     7.8759   -27.6786
  315.5000     7.4876     0.0010     0.1163    86.5263     2.4820     7.7850     7.8263   -27.6637
  316.0000     7.4892     0.0072     0.1130    85.9463     2.4821     7.7911     7.7786   -27.6460
  316.5000     7.5057     0.0119     0.1088    85.9643     2.4844     7.7973     7.7863   -27.4829
  317.0000     7.5223     0.0139     0.1072    86.1403     2.4868     7.8035     7.7387   -27.4687
  317.5000     7.5239     0.0153     0.1042    88.9923     2.4899     7.8098     7.7450   -27.4544
  318.0000     7.4956     0.0111     0.1128    91.5436     2.4959     7.8175     7.7527   -27.4401
  318.5000     7.4976     0.0083     0.1163    90.6656     2.4870     7.7699     7.7589   -27.4256
  319.0000     7.4992     0.0116     0.1110    88.4443     2.4788     7.7760     7.8189   -27.4081
  319.5000     7.5158     0.0148     0.1084    85.3275     2.4841     7.8361     7.8251   -27.3938
  320.0000     7.5174     0.0255     0.1100    82.2107     2.4932     7.8423     7.8313   -27.3795
  320.5000     7.5190     0.0182     0.1117    81.7805     2.5060     7.9060     7.8377   -27.3653
  321.0000     7.5206     0.0049     0.1159    81.6443     2.4978     7.9655     7.8997   -27.3510
  321.5000     7.5072     0.0037     0.1161    81.2185     2.4867     8.0826     7.9608   -27.3363
  322.0000     7.4789     0.0024     0.1140    84.8181     2.4831     8.0890     7.9671   -27.3189
  322.5000     7.5105     0.0027     0.1143    85.8806     2.4831     8.0954     7.9735   -27.3046
  323.0000     7.5121     0.0029     0.1127    85.5994     2.4817     8.1579     7.9798   -27.2904
  323.5000     7.5141     0.0031     0.1103    86.0690     2.4848     8.1083     7.9864   -27.2761
  324.0000     7.5157     0.0048     0.1070    87.1313     2.4879     8.1725     7.9941   -27.2619
  324.5000     7.4874     0.0080     0.1148    86.6967     2.4895     8.1227     8.0004   -27.2470
  325.0000     7.4890    -0.0007     0.1203    86.5650     2.4836     8.0717     7.9517   -27.2298
  325.5000     7.4752     0.0010     0.1215    86.5869     2.4709     8.0239     7.9030   -27.2155
  326.0000     7.4922     0.0057     0.1149    87.2014     2.4620     7.9746     7.9095   -27.2012
  326.5000     7.4938     0.0059     0.1106    87.8116     2.4741     7.9268     7.8613   -27.1870
  327.0000     7.4954     0.0091     0.1079    86.6394     2.4809     7.8801     7.8691   -27.1726
  327.5000     7.4970     0.0127     0.1058    88.1495     2.4850     7.8321     7.8753   -27.1549
  328.0000     7.4987     0.0186     0.1072    89.9582     2.5140     7.8383     7.8258   -27.2930
  328.5000     7.5003     0.0008     0.1084    88.9836     2.4976     7.8446     7.8879   -27.2752
  329.0000     7.4873     0.0056     0.1104    84.3258     2.4880     7.8509     7.8942   -27.4133
  329.5000     7.4739     0.0103     0.1144    84.0404     2.4873     7.8586     7.8460   -27.5446
  330.0000     7.4756    -0.0015     0.1267    88.8384     2.4806     7.8648     7.8538   -27.5298
  330.5000     7.5071    -0.0043     0.1288    92.4337     2.4590     7.6568     7.6988   -27.6645
  331.0000     7.5087    -0.0010     0.1264    90.0675     2.4591     7.5059     7.5454   -27.7991
  331.5000     7.5103     0.0007     0.1258    86.2044     2.4592     7.3580     7.3470   -27.1860
  332.0000     7.5119    -0.0051     0.1278    84.5802     2.4585     7.3087     7.3022   -27.0230
  332.5000     7.4985    -0.0124     0.1349    86.3887     2.4546     7.2687     7.3601   -26.8599
  333.0000     7.5001    -0.0104     0.1355    86.8540     2.4505     7.3263     7.4685   -26.8452
  333.5000     7.4868    -0.0014     0.1256    87.1701     2.4520     7.4854     7.5784   -26.8278
  334.0000     7.4734     0.0063     0.1163    87.1881     2.4716     7.5955     7.6900   -26.8135
  334.5000     7.4601     0.0080     0.1136    86.3139     2.4844     7.7071     7.7494   -26.9516
  335.0000     7.4318     0.0083     0.1123    82.8986     2.4844     7.7740     7.8096   -26.9338
  335.5000     7.3890     0.0115     0.1099    78.5877     2.4853     7.8281     7.8171   -26.9195
  336.0000     7.3906     0.0177     0.1086    74.4262     2.4876     7.7790     7.8234   -26.9048
  336.5000     7.3922     0.0044     0.1200    73.9915     2.4959     7.7867     7.8296   -26.8875
  337.0000     7.3938     0.0031     0.1208    77.4463     2.4793     7.7929     7.8358   -26.8732
  337.5000     7.4103     0.0049     0.1175    80.1503     2.4751     7.8530     7.8420   -26.8589
  338.0000     7.4120     0.0052     0.1168    83.1529     2.4782     7.9700     7.9042   -26.8447
  338.5000     7.4136     0.0084     0.1165    85.5585     2.4783     8.0316     8.0206   -26.8304
  339.0000     7.4156     0.0101     0.1159    86.4716     2.4791     8.0936     8.0826   -26.8126
  339.5000     7.4321     0.0118     0.1152    86.0596     2.4800     8.0443     8.2016   -26.7983
  340.0000     7.4487     0.0150     0.1140    81.5856     2.4800     8.0507     8.0955   -26.7840
  340.5000     7.4503     0.0197     0.1127    81.1510     2.4824     8.0572     8.1582   -26.7698
  341.0000     7.4668     0.0244     0.1118    81.1729     2.4832     8.0081     8.1084   -26.7555
  341.5000     7.4684     0.0246     0.1124    81.3396     2.4855     8.0160     8.1164   -26.7411
  342.0000     7.4700     0.0129     0.1222    82.1034     2.4856     7.9657     8.0653   -26.7234
  342.5000     7.4716     0.0041     0.1290    86.3000     2.4636     7.9172     8.0162   -26.5604
  343.0000     7.4882     0.0013     0.1290    86.6161     2.4581     7.9250     7.9687   -26.5461
  343.5000     7.4921     0.0001     0.1304    84.5440     2.4537     7.9314     7.9203   -26.5318
  344.0000     7.5213     0.0078     0.1283    80.9795     2.4508     7.9392     7.8720   -26.5176
  344.5000     7.4635     0.0080     0.1190    81.6030     2.4681     7.9455     7.8799   -26.5030
  345.0000     7.4651     0.0023     0.1280    84.9105     2.4659     7.9518     7.8861   -26.4855
  345.5000     7.4667    -0.0005     0.1351    84.4692     2.4607     7.9581     7.9471   -26.4712
  346.0000     7.4683     0.0012     0.1356    81.5017     2.4526     7.9644     8.0086   -26.4570
  346.5000     7.4699     0.0059     0.1215    78.3848     2.4579     8.0817     8.0774   -26.4427
  347.0000     7.4715     0.0032     0.1200    77.9502     2.4632     8.2019     8.1909   -26.4284
  347.5000     7.4732     0.0034     0.1238    80.2109     2.4641     8.2652     8.3115   -26.4137
  348.0000     7.4748     0.0006     0.1265    85.9001     2.4634     8.4448     8.4339   -26.0987
  348.5000     7.4764     0.0008     0.1279    84.1266     2.4635     8.5689     8.5580   -26.0845
  349.0000     7.4780    -0.0020     0.1279    82.5023     2.4621     8.6949     8.7442   -25.9214
  349.5000     7.4800    -0.0017     0.1246    81.9228     2.4622     8.8939     8.9546   -25.9071
  350.0000     7.4812     0.0060     0.1158    81.4925     2.4695     9.0823     9.1295   -25.8929
  350.5000     7.4728     0.0199     0.1065    81.1632     2.4840     9.1523     9.1377   -25.8795
  351.0000     7.4694     0.0228     0.1038    81.2301     2.4893     9.2201     9.1474   -25.8661
  351.5000     7.4260     0.0171     0.1023    81.5463     2.4947     9.2914     9.2188   -25.8527
  352.0000     7.3975     0.0053     0.1169    81.5676     2.4970     9.4281     9.3552   -25.8393
  352.5000     7.4143    -0.0006     0.1198    81.5849     2.4971     9.5668     9.4937   -25.8233
