~VERSION INFORMATION
 VERS.                2.0:   CWLS LOG ASCII STANDARD - VERSION 2.0
 WRAP.                 NO:   ONE LINE PER DEPTH STEP
~WELL INFORMATION
#MNEM.UNIT      DATA TYPE    INFORMATION
#----------   ------------   ------------------------------
 STRT.F           27.0000:   START DEPTH
 STOP.F          760.0000:   STOP DEPTH
 STEP.F            0.5000:   STEP LENGTH
 NULL.          -999.2500:   NO VALUE
 COMP. FENIX & SCISSON INC:   COMPANY
 WELL.    NPR #3 #33-S-14:   WELL
 FLD .             TEAPOT:   FIELD
 LOC .      S14 T38N R78W:   LOCATION
 CNTY.            NATRONA:   COUNTY
 STAT.            WYOMING:   STATE
 CTRY. UNITED STATES OF AMERICA:   COUNTRY
 SRVC.              Welex:   SERVICE COMPANY
 DATE.        02-FEB-1977:   LOGDATE
 API .       490251027700:   API NUMBER
~CURVE INFORMATION
#MNEM.UNIT       API CODE    CURVE DESCRIPTION
#----------   ------------   ------------------------------
 DEPT.F                  :   
 SPR .MV     07 010 01 00:   SPONTANEOUS POTENTIAL
 SGRD.OHMM   07 220 05 00:   SHALLOW RESISTIVITY
 ILD .OHMM   07 120 46 00:   INDUCTION LOG DEEP
 ILM .OHMM   07 120 44 00:   INDUCTION LOG MEDIUM
 GRD .GAPI   45 310 01 00:   GAMMA RAY FROM DENSITY LOG
 CALD.IN     45 280 60 00:   CALIPER
 RHOB.G/C3   45 350 01 00:   BULK DENSITY
 CORR.G/C3   45 356 01 00:   DENSITY CORRECTION
 DPHI.DEC    45 890 00 00:   DENSITY POROSITY
~PARAMETER INFORMATION
#MNEM.UNIT          VALUE    DESCRIPTION
#----------   ------------   ------------------------------
 PD  .                 GL:   PERMANENT DATUM
 EPD .F              5219:   ELEVATION PERMANENT DATUM
 LMF .                 GL:   LOG MEASURED FROM
 DMF .                 GL:   DRILLING MEASURED FROM
 EKB .F              5224:   KELLING BUSHING
 EGL .F              5219:   GROUND LEVEL
 DATE.           2-2-1977:   RUN DATE
 RUN .                  1:   RUN NUMBER
 DD  .F               761:   DEPTH DRILLER
 DL  .F               762:   DEPTH LOGGER
 BLI .F               760:   BOTTOM LOG INTERVAL
 TLI .F                25:   TOP LOG INTERVAL
 CS  .IN            8.625:   CASING SIZE
 CBD .F              42.5:   CASING BOTTOM DRILLER
 CBL .F                46:   CASING BOTTOM LOGGER
 BS  .IN            7.875:   BIT SIZE
 BSD .F               761:   BIT SIZE AT DEPTH
 DFT .           CHEM-GEL:   DRILLING FLUID TYPE
 DFD .                8.9:   DRILLING FLUID DENSITY
 DFV .                 37:   DRILLING FLUID VISCOSITY
 DFPH.                  7:   DRILLING FLUID PH
 DFL .                8.4:   DRILLING FLUID LOSS
 MSS .          FLOW LINE:   MUD SAMPLE SOURCE
 RMS .OHMM           .231:   RESISTIVITY MUD SAMPLE
 MST .F                45:   MUD SAMPLE TEMPERATURE
 RMF .OHMM           .322:   RESISTIVITY MUD FILTRATE SAMPLE
 MFST.F                45:   MUD FILTRATE SAMPLE TEMPERATURE
 RMC .OHMM           .439:   RESISTIVITY MUD CAKE
 MCST.F                45:   MUD CAKE SAMPLE TEMPERATURE
 MFSS.           MEASURED:   MUD FILTRATE SAMPLE SOURCE
 MCSS.           MEASURED:   MUD CAKE SAMPLE SOURCE
 RMB .OHMM           .182:   RESISTIVITY MUD AT BHT
 BHT .F                57:   BOTTOM HOLE TEMPERATURE
 TCS .HRS             5.5:   TIME CURCULATED STOPPED
 MRT .F                57:   MAXIMUM RECORDED TEMPERATURE
 LUN .               8611:   LOGGING UNIT NUMBER
 LUL .           GILLETTE:   LOGGING UNIT LOCATION
 ENGI.             LAWSON:   RECORDING ENGINEER
 WITN. VOORHEES/RHOADES/JAPP/PETTINGILL/STUEBINGER:   WITNESSED BY
 CLNT.            A2DTECH:   CLIENT CODE
 ORIG.     1", 2.5" PRINT:   ORIGIN OF DATA
 UWI .       490251027700:   UNIQUE WELL ID
 DICO. A2D Technologies, Inc.:   DIGITIZING COMPANY
~OTHER INFORMATION
~A   DEPT      SPR       SGRD        ILD        ILM        GRD       CALD         RHOB      CORR      DPHI   
# ...
  428.5000   -27.5793    15.5559    10.7683    12.6766   107.0425     8.3899     2.4768     0.0535     0.0986
  429.0000   -27.5792    15.6170    10.7147    12.8162   106.7064     8.3938     2.4720     0.0472     0.1010
  429.5000   -27.5793    15.7182    10.6614    12.7312   105.4503     8.3976     2.4807     0.0511     0.0973
  430.0000   -27.5794    15.4951    10.6083    12.5606   104.1728     8.4014     2.4949     0.0562     0.0907
  430.5000   -27.5794    14.8823    10.5554    12.3924   102.9060     8.4011     2.5096     0.0614     0.0840
  431.0000   -27.5794    14.0641    10.5029    12.2268   101.6280     8.3962     2.5114     0.0665     0.0791
  431.5000   -27.5794    14.3500    10.4506    12.0609   101.8437     8.3914     2.5102     0.0716     0.0810
  432.0000   -27.5794    14.8406    10.3985    11.9036   103.2252     8.3865     2.5089     0.0768     0.0827
  432.5000   -27.5794    15.4296    10.3467    12.0478   104.6431     8.3816     2.5076     0.0801     0.0813
  433.0000   -27.5794    14.9986    10.2952    12.1905   104.8708     8.3767     2.5064     0.0787     0.0791
  433.5000   -27.5794    14.5027    10.2439    12.3531   104.5169     8.3719     2.5051     0.0775     0.0769
  434.0000   -27.5794    14.0641    10.1929    12.6618   104.9765     8.3670     2.5039     0.0763     0.0752
  434.5000   -27.5794    17.5994    10.1422    13.0593   106.1432     8.3673     2.5024     0.0750     0.0783
  435.0000   -27.5794    15.6455    10.0917    12.6796   106.8894     8.3741     2.5015     0.0738     0.0820
  435.5000   -27.5792    14.7818    10.0414    12.2730   106.9561     8.3809     2.5256     0.0725     0.0842
  436.0000   -27.5791    14.2931     9.9914    11.8795   106.9938     8.3876     2.4959     0.0713     0.0848
  436.5000   -27.5792    13.8059     9.9416    11.4986   108.4839     8.3944     2.5025     0.0701     0.0847
  437.0000   -27.5784    13.8961     9.8921    11.1300   110.1025     8.4011     2.5030     0.0688     0.0831
  437.5000   -27.5793    14.0370     9.8428    10.9964   111.6896     8.4079     2.5042     0.0676     0.0815
  438.0000   -27.5791    13.9241     9.7939    10.9248   111.6497     8.4147     2.4997     0.0663     0.0800
  438.5000   -27.5748    13.2838     9.7451    10.8537   109.2182     8.4214     2.4890     0.0651     0.0871
  439.0000   -27.6326    12.9119     9.6932    10.7830   106.8055     8.4282     2.4866     0.0639     0.0931
  439.5000   -27.8032    13.2974     9.6313    10.7128   104.3921     8.4349     2.4877     0.0626     0.0955
  440.0000   -27.9687    13.6944     9.5697    10.6430   102.6206     8.4417     2.4856     0.0614     0.0981
  440.5000   -28.1363    14.0595     9.5085    10.5737   104.3353     8.4484     2.4782     0.0604     0.1006
  441.0000   -28.3048    13.7834     9.4478    10.5049   105.9912     8.4551     2.4707     0.0590     0.1028
  441.5000   -28.4715    13.5368     9.3874    10.4365   106.7917     8.4621     2.4630     0.0544     0.1048
  442.0000   -28.6383    13.2961     9.3274    10.3685   105.3640     8.4776     2.4676     0.0532     0.1069
  442.5000   -28.8102    13.0604     9.2678    10.3010   104.7666     8.4927     2.4742     0.0511     0.1050
  443.0000   -28.9693    12.8229     9.2086    10.2339   105.9806     8.5077     2.4808     0.0544     0.1020
  443.5000   -29.1530    12.3603     9.1497    10.1673   107.3019     8.5199     2.4813     0.0576     0.0990
  444.0000   -29.1303    11.9058     9.0912    10.1011   107.9434     8.5215     2.4797     0.0609     0.0957
  444.5000   -29.0931    12.3348     9.0331    10.0353   106.2685     8.5232     2.4780     0.0641     0.0939
  445.0000   -29.0466    12.7780     8.9754     9.9699   104.6323     8.5250     2.4766     0.0673     0.0988
  445.5000   -29.0062    13.3035     8.9180     9.9050   103.6972     8.5267     2.4782     0.0705     0.1001
  446.0000   -28.9645    12.9251     8.8610     9.8405   104.5880     8.5285     2.4809     0.0711     0.0993
  446.5000   -28.9206    12.4978     8.8044     9.7764   104.1312     8.5302     2.4813     0.0678     0.0985
  447.0000   -28.8805    12.1262     8.7481     9.7128   102.3374     8.5319     2.4733     0.0646     0.1034
  447.5000   -28.8385    12.2669     8.6922     9.6495   101.0368     8.5337     2.4650     0.0614     0.1075
  448.0000   -28.7872    12.3959     8.6367     9.5867   101.7238     8.5354     2.4542     0.0581     0.1111
  448.5000   -28.8407    12.5841     8.5815     9.5243   103.0832     8.5372     2.4433     0.0549     0.1148
  449.0000   -29.0640    12.1262     8.5266     9.4622   104.4491     8.5389     2.4459     0.0515     0.1161
  449.5000   -29.2763    12.2220     8.4723     9.4006   105.7988     8.5407     2.4532     0.0491     0.1091
  450.0000   -29.4914    12.4792     8.4182     9.3394   107.1620     8.5424     2.4604     0.0594     0.1022
  450.5000   -29.7079    12.7417     8.3644     9.2786   109.6617     8.5442     2.4677     0.0702     0.0985
  451.0000   -29.9226    13.0593     8.3109     9.2182   112.0727     8.5459     2.4728     0.0691     0.1021
  451.5000   -30.1381    13.0593     8.2577     9.1334   114.4889     8.5477     2.4654     0.0647     0.1056
  452.0000   -30.3544    12.7090     8.1832     9.0157   115.8590     8.5494     2.4581     0.0601     0.1091
  452.5000   -30.5683    12.1697     8.0376     8.8995   116.7024     8.5512     2.4508     0.0571     0.1126
  453.0000   -30.7843    11.6532     7.8947     8.7848   117.1153     8.5529     2.4550     0.0548     0.1145
  453.5000   -31.0041    11.1587     7.7538     8.6715   117.2149     8.5547     2.4625     0.0525     0.1092
  454.0000   -31.1451    10.6851     7.6158     8.5598   114.7733     8.5565     2.4701     0.0511     0.1044
  454.5000   -31.1177    10.2634     7.4898     8.4495   112.3129     8.5571     2.4778     0.0549     0.0995
  455.0000   -31.0964    10.4995     7.5308     8.3830   111.8333     8.5517     2.4853     0.0586     0.0947
  455.5000   -31.0709    10.7248     7.5693     8.4274   113.1734     8.5464     2.4899     0.0623     0.0952
  456.0000   -31.0459    10.9583     7.6079     8.4721   113.8987     8.5411     2.4907     0.0661     0.0969
  456.5000   -31.0218    11.2249     7.6468     8.5170   112.4089     8.5357     2.4915     0.0698     0.0935
  457.0000   -30.9969    11.1580     7.6858     8.5621   110.9845     8.5304     2.4939     0.0735     0.0895
  457.5000   -30.9723    11.0101     7.7251     8.6075   112.7795     8.5251     2.4984     0.0772     0.0855
  458.0000   -30.9477    10.8534     7.7646     8.6531   115.0978     8.5197     2.5028     0.0810     0.0815
  458.5000   -30.9232    11.0903     7.8042     8.6990   116.7409     8.5144     2.5013     0.0789     0.0792
  459.0000   -30.8987    11.3505     7.8441     8.7451   116.7936     8.5091     2.4938     0.0736     0.0918
  459.5000   -30.8742    11.6190     7.8841     8.7915   116.8643     8.5038     2.4863     0.0682     0.0963
  460.0000   -30.8496    11.4769     7.9244     8.8381   116.8261     8.4968     2.4788     0.0627     0.0966
  460.5000   -30.8254    11.0590     7.9649     8.8849   115.7287     8.4839     2.4711     0.0626     0.0969
  461.0000   -30.8002    11.1532     8.0056     8.9320   114.5562     8.4715     2.4723     0.0627     0.0972
  461.5000   -30.7764    11.4462     8.0464     8.9794   113.3292     8.4591     2.4755     0.0629     0.0975
  462.0000   -30.7559    11.7476     8.0876     9.0270   111.7645     8.4467     2.4791     0.0631     0.0978
  462.5000   -30.7739    12.1199     8.1289     9.0748   109.9840     8.4342     2.4793     0.0632     0.0991
  463.0000   -30.7907    12.1538     8.1704     9.1229   108.1802     8.4218     2.4775     0.0633     0.1006
  463.5000   -30.8094    12.1961     8.2121     9.1713   109.2053     8.4094     2.4755     0.0635     0.1018
  464.0000   -30.8271    12.2385     8.2541     9.2199   110.5788     8.3968     2.4774     0.0636     0.0995
  464.5000   -30.8450    12.2807     8.2962     9.2688   111.9531     8.3848     2.4820     0.0638     0.0966
