~VERSION INFORMATION
 VERS.                2.0:   CWLS LOG ASCII STANDARD - VERSION 2.0
 WRAP.                 NO:   ONE LINE PER DEPTH STEP
~WELL INFORMATION
#MNEM.UNIT      DATA TYPE    INFORMATION
#----------   ------------   ------------------------------
 STRT.F          748.0000:   START DEPTH
 STOP.F         2238.0000:   STOP DEPTH
 STEP.F            0.5000:   STEP LENGTH
 NULL.          -999.2500:   NO VALUE
 COMP. LAWRENCE/ALLISON INC:   COMPANY
 WELL. NPR 3 #36-2-SHX-10:   WELL
 FLD .             TEAPOT:   FIELD
 LOC .      S10 T38N R78W:   LOCATION
 CNTY.            NATRONA:   COUNTY
 STAT.            WYOMING:   STATE
 CTRY. UNITED STATES OF AMERICA:   COUNTRY
 SRVC.            Unknown:   SERVICE COMPANY
 DATE.        02-JUN-1984:   LOGDATE
 API .       490256012900:   API NUMBER
~CURVE INFORMATION
#MNEM.UNIT       API CODE    CURVE DESCRIPTION
#----------   ------------   ------------------------------
 DEPT.F                  :   
 ROP .MIN/FT 91 810 01 00:   RATE OF DRILLING PENETRATION
 TGAS.UNITS  91 830 01 00:   TOTAL GAS FROM HOTWIRE
~PARAMETER INFORMATION
#MNEM.UNIT          VALUE    DESCRIPTION
#----------   ------------   ------------------------------
 EKB .F              5223:   KELLING BUSHING
 EGL .F              5213:   GROUND LEVEL
 DATE.             6-2-84:   RUN DATE
 DD  .F              2238:   DEPTH DRILLER
 BLI .F              2238:   BOTTOM LOG INTERVAL
 TLI .F               740:   TOP LOG INTERVAL
 CS  .IN            8.625:   CASING SIZE
 CBD .F               717:   CASING BOTTOM DRILLER
 LUN .               T-83:   LOGGING UNIT NUMBER
 ENGI.            JOHNSON:   RECORDING ENGINEER
 WITN.           SCHERGER:   WITNESSED BY
 CLNT.            A2DTECH:   CLIENT CODE
 ORIG.           5" PRINT:   ORIGIN OF DATA
 UWI .       490256012900:   UNIQUE WELL ID
 DICO. A2D Technologies, Inc.:   DIGITIZING COMPANY
~OTHER INFORMATION
~A   DEPT        ROP     TGAS   
# ...
 1720.0000     1.2724    63.3533
 1720.5000     1.1917    61.2791
 1721.0000     1.1312    59.6206
 1721.5000     1.0912    57.9621
 1722.0000     1.0307    56.3036
 1722.5000     1.0110    55.0604
 1723.0000     1.0116    55.0647
 1723.5000     1.0324    57.9790
 1724.0000     1.1346    59.6458
 1724.5000     1.2775    61.3129
 1725.0000     1.4406    61.3172
 1725.5000     1.5225    61.7369
 1726.0000     1.5432    64.2355
 1726.5000     1.4017    67.1494
 1727.0000     1.2803    69.2322
 1727.5000     1.1182    69.6512
 1728.0000     1.0374    69.2392
 1728.5000     1.0380    69.2445
 1729.0000     1.0385    68.0017
 1729.5000     1.0391    66.3425
 1730.0000     1.2023    64.6830
 1730.5000     1.5484    62.6098
 1731.0000     1.8539    60.1189
 1731.5000     2.0170    58.0447
 1732.0000     1.9362    54.7240
 1732.5000     1.7945    53.0645
 1733.0000     1.6935    50.1592
 1733.5000     1.5924    48.0844
 1734.0000     1.4507    45.1791
 1734.5000     1.3090    43.5202
 1735.0000     1.2078    46.4348
 1735.5000     1.0459    47.6856
 1736.0000     1.2147    46.4418
 1736.5000     1.4400    46.4474
 1737.0000     1.6652    48.1142
 1737.5000     1.8904    51.8599
 1738.0000     2.0241    53.1110
 1738.5000     1.8390    53.5300
 1739.0000     1.6750    52.7022
 1739.5000     1.5110    53.0296
 1740.0000     1.4369    53.6219
 1740.5000     1.4580    54.2141
 1741.0000     1.4789    54.8063
 1741.5000     1.5404    55.3985
 1742.0000     1.5410    55.9908
 1742.5000     1.5210    56.5830
 1743.0000     1.4606    57.1752
 1743.5000     1.3597    57.7675
 1744.0000     1.2180    58.3597
 1744.5000     1.0966   180.7857
 1745.0000     0.9752   180.7898
 1745.5000     0.8132   180.7940
 1746.0000     0.7322   180.7982
 1746.5000     0.8142   141.3537
 1747.0000     0.9368    88.1535
 1747.5000     1.0593    61.9184
 1748.0000     1.0802    61.9240
 1748.5000     0.9994    61.9280
 1749.0000     0.8982    61.9323
 1749.5000     0.8175    63.1834
 1750.0000     0.7784    63.6034
 1750.5000     0.7839    66.5177
 1751.0000     0.7895    78.2711
 1751.5000     0.7950   142.1985
 1752.0000     0.8005  -999.2500
 1752.5000     0.8060  -999.2500
 1753.0000     0.8115  -999.2500
 1753.5000     0.8170  -999.2500
 1754.0000     0.8226  -999.2500
 1754.5000     0.8725  -999.2500
 1755.0000     0.9225  -999.2500
 1755.5000     0.9725  -999.2500
 1756.0000     1.0105  -999.2500
 1756.5000     1.0204  -999.2500
 1757.0000     1.0304  -999.2500
 1757.5000     1.0403  -999.2500
 1758.0000     1.0506  -999.2500
 1758.5000     0.9753  -999.2500
 1759.0000     0.8966  -999.2500
 1759.5000     0.8179  -999.2500
 1760.0000     0.7277  -999.2500
 1760.5000     0.7298   218.6854
 1761.0000     0.7322   217.6595
 1761.5000     0.7346   215.6009
 1762.0000     0.7370   215.6292
 1762.5000     0.7395   215.6508
 1763.0000     0.7419   215.6707
 1763.5000     0.7443   215.6924
 1764.0000     0.7467   216.7516
 1764.5000     0.7491   217.8091
 1765.0000     0.7515   216.7865
 1765.5000     0.7542   216.8148
 1766.0000     0.8612   217.8740
 1766.5000     0.9778   218.9349
 1767.0000     1.0944   218.9548
 1767.5000     1.2109   218.9764
 1768.0000     1.3260   220.0356
 1768.5000     1.1958   223.1750
 1769.0000     1.0673   223.1950
 1769.5000     0.9388   224.2559
 1770.0000     0.8680   224.2758
 1770.5000     0.9865   227.4136
 1771.0000     1.1050   227.4352
 1771.5000     1.2235   227.4568
 1772.0000     1.1763   227.4768
 1772.5000     1.0252   227.4984
 1773.0000     0.8742   227.5183
 1773.5000     0.7020   227.5400
 1774.0000     0.6822   227.5599
 1774.5000     0.7643   227.5815
 1775.0000     0.8258   227.6015
 1775.5000     0.9077   224.5053
 1776.0000     1.0911   224.5253
 1776.5000     1.3356   223.4993
 1777.0000     1.5801   220.4031
 1777.5000     1.7635   219.3838
 1778.0000     2.0283   218.3662
 1778.5000     2.0338   216.3076
 1779.0000     2.0404   217.3751
 1779.5000     2.0469   218.4360
 1780.0000     1.9610   217.4101
 1780.5000     1.7620   216.3941
 1781.0000     1.5630   216.4174
 1781.5000     1.4695   216.4406
 1782.0000     1.5379   216.4606
 1782.5000     1.6062   216.4822
 1783.0000     1.6681   215.4563
 1783.5000     1.7500   215.4845
 1784.0000     1.7505   215.5045
 1784.5000     1.6900   212.4066
 1785.0000     1.5890   186.4467
 1785.5000     1.5285   183.3423
 1786.0000     1.4274   185.4491
 1786.5000     1.3265   182.3496
 1787.0000     1.2050   178.2141
 1787.5000     1.1242   174.0737
 1788.0000     1.4135   172.0152
 1788.5000     1.6789   173.0827
 1789.0000     1.9442   173.1010
 1789.5000     2.0613   173.1243
 1790.0000     1.8588   173.1442
 1790.5000     1.6764   173.1658
 1791.0000     1.5347   173.1841
 1791.5000     1.4538   173.2057
 1792.0000     1.4507   172.1814
 1792.5000     1.4469   171.1621
 1793.0000     1.4432   171.1904
 1793.5000     1.4395   171.2103
 1794.0000     1.4363   171.2303
 1794.5000     1.3354   170.2060
 1795.0000     1.1937   170.2343
 1795.5000     1.1129   170.2542
 1796.0000     1.0586   170.2758
 1796.5000     1.1528   170.2975
 1797.0000     1.2470   170.3174
 1797.5000     1.3411   170.3390
 1798.0000     1.4409   170.3590
 1798.5000     1.3850   170.3806
 1799.0000     1.3256   170.4005
 1799.5000     1.2662   170.4222
 1800.0000     1.2068   169.3962
 1800.5000     1.1474   169.4245
 1801.0000     1.0879   167.3626
 1801.5000     1.0285   167.3875
 1802.0000     0.9691   167.4075
 1802.5000     0.9097   167.4291
 1803.0000     0.8163   167.4491
 1803.5000     0.7965   168.5099
 1804.0000     0.7767   169.5691
 1804.5000     0.7775   169.5908
 1805.0000     0.7983   170.6500
 1805.5000     0.7784   170.6716
 1806.0000     0.7385   170.6915
 1806.5000     0.7188   170.7132
 1807.0000     0.7193   170.7331
 1807.5000     0.6994   170.7547
 1808.0000     0.7204   370.4492
 1808.5000     0.8023   450.3533
 1809.0000     0.8841   450.3741
 1809.5000     0.9660   450.3991
 1810.0000     1.2105   391.3291
 1810.5000     1.8817   317.4962
 1811.0000     2.7563   243.6633
 1811.5000     3.5699   169.8303
 1812.0000     4.0377   131.4123
 1812.5000     3.6577   131.3496
 1813.0000     3.3170   131.2868
 1813.5000     2.9763   131.2241
 1814.0000     2.6357   131.1613
 1814.5000     2.5777   131.0985
 1815.0000     2.6389   131.0358
 1815.5000     2.7000   130.9730
 1816.0000     2.7602   130.9103
 1816.5000     2.3674   130.8475
 1817.0000     1.9810   130.7847
 1817.5000     1.5945   130.7220
 1818.0000     1.2080   130.6592
 1818.5000     0.9741   130.5965
 1819.0000     0.9746   130.5337
 1819.5000     0.9751   130.4710
 1820.0000     0.9756   130.4082
 1820.5000     0.9761   130.3454
 1821.0000     0.9766   130.2827
 1821.5000     0.9771   130.2199
 1822.0000     0.9777   130.1572
 1822.5000     0.9108   130.0944
 1823.0000     0.8304   130.0317
 1823.5000     0.7500   129.9689
 1824.0000     0.6748   129.9061
 1824.5000     0.7605   175.6143
 1825.0000     0.8411   263.5693
 1825.5000     0.9217   312.8342
 1826.0000     1.0023   272.3313
 1826.5000     1.0454   258.8392
 1827.0000     1.0505   251.5876
 1827.5000     1.0555   224.5884
 1828.0000     1.0605   218.3695
 1828.5000     1.0656   217.3469
 1829.0000     1.1208   216.3309
 1829.5000     1.1805   217.3968
 1830.0000     1.2402   214.2973
 1830.5000     1.2998   212.2387
 1831.0000     1.3595   210.1768
 1831.5000     1.4192   210.2051
 1832.0000     1.4789   210.2250
 1832.5000     1.4509   209.2057
 1833.0000     1.3873   207.1488
 1833.5000     1.3237   201.9725
 1834.0000     1.2601   196.7978
 1834.5000     1.1965   192.6590
 1835.0000     1.1330   188.5219
 1835.5000     1.0694   184.3832
 1836.0000     1.0315   180.2461
 1836.5000     1.0294   176.1107
 1837.0000     1.0273   171.9752
 1837.5000     1.0253   167.8398
 1838.0000     1.0232   163.7027
 1838.5000     1.0212   156.4512
 1839.0000     1.0191   151.2765
 1839.5000     1.0171   147.1377
 1840.0000     1.0150   143.0006
 1840.5000     1.0130   222.0111
 1841.0000     1.0109   238.6592
