~VERSION INFORMATION
 VERS.                2.0:   CWLS LOG ASCII STANDARD - VERSION 2.0
 WRAP.                 NO:   ONE LINE PER DEPTH STEP
~WELL INFORMATION
#MNEM.UNIT      DATA TYPE    INFORMATION
#----------   ------------   ------------------------------
 STRT.F          550.0000:   START DEPTH
 STOP.F         2078.5000:   STOP DEPTH
 STEP.F            0.5000:   STEP LENGTH
 NULL.          -999.2500:   NO VALUE
 COMP. BROWN JOHN E&C INC:   COMPANY
 WELL. 58-61 STX-10 #58-10:   WELL
 FLD .             TEAPOT:   FIELD
 LOC .      S10 T38N R78W:   LOCATION
 CNTY.            NATRONA:   COUNTY
 STAT.            WYOMING:   STATE
 CTRY. UNITED STATES OF AMERICA:   COUNTRY
 SRVC.            Unknown:   SERVICE COMPANY
 DATE.        07-SEP-1991:   LOGDATE
 API .       490251108000:   API NUMBER
~CURVE INFORMATION
#MNEM.UNIT       API CODE    CURVE DESCRIPTION
#----------   ------------   ------------------------------
 DEPT.F                  :   
 ROP .MIN/FT 91 810 01 00:   RAT OF DRILLING PENETRATION
 TGAS.UNITS  91 830 01 00:   TOTAL GAS FROM HOTWIRE
~PARAMETER INFORMATION
#MNEM.UNIT          VALUE    DESCRIPTION
#----------   ------------   ------------------------------
 EKB .F              5216:   KELLING BUSHING
 EGL .F              5206:   GROUND LEVEL
 DATE.             9-7-91:   RUN DATE
 DD  .F              2079:   DEPTH DRILLER
 TCS .HRS            1815:   TIME CURCULATED STOPPED
 TLAB.HRS            1930:   TIME LOGGER AT BOTTOM
 ENGI.         HUSK/TOWER:   RECORDING ENGINEER
 WITN.             HENDRY:   WITNESSED BY
 CLNT.            A2DTECH:   CLIENT CODE
 ORIG.           5" PRINT:   ORIGIN OF DATA
 UWI .       490251108000:   UNIQUE WELL ID
 DICO. A2D Technologies, Inc.:   DIGITIZING COMPANY
~OTHER INFORMATION
~A   DEPT        ROP       TGAS 
# ...
 1279.0000     0.2853    12.8172
 1279.5000     0.2747    12.7944
 1280.0000     0.2644    12.7717
 1280.5000     0.2586    12.7490
 1281.0000     0.2720    12.7263
 1281.5000     0.2851    12.7036
 1282.0000     0.2980    12.6809
 1282.5000     0.3108    12.6581
 1283.0000     0.3234    12.6354
 1283.5000     0.3337    12.6127
 1284.0000     0.3306    12.5900
 1284.5000     0.3115    12.5673
 1285.0000     0.2916    12.5446
 1285.5000     0.2716    12.5219
 1286.0000     0.2696    12.4991
 1286.5000     0.2962    12.4764
 1287.0000     0.3230    12.4537
 1287.5000     0.3496    12.4310
 1288.0000     0.3762    12.4083
 1288.5000     0.4029    12.3856
 1289.0000     0.4291    12.3629
 1289.5000     0.4575    12.3401
 1290.0000     0.4561    12.3174
 1290.5000     0.4517    12.2946
 1291.0000     0.4474    12.2719
 1291.5000     0.4430    12.2503
 1292.0000     0.4387    12.2468
 1292.5000     0.4344    12.3326
 1293.0000     0.4302    12.4303
 1293.5000     0.4263    12.5291
 1294.0000     0.4224    12.6277
 1294.5000     0.4184    12.7261
 1295.0000     0.4145    12.8245
 1295.5000     0.4106    12.9230
 1296.0000     0.4067    13.0213
 1296.5000     0.4028    13.1204
 1297.0000     0.3991    13.2221
 1297.5000     0.3949    13.2404
 1298.0000     0.4076    13.2487
 1298.5000     0.4063    12.6984
 1299.0000     0.4060    12.7541
 1299.5000     0.4062    12.7690
 1300.0000     0.4127    12.7737
 1300.5000     0.4278    12.7814
 1301.0000     0.4634    12.7890
 1301.5000     0.4977    12.7967
 1302.0000     0.5318    12.8044
 1302.5000     0.5569    12.8120
 1303.0000     0.5562    12.8197
 1303.5000     0.5514    12.8274
 1304.0000     0.5460    12.8350
 1304.5000     0.5406    12.8427
 1305.0000     0.5352    12.8504
 1305.5000     0.5297    12.8581
 1306.0000     0.5243    12.8657
 1306.5000     0.5189    12.8734
 1307.0000     0.5135    12.8811
 1307.5000     0.5080    12.8887
 1308.0000     0.5026    12.8964
 1308.5000     0.4972    12.9041
 1309.0000     0.4918    12.9117
 1309.5000     0.4863    12.9194
 1310.0000     0.4809    12.9271
 1310.5000     0.4755    12.9348
 1311.0000     0.4701    12.9424
 1311.5000     0.4647    12.9501
 1312.0000     0.4592    12.9578
 1312.5000     0.4453    12.9654
 1313.0000     0.4211    12.9731
 1313.5000     0.3967    12.9808
 1314.0000     0.3713    12.9885
 1314.5000     0.3999    12.9961
 1315.0000     0.4362    13.0038
 1315.5000     0.4726    13.0115
 1316.0000     0.4868    13.0191
 1316.5000     0.4551    13.0268
 1317.0000     0.4238    13.0345
 1317.5000     0.3933    13.0421
 1318.0000     0.4336    13.0498
 1318.5000     0.4989    13.0575
 1319.0000     0.5641    13.0652
 1319.5000     0.6288    13.0728
 1320.0000     0.6945    13.0805
 1320.5000     0.6994    13.0882
 1321.0000     0.6742    13.0958
 1321.5000     0.6482    13.1035
 1322.0000     0.6221    13.1112
 1322.5000     0.6092    13.1188
 1323.0000     0.6161    13.1265
 1323.5000     0.6229    13.1342
 1324.0000     0.6299    13.1419
 1324.5000     0.6368    13.1495
 1325.0000     0.6438    13.1572
 1325.5000     0.6506    13.1649
 1326.0000     0.6565    13.1725
 1326.5000     0.6572    13.1802
 1327.0000     0.6286    13.1879
 1327.5000     0.5942    13.1955
 1328.0000     0.5595    13.2032
 1328.5000     0.5249    13.2109
 1329.0000     0.4895    13.2185
 1329.5000     0.4582    13.2262
 1330.0000     0.4424    13.2344
 1330.5000     0.4589    13.2416
 1331.0000     0.4753    13.2500
 1331.5000     0.5052    13.2732
 1332.0000     0.5078    12.2823
 1332.5000     0.4699    10.9164
 1333.0000     0.4237     9.5398
 1333.5000     0.3767     8.1191
 1334.0000     0.3870     7.7583
 1334.5000     0.4394     7.7724
 1335.0000     0.4905     7.8006
 1335.5000     0.4947     7.8271
 1336.0000     0.4594     7.8520
 1336.5000     0.4252     7.8768
 1337.0000     0.3914     7.9017
 1337.5000     0.3856     7.9266
 1338.0000     0.4374     7.9514
 1338.5000     0.4882     7.9763
 1339.0000     0.5391     8.0012
 1339.5000     0.5904     8.0261
 1340.0000     0.6419     8.0509
 1340.5000     0.6442     8.0758
 1341.0000     0.6439     8.1007
 1341.5000     0.6441     8.1255
 1342.0000     0.6443     8.1504
 1342.5000     0.6104     8.1753
 1343.0000     0.5631     8.2001
 1343.5000     0.5172     8.2250
 1344.0000     0.4712     8.2499
 1344.5000     0.4247     8.2748
 1345.0000     0.3829     8.2996
 1345.5000     0.3803     8.3245
 1346.0000     0.4046     8.3494
 1346.5000     0.4370     8.3743
 1347.0000     0.4696     8.3991
 1347.5000     0.5022     8.4240
 1348.0000     0.5347     8.4489
 1348.5000     0.5673     8.4737
 1349.0000     0.5998     8.4986
 1349.5000     0.6324     8.5235
 1350.0000     0.6645     8.5483
 1350.5000     0.6973     8.5732
 1351.0000     0.7057     8.5981
 1351.5000     0.7060     8.6229
 1352.0000     0.6823     8.6478
 1352.5000     0.6334     8.6727
 1353.0000     0.5794     8.6976
 1353.5000     0.5249     8.7224
 1354.0000     0.4703     8.7473
 1354.5000     0.4195     8.7722
 1355.0000     0.4190     8.7970
 1355.5000     0.4284     8.8219
 1356.0000     0.4600     8.8468
 1356.5000     0.5043     8.8716
 1357.0000     0.5489     8.8965
 1357.5000     0.5937     8.9214
 1358.0000     0.6388     8.9463
 1358.5000     0.6558     8.9711
 1359.0000     0.6447     8.9960
 1359.5000     0.6330     9.0209
 1360.0000     0.6211     9.0457
 1360.5000     0.6188     9.0706
 1361.0000     0.6229     9.0955
 1361.5000     0.6345     9.1203
 1362.0000     0.6460     9.1452
 1362.5000     0.6576     9.1701
 1363.0000     0.6693     9.1950
 1363.5000     0.6805     9.2199
 1364.0000     0.6670     9.2451
 1364.5000     0.6168     9.2500
 1365.0000     0.5684     9.2501
 1365.5000     0.5189     9.2500
 1366.0000     0.5020     9.2500
 1366.5000     0.4955     9.2500
 1367.0000     0.4893     9.2500
 1367.5000     0.4832     9.2500
 1368.0000     0.4770     9.2500
 1368.5000     0.4705     9.2500
 1369.0000     0.4685     9.2500
 1369.5000     0.4701     9.2500
 1370.0000     0.5081     9.2500
 1370.5000     0.5457     9.2500
 1371.0000     0.5831     9.2500
 1371.5000     0.6203     9.2500
 1372.0000     0.6577     9.2500
 1372.5000     0.6951     9.2500
 1373.0000     0.7306     9.2500
 1373.5000     0.7314     9.2500
 1374.0000     0.7241     9.2500
 1374.5000     0.6873     9.2500
 1375.0000     0.6509     9.2500
 1375.5000     0.6146     9.2500
 1376.0000     0.5787     9.2500
 1376.5000     0.5681     9.2500
 1377.0000     0.6391     9.2500
 1377.5000     0.7093     9.2500
 1378.0000     0.7795     9.2500
 1378.5000     0.8497     9.2500
 1379.0000     0.9205     9.2500
 1379.5000     0.9913     9.2500
 1380.0000     0.9939     9.2500
 1380.5000     0.9634     9.2500
 1381.0000     0.9137     9.2500
 1381.5000     0.8656     9.2500
 1382.0000     0.8173     9.2500
 1382.5000     0.7691     9.2500
 1383.0000     0.7189     9.2500
 1383.5000     0.7048     9.2500
 1384.0000     0.7213     9.2500
 1384.5000     0.7643     9.2500
 1385.0000     0.8438     9.2500
 1385.5000     0.9210     9.2500
 1386.0000     0.9996     9.2500
 1386.5000     1.1091     9.2500
 1387.0000     1.3267     9.2500
 1387.5000     1.5406     9.2500
 1388.0000     1.8055     9.2500
 1388.5000     1.7102     9.2500
 1389.0000     1.5257     9.2500
 1389.5000     1.3390     9.2500
 1390.0000     1.1514     9.2500
 1390.5000     0.9751     9.2500
 1391.0000     0.9047     9.2500
 1391.5000     0.8293     9.2500
 1392.0000     0.7525     9.2500
 1392.5000     0.6751     9.2500
 1393.0000     0.6480     9.2500
 1393.5000     0.6582     9.2500
 1394.0000     0.6680     9.2500
 1394.5000     0.6809     9.2500
 1395.0000     0.6962     9.2500
 1395.5000     0.7117     9.2500
 1396.0000     0.7114     9.2500
 1396.5000     0.6984     9.2500
 1397.0000     0.6854     9.2500
 1397.5000     0.6720     9.2500
 1398.0000     0.6688     9.2500
 1398.5000     0.6686     9.2500
 1399.0000     0.6684     9.2500
 1399.5000     0.6702     9.2500
 1400.0000     0.7180     9.2500
