~VERSION INFORMATION
 VERS.                2.0:   CWLS LOG ASCII STANDARD - VERSION 2.0
 WRAP.                 NO:   ONE LINE PER DEPTH STEP
~WELL INFORMATION
#MNEM.UNIT      DATA TYPE    INFORMATION
#----------   ------------   ------------------------------
 STRT.F           28.5000:   START DEPTH
 STOP.F          625.0000:   STOP DEPTH
 STEP.F            0.5000:   STEP LENGTH
 NULL.          -999.2500:   NO VALUE
 COMP. FENIX & SCISSON INC:   COMPANY
 WELL.    NPR ##3 13-SX-3:   WELL
 FLD .             TEAPOT:   FIELD
 LOC .       S3 T38N R78W:   LOCATION
 CNTY.            NATRONA:   COUNTY
 STAT.            WYOMING:   STATE
 CTRY. UNITED STATES OF AMERICA:   COUNTRY
 SRVC.       Schlumberger:   SERVICE COMPANY
 DATE.        25-FEB-1977:   LOGDATE
 API .       490251028400:   API NUMBER
~CURVE INFORMATION
#MNEM.UNIT       API CODE    CURVE DESCRIPTION
#----------   ------------   ------------------------------
 DEPT.F                  :   
 SPR .MV     07 010 01 00:   SPONTANEOUS POTENTIAL
 ILD .OHMM   07 120 46 00:   INDUCTION LOG DEEP
 LL8 .OHMM   07 220 08 00:   LATEROLOG-8 RES.
 ILM .OHMM   07 120 44 00:   INDUCTION LOG MEDIUM
 GRD .GAPI   45 310 01 00:   GAMMA RAY FROM DENSITY LOG
 CALD.IN     45 280 60 00:   CALIPER
 RHOB.G/C3   45 350 01 00:   BULK DENSITY
 CORR.G/C3   45 356 01 00:   DENSITY CORRECTION
 DPOR.DEC    45 890 12 00:   DENSITY POROSITY SANDSTONE
~PARAMETER INFORMATION
#MNEM.UNIT          VALUE    DESCRIPTION
#----------   ------------   ------------------------------
 PD  .                 GL:   PERMANENT DATUM
 EPD .F              5227:   ELEVATION PERMANENT DATUM
 LMF .                 GL:   LOG MEASURED FROM
 DMF .                 GL:   DRILLING MEASURED FROM
 EKB .F              5232:   KELLING BUSHING
 EGL .F              5227:   GROUND LEVEL
 DATE.          2-25-1977:   RUN DATE
 RUN .                  1:   RUN NUMBER
 DD  .F               629:   DEPTH DRILLER
 DL  .F               626:   DEPTH LOGGER
 BLI .F               620:   BOTTOM LOG INTERVAL
 TLI .F                40:   TOP LOG INTERVAL
 CS  .IN            8.625:   CASING SIZE
 CBD .F                40:   CASING BOTTOM DRILLER
 CBL .F                40:   CASING BOTTOM LOGGER
 BS  .IN            7.875:   BIT SIZE
 BSD .F               629:   BIT SIZE AT DEPTH
 DFT .                KCL:   DRILLING FLUID TYPE
 DFD .                8.8:   DRILLING FLUID DENSITY
 DFV .                 45:   DRILLING FLUID VISCOSITY
 DFPH.                  8:   DRILLING FLUID PH
 DFL .                8.2:   DRILLING FLUID LOSS
 MSS .                PIT:   MUD SAMPLE SOURCE
 RMS .OHMM           .508:   RESISTIVITY MUD SAMPLE
 MST .F                60:   MUD SAMPLE TEMPERATURE
 RMF .OHMM           .419:   RESISTIVITY MUD FILTRATE SAMPLE
 MFST.F                58:   MUD FILTRATE SAMPLE TEMPERATURE
 MFSS.                  M:   MUD FILTRATE SAMPLE SOURCE
 RMB .OHMM            .41:   RESISTIVITY MUD AT BHT
 BHT .F                75:   BOTTOM HOLE TEMPERATURE
 TCS .HRS            1700:   TIME CURCULATED STOPPED
 TLAB.HRS            2130:   TIME LOGGER AT BOTTOM
 MRT .F                75:   MAXIMUM RECORDED TEMPERATURE
 LUN .               5642:   LOGGING UNIT NUMBER
 LUL .               CSPR:   LOGGING UNIT LOCATION
 ENGI.             MARTIN:   RECORDING ENGINEER
 CLNT.            A2DTECH:   CLIENT CODE
 ORIG.       2", 5" PRINT:   ORIGIN OF DATA
 UWI .       490251028400:   UNIQUE WELL ID
 DICO. A2D Technologies, Inc.:   DIGITIZING COMPANY
~OTHER INFORMATION
~A   DEPT      SPR        ILD        LL8        ILM         GRD      CALD         RHOB     CORR       DPOR   
# ...
  430.0000   -35.7040    22.4624    19.3451    19.1848    78.6538     7.8034     2.3188     0.0179     0.2032
  430.5000   -36.3910    21.8477    17.9823    18.5064    79.3506     7.8061     2.3175     0.0241     0.1968
  431.0000   -36.9514    20.7308    18.9951    17.8501    78.7807     7.7578     2.3246     0.0293     0.1995
  431.5000   -36.4247    19.6710    19.7245    17.2171    77.8061     7.7011     2.3165     0.0261     0.2055
  432.0000   -35.8494    18.6653    16.7199    16.6066    77.2497     7.6443     2.3054     0.0161     0.2114
  432.5000   -36.0862    17.7111    13.0102    16.0177    78.2929     7.5858     2.2956     0.0059     0.2184
  433.0000   -36.5361    17.1264    12.1947    15.6532    78.0621     7.6285     2.3126     0.0167     0.2075
  433.5000   -37.1133    16.8552    12.8354    15.9122    77.4509     7.7234     2.3337     0.0270     0.1945
  434.0000   -37.7775    17.1150    13.9645    16.1854    78.0802     7.8190     2.3549     0.0323     0.1815
  434.5000   -38.4452    17.4583    15.2354    16.4632    79.3682     7.9144     2.3791     0.0311     0.1642
  435.0000   -38.4978    17.8161    15.1633    16.7455    80.6527     8.0091     2.3748     0.0293     0.1665
  435.5000   -38.7710    18.2272    15.0881    17.0321    81.2056     8.0704     2.3706     0.0266     0.1709
  436.0000   -38.9622    18.6545    15.5054    17.3338    79.0438     8.0825     2.3763     0.0239     0.1670
  436.5000   -39.1654    19.1832    15.6532    18.3139    77.3920     8.0949     2.3837     0.0202     0.1632
  437.0000   -39.4275    19.0616    15.1561    18.2068    76.2643     8.1067     2.3891     0.0127     0.1617
  437.5000   -39.5255    18.9096    14.9460    18.0077    77.6696     8.1183     2.3854     0.0014     0.1598
  438.0000   -39.2943    18.7564    17.4903    17.8168    79.0164     8.1078     2.3958     0.0183     0.1568
  438.5000   -38.9434    18.6073    17.0396    17.8168    79.7876     8.0608     2.3773     0.0477     0.1537
  439.0000   -39.1020    18.4912    16.3207    18.1840    79.6718     8.0114     2.3577     0.0826     0.1661
  439.5000   -39.2794    19.1943    15.6287    18.4497    80.6115     7.9648     2.3380     0.0789     0.1865
  440.0000   -39.4654    19.9077    15.4753    18.6599    81.3410     7.6773     2.3168     0.0745     0.2036
  440.5000   -39.0518    19.2158    15.4319    18.1598    80.5581     7.0055     2.3520     0.1244     0.1812
  441.0000   -38.3091    18.4051    15.3940    17.7598    80.5601     7.1462     2.3469     0.1059     0.1876
  441.5000   -37.5603    17.6528    15.1075    17.3674    80.8066     7.3863     2.3572     0.0790     0.1757
  442.0000   -36.7982    17.4903    14.6094    16.9864    80.3935     7.6314     2.3463     0.0517     0.1856
  442.5000   -36.6878    18.1525    14.1277    16.7000    79.2648     7.8797     2.3289     0.0245     0.1964
  443.0000   -37.3778    18.7684    13.4898    17.1362    77.8657     7.9776     2.3581     0.0046     0.1746
  443.5000   -38.1405    19.4052    13.7584    17.4965    76.5066     8.0696     2.3884    -0.0010     0.1556
  444.0000   -38.9124    20.0636    14.5100    17.8646    77.1862     8.1630     2.4271    -0.0048     0.1367
  444.5000   -39.4783    20.7443    18.4827    18.2412    78.0399     8.1799     2.4821     0.0036     0.1126
  445.0000   -39.5232    21.4481    22.4030    18.6272    79.7992     8.1349     2.4719     0.0121     0.1196
  445.5000   -39.3885    21.8365    27.5159    18.8427    81.6654     8.0898     2.4375     0.0144     0.1326
  446.0000   -39.0295    20.5580    22.5131    18.3333    83.5936     8.0441     2.4018     0.0107     0.1455
  446.5000   -38.8255    19.7269    18.1494    17.6664    83.2852     7.9961     2.3792     0.0192     0.1585
  447.0000   -38.2819    18.9295    17.1733    17.1117    82.3370     8.0311     2.3525     0.0151     0.1714
  447.5000   -37.3330    18.0211    16.5463    16.8197    82.2492     8.0918     2.3600     0.0105     0.1844
  448.0000   -36.3864    17.1373    15.0622    16.5219    84.5218     8.1449     2.3744     0.0171     0.1769
  448.5000   -35.4566    16.5749    14.3853    16.2295    86.6976     8.1000     2.3817     0.0241     0.1641
  449.0000   -35.3480    16.4329    14.3205    15.9424    88.3406     8.0482     2.3704     0.0172     0.1688
  449.5000   -36.5904    16.3940    14.2601    15.6604    86.0034     8.0505     2.3653     0.0119     0.1757
  450.0000   -37.7551    16.3941    14.1989    15.3833    83.6210     8.0563     2.3738     0.0193     0.1727
  450.5000   -38.3224    16.3940    14.1373    15.0848    81.2534     8.0620     2.3622     0.0255     0.1681
  451.0000   -38.1529    16.3940    14.0759    15.2427    80.3617     8.0675     2.3465     0.0163     0.1836
  451.5000   -37.9091    16.3940    14.0091    15.2679    82.5341     8.0730     2.3397     0.0177     0.1864
  452.0000   -37.7439    16.3940    14.1621    15.2932    84.1871     8.0786     2.3384     0.0138     0.1884
  452.5000   -37.8803    16.3940    14.3855    15.3185    85.8333     8.0839     2.3446     0.0033     0.1865
  453.0000   -38.0113    16.3940    14.5355    15.3439    86.8311     8.1031     2.3516     0.0064     0.1827
  453.5000   -38.1286    16.3940    14.3802    15.3693    85.9121     8.1278     2.3554     0.0092     0.1792
  454.0000   -37.9299    16.3939    14.2617    15.3947    85.0509     8.1525     2.3492     0.0056     0.1850
  454.5000   -37.3888    16.3937    14.1442    15.4202    84.3657     8.1481     2.3412     0.0052     0.1902
  455.0000   -36.6509    16.3944    14.0276    15.4457    84.2245     8.1121     2.3332     0.0085     0.1954
  455.5000   -35.8963    16.4460    13.8765    15.4712    84.2335     8.0763     2.3256     0.0124     0.2012
  456.0000   -36.1209    16.5024    13.8761    15.4967    84.9031     8.0402     2.3207     0.0324     0.1930
  456.5000   -37.2154    16.5591    14.0100    15.5846    85.6689     8.0042     2.3437     0.0272     0.1825
  457.0000   -37.7021    16.6160    14.1393    15.7297    86.3442     7.9681     2.3429     0.0275     0.1904
  457.5000   -37.6503    16.6731    14.1393    15.8764    86.7295     7.9321     2.3529     0.0376     0.1842
  458.0000   -37.5918    16.7305    14.1393    16.0241    86.8045     7.8960     2.3671     0.0474     0.1785
  458.5000   -37.4810    16.7880    14.1044    16.2431    85.8340     7.8600     2.3819     0.0572     0.1617
  459.0000   -37.5538    16.8457    14.0392    16.1628    84.8931     7.8266     2.3824     0.0636     0.1633
  459.5000   -37.9475    16.9036    13.9743    16.0137    83.9040     7.8196     2.3777     0.0575     0.1649
  460.0000   -38.1233    16.9618    13.9105    15.8660    84.2394     7.8132     2.3731     0.0518     0.1552
  460.5000   -37.8661    17.0103    13.8792    15.7197    85.1279     7.8071     2.4115     0.0743     0.1473
  461.0000   -37.0574    17.0136    13.8801    15.5747    86.0262     7.8704     2.4027     0.0650     0.1533
  461.5000   -36.2671    16.6710    13.8802    15.4311    86.9193     7.9450     2.3951     0.0485     0.1573
  462.0000   -35.8724    16.4211    13.8801    15.2887    86.8803     8.0199     2.3875     0.0318     0.1628
  462.5000   -36.9573    16.1751    13.8802    15.1477    85.6822     8.0948     2.3814     0.0145     0.1677
  463.0000   -38.1053    15.9330    13.8802    14.9460    84.4985     8.1650     2.3955     0.0077     0.1457
  463.5000   -39.2780    15.6944    13.7577    14.5370    83.3149     8.1810     2.4060     0.0041     0.1482
  464.0000   -39.6849    15.4595    13.5388    14.6799    83.1075     8.1948     2.4013     0.0057     0.1506
  464.5000   -39.4913    15.2280    13.3234    14.6941    84.1643     8.2041     2.3952     0.0077     0.1530
  465.0000   -39.1849    14.9460    13.1112    14.7083    85.2161     8.1952     2.3894     0.0100     0.1553
  465.5000   -38.9955    14.9985    12.9008    14.7225    86.2098     8.1876     2.4028     0.0289     0.1535
  466.0000   -39.5051    15.0927    12.7730    14.7367    86.0769     8.1409     2.4251     0.0501     0.1475
