~VERSION INFORMATION
 VERS.                2.0:   CWLS LOG ASCII STANDARD - VERSION 2.0
 WRAP.                 NO:   ONE LINE PER DEPTH STEP
~WELL INFORMATION
#MNEM.UNIT      DATA TYPE    INFORMATION
#----------   ------------   ------------------------------
 STRT.F            0.0000:   START DEPTH
 STOP.F          717.5000:   STOP DEPTH
 STEP.F            0.5000:   STEP LENGTH
 NULL.          -999.2500:   NO VALUE
 COMP. LAWRENCE/ALLISON INC:   COMPANY
 WELL. NPR 3 #27-64-SX-11-WP:   WELL
 FLD .             TEAPOT:   FIELD
 LOC .      S11 T38N R78W:   LOCATION
 CNTY.            NATRONA:   COUNTY
 STAT.            WYOMING:   STATE
 CTRY. UNITED STATES OF AMERICA:   COUNTRY
 SRVC.      Dresser Atlas:   SERVICE COMPANY
 DATE.        15-SEP-1984:   LOGDATE
 API .       490251097500:   API NUMBER
~CURVE INFORMATION
#MNEM.UNIT       API CODE    CURVE DESCRIPTION
#----------   ------------   ------------------------------
 DEPT.F                  :   
 CALD.IN     45 280 60 00:   CALIPER FROM DENSITY LOG
 CNC .DEC    42 890 03 00:   COMPENSATED NEUTRON POROSITY SANDSTONE
 CORR.G/C3   45 356 01 00:   DENSITY CORRECTION
 DEN .G/C3   45 350 01 00:   BULK DENSTIY
 PORD.DEC    45 890 12 00:   POROSITY DENSITY SANDSTONE
 GRR .GAPI   07 310 01 00:   GAMMA RAY FROM RESISTIVITY
 RFOC.OHMM   07 220 01 00:   RESISTIVITY FOCUSED LOG
 RILD.OHMM   07 120 46 00:   RESISTIVITY INDUCTION LOG DEEP
 RILM.OHMM   07 120 44 00:   RESITIVITY INDUCTION LOG MEDIUM
 SPR .MV     07 010 01 00:   SPONTANEOUS POTENTIAL FROM RES.
~PARAMETER INFORMATION
#MNEM.UNIT          VALUE    DESCRIPTION
#----------   ------------   ------------------------------
 PD  .                 GL:   PERMANENT DATUM
 EPD .F              5198:   ELEVATION PERMANENT DATUM
 LMF .                 GL:   LOG MEASURED FROM
 DMF .                 GL:   DRILLING MEASURED FROM
 EGL .F              5198:   GROUND LEVEL
 DATE.        15-SEP-1984:   RUN DATE
 RUN .                  1:   RUN NUMBER
 DD  .F               736:   DEPTH DRILLER
 DL  .F               722:   DEPTH LOGGER
 BLI .F               704:   BOTTOM LOG INTERVAL
 TLI .F                42:   TOP LOG INTERVAL
 CS  .IN            8.625:   CASING SIZE
 CBD .F                42:   CASING BOTTOM DRILLER
 CBL .F                42:   CASING BOTTOM LOGGER
 BS  .IN            7.875:   BIT SIZE
 BSD .F               736:   BIT SIZE AT DEPTH
 DFT .          KCL WATER:   DRILLING FLUID TYPE
 MSS .           FLOWLINE:   MUD SAMPLE SOURCE
 RMS .OHMM           0.22:   RESISTIVITY MUD SAMPLE
 MST .F                70:   MUD SAMPLE TEMPERATURE
 RMB .OHMM           0.17:   RESISTIVITY MUD AT BHT
 BHT .F                90:   BOTTOM HOLE TEMPERATURE
 TCS .HRS               5:   TIME CURCULATED STOPPED
 MRT .F                90:   MAXIMUM RECORDED TEMPERATURE
 LUN .               6274:   LOGGING UNIT NUMBER
 LUL .               GLTE:   LOGGING UNIT LOCATION
 ENGI.             RAUTIO:   RECORDING ENGINEER
 WITN.            JOHNSON:   WITNESSED BY
 CLNT.            A2DTECH:   CLIENT CODE
 ORIG.         2.5" PRINT:   ORIGIN OF DATA
 UWI .       490251097500:   UNIQUE WELL ID
 DICO. A2D Technologies, Inc.:   DIGITIZING COMPANY
~OTHER INFORMATION
~A    DEPT    CALD        CNC       CORR        DEN       PORD         GRR      RFOC       RILD       RILM        SPR   
# ...
  569.5000     8.1021     0.2309     0.0135     2.4229     0.1542    74.9625    10.4034    10.2416    10.5850    -6.7249
  570.0000     8.1006     0.2309     0.0186     2.4228     0.1542    75.2663    10.5371    10.2313    10.5741    -6.7456
  570.5000     8.0991     0.2340     0.0088     2.4198     0.1548    74.0108    10.5220    10.3844    10.5625    -6.7687
  571.0000     8.0974     0.2443    -0.0085     2.4197     0.1561    72.7574    10.6572    10.4918    10.5524    -6.4909
  571.5000     8.0960     0.2519    -0.0193     2.4137     0.1596    72.6730    10.8345    10.6229    10.6031    -6.4147
  572.0000     8.0945     0.2487    -0.0216     2.3983     0.1656    73.7947    11.0787    10.9148    10.8234    -5.9408
  572.5000     8.0931     0.2425    -0.0089     2.3821     0.1775    75.0099    11.3761    11.2509    11.1153    -5.3705
  573.0000     8.0917     0.2471     0.0088     2.3574     0.1918    76.0237    11.7065    11.9749    11.4592    -5.2584
  573.5000     8.0902     0.2607     0.0235     2.3258     0.2006    75.3537    12.0677    12.4649    11.8745    -4.6652
  574.0000     8.0888     0.2609     0.0322     2.3045     0.2121    74.0670    12.8289    13.4229    12.1936    -4.2485
  574.5000     8.0800     0.2596     0.0351     2.2768     0.2345    73.0099    13.3701    14.6756    12.7645    -3.6075
  575.0000     8.0463     0.2608     0.0215     2.2648     0.2442    69.8122    14.0302    16.1155    13.5805    -2.8600
  575.5000     7.8991     0.2904     0.0036     2.2692     0.2470    66.2002    14.6672    17.3340    14.5262    -1.0588
  576.0000     7.8462     0.2780    -0.0010     2.2825     0.2426    61.5146    15.0616    18.6599    15.3502     0.2026
  576.5000     7.8444     0.2661     0.0132     2.2943     0.2349    57.7618    15.7706    19.9958    15.9108     1.7418
  577.0000     7.8430     0.2618     0.0195     2.3061     0.2252    56.5166    17.0093    20.8195    16.8371     3.3190
  577.5000     7.8416     0.2624     0.0044     2.3208     0.2187    55.2663    17.9430    21.7568    17.5281     3.6661
  578.0000     7.8401     0.2633    -0.0017     2.3303     0.2122    56.0632    17.6806    22.2383    18.5685     4.1657
  578.5000     7.8387     0.2473     0.0041     2.3436     0.2057    58.6674    17.4205    22.5179    19.2500     4.7352
  579.0000     7.8077     0.2312     0.0218     2.3569     0.1956    60.4181    17.3987    22.8682    19.4993     5.0131
  579.5000     7.8029     0.2228     0.0276     2.3778     0.1811    61.7081    18.1127    23.2513    19.5249     4.9911
  580.0000     7.7751     0.2214     0.0275     2.3858     0.1743    61.4098    18.7347    23.3823    19.6025     4.9680
  580.5000     7.8035     0.2392     0.0214     2.3666     0.1868    60.1646    19.6206    23.0068    19.4372     4.3486
  581.0000     7.8128     0.2558     0.0183     2.3503     0.1969    58.7534    20.1488    22.0834    18.3833     4.0414
  581.5000     7.8299     0.2706     0.0211     2.3395     0.2030    60.6020    20.6883    20.8777    17.7811     3.7215
  582.0000     7.8446     0.2754     0.0229     2.3439     0.2041    62.9071    20.4180    19.7438    17.1278     3.7035
  582.5000     7.8565     0.2736     0.0267     2.3483     0.2041    62.8402    18.4925    18.0251    16.8795     3.6834
  583.0000     7.8548     0.2599     0.0296     2.3482     0.2016    62.7692    17.2492    16.9377    16.8625     3.6627
  583.5000     7.8534     0.2550     0.0324     2.3496     0.1977    63.8745    17.2302    16.6902    17.0742     3.6404
  584.0000     7.8520     0.2523     0.0322     2.3496     0.1980    65.0335    16.9735    16.9034    17.2943     3.3254
  584.5000     7.8506     0.2511     0.0321     2.3512     0.1980    66.5404    16.9573    16.8822    17.2778     3.0089
  585.0000     7.8787     0.2507     0.0260     2.3553     0.1954    69.5755    16.4807    16.8605    17.2600     3.2815
  585.5000     7.8772     0.2561     0.0318     2.3553     0.1937    70.6972    16.2369    16.6136    17.2402     3.5636
  586.0000     7.8757     0.2608     0.0316     2.3500     0.1931    69.2860    15.9993    16.5943    17.2246     3.8371
  586.5000     7.8743     0.2573     0.0278     2.3302     0.1985    68.1760    15.7638    16.5721    16.9727     3.9285
  587.0000     7.8728     0.2508     0.0061     2.3178     0.2097    69.2977    15.5297    16.5553    16.7216     3.4962
  587.5000     7.8713     0.2484    -0.0044     2.3134     0.2169    69.0337    15.5148    16.5364    16.7066     2.8846
  588.0000     7.8399     0.2508     0.0093     2.3133     0.2193    66.2407    15.4978    16.5133    16.4151     2.5680
  588.5000     7.8089     0.2532     0.0173     2.3281     0.2123    63.1644    15.4777    16.4966    16.2221     2.2497
  589.0000     7.8075     0.2544     0.0159     2.3414     0.2063    60.7358    15.4629    16.2528    15.9835     2.2308
  589.5000     7.7765     0.2531     0.0127     2.3443     0.2014    63.4635    15.4468    15.9919    15.7289     2.5095
  590.0000     7.7455     0.2412     0.0126     2.3352     0.1987    64.1420    15.4299    15.5633    15.3094     2.7784
  590.5000     7.7441     0.2388     0.0095     2.3323     0.2096    62.2948    15.4112    15.3312    15.0835     2.7603
  591.0000     7.7426     0.2344     0.0064     2.3390     0.2083    63.7237    15.1751    15.3157    15.0700     2.4438
  591.5000     7.7413     0.2281     0.0062     2.3444     0.2011    65.1124    14.6890    15.0896    14.8496     2.1236
  592.0000     7.7435     0.2274     0.0061     2.3515     0.1952    66.2207    14.5390    14.8638    14.6297     2.1055
  592.5000     7.7455     0.2283     0.0030     2.3542     0.1929    66.1538    14.5251    14.6466    14.4176     2.0291
  593.0000     7.7475     0.2328    -0.0001     2.3526     0.1935    66.3589    14.5096    14.6304    14.4036     1.4734
  593.5000     7.7495     0.2369    -0.0062     2.3466     0.1959    67.1953    14.4937    14.3209    14.1929     1.1549
  594.0000     7.7515     0.2435    -0.0104     2.3461     0.1989    67.1243    14.4765    14.2000    13.9839     0.8402
  594.5000     7.7536     0.2503    -0.0137     2.3480     0.1989    67.0533    14.4619    13.9787    13.9576     0.7263
  595.0000     7.7556     0.2571    -0.0186     2.3464     0.1990    67.5637    14.4460    13.7855    13.7666     0.1493
  595.5000     7.7576     0.2607    -0.0217     2.3360     0.1998    68.6854    14.4281    13.5797    13.5632    -0.1095
  596.0000     7.7596     0.2560    -0.0219     2.3329     0.2060    71.8896    14.2177    13.3813    13.7381    -0.1337
  596.5000     7.7616     0.2547    -0.0220     2.3481     0.2060    72.6864    14.1480    13.3660    13.7728    -0.4475
  597.0000     7.7637     0.2494    -0.0192     2.3576     0.1975    72.2560    13.9904    13.3474    13.8993    -1.1213
  597.5000     7.7657     0.2460    -0.0134     2.3680     0.1873    71.7421    13.9770    13.5179    13.8841    -1.8220
  598.0000     7.7677     0.2466    -0.0046     2.3752     0.1814    70.9388    13.9625    13.5031    13.8708    -1.6940
  598.5000     7.7697     0.2429     0.0044     2.3771     0.1801    68.8254    13.9472    13.5699    13.9413    -1.7130
  599.0000     7.7717     0.2414     0.0070     2.3681     0.1850    68.1644    14.1227    13.6576    14.0333    -1.7337
  599.5000     7.7738     0.2438     0.0068     2.3561     0.1897    68.1104    14.3042    13.6417    14.0189    -1.7571
  600.0000     7.7776     0.2476     0.0067     2.3602     0.1921    68.6481    14.1592    13.6731    14.0046    -1.7786
  600.5000     7.7910     0.2486     0.0077     2.3682     0.1868    66.7919    13.8859    13.8015    13.9890    -1.7992
  601.0000     7.7870     0.2487     0.0085     2.3763     0.1815    67.9213    13.8743    13.7831    13.7871    -1.8225
  601.5000     7.7694     0.2362     0.0091     2.3854     0.1765    68.4590    13.4860    13.5833    13.4017    -1.8506
  602.0000     7.7671     0.2280     0.0030     2.3719     0.1826    68.7062    13.4730    13.3852    13.3864    -1.8712
  602.5000     7.7652     0.2278    -0.0091     2.3555     0.1902    69.5073    13.2757    13.1894    13.1931    -1.8935
