~VERSION INFORMATION
 VERS.                2.0:   CWLS LOG ASCII STANDARD - VERSION 2.0
 WRAP.                 NO:   ONE LINE PER DEPTH STEP
~WELL INFORMATION
#MNEM.UNIT      DATA TYPE    INFORMATION
#----------   ------------   ------------------------------
 STRT.F           36.0000:   START DEPTH
 STOP.F          700.0000:   STOP DEPTH
 STEP.F            0.5000:   STEP LENGTH
 NULL.          -999.2500:   NO VALUE
 COMP. FENIX & SCISSON INC:   COMPANY
 WELL. NPR #3 13SX14 #13-14:   WELL
 FLD .             TEAPOT:   FIELD
 LOC .      S14 T38N R78W:   LOCATION
 CNTY.            NATRONA:   COUNTY
 STAT.            WYOMING:   STATE
 CTRY. UNITED STATES OF AMERICA:   COUNTRY
 SRVC.              Welex:   SERVICE COMPANY
 DATE.        28-FEB-1977:   LOGDATE
 API .       490251029600:   API NUMBER
~CURVE INFORMATION
#MNEM.UNIT       API CODE    CURVE DESCRIPTION
#----------   ------------   ------------------------------
 DEPT.F                  :   
 CALD.IN     45 280 60 00:   CALIPER FROM DENSITY LOG
 GRD .GAPI   45 310 01 00:   GAMMA RAY FROM DENSITY LOG
 CORR.G/C3   45 356 01 00:   DENSITY CORRECTION
 RHOB.G/C3   45 350 01 00:   BULK DENSITY
 DPHI.DEC    45 890 12 00:   DENSITY POROSITY SANDSTONE
 SPR .MV     07 010 01 00:   SPONTANEOUS POTENTIAL
 SGRD.OHMM   07 220 05 00:   SHALLOW RESISTIVITY
 ILD .OHMM   07 120 46 00:   INDUCTION LOG DEEP
 ILM .OHMM   07 120 44 00:   INDUCTION LOG MEDIUM
~PARAMETER INFORMATION
#MNEM.UNIT          VALUE    DESCRIPTION
#----------   ------------   ------------------------------
 PD  .                 GL:   PERMANENT DATUM
 EPD .F              5238:   ELEVATION PERMANENT DATUM
 LMF .                 GL:   LOG MEASURED FROM
 DMF .                 GL:   DRILLING MEASURED FROM
 EGL .F              5238:   GROUND LEVEL
 DATE.            2-28-77:   RUN DATE
 RUN .                  1:   RUN NUMBER
 DD  .F               710:   DEPTH DRILLER
 DL  .F               706:   DEPTH LOGGER
 BLI .F               704:   BOTTOM LOG INTERVAL
 TLI .F                42:   TOP LOG INTERVAL
 CS  .IN            8.625:   CASING SIZE
 CBD .F                42:   CASING BOTTOM DRILLER
 CBL .F                42:   CASING BOTTOM LOGGER
 BS  .IN            7.875:   BIT SIZE
 BSD .F               710:   BIT SIZE AT DEPTH
 DFT .           CHEM-GEL:   DRILLING FLUID TYPE
 DFD .                8.7:   DRILLING FLUID DENSITY
 DFV .                 33:   DRILLING FLUID VISCOSITY
 DFPH.                  7:   DRILLING FLUID PH
 DFL .                  8:   DRILLING FLUID LOSS
 MSS .          FLOW LINE:   MUD SAMPLE SOURCE
 RMS .OHMM           .382:   RESISTIVITY MUD SAMPLE
 MST .F                54:   MUD SAMPLE TEMPERATURE
 RMF .OHMM           .342:   RESISTIVITY MUD FILTRATE SAMPLE
 MFST.F                54:   MUD FILTRATE SAMPLE TEMPERATURE
 RMC .OHMM           .821:   RESISTIVITY MUD CAKE
 MCST.F                54:   MUD CAKE SAMPLE TEMPERATURE
 MFSS.           MEASURED:   MUD FILTRATE SAMPLE SOURCE
 MCSS.           MEASURED:   MUD CAKE SAMPLE SOURCE
 RMB .OHMM           .333:   RESISTIVITY MUD AT BHT
 BHT .F                62:   BOTTOM HOLE TEMPERATURE
 TCS .HRS               3:   TIME CURCULATED STOPPED
 MRT .F                62:   MAXIMUM RECORDED TEMPERATURE
 LUN .               8611:   LOGGING UNIT NUMBER
 LUL .           GILLETTE:   LOGGING UNIT LOCATION
 ENGI.               DOAK:   RECORDING ENGINEER
 WITN.               JAPP:   WITNESSED BY
 CLNT.            A2DTECH:   CLIENT CODE
 ORIG.       2", 5" PRINT:   ORIGIN OF DATA
 UWI .       490251029600:   UNIQUE WELL ID
 DICO. A2D Technologies, Inc.:   DIGITIZING COMPANY
~OTHER INFORMATION
~A   DEPT       CALD       GRD       CORR        RHOB     DPHI         SPR        SGRD      ILD        ILM   
# ...
  620.0000     7.8615    95.8242     0.0137     2.3993     0.1352   -39.8417    15.2763    11.3262    14.3511
  620.5000     7.8653    96.6914     0.0083     2.4048     0.1343   -39.7962    15.1674    11.2671    13.6189
  621.0000     7.8690    95.9508     0.0062     2.4149     0.1321   -39.7524    15.1674    11.2083    13.0872
  621.5000     7.8728    94.2530     0.0040     2.4212     0.1300   -39.7107    15.1674    11.1499    13.0340
  622.0000     7.8766    92.5692     0.0018     2.4127     0.1297   -39.6258    15.1601    11.0917    12.9771
  622.5000     7.8803    92.1578    -0.0004     2.4047     0.1308   -39.4702    15.1022    11.0338    12.9205
  623.0000     7.8808    95.5208    -0.0026     2.4080     0.1318   -39.4286    15.0446    10.9763    12.8641
  623.5000     7.8770    98.1562    -0.0048     2.4129     0.1329   -39.3964    15.0282    10.9190    12.8481
  624.0000     7.8732   101.0937    -0.0069     2.4179     0.1305   -39.3645    15.0282    10.8620    12.9493
  624.5000     7.8694    99.9875    -0.0070     2.4218     0.1281   -39.3319    14.8969    10.8054    13.0613
  625.0000     7.8656    97.8755    -0.0053     2.4172     0.1286   -39.2994    14.7536    10.7490    13.1742
  625.5000     7.8618    95.7382    -0.0011     2.4127     0.1295   -39.2668    14.6117    10.6929    13.2084
  626.0000     7.8580    93.5969     0.0031     2.4099     0.1305   -39.2342    14.4840    10.6373    12.2692
  626.5000     7.8542    92.3065     0.0073     2.4113     0.1309   -39.2016    14.5435    10.5868    13.0872
  627.0000     7.8504    92.7752     0.0115     2.4270     0.1244   -39.1691    14.5981    10.6291    12.8342
  627.5000     7.8465    93.2330     0.0158     2.4460     0.1153   -39.1365    14.6529    10.6681    12.2692
  628.0000     7.8428    93.7627     0.0200     2.4652     0.1063   -39.1039    14.7079    10.7073    12.5398
  628.5000     7.8437    96.3603     0.0241     2.4777     0.0982   -39.0714    14.7632    10.7468    13.0872
  629.0000     7.8448    99.0948     0.0254     2.4762     0.1010   -39.0388    14.8186    10.7836    12.9156
  629.5000     7.8459   100.9262     0.0207     2.4684     0.1061   -39.0062    14.8742    10.8040    12.7302
  630.0000     7.8470   100.4941     0.0162     2.4557     0.1111   -38.9736    14.9301    10.8228    12.9392
  630.5000     7.8481    99.2567     0.0117     2.4429     0.1162   -38.9411    14.9861    10.8424    13.0872
  631.0000     7.8493    97.9452     0.0072     2.4390     0.1193   -38.9086    15.0282    10.8611    12.9968
  631.5000     7.8504    97.4962     0.0061     2.4534     0.1170   -38.8749    15.0091    10.8870    12.8919
  632.0000     7.8515    98.4549     0.0100     2.4496     0.1158   -38.8612    14.9327    10.7721    12.7879
  632.5000     7.8526    99.4856     0.0137     2.4453     0.1169   -38.8398    14.7899    10.7406    12.5804
  633.0000     7.8537   100.5243     0.0175     2.4614     0.1109   -38.8195    14.5653    10.7093    12.2480
  633.5000     7.8548   101.5719     0.0212     2.4742     0.1042   -38.7992    14.3511    10.6770    11.9345
  634.0000     7.8559   102.4004     0.0249     2.4835     0.0984   -38.7788    14.4734    10.6443    12.7302
  634.5000     7.8570   100.5502     0.0253     2.4777     0.1017   -38.7585    14.6182    10.6118    11.9389
  635.0000     7.8582    99.2312     0.0220     2.4702     0.1060   -38.7381    14.5257    10.5794    12.0066
  635.5000     7.8593   100.8723     0.0187     2.4629     0.1104   -38.7177    14.3782    10.5470    12.2671
  636.0000     7.8604   103.2299     0.0154     2.4556     0.1148   -38.6973    14.3511    10.5148    12.0927
  636.5000     7.8616   105.5362     0.0144     2.4517     0.1157   -38.6770    14.4840    10.4827    11.6090
  637.0000     7.8623   105.6070     0.0209     2.4681     0.1022   -38.6566    14.2712    10.4506    11.8261
  637.5000     7.8565   101.1287     0.0271     2.4871     0.0915   -38.6362    14.0976    10.4185    12.0451
  638.0000     7.8506   100.3870     0.0333     2.5032     0.0835   -38.6158    13.9596    10.3928    11.6090
  638.5000     7.8447   106.0782     0.0347     2.4987     0.0884   -38.5955    14.1917    10.3930    12.0591
  639.0000     7.8389   106.8451     0.0297     2.4899     0.0924   -38.5751    14.3511    10.3874    12.6133
  639.5000     7.8331   103.6764     0.0248     2.4808     0.0963   -38.5547    14.3941    10.3727    12.2371
  640.0000     7.8273   101.1929     0.0198     2.4814     0.1002   -38.5344    14.4677    10.3581    11.5024
  640.5000     7.8215    99.7209     0.0149     2.4789     0.1022   -38.5140    14.6182    10.3435    12.0069
  641.0000     7.8156   101.3750     0.0109     2.4717     0.1042   -38.4936    14.9987    10.3289    12.8481
  641.5000     7.8098   104.0583     0.0129     2.4680     0.1051   -38.4733    15.4496    10.3143    12.7574
  642.0000     7.8040   107.1545     0.0149     2.4750     0.1020   -38.4603    14.4993    10.2997    12.4959
  642.5000     7.7981   105.5820     0.0169     2.4799     0.0986   -38.4492    14.0889    10.2852    12.0928
  643.0000     7.7923   103.4935     0.0170     2.4746     0.1017   -38.4381    14.0889    10.2707    11.6090
  643.5000     7.7866   101.3540     0.0169     2.4699     0.1022   -38.4270    14.0889    10.2562    11.7648
  644.0000     7.7927   100.3480     0.0162     2.4746     0.1017   -38.4159    14.0939    10.2418    11.9744
  644.5000     7.8200    99.6335     0.0116     2.4685     0.1078   -38.4048    13.9550    10.2276    12.1566
  645.0000     7.8468    98.9372     0.0070     2.4606     0.1117   -38.3937    13.9642    10.2137    11.3969
  645.5000     7.8737    98.2356     0.0069     2.4592     0.1088   -38.3826    13.8011    10.1615    11.6340
  646.0000     7.9055    99.0259     0.0101     2.4688     0.1057   -38.3715    13.6618    10.0387    11.9345
  646.5000     7.9100   100.9753     0.0134     2.4785     0.0994   -38.3604    13.5247     9.9175    11.0860
  647.0000     7.8952   102.1666     0.0167     2.4880     0.0931   -38.3493    13.3891     9.7977    11.6090
  647.5000     7.8795   101.1619     0.0175     2.4940     0.0895   -38.3382    13.2548     9.6793    10.6846
  648.0000     7.8637   101.8214     0.0123     2.4800     0.0984   -38.3271    13.1221     9.5624    11.7165
  648.5000     7.8481   105.1134     0.0074     2.4691     0.1051   -38.3160    12.9912     9.4469    10.9156
  649.0000     7.8324   108.2947     0.0024     2.4582     0.1118   -38.3049    12.8462     9.2958    10.1096
  649.5000     7.8168   111.4534    -0.0011     2.4522     0.1141   -38.2938    12.8456     9.2149    10.1357
  650.0000     7.8036   114.6150     0.0000     2.4596     0.1106   -38.2826    12.8511     9.1348    10.1875
  650.5000     7.8102   115.7042     0.0025     2.4686     0.1079   -38.2716    12.4176     9.0553    10.2032
  651.0000     7.8171   112.2510     0.0056     2.4704     0.1054   -38.2645    12.0966     8.9765     9.7530
  651.5000     7.8240   109.8531     0.0086     2.4721     0.1050   -38.2526    11.9345     8.8039     9.4193
  652.0000     7.8309   109.3997     0.0116     2.4737     0.1030   -38.2407    11.6175     8.4879     9.0990
  652.5000     7.8377   113.9949     0.0147     2.4754     0.1011   -38.2288    11.2923     7.9521     8.7901
  653.0000     7.8424   117.8648     0.0177     2.4788     0.0994   -38.2169    11.1660     7.4501     8.3354
  653.5000     7.8407   121.3504     0.0208     2.4822     0.0976   -38.2050    11.0860     6.9798     7.7460
  654.0000     7.8391   124.4504     0.0240     2.4800     0.0962   -38.1931    10.4720     6.5392     7.1904
  654.5000     7.8376   128.6122     0.0247     2.4741     0.1025   -38.1812     9.8860     6.1449     6.6774
  655.0000     7.8360   132.8053     0.0208     2.4615     0.1093   -38.1693     9.1052     5.7529     6.2010
  655.5000     7.8344   136.7839     0.0168     2.4385     0.1186   -38.1574     8.1223     5.3613     5.7586
  656.0000     7.8329   138.4780     0.0128     2.4159     0.1278   -38.1455     6.2546     5.1102     5.5013
