~VERSION INFORMATION
 VERS.                2.0:   CWLS LOG ASCII STANDARD - VERSION 2.0
 WRAP.                 NO:   ONE LINE PER DEPTH STEP
~WELL INFORMATION
#MNEM.UNIT      DATA TYPE    INFORMATION
#----------   ------------   ------------------------------
 STRT.F           14.0000:   START DEPTH
 STOP.F          432.0000:   STOP DEPTH
 STEP.F            0.5000:   STEP LENGTH
 NULL.          -999.2500:   NO VALUE
 COMP.    FENIX & SCISSON:   COMPANY
 WELL.   NPR-3 #63SX10-10:   WELL
 FLD .             TEAPOT:   FIELD
 LOC .      S10 T38N R78W:   LOCATION
 CNTY.            NATRONA:   COUNTY
 STAT.            WYOMING:   STATE
 CTRY. UNITED STATES OF AMERICA:   COUNTRY
 SRVC.           BIRDWELL:   SERVICE COMPANY
 DATE.        10-FEB-1978:   LOGDATE
 API .       490251066800:   API NUMBER
~CURVE INFORMATION
#MNEM.UNIT       API CODE    CURVE DESCRIPTION
#----------   ------------   ------------------------------
 DEPT.F                  :   
 CALD.IN     45 280 60 00:   CALIPER FROM DENSITY LOG
 CORR.G/C3   45 356 01 00:   DENSITY CORRECTION
 DPHI.DEC    45 890 12 00:   DENSITY POROSITY SANDSTONE
 GRD .GAPI   45 310 01 00:   GAMMA RAY FROM DENSITY LOG
 RHOB.G/C3   45 350 01 00:   BULK DENSITY
 ILD .OHMM   05 120 46 00:   INDUCTION LOG DEEP
 SN  .OHMM   05 040 16 00:   SHORT NORMAL 16"
 SPR .MV     05 010 01 00:   SPONTANEOUS POTENTIAL FROM RES.
~PARAMETER INFORMATION
#MNEM.UNIT          VALUE    DESCRIPTION
#----------   ------------   ------------------------------
 PD  .                 GL:   PERMANENT DATUM
 EPD .F              5186:   ELEVATION PERMANENT DATUM
 LMF .                 KB:   LOG MEASURED FROM
 DAPD.F                 4:   FEET ABOVE PERMANENT DATUM
 DMF .                 KB:   DRILLING MEASURED FROM
 EKB .F              5190:   KELLING BUSHING
 EGL .F              5186:   GROUND LEVEL
 DATE.        10-FEB-1978:   RUN DATE
 RUN .                  1:   RUN NUMBER
 DD  .F               429:   DEPTH DRILLER
 DL  .F               432:   DEPTH LOGGER
 BLI .F               424:   BOTTOM LOG INTERVAL
 TLI .F                20:   TOP LOG INTERVAL
 CS  .IN            8.625:   CASING SIZE
 CBD .F                29:   CASING BOTTOM DRILLER
 CBL .F                29:   CASING BOTTOM LOGGER
 BS  .IN            7.875:   BIT SIZE
 BSD .F               429:   BIT SIZE AT DEPTH
 DFT .    LIGNO SULF/FULL:   DRILLING FLUID TYPE
 DFD .                8.6:   DRILLING FLUID DENSITY
 DFV .                 34:   DRILLING FLUID VISCOSITY
 DFPH.                9.8:   DRILLING FLUID PH
 DFL .                5.6:   DRILLING FLUID LOSS
 MSS .           FLOWLINE:   MUD SAMPLE SOURCE
 RMS .OHMM            1.2:   RESISTIVITY MUD SAMPLE
 MST .F                62:   MUD SAMPLE TEMPERATURE
 RMF .OHMM            1.4:   RESISTIVITY MUD FILTRATE SAMPLE
 MFST.F                62:   MUD FILTRATE SAMPLE TEMPERATURE
 RMC .OHMM            1.0:   RESISTIVITY MUD CAKE
 MCST.F                62:   MUD CAKE SAMPLE TEMPERATURE
 MFSS.               MEAS:   MUD FILTRATE SAMPLE SOURCE
 RMB .OHMM            1.2:   RESISTIVITY MUD AT BHT
 BHT .F                62:   BOTTOM HOLE TEMPERATURE
 TCS .HRS               4:   TIME CURCULATED STOPPED
 MRT .F                62:   MAXIMUM RECORDED TEMPERATURE
 LUN .               2958:   LOGGING UNIT NUMBER
 LUL .                CAS:   LOGGING UNIT LOCATION
 ENGI.            POINTER:   RECORDING ENGINEER
 WITN.          MC GINLEY:   WITNESSED BY
 CLNT.            A2DTECH:   CLIENT CODE
 ORIG.           5" PRINT:   ORIGIN OF DATA
 UWI .       490251066800:   UNIQUE WELL ID
 DICO. A2D Technologies, Inc.:   DIGITIZING COMPANY
~OTHER INFORMATION
~A   DEPT     CALD       CORR       DPHI         GRD      RHOB        ILD         SN        SPR   
# ...
  135.5000     7.9421     0.2265     0.1395    82.8679     2.4155     7.5495     7.9631   -41.4781
  136.0000     7.8079     0.2130     0.1383    81.6683     2.4185     7.3881     7.8549   -41.4781
  136.5000     7.6272     0.2011     0.1356    80.6178     2.4208     7.2436     7.7482   -41.3273
  137.0000     7.5070     0.1891     0.1338    79.7186     2.4246     7.0952     7.5900   -41.0256
  137.5000     7.4170     0.1772     0.1386    79.4246     2.4284     6.9020     7.5386   -40.8748
  138.0000     7.4327     0.1592     0.1424    80.0404     2.4216     6.5730     7.4360   -40.7240
  138.5000     7.4635     0.1278     0.1406    80.9566     2.4179     6.2656     7.1843   -40.4223
  139.0000     7.4792     0.1083     0.1385    81.5703     2.4187     6.0529     6.9890   -40.2715
  139.5000     7.5252     0.0978     0.1392    80.0681     2.4210     5.9289     6.7991   -40.2715
  140.0000     7.5862     0.0874     0.1427    75.6893     2.4188     5.8884     6.5688   -40.2715
  140.5000     7.6472     0.0799     0.1430    69.4951     2.4150     5.8079     6.2160   -40.2715
  141.0000     7.7082     0.0800     0.1364    69.2011     2.4128     5.8487     6.0471   -40.2715
  141.5000     7.7693     0.0861     0.1127    72.2375     2.4354     5.9306     6.0479   -40.2715
  142.0000     7.8303     0.0938     0.1108    81.4745     2.4586     6.2253     6.4821   -40.2715
  142.5000     7.8761     0.1042     0.1093    83.6010     2.4677     6.6259     7.2925   -40.2816
  143.0000     7.9373     0.1118     0.1087    84.3652     2.4707     6.9073     7.6026   -40.4223
  143.5000     7.9529     0.1238     0.1099    82.5605     2.4692     7.2006     7.8170   -40.4223
  144.0000     7.9837     0.1419     0.1261    82.8716     2.4580     7.4545     8.0374   -40.4223
  144.5000     7.9994     0.1660     0.1234    84.0925     2.4499     7.7229     8.0946   -40.2715
  145.0000     8.0001     0.1841     0.1087    84.4036     2.4551     7.9347     8.0395   -40.2715
  145.5000     8.0007     0.2027     0.1039    85.4712     2.4709     7.9903     8.0967   -40.4223
  146.0000     8.0012     0.2202     0.0966    85.7823     2.4866     7.9356     8.2676   -40.5732
  146.5000     8.0018     0.2263     0.0912    84.2801     2.4949     7.8272     8.5600   -40.8748
  147.0000     8.0025     0.2309     0.0957    79.5987     2.5002     7.9369     8.7407   -40.8748
  147.5000     8.0031     0.2324     0.1008    78.5461     2.5025     8.1602     8.7419   -40.8748
  148.0000     8.0187     0.2400     0.1068    80.2209     2.5003     8.3319     8.7430   -39.6481
  148.5000     8.0195     0.2506     0.1134    82.3496     2.4883     8.5073     8.7444   -39.2072
  149.0000     8.0351     0.2566     0.1194    83.2658     2.4709     8.6864     8.9290   -38.9077
  149.5000     8.0357     0.2582     0.1242    83.7282     2.4621     8.6270     9.1808   -38.7598
  150.0000     8.0212     0.2583     0.1257    82.9803     2.4531     8.5678     9.4397   -38.6119
  150.5000     8.0218     0.2538     0.1270    80.2647     2.4434     8.5705     9.5749   -38.3131
  151.0000     8.0223     0.2418     0.1283    80.8956     2.4396     8.6328     9.6445   -38.3168
  151.5000     7.9926     0.2344     0.1296    83.1557     2.4404     8.5755     9.7147   -38.3198
  152.0000     7.9780     0.2299     0.1307    84.6758     2.4419     8.5778     9.7186   -38.3233
  152.5000     7.9634     0.2285     0.1304    86.3472     2.4419     8.5800     9.7218   -38.6279
  153.0000     7.9337     0.2270     0.1283    87.4134     2.4412     8.6424     9.7249   -38.7816
  153.5000     7.9042     0.2211     0.1232    87.5719     2.4435     8.6446     9.7964   -39.0862
  154.0000     7.8595     0.2149     0.1188    85.9213     2.4487     8.6469     9.7312   -39.3907
  154.5000     7.8448     0.1987     0.1109    81.5367     2.4555     8.6491     9.7352   -39.7024
  155.0000     7.8001     0.1807     0.1088    80.1806     2.4638     8.5917     9.5382   -40.1514
  155.5000     7.7856     0.1552     0.1070    82.0050     2.4683     8.4764     9.2816   -40.4560
  156.0000     7.7861     0.1328     0.1030    83.5251     2.4728     8.4196     9.1570   -40.3080
  156.5000     7.7867     0.1328     0.0926    83.8492     2.4766     8.2492     9.0334   -40.1594
  157.0000     7.8024     0.1359     0.0805    83.9952     2.4886     8.1945     8.9747   -40.0115
  157.5000     7.8029     0.1104     0.0871    84.3050     2.5061     8.0840     8.9157   -39.5626
  158.0000     7.8185     0.0909     0.0913    85.0687     2.5111     8.0308     8.8571   -39.3967
  158.5000     7.8343     0.0772     0.0943    85.9837     2.4976     7.9147     8.8607   -38.8150
  159.0000     7.8499     0.0700     0.0955    87.0539     2.4916     7.8156     8.8017   -38.8179
  159.5000     7.8504     0.0671     0.0980    87.3597     2.4887     7.7638     8.5066   -38.8208
  160.0000     7.8661     0.0671     0.1054    86.0071     2.4797     7.6595     8.2764   -38.9746
  160.5000     7.8667     0.0687     0.1153    85.4074     2.4707     7.4015     8.0537   -39.2791
  161.0000     7.8672     0.0732     0.1183    87.0806     2.4662     7.1516     7.8851   -39.1312
  161.5000     7.8829     0.0793     0.1209    87.0998     2.4625     6.9582     7.4689   -38.8324
  162.0000     7.8834     0.0838     0.1255    86.0141     2.4535     6.6309     7.2172   -38.5337
  162.5000     7.8923     0.0899     0.1302    86.3477     2.4527     6.1896     6.5986   -38.2357
  163.0000     7.9022     0.0945     0.1326    87.2626     2.4497     5.7772     6.2887   -37.9369
  163.5000     7.9153     0.0945     0.1350    85.9082     2.4438     5.3552     5.9085   -37.7280
  164.0000     7.9158     0.0901     0.1389    85.3101     2.4370     4.8904     5.3673   -37.6410
  164.5000     7.9164     0.0826     0.1626    85.4932     2.4190     4.3238     4.9412   -37.6440
  165.0000     7.9169     0.0797     0.1878    85.3266     2.3898     3.8184     4.4248   -37.6476
  165.5000     7.9175     0.0797     0.2106    82.9132     2.3792     3.4428     4.0685   -37.6505
  166.0000     7.9181     0.0783     0.2340    80.9538     2.3148     3.2114     3.7504   -37.6534
  166.5000     7.9186     0.0828     0.2529    81.8687     2.2811     3.0625     3.5496   -37.6563
  167.0000     7.9192     0.1039     0.2574    82.3298     2.2398     3.0004     3.4535   -37.6592
  167.5000     7.9045     0.1281     0.2444    81.2798     2.2263     3.0012     3.5299   -38.1197
  168.0000     7.8899     0.1370     0.1829    80.6801     2.2489     3.0925     3.7556   -38.8724
  168.5000     7.8906     0.1371     0.1652    81.4455     2.3223     3.3545     4.0821   -39.4786
  169.0000     7.8911     0.1416     0.1499    86.4452     2.3719     3.6967     4.3458   -39.6323
  169.5000     7.8918     0.1582     0.1481    92.3526     2.3787     4.1306     4.6679   -39.6353
  170.0000     7.8923     0.1769     0.1238    92.0373     2.3892     4.6157     5.0993   -39.4866
  170.5000     7.9079     0.1883     0.1073    90.8560     2.4177     4.8797     5.5426   -38.8869
  171.0000     7.9236     0.1914     0.1064    92.0735     2.4419     5.1588     6.0245   -38.2705
  171.5000     7.9242     0.1915     0.1079    93.5936     2.4703     5.4538     6.4588   -37.9877
  172.0000     7.9398     0.1915     0.1091    94.2060     2.4733     5.8465     6.7348   -38.1422
  172.5000     7.9403     0.1900     0.1105    94.0619     2.4710     6.1383     6.8783   -37.9943
  173.0000     7.9409     0.1886     0.1111    95.1299     2.4696     6.3560     6.9283   -37.9972
  173.5000     7.9414     0.1887     0.1108    95.7423     2.4688     6.4463     7.0765   -38.0001
  174.0000     7.9572     0.1872     0.1114    95.4452     2.4688     6.3593     7.0788   -37.8522
  174.5000     7.9577     0.1873     0.1141    95.1498     2.4689     6.2307     7.0811   -37.8558
  175.0000     7.9582     0.1888     0.1183    95.0076     2.4681     6.1043     7.0345   -37.8587
  175.5000     7.9588     0.1889     0.1237    95.1679     2.4546     5.9764     6.7981   -37.8616
