~VERSION INFORMATION
 VERS.                2.0:   CWLS LOG ASCII STANDARD - VERSION 2.0
 WRAP.                 NO:   ONE LINE PER DEPTH STEP
~WELL INFORMATION
#MNEM.UNIT      DATA TYPE    INFORMATION
#----------   ------------   ------------------------------
 STRT.F            0.0000:   START DEPTH
 STOP.F          820.0000:   STOP DEPTH
 STEP.F            0.5000:   STEP LENGTH
 NULL.          -999.2500:   NO VALUE
 COMP. LAWRENCE/ALLISON INC:   COMPANY
 WELL.       44 SX #16-11:   WELL
 FLD .             TEAPOT:   FIELD
 LOC .      S11 T38N R78W:   LOCATION
 CNTY.            NATRONA:   COUNTY
 STAT.            WYOMING:   STATE
 CTRY. UNITED STATES OF AMERICA:   COUNTRY
 SRVC.           Gearhart:   SERVICE COMPANY
 DATE.        26-AUG-1988:   LOGDATE
 API .       490251124600:   API NUMBER
~CURVE INFORMATION
#MNEM.UNIT       API CODE    CURVE DESCRIPTION
#----------   ------------   ------------------------------
 DEPT.F                  :   
 GRR .GAPI   07 310 01 00:   GAMMA RAY FROM RES. LOG.
 RILD.OHMM   07 120 46 00:   INDUCTION LOG DEEP RESISTIVITY
 RILM.OHMM   07 120 44 00:   INDUCTION LOG MEDIUM RESISTIVITY
~PARAMETER INFORMATION
#MNEM.UNIT          VALUE    DESCRIPTION
#----------   ------------   ------------------------------
 PD  .                 GL:   PERMANENT DATUM
 EPD .F              5197:   ELEVATION PERMANENT DATUM
 LMF .                 KB:   LOG MEASURED FROM
 DAPD.F                10:   FEET ABOVE PERMANENT DATUM
 DMF .                 KB:   DRILLING MEASURED FROM
 EKB .F              5207:   KELLING BUSHING
 EDF .F              5206:   DRILLING FLOOR
 EGL .F              5197:   GROUND LEVEL
 DATE.            8-26-88:   RUN DATE
 RUN .                  1:   RUN NUMBER
 DD  .F               820:   DEPTH DRILLER
 DL  .F               819:   DEPTH LOGGER
 BLI .F               811:   BOTTOM LOG INTERVAL
 TLI .F                50:   TOP LOG INTERVAL
 CS  .IN            9.625:   CASING SIZE
 CBD .F                50:   CASING BOTTOM DRILLER
 CBL .F                50:   CASING BOTTOM LOGGER
 BS  .IN             8.75:   BIT SIZE
 BSD .F               820:   BIT SIZE AT DEPTH
 DFT .                AIR:   DRILLING FLUID TYPE
 BHT .F                70:   BOTTOM HOLE TEMPERATURE
 TCS .HRS            0200:   TIME CURCULATED STOPPED
 TLAB.HRS            0342:   TIME LOGGER AT BOTTOM
 MRT .F                70:   MAXIMUM RECORDED TEMPERATURE
 LUN .               7609:   LOGGING UNIT NUMBER
 LUL .           GILLETTE:   LOGGING UNIT LOCATION
 ENGI.           JOHNSTON:   RECORDING ENGINEER
 WITN.             STRONG:   WITNESSED BY
 CLNT.            A2DTECH:   CLIENT CODE
 ORIG.        2" 5" PRINT:   ORIGIN OF DATA
 UWI .       490251124600:   UNIQUE WELL ID
 DICO. A2D Technologies, Inc.:   DIGITIZING COMPANY
~OTHER INFORMATION
~A    DEPT      GRR      RILD       RILM   
# ...
  455.0000   127.9572     7.5249     7.3508
  455.5000   126.7783     7.3153     7.1371
  456.0000   123.5324     7.1115     6.9305
  456.5000   121.5958     6.9134     6.7298
  457.0000   124.0817     6.7208     6.5349
  457.5000   126.9348     6.5336     6.3457
  458.0000   129.5172     6.3511     6.1617
  458.5000   130.1690     6.2247     5.9833
  459.0000   129.8663     6.1647     5.8518
  459.5000   129.2807     6.1344     5.8858
  460.0000   128.6568     6.3130     6.0238
  460.5000   127.5111     6.4397     6.1651
  461.0000   126.2698     6.5689     6.3096
  461.5000   125.0239     6.7007     6.4576
  462.0000   124.5710     6.8352     6.6091
  462.5000   126.2917     6.9724     6.7641
  463.0000   128.1551     7.1123     6.9227
  463.5000   128.7281     7.2670     7.1314
  464.0000   129.2412     7.2783     7.1245
  464.5000   129.8015     7.2907     7.1148
  465.0000   128.2201     7.3031     7.1053
  465.5000   126.1751     7.3154     7.0956
  466.0000   124.9217     7.3278     7.0860
  466.5000   125.6385     7.3358     7.0767
  467.0000   125.7622     7.1977     7.0665
  467.5000   125.7563     7.0979     6.9831
  468.0000   125.8371     6.9995     6.8418
  468.5000   127.4374     6.9025     6.7040
  469.0000   129.0368     6.8069     6.5690
  469.5000   129.8589     6.7142     6.3514
  470.0000   129.8552     6.5328     6.0237
  470.5000   129.8601     6.1763     5.7128
  471.0000   130.1347     5.8382     5.4180
  471.5000   131.0621     5.5184     5.1384
  472.0000   132.5163     5.2158     4.8733
  472.5000   134.4417     4.9325     4.6216
  473.0000   136.4223     4.8446     4.3833
  473.5000   134.8905     4.8788     4.1571
  474.0000   130.2586     4.9155     4.1301
  474.5000   123.9136     4.9525     4.4334
  475.0000   121.7290     5.0153     4.7332
  475.5000   121.6395     5.3193     5.0532
  476.0000   122.5100     5.6418     5.3948
  476.5000   123.5378     5.9838     5.7596
  477.0000   124.5820     6.3465     6.1490
  477.5000   126.1069     6.6925     6.5648
  478.0000   129.5773     6.8090     6.7262
  478.5000   132.7374     6.9276     6.7937
  479.0000   133.9800     7.0482     6.8621
  479.5000   134.7830     7.1709     6.9326
  480.0000   135.0521     7.2959     7.0304
  480.5000   134.7673     7.4225     7.1322
  481.0000   133.4415     7.5140     7.2356
  481.5000   131.9560     7.5787     7.3404
  482.0000   131.0851     7.6444     7.4467
  482.5000   131.3339     7.7106     7.5546
  483.0000   131.0149     7.7710     7.6357
  483.5000   128.9505     7.8099     7.6790
  484.0000   126.6892     7.8491     7.7225
  484.5000   126.3262     7.8884     7.7662
  485.0000   129.5312     7.9425     7.8102
  485.5000   132.7300     8.0147     7.8545
  486.0000   133.1512     8.0875     7.8992
  486.5000   131.2645     8.1609     7.9444
  487.0000   129.4016     8.2135     7.9841
  487.5000   129.8658     8.1467     7.8862
  488.0000   131.7197     8.0954     7.7957
  488.5000   132.4173     8.0443     7.7068
  489.0000   131.0381     7.9935     7.6189
  489.5000   129.7029     7.9431     7.5316
  490.0000   128.7430     7.8782     7.4753
  490.5000   128.2021     7.7853     7.6174
  491.0000   128.2120     7.6936     7.5773
  491.5000   128.6275     7.6030     7.5242
  492.0000   130.5531     7.5130     7.4715
  492.5000   132.4935     7.3538     7.4192
  493.0000   133.1479     7.0848     7.3681
  493.5000   132.4038     6.7967     7.2519
  494.0000   131.1323     6.5197     7.0436
  494.5000   129.9023     6.2277     6.8424
  495.0000   130.0170     5.8444     6.5266
  495.5000   130.1974     5.3701     6.1996
  496.0000   129.9401     4.7936     5.7919
  496.5000   129.5109     4.2789     5.1144
  497.0000   131.9138     3.8195     4.5162
  497.5000   135.9782     3.4094     3.9878
  498.0000   137.8198     3.0434     3.5210
  498.5000   132.1349     2.8497     3.1104
  499.0000   125.7147     2.6376     2.8249
  499.5000   119.8906     2.4368     2.6463
  500.0000   116.5148     2.4748     2.4790
  500.5000   116.5985     2.6051     2.3695
  501.0000   118.9920     2.7422     2.4260
  501.5000   121.3982     3.0019     2.6114
  502.0000   123.4881     3.3348     2.8377
  502.5000   125.3571     3.7046     3.2590
  503.0000   128.3391     4.1154     3.7428
  503.5000   132.1695     4.5718     4.2985
  504.0000   135.9476     5.0809     4.9382
  504.5000   137.9933     5.2719     5.2310
  505.0000   138.0509     5.4710     5.5380
  505.5000   138.0260     5.6776     5.8518
  506.0000   138.3447     5.7989     5.8518
  506.5000   139.9710     5.6100     5.8048
  507.0000   141.4170     5.3975     5.7497
  507.5000   141.7701     5.1922     5.7969
  508.0000   142.1245     4.9949     5.4651
  508.5000   142.5345     4.8052     5.0832
  509.0000   145.5723     4.6227     4.7281
  509.5000   148.9471     4.4472     4.3977
  510.0000   152.4095     4.2783     4.0904
  510.5000   151.9738     4.1158     3.9774
  511.0000   148.2986     3.9774     4.0496
  511.5000   143.2103     3.9774     4.2568
  512.0000   139.3795     4.2074     4.4757
  512.5000   135.7829     4.4568     4.7055
  513.0000   135.0909     4.7209     4.9469
  513.5000   138.1995     5.0007     5.2007
  514.0000   141.9221     5.2910     5.4676
  514.5000   144.1053     5.5772     5.7481
  515.0000   145.9520     5.8788     5.9799
  515.5000   146.1968     6.1967     6.2718
  516.0000   143.6396     6.4540     6.5779
  516.5000   141.1747     6.6345     6.8989
  517.0000   140.5847     6.8201     7.0673
  517.5000   141.5757     7.0646     7.1671
  518.0000   142.5424     7.0196     7.2682
  518.5000   142.8974     6.9580     7.3358
  519.0000   139.4238     6.8968     7.2248
  519.5000   137.3114     6.8362     7.1291
  520.0000   142.7908     6.7762     7.0346
  520.5000   148.5564     6.6594     6.9413
  521.0000   153.3181     6.4565     6.8415
  521.5000   152.3611     6.2599     6.7123
  522.0000   146.2114     6.0692     6.5667
  522.5000   143.3824     5.8843     6.3622
  523.0000   145.3800     5.7051     6.1600
  523.5000   147.8071     5.5314     5.8867
  524.0000   148.9847     5.3629     5.5213
  524.5000   146.4862     5.1995     5.1347
  525.0000   143.0359     5.0412     4.7980
  525.5000   139.9881     4.8876     4.5379
  526.0000   141.4748     4.7567     4.2645
  526.5000   144.2086     4.7567     4.1301
  527.0000   146.9308     4.8037     4.2492
  527.5000   145.8977     4.9430     4.5377
  528.0000   144.1662     5.1217     4.8458
  528.5000   142.9078     5.3721     5.1747
  529.0000   142.8953     5.6343     5.5260
  529.5000   144.6778     5.9094     5.9015
  530.0000   146.8491     6.1979     6.3018
  530.5000   149.0383     6.5007     6.7296
  531.0000   151.2188     6.8175     6.8228
  531.5000   151.0979     6.9667     6.8460
  532.0000   148.9696     7.0193     6.8678
  532.5000   145.9173     7.0723     6.9161
  533.0000   143.7585     7.1257     6.9618
  533.5000   143.8624     7.1795     7.0076
  534.0000   144.9022     7.2338     7.0539
  534.5000   145.9925     7.2884     7.1004
  535.0000   144.9821     7.3358     7.1312
  535.5000   142.5187     7.2877     7.0954
  536.0000   140.8647     7.2457     7.0683
  536.5000   142.3093     7.2040     7.0413
  537.0000   144.9789     7.1625     7.0145
  537.5000   147.6630     7.1213     6.9944
  538.0000   150.2942     7.0646     6.9843
  538.5000   152.1198     7.0707     6.9742
  539.0000   153.9046     7.0806     6.9641
  539.5000   155.6982     7.0905     6.9541
  540.0000   157.5355     7.1005     6.9439
  540.5000   157.8491     7.1105     6.9337
  541.0000   152.9547     7.1253     6.9785
  541.5000   148.3651     7.1325     7.0312
  542.0000   146.6429     6.9798     7.0843
  542.5000   147.8000     6.8165     7.1314
  543.0000   150.1493     6.6558     6.9070
  543.5000   152.4768     6.4991     6.7123
  544.0000   154.8653     6.3460     6.5231
  544.5000   156.9367     6.1966     6.3392
  545.0000   157.0885     6.0375     6.1919
  545.5000   157.2122     5.8235     6.1514
