~VERSION INFORMATION
 VERS.                2.0:   CWLS LOG ASCII STANDARD - VERSION 2.0
 WRAP.                 NO:   ONE LINE PER DEPTH STEP
~WELL INFORMATION
#MNEM.UNIT      DATA TYPE    INFORMATION
#----------   ------------   ------------------------------
 STRT.F           12.0000:   START DEPTH
 STOP.F          664.5000:   STOP DEPTH
 STEP.F            0.5000:   STEP LENGTH
 NULL.          -999.2500:   NO VALUE
 COMP. LAWRENCE/ALLISON INC:   COMPANY
 WELL.   23-16 SHX #14-14:   WELL
 FLD .             TEAPOT:   FIELD
 LOC .      S14 T38N R78W:   LOCATION
 CNTY.            NATRONA:   COUNTY
 STAT.            WYOMING:   STATE
 CTRY. UNITED STATES OF AMERICA:   COUNTRY
 SRVC.           Gearhart:   SERVICE COMPANY
 DATE.        03-JUL-1987:   LOGDATE
 API .       490251114200:   API NUMBER
~CURVE INFORMATION
#MNEM.UNIT       API CODE    CURVE DESCRIPTION
#----------   ------------   ------------------------------
 DEPT.F                  :   
 RILD.OHMM   07 120 46 00:   INDUCTION LOG DEEP RESISTIVITY
 RILM.OHMM   07 120 44 00:   INDUCTION LOG MEDIUM RESISTIVITY
 GRR .GAPI   07 310 01 00:   GAMMA RAY FROM RES. LOG
~PARAMETER INFORMATION
#MNEM.UNIT          VALUE    DESCRIPTION
#----------   ------------   ------------------------------
 PD  .                 GL:   PERMANENT DATUM
 EPD .F              5203:   ELEVATION PERMANENT DATUM
 LMF .                 KB:   LOG MEASURED FROM
 DAPD.F                 8:   FEET ABOVE PERMANENT DATUM
 DMF .                 KB:   DRILLING MEASURED FROM
 EKB .F              5211:   KELLING BUSHING
 EDF .F              5210:   DRILLING FLOOR
 EGL .F              5203:   GROUND LEVEL
 DATE.             7-3-87:   RUN DATE
 RUN .                  1:   RUN NUMBER
 DD  .F               679:   DEPTH DRILLER
 DL  .F               672:   DEPTH LOGGER
 BLI .F               664:   BOTTOM LOG INTERVAL
 TLI .F                48:   TOP LOG INTERVAL
 CS  .IN            8.625:   CASING SIZE
 CBD .F                48:   CASING BOTTOM DRILLER
 CBL .F                48:   CASING BOTTOM LOGGER
 BS  .IN            7.875:   BIT SIZE
 BSD .F               679:   BIT SIZE AT DEPTH
 DFT .               FOAM:   DRILLING FLUID TYPE
 TCS .HRS            1345:   TIME CURCULATED STOPPED
 TLAB.HRS            1450:   TIME LOGGER AT BOTTOM
 MRT .F                80:   MAXIMUM RECORDED TEMPERATURE
 LUN .               7597:   LOGGING UNIT NUMBER
 LUL .           GILLETTE:   LOGGING UNIT LOCATION
 ENGI.            WANGLER:   RECORDING ENGINEER
 WITN.             STRONG:   WITNESSED BY
 CLNT.            A2DTECH:   CLIENT CODE
 ORIG.       2", 5" PRINT:   ORIGIN OF DATA
 UWI .       490251114200:   UNIQUE WELL ID
 DICO. A2D Technologies, Inc.:   DIGITIZING COMPANY
~OTHER INFORMATION
~A   DEPT     RILD       RILM         GRR  
# ...
  194.0000     7.4033     6.8607   119.9182
  194.5000     7.5381     6.9416   120.2053
  195.0000     7.6755     7.0268   117.6829
  195.5000     7.8153     7.0933   115.1371
  196.0000     7.9576     7.1628   114.1750
  196.5000     8.0745     7.2333   114.7641
  197.0000     8.0656     7.3043   115.4090
  197.5000     8.0469     7.3597   116.0676
  198.0000     8.0279     7.3597   116.1965
  198.5000     8.0094     7.3147   115.4185
  199.0000     7.9815     7.2835   114.3535
  199.5000     7.9446     7.2525   110.1618
  200.0000     7.9076     7.2247   106.9796
  200.5000     7.8707     7.1807   109.8820
  201.0000     7.8341     7.0940   114.7631
  201.5000     7.7976     7.0083   119.8374
  202.0000     7.7613     6.9232   120.0721
  202.5000     7.7252     6.8334   115.9430
  203.0000     7.7083     6.8348   113.4936
  203.5000     7.8085     6.8560   112.0902
  204.0000     7.9170     6.9202   113.6992
  204.5000     8.0269     7.0674   114.8960
  205.0000     8.1383     7.3756   113.3661
  205.5000     8.2514     7.7083   111.6472
  206.0000     8.4371     7.8640   111.3510
  206.5000     8.6836     8.0284   112.9466
  207.0000     8.9445     8.1963   114.6533
  207.5000     8.9342     8.3008   116.3340
  208.0000     9.0220     8.3008   117.4017
  208.5000     8.8210     8.1602   115.9314
  209.0000     8.6238     8.0214   113.5752
  209.5000     8.4309     7.8850   111.7279
  210.0000     8.2424     7.7509   113.4181
  210.5000     8.0579     7.6191   115.1396
  211.0000     7.8779     7.4895   115.6534
  211.5000     7.7083     7.3621   115.0676
  212.0000     7.7083     7.2919   116.1814
  212.5000     7.7083     7.3270   118.9746
  213.0000     7.7083     7.4062   119.5183
  213.5000     7.7644     7.4972   118.0334
  214.0000     7.8305     7.4037   116.5978
  214.5000     7.8970     7.2967   115.7272
  215.0000     7.9641     7.1913   116.2582
  215.5000     8.0319     7.1581   116.9909
  216.0000     8.1001     7.2166   117.1751
  216.5000     8.1564     7.3376   116.5577
  217.0000     8.1829     7.4606   117.0034
  217.5000     8.2096     7.5252   117.8000
  218.0000     8.2363     7.5807   117.2701
  218.5000     8.2631     7.6367   116.5427
  219.0000     8.2900     7.6930   117.0659
  219.5000     8.3169     7.7498   117.3538
  220.0000     8.3579     7.8070   116.4974
  220.5000     8.3649     7.8646   115.5585
  221.0000     8.5365     7.9254   115.0053
  221.5000     8.5217     7.9069   116.8846
  222.0000     8.4664     7.8875   118.9773
  222.5000     8.4350     7.8682   119.0729
  223.0000     8.4036     7.8354   117.0190
  223.5000     8.3574     7.7395   115.0277
  224.0000     8.2447     7.6447   114.6360
  224.5000     8.1335     7.5510   117.6503
  225.0000     8.0237     7.4585   120.2768
  225.5000     7.9149     7.3672   118.9721
  226.0000     7.8526     7.2769   116.9391
  226.5000     7.8633     7.2247   114.8826
  227.0000     7.8714     7.2326   114.7593
  227.5000     7.8795     7.2422   118.1911
  228.0000     7.8875     7.2518   122.1350
  228.5000     7.8955     7.2615   126.1651
  229.0000     7.9035     7.2712   123.9072
  229.5000     7.9115     7.2808   120.6196
  230.0000     7.9193     7.2905   117.3131
  230.5000     7.9263     7.3002   113.9791
  231.0000     7.9432     7.3099   112.9205
  231.5000     7.9601     7.3197   113.0553
  232.0000     7.9770     7.3294   115.7613
  232.5000     7.9939     7.3392   118.2572
  233.0000     8.0108     7.3489   117.9494
  233.5000     8.0278     7.3596   115.1903
  234.0000     8.0448     7.3912   114.5476
  234.5000     8.0618     7.4541   114.4901
  235.0000     8.0789     7.5174   116.8276
  235.5000     8.0960     7.5813   119.9978
  236.0000     8.1133     7.6458   123.1932
  236.5000     8.1307     7.7108   126.3783
  237.0000     8.1484     7.7800   129.2238
  237.5000     8.2643     7.7908   126.6739
  238.0000     8.3890     7.8637   123.4164
  238.5000     8.5157     7.9373   120.0668
  239.0000     8.6440     8.0115   119.3839
  239.5000     8.7744     8.0865   119.9136
  240.0000     8.8565     8.1621   120.5814
  240.5000     8.8902     8.2386   120.4397
  241.0000     8.9248     8.3154   119.4058
  241.5000     8.9595     8.3778   118.3846
  242.0000     8.9943     8.3647   117.3702
  242.5000     9.0293     8.3536   116.3624
  243.0000     9.0644     8.3425   115.9802
  243.5000     9.0996     8.3314   119.7526
  244.0000     9.1905     8.3203   124.1038
  244.5000     9.3486     8.3057   127.5458
  245.0000     9.5428     8.3008   126.9884
  245.5000     9.7413     8.5511   125.8320
  246.0000     9.9438     8.7587   124.6893
  246.5000    10.1505     8.9713   123.5687
  247.0000    10.3615     9.1891   122.4196
  247.5000    10.5769     9.4122   121.2887
  248.0000    10.7968     9.7164   120.1689
  248.5000    11.0008     9.7150   118.9986
  249.0000    11.1555     9.8620   117.4168
  249.5000    11.2678     9.9773   114.2601
  250.0000    11.3811    10.0943   111.2235
  250.5000    11.4783    10.2127   109.2344
  251.0000    11.4780    10.3658   112.2449
  251.5000    11.3276    10.3438   116.3132
  252.0000    11.2303    10.3135   119.8687
  252.5000    11.1338    10.2835   118.1688
  253.0000    11.0381    10.2533   113.5245
  253.5000    10.9433    10.2233   112.8812
  254.0000    10.8493    10.1935   114.3333
  254.5000    10.7568    10.1637   115.7884
  255.0000    10.7492    10.1339   115.7598
  255.5000    10.7417    10.1043   115.7463
  256.0000    10.7342    10.0801   116.4444
  256.5000    10.7267    10.0725   116.2438
  257.0000    10.7192    10.0648   114.7388
  257.5000    10.7117    10.0573   113.2543
  258.0000    10.7042    10.0497   112.3832
  258.5000    10.6967    10.0421   117.2930
  259.0000    10.6893    10.0345   122.5787
  259.5000    10.6818    10.0269   126.3958
  260.0000    10.6743    10.0193   123.0066
  260.5000    10.6670    10.0118   118.5918
  261.0000    10.6601    10.0043   114.1559
  261.5000    10.5814     9.9973   110.3482
  262.0000    10.4827     9.9890   113.2775
  262.5000    10.3850     9.8845   117.3703
  263.0000    10.2882     9.7798   121.4842
  263.5000    10.1918     9.6763   125.3548
  264.0000    10.1593     9.5738   125.4523
  264.5000    10.1394     9.5168   125.6174
  265.0000    10.1197     9.4850   129.3023
  265.5000    10.1000     9.4534   132.6618
  266.0000    10.0803     9.4218   131.6124
  266.5000    10.0606     9.3903   128.5384
  267.0000    10.0410     9.3590   127.0729
  267.5000    10.0213     9.3279   128.7245
  268.0000    10.0018     9.2965   130.7576
  268.5000     9.9586     9.2475   128.8136
  269.0000     9.7392     9.0498   125.5964
  269.5000     9.5255     8.8562   124.4107
  270.0000     9.3163     8.6668   123.1645
  270.5000     9.1119     8.4815   121.9328
  271.0000     8.9120     8.3001   120.9888
  271.5000     8.7164     8.1226   121.0341
  272.0000     8.5252     7.9489   122.3572
  272.5000     8.3780     7.7789   125.6090
  273.0000     8.3763     7.6125   128.8320
  273.5000     8.3783     7.4497   132.0978
  274.0000     8.3768     7.4281   133.1040
  274.5000     8.4742     7.6584   132.2627
  275.0000     8.5852     7.9013   130.4334
  275.5000     8.6976     8.1509   128.6076
  276.0000     8.8115     8.2537   126.7589
  276.5000     8.9270     8.3463   127.1965
  277.0000     9.0437     8.4399   127.5140
  277.5000     9.1622     8.5345   123.4842
  278.0000     9.1905     8.6139   119.2570
  278.5000     9.1268     8.6940   114.9460
  279.0000     9.0804     8.6622   113.7362
  279.5000     9.0343     8.5815   119.0332
  280.0000     8.9885     8.5014   124.4803
  280.5000     8.9428     8.4222   121.4341
  281.0000     8.8974     8.3436   116.3564
  281.5000     8.8522     8.3008   113.2401
  282.0000     8.8073     8.3008   114.6035
  282.5000     8.7749     8.3225   112.0321
  283.0000     8.9515     8.3685   107.7307
  283.5000     9.0924     8.4148   108.3893
  284.0000     9.2355     8.4559   114.8827
  284.5000     9.3808     8.5431   121.4569
