~VERSION INFORMATION
 VERS.                2.0:   CWLS LOG ASCII STANDARD - VERSION 2.0
 WRAP.                 NO:   ONE LINE PER DEPTH STEP
~WELL INFORMATION
#MNEM.UNIT      DATA TYPE    INFORMATION
#----------   ------------   ------------------------------
 STRT.F            0.0000:   START DEPTH
 STOP.F         2720.0000:   STOP DEPTH
 STEP.F            0.5000:   STEP LENGTH
 NULL.          -999.2500:   NO VALUE
 COMP. DEPARTMENT OF ENERGY:   COMPANY
 WELL.       NPR-3 #410-A:   WELL
 FLD . TEAPOT NAVAL RESERVE:   FIELD
 LOC .      S20 T39N R78W:   LOCATION
 CNTY.            NATRONA:   COUNTY
 STAT.            WYOMING:   STATE
 CTRY. UNITED STATES OF AMERICA:   COUNTRY
 SRVC.      NL McCullough:   SERVICE COMPANY
 DATE.        26-JUL-1965:   LOGDATE
 API .       490251144500:   API NUMBER
~CURVE INFORMATION
#MNEM.UNIT       API CODE    CURVE DESCRIPTION
#----------   ------------   ------------------------------
 DEPT.F                  :   
 GR  .GAPI   30 310 01 00:   GAMMA RAY
 CALI.IN     30 280 01 00:   CALIPER
~PARAMETER INFORMATION
#MNEM.UNIT          VALUE    DESCRIPTION
#----------   ------------   ------------------------------
 PD  .                 GL:   PERMANENT DATUM
 LMF .                 GL:   LOG MEASURED FROM
 DATE.            7-16-65:   RUN DATE
 RUN .                  1:   RUN NUMBER
 DD  .F              2720:   DEPTH DRILLER
 TLI .F              2100:   TOP LOG INTERVAL
 CS  .IN            6.875:   CASING SIZE
 DFT .              WATER:   DRILLING FLUID TYPE
 ENGI. FITZSIMMONE/COWLTHORPE:   RECORDING ENGINEER
 WITN.             HUDSON:   WITNESSED BY
 CLNT.            A2DTECH:   CLIENT CODE
 ORIG.           5" PRINT:   ORIGIN OF DATA
 UWI .       490251144500:   UNIQUE WELL ID
 DICO. A2D Technologies, Inc.:   DIGITIZING COMPANY
~OTHER INFORMATION
~A    DEPT      GR         CALI 
# ...
 2430.0000    42.9951     5.9177
 2430.5000    42.4610     5.9416
 2431.0000    41.7624     5.9419
 2431.5000    40.3496     5.9261
 2432.0000    39.1050     5.9105
 2432.5000    36.5529     5.9004
 2433.0000    37.7513     5.8893
 2433.5000    37.0490     5.8780
 2434.0000    35.7413     5.8670
 2434.5000    35.0605     5.8561
 2435.0000    34.4739     5.8524
 2435.5000    32.8947     5.8604
 2436.0000    31.8831     5.8683
 2436.5000    33.0240     5.8763
 2437.0000    33.9340     5.8841
 2437.5000    39.1482     5.8874
 2438.0000    36.7312     5.8797
 2438.5000    36.2578     5.8723
 2439.0000    35.8733     5.8649
 2439.5000    36.5545     5.8573
 2440.0000    33.4649     5.8494
 2440.5000    34.9603     5.8654
 2441.0000    35.4799     5.8867
 2441.5000    37.7256     5.9085
 2442.0000    42.5402     5.9027
 2442.5000    44.8820     5.8946
 2443.0000    37.5793     5.8867
 2443.5000    33.6018     5.8787
 2444.0000    30.7496     5.8703
 2444.5000    28.0365     5.8837
 2445.0000    26.8679     5.9010
 2445.5000    23.9725     5.9180
 2446.0000    21.7549     5.9272
 2446.5000    22.3165     5.9184
 2447.0000    23.7487     5.9100
 2447.5000    29.0349     5.9016
 2448.0000    32.8567     5.8932
 2448.5000    33.2154     5.8915
 2449.0000    35.8125     5.8962
 2449.5000    36.5235     5.9009
 2450.0000    30.9106     5.9056
 2450.5000    27.6027     5.9103
 2451.0000    26.5961     5.9150
 2451.5000    28.1203     5.9197
 2452.0000    29.3535     5.9244
 2452.5000    33.7982     5.9295
 2453.0000    36.5076     5.9172
 2453.5000    40.3950     5.9025
 2454.0000    44.7108     5.8878
 2454.5000    38.9781     5.8724
 2455.0000    35.1381     5.8841
 2455.5000    35.0758     5.9036
 2456.0000    38.6213     5.9232
 2456.5000    36.5606     5.9427
 2457.0000    35.6341     5.9398
 2457.5000    38.8383     5.9176
 2458.0000    35.5830     5.8954
 2458.5000    31.8340     5.8731
 2459.0000    35.6265     5.8508
 2459.5000    39.5200     5.8299
 2460.0000    37.9578     5.8348
 2460.5000    35.0638     5.8469
 2461.0000    34.4570     5.8588
 2461.5000    31.5606     5.8687
 2462.0000    28.7030     5.8621
 2462.5000    25.8561     5.8553
 2463.0000    23.0080     5.8492
 2463.5000    22.9169     5.8493
 2464.0000    24.3087     5.8561
 2464.5000    25.6456     5.8674
 2465.0000    26.9867     5.8568
 2465.5000    28.6693     5.8398
 2466.0000    31.7536     5.8228
 2466.5000    34.7633     5.8119
 2467.0000    37.8115     5.8295
 2467.5000    37.9197     5.8465
 2468.0000    36.8689     5.8636
 2468.5000    36.4059     5.8694
 2469.0000    38.2532     5.8717
 2469.5000    37.6837     5.8742
 2470.0000    35.9891     5.8767
 2470.5000    36.2537     5.8792
 2471.0000    37.1468     5.8817
 2471.5000    35.9898     5.8842
 2472.0000    34.8276     5.8867
 2472.5000    32.2548     5.8891
 2473.0000    31.2509     5.8934
 2473.5000    32.7208     5.8979
 2474.0000    36.6091     5.9024
 2474.5000    38.8555     5.9068
 2475.0000    40.0428     5.9113
 2475.5000    34.1346     5.9158
 2476.0000    30.1531     5.9203
 2476.5000    28.2743     5.9248
 2477.0000    28.8039     5.9300
 2477.5000    31.7472     5.9044
 2478.0000    37.2694     5.8756
 2478.5000    36.0737     5.8497
 2479.0000    35.5276     5.8512
 2479.5000    38.9464     5.8531
 2480.0000    41.6180     5.8549
 2480.5000    36.1558     5.8567
 2481.0000    34.3013     5.8585
 2481.5000    33.6871     5.8603
 2482.0000    36.7463     5.8621
 2482.5000    37.5367     5.8639
 2483.0000    33.1008     5.8657
 2483.5000    31.1403     5.8675
 2484.0000    32.6752     5.8694
 2484.5000    35.5886     5.8650
 2485.0000    39.4404     5.8597
 2485.5000    39.3474     5.8544
 2486.0000    39.7481     5.8492
 2486.5000    40.3955     5.8440
 2487.0000    39.6747     5.8387
 2487.5000    38.9572     5.8334
 2488.0000    36.2629     5.8318
 2488.5000    31.6149     5.8462
 2489.0000    29.8082     5.8602
 2489.5000    31.9896     5.8744
 2490.0000    34.9201     5.8888
 2490.5000    33.3971     5.8772
 2491.0000    33.1964     5.8632
 2491.5000    31.2761     5.8493
 2492.0000    29.1881     5.8353
 2492.5000    28.3969     5.8214
 2493.0000    27.7627     5.8113
 2493.5000    24.9725     5.8330
 2494.0000    24.5180     5.8546
 2494.5000    30.0193     5.8762
 2495.0000    34.5043     5.8974
 2495.5000    34.1074     5.9019
 2496.0000    32.0803     5.8838
 2496.5000    36.1671     5.8659
 2497.0000    34.7907     5.8497
 2497.5000    34.9477     5.8515
 2498.0000    33.7836     5.8537
 2498.5000    36.6390     5.8558
 2499.0000    40.0665     5.8579
 2499.5000    40.2625     5.8599
 2500.0000    42.6642     5.8620
 2500.5000    42.5399     5.8641
 2501.0000    43.9541     5.8662
 2501.5000    45.6392     5.8682
 2502.0000    47.3594     5.8654
 2502.5000    51.0963     5.8550
 2503.0000    53.5019     5.8447
 2503.5000    55.8044     5.8344
 2504.0000    63.0665     5.8301
 2504.5000    68.4519     5.8322
 2505.0000    62.2016     5.8344
 2505.5000    59.0721     5.8366
 2506.0000    60.4171     5.8388
 2506.5000    61.6192     5.8410
 2507.0000    64.1942     5.8432
 2507.5000    66.3217     5.8454
 2508.0000    67.8651     5.8476
 2508.5000    63.1149     5.8508
 2509.0000    58.9237     5.8597
 2509.5000    57.4717     5.8685
 2510.0000    56.3001     5.8773
 2510.5000    53.4379     5.8860
 2511.0000    52.2501     5.8948
 2511.5000    53.6722     5.9036
 2512.0000    50.5720     5.9124
 2512.5000    47.1008     5.9213
 2513.0000    51.6960     5.9292
 2513.5000    47.9552     5.9198
 2514.0000    36.3969     5.9098
 2514.5000    32.8400     5.8998
 2515.0000    31.7927     5.8901
 2515.5000    32.7096     5.9006
 2516.0000    31.6414     5.9127
 2516.5000    30.5279     5.9246
 2517.0000    32.6943     5.9365
 2517.5000    32.7162     5.9486
 2518.0000    37.1557     5.9418
 2518.5000    41.7728     5.9301
 2519.0000    45.9319     5.9208
 2519.5000    45.1214     5.9109
 2520.0000    37.8823     5.9261
 2520.5000    33.2948     5.9468
 2521.0000    32.7367     5.9676
 2521.5000    31.0346     5.9635
 2522.0000    29.3136     5.9561
 2522.5000    27.0599     5.9486
 2523.0000    29.7090     5.9412
 2523.5000    31.6351     5.9340
 2524.0000    32.6557     5.9360
 2524.5000    37.1676     5.9509
 2525.0000    42.7259     5.9656
 2525.5000    48.3413     5.9802
 2526.0000    45.2961     5.9882
 2526.5000    45.3103     5.9824
 2527.0000    44.4232     5.9769
 2527.5000    49.8915     5.9713
 2528.0000    47.1628     5.9657
 2528.5000    46.4322     5.9601
 2529.0000    47.0910     5.9545
 2529.5000    44.7897     5.9502
 2530.0000    42.7979     5.9545
 2530.5000    43.3915     5.9587
 2531.0000    43.5135     5.9629
 2531.5000    43.7900     5.9669
 2532.0000    46.8825     5.9660
 2532.5000    47.4547     5.9489
 2533.0000    48.6197     5.9327
 2533.5000    48.9700     5.9162
 2534.0000    49.2250     5.9147
 2534.5000    49.2544     5.9229
 2535.0000    44.1121     5.9313
 2535.5000    43.8098     5.9397
 2536.0000    42.1425     5.9480
 2536.5000    41.6010     5.9564
 2537.0000    41.7922     5.9647
 2537.5000    43.8859     5.9652
 2538.0000    43.3389     5.9527
 2538.5000    40.6507     5.9403
 2539.0000    41.3329     5.9279
 2539.5000    42.1151     5.9155
 2540.0000    42.2103     5.9193
 2540.5000    45.5259     5.9374
 2541.0000    48.8632     5.9558
 2541.5000    50.4494     5.9695
 2542.0000    53.8806     5.9466
 2542.5000    55.9176     5.9235
 2543.0000    58.3473     5.9005
 2543.5000    56.2380     5.8969
 2544.0000    52.8304     5.9104
 2544.5000    51.9645     5.9241
 2545.0000    63.4147     5.9310
 2545.5000    72.4833     5.9689
 2546.0000    78.1420     5.9864
 2546.5000    80.0984     5.9698
 2547.0000    82.2318     5.9534
 2547.5000    85.3601     5.9527
 2548.0000    90.3054     5.9615
 2548.5000    93.2278     5.9695
 2549.0000    90.4554     5.9634
 2549.5000    87.5263     5.9568
 2550.0000    83.4774     5.9502
 2550.5000    81.6570     5.9573
 2551.0000    81.1052     5.9658
