~VERSION INFORMATION
 VERS.                2.0:   CWLS LOG ASCII STANDARD - VERSION 2.0
 WRAP.                 NO:   ONE LINE PER DEPTH STEP
~WELL INFORMATION
#MNEM.UNIT      DATA TYPE    INFORMATION
#----------   ------------   ------------------------------
 STRT.F            0.0000:   START DEPTH
 STOP.F         1110.0000:   STOP DEPTH
 STEP.F            0.5000:   STEP LENGTH
 NULL.          -999.2500:   NO VALUE
 COMP. FENIX & SCISSON INC:   COMPANY
 WELL. NAVAL PETROLEUM RESERVE 3 SX-1 #63-14:   WELL
 FLD .       TEA POT DOME:   FIELD
 LOC .      S14 T38N R78W:   LOCATION
 CNTY.            NATRONA:   COUNTY
 STAT.            WYOMING:   STATE
 CTRY. UNITED STATES OF AMERICA:   COUNTRY
 SRVC.            Unknown:   SERVICE COMPANY
 DATE.        15-APR-1978:   LOGDATE
 API .       490251061500:   API NUMBER
~CURVE INFORMATION
#MNEM.UNIT       API CODE    CURVE DESCRIPTION
#----------   ------------   ------------------------------
 DEPT.F                  :   
 NPHI.DEC    42 890 03 00:   NEUTRON POROSITY SANDSTONE
 GRD .GAPI   45 310 01 00:   GAMMA RAY FROM DENSITY LOG
 CALD.IN     45 280 60 00:   CALIPER FROM DENSITY LOG
 RHOB.G/C3   45 350 01 00:   BULK DENSITY
 DPHI.DEC    45 890 12 00:   DENSITY POROSITY SANDSTONE
 CORR.G/C3   45 356 01 00:   DENSITY CORRECTION
 SPR .MV     05 010 01 00:   SPONTANEOUS POTENTIAL FROM RES.
 SN  .OHMM   05 040 16 00:   SHORT NORMAL 16"
 ILD .OHMM   05 120 46 00:   INDUCTION LOG DEEP
~PARAMETER INFORMATION
#MNEM.UNIT          VALUE    DESCRIPTION
#----------   ------------   ------------------------------
 PD  .                 GL:   PERMANENT DATUM
 EPD .F              5253:   ELEVATION PERMANENT DATUM
 LMF .                 KB:   LOG MEASURED FROM
 DAPD.F                 4:   FEET ABOVE PERMANENT DATUM
 DMF .                 KB:   DRILLING MEASURED FROM
 EKB .F              5257:   KELLING BUSHING
 EGL .F              5253:   GROUND LEVEL
 DATE.          4-15-1978:   RUN DATE
 RUN .                  1:   RUN NUMBER
 DD  .F              1095:   DEPTH DRILLER
 DL  .F              1102:   DEPTH LOGGER
 BLI .F              1100:   BOTTOM LOG INTERVAL
 TLI .F               850:   TOP LOG INTERVAL
 CS  .IN            9.625:   CASING SIZE
 CBD .F                40:   CASING BOTTOM DRILLER
 CBL .F                40:   CASING BOTTOM LOGGER
 BS  .IN            7.875:   BIT SIZE
 BSD .F              1095:   BIT SIZE AT DEPTH
 DFT .                KCL:   DRILLING FLUID TYPE
 DFD .                8.6:   DRILLING FLUID DENSITY
 DFV .                 30:   DRILLING FLUID VISCOSITY
 DFPH.                 10:   DRILLING FLUID PH
 DFL .                  8:   DRILLING FLUID LOSS
 MSS .           FLOWLINE:   MUD SAMPLE SOURCE
 RMS .OHMM            .46:   RESISTIVITY MUD SAMPLE
 MST .F                58:   MUD SAMPLE TEMPERATURE
 RMF .OHMM             .5:   RESISTIVITY MUD FILTRATE SAMPLE
 MFST.F                60:   MUD FILTRATE SAMPLE TEMPERATURE
 RMC .OHMM             .5:   RESISTIVITY MUD CAKE
 MCST.F                60:   MUD CAKE SAMPLE TEMPERATURE
 MFSS.           MEASURED:   MUD FILTRATE SAMPLE SOURCE
 RMB .OHMM            .33:   RESISTIVITY MUD AT BHT
 BHT .F                80:   BOTTOM HOLE TEMPERATURE
 TCS .HRS               6:   TIME CURCULATED STOPPED
 MRT .F                80:   MAXIMUM RECORDED TEMPERATURE
 LUN .               2958:   LOGGING UNIT NUMBER
 LUL .               CASP:   LOGGING UNIT LOCATION
 ENGI.             MILLER:   RECORDING ENGINEER
 WITN.           MCGINLEY:   WITNESSED BY
 CLNT.            A2DTECH:   CLIENT CODE
 ORIG.      2" & 5" PRINT:   ORIGIN OF DATA
 UWI .       490251061500:   UNIQUE WELL ID
 DICO. A2D Technologies, Inc.:   DIGITIZING COMPANY
~OTHER INFORMATION
~A    DEPT    NPHI         GRD      CALD       RHOB       DPHI       CORR        SPR         SN        ILD   
# ...
  584.0000  -999.2500    95.1952     7.8439     2.4593     0.1195     0.0497   -49.5065     6.4129     6.2378
  584.5000  -999.2500    99.3289     7.7590     2.4582     0.1153     0.0529   -49.4979     6.5180     6.3407
  585.0000  -999.2500   101.5222     7.7690     2.4661     0.1086     0.0546   -49.4892     6.5926     6.4129
  585.5000  -999.2500    99.2976     7.7762     2.4751     0.1024     0.0545   -49.4806     6.6676     6.4859
  586.0000  -999.2500    95.1363     7.8370     2.4745     0.1012     0.0545   -49.4719     6.7435     6.5598
  586.5000  -999.2500    92.6921     7.8987     2.4741     0.1031     0.0546   -49.4633     6.8203     6.6349
  587.0000  -999.2500    91.0510     7.9203     2.4751     0.1053     0.0557   -49.4546     6.9029     6.7150
  587.5000  -999.2500    91.2613     7.9402     2.4767     0.1042     0.0606   -49.4460     6.9177     6.7115
  588.0000  -999.2500    93.7539     7.9602     2.4783     0.1010     0.0654   -49.4373     6.9337     6.7071
  588.5000  -999.2500    95.5434     7.9871     2.4799     0.0997     0.0676   -49.4287     6.9496     6.7031
  589.0000  -999.2500    95.3709     8.0539     2.4794     0.0983     0.0691   -49.4200     6.9656     6.6991
  589.5000  -999.2500    94.8719     8.0274     2.4783     0.0969     0.0705   -49.4114     6.9816     6.6952
  590.0000  -999.2500    95.2467     8.0035     2.4797     0.0955     0.0699   -49.4026     6.9976     6.6912
  590.5000  -999.2500    96.3869     8.0478     2.4798     0.0955     0.0692   -49.4026     7.0137     6.6873
  591.0000  -999.2500    96.7829     8.0497     2.4762     0.0960     0.0678   -49.4042     7.0299     6.6833
  591.5000  -999.2500    96.9914     7.9664     2.4727     0.0995     0.0623   -49.4059     7.0460     6.6794
  592.0000  -999.2500    97.2135     7.8966     2.4692     0.1032     0.0569   -49.4076     7.0622     6.6754
  592.5000  -999.2500    96.6040     7.8926     2.4673     0.1069     0.0533   -49.4093     7.0785     6.6715
  593.0000  -999.2500    94.4382     7.8597     2.4683     0.1060     0.0511   -49.4110     7.0962     6.6675
  593.5000  -999.2500    92.6189     7.8656     2.4681     0.1058     0.0489   -49.4127     7.0665     6.6636
  594.0000  -999.2500    91.5546     7.9363     2.4658     0.1062     0.0468   -49.4143     7.0334     6.6597
  594.5000  -999.2500    90.4990     7.9818     2.4644     0.1063     0.0446   -49.4160     7.0006     6.6557
  595.0000  -999.2500    90.4755     7.9895     2.4668     0.1091     0.0424   -49.4177     6.9680     6.6461
  595.5000  -999.2500    92.0072     7.9999     2.4687     0.1030     0.0402   -49.4194     6.9355     6.6261
  596.0000  -999.2500    93.4174     8.0572     2.4644     0.1000     0.0376   -49.4211     6.9032     6.6061
  596.5000  -999.2500    93.4414     8.0770     2.4613     0.1141     0.0331   -49.4227     6.8710     6.5862
  597.0000  -999.2500    91.1785     8.0554     2.4632     0.1088     0.0315   -49.4244     6.8390     6.5664
  597.5000  -999.2500    88.9778     8.0041     2.4650     0.1095     0.0426   -49.4261     6.8071     6.5466
  598.0000  -999.2500    90.3544     7.9461     2.4669     0.1074     0.0577   -49.4278     6.7754     6.5269
  598.5000  -999.2500    92.0961     7.9641     2.4687     0.1049     0.0625   -49.4295     6.7438     6.5073
  599.0000  -999.2500    94.8366     7.9943     2.4684     0.1023     0.0626   -49.4312     6.7123     6.4877
  599.5000  -999.2500    96.2359     7.9981     2.4616     0.1020     0.0604   -49.4328     6.6811     6.4682
  600.0000  -999.2500    96.1596     7.9981     2.4550     0.1116     0.0572   -49.4345     6.6499     6.4487
  600.5000  -999.2500    96.0452     7.9980     2.4483     0.1168     0.0541   -49.4362     6.6189     6.4294
  601.0000  -999.2500    96.6607     7.9937     2.4486     0.1158     0.0483   -49.4379     6.5918     6.4124
  601.5000  -999.2500    97.7871     7.9777     2.4494     0.1144     0.0441   -49.4396     6.6298     6.4492
  602.0000  -999.2500    99.4870     7.9093     2.4507     0.1162     0.0432   -49.4412     6.6702     6.4885
  602.5000  -999.2500    99.8098     7.8962     2.4558     0.1169     0.0428   -49.4429     6.7109     6.5280
  603.0000  -999.2500    99.2658     7.9252     2.4613     0.1120     0.0444   -49.4446     6.7518     6.5678
  603.5000  -999.2500    98.3165     7.9549     2.4667     0.1036     0.0460   -49.4463     6.7930     6.6079
  604.0000  -999.2500    97.3658     7.9777     2.4636     0.1040     0.0476   -49.4480     6.8344     6.6481
  604.5000  -999.2500    97.2866     7.9725     2.4601     0.1095     0.0492   -49.4496     6.8760     6.6887
  605.0000  -999.2500    98.3151     7.9679     2.4623     0.1126     0.0507   -49.4513     6.9180     6.7294
  605.5000  -999.2500    99.6610     7.9630     2.4673     0.1097     0.0523   -49.4530     6.9601     6.7705
  606.0000  -999.2500   101.0273     7.9572     2.4725     0.1049     0.0539   -49.4547     7.0026     6.8117
  606.5000  -999.2500   102.2208     8.0067     2.4747     0.1017     0.0555   -49.4564     7.0340     6.8423
  607.0000  -999.2500    98.5501     8.0608     2.4757     0.1020     0.0561   -49.4580     7.0424     6.8505
  607.5000  -999.2500    97.8594     8.0983     2.4768     0.1016     0.0545   -49.4597     7.0509     6.8588
  608.0000  -999.2500   100.8293     8.0893     2.4743     0.1012     0.0529   -49.4614     7.0594     6.8670
  608.5000  -999.2500   102.9732     8.0336     2.4706     0.1008     0.0514   -49.4631     7.0679     6.8753
  609.0000  -999.2500   104.1959     8.0138     2.4670     0.1033     0.0498   -49.4648     7.0763     6.8834
  609.5000  -999.2500   104.9574     8.0580     2.4634     0.1055     0.0482   -49.4665     7.0851     6.8914
  610.0000  -999.2500   104.5566     8.1019     2.4620     0.1062     0.0467   -49.4681     7.0941     6.9008
  610.5000  -999.2500   104.2083     8.0990     2.4618     0.1069     0.0451   -49.4698     7.1859     6.9901
  611.0000  -999.2500   104.4666     8.0682     2.4586     0.1080     0.0438   -49.4715     7.3257     7.1260
  611.5000  -999.2500   105.5093     8.0251     2.4553     0.1093     0.0426   -49.4732     7.4670     7.2635
  612.0000  -999.2500   109.5500     7.9828     2.4521     0.1105     0.0414   -49.4749     7.6109     7.4036
  612.5000  -999.2500   108.8684     7.9408     2.4488     0.1116     0.0403   -49.4765     7.7577     7.5463
  613.0000  -999.2500   108.7890     7.8984     2.4450     0.1199     0.0391   -49.4782     7.8529     7.6389
  613.5000  -999.2500   108.8282     7.9001     2.4474     0.1209     0.0385   -49.4799     7.8529     7.6389
  614.0000  -999.2500   106.6711     7.9401     2.4508     0.1172     0.0417   -49.4816     7.8488     7.6349
  614.5000  -999.2500   104.2868     7.9805     2.4543     0.1097     0.0475   -49.4833     7.8285     7.6150
  615.0000  -999.2500   102.8824     8.0214     2.4579     0.1130     0.0536   -49.4850     7.8083     7.5952
  615.5000  -999.2500   101.4512     8.0309     2.4648     0.1112     0.0465   -49.4866     7.7818     7.5689
  616.0000  -999.2500    99.6420     8.0200     2.4766     0.1032     0.0435   -49.4883     7.8574     7.6346
  616.5000  -999.2500    97.2139     8.0085     2.4765     0.1035     0.0487   -49.4900     7.9740     7.7347
  617.0000  -999.2500    96.2698     7.9999     2.4789     0.1018     0.0538   -49.4917     8.0924     7.8356
  617.5000  -999.2500    96.8964     8.0437     2.4841     0.0977     0.0566   -49.4934     8.2125     7.9375
  618.0000  -999.2500    98.0811     8.0348     2.4840     0.0941     0.0566   -49.4950     8.3344     8.0246
  618.5000  -999.2500    99.9164     8.0017     2.4840     0.1001     0.0566   -49.4967     8.4581     8.1138
  619.0000  -999.2500   101.1811     7.9662     2.4793     0.0932     0.0566   -49.4984     8.5837     8.2038
  619.5000  -999.2500   101.1588     7.9727     2.4697     0.1003     0.0566   -49.5001     8.6241     8.2396
  620.0000  -999.2500   101.0778     7.9927     2.4617     0.1082     0.0539   -49.5018     8.6470     8.2608
