~VERSION INFORMATION
 VERS.                2.0:   CWLS LOG ASCII STANDARD - VERSION 2.0
 WRAP.                 NO:   ONE LINE PER DEPTH STEP
~WELL INFORMATION
#MNEM.UNIT      DATA TYPE    INFORMATION
#----------   ------------   ------------------------------
 STRT.F           34.0000:   START DEPTH
 STOP.F          445.0000:   STOP DEPTH
 STEP.F            0.5000:   STEP LENGTH
 NULL.          -999.2500:   NO VALUE
 COMP. FENIX & SCISSON U.S. NAVY:   COMPANY
 WELL.       NPR #64-S-10:   WELL
 FLD .             TEAPOT:   FIELD
 LOC .      S10 T38N R78W:   LOCATION
 CNTY.            NATRONA:   COUNTY
 STAT.            WYOMING:   STATE
 CTRY. UNITED STATES OF AMERICA:   COUNTRY
 SRVC.              Welex:   SERVICE COMPANY
 DATE.        08-APR-1977:   LOGDATE
 API .       490251033400:   API NUMBER
~CURVE INFORMATION
#MNEM.UNIT       API CODE    CURVE DESCRIPTION
#----------   ------------   ------------------------------
 DEPT.F                  :   
 SPR .MV     07 010 01 00:   SPONTANEOUS POTENTIAL
 ILD .OHMM   07 120 46 00:   INDUCTION LOG DEEP
 ILM .OHMM   07 120 44 00:   INDUCTION LOG MEDIUM
 SGRD.OHMM   07 221 05 00:   SHALLOW SHORT GUARD RESISTIVITY
 CALD.IN     45 280 60 00:   CALIPER FROM DENSITY LOG
 GRD .GAPI   45 310 01 00:   GAMMA RAY FROM DENSITY LOG
 CORR.G/C3   45 356 01 00:   DENSITY CORRECTION
 RHOB.G/C3   45 350 01 00:   BULK DENSITY
 DPHI.DEC    45 890 12 00:   DENSITY POROSITY SANDSTONE
~PARAMETER INFORMATION
#MNEM.UNIT          VALUE    DESCRIPTION
#----------   ------------   ------------------------------
 PD  .                 GL:   PERMANENT DATUM
 EPD .F              5183:   ELEVATION PERMANENT DATUM
 LMF .                 GL:   LOG MEASURED FROM
 DMF .                 GL:   DRILLING MEASURED FROM
 EGL .F              5183:   GROUND LEVEL
 DATE.        08-APR-1977:   RUN DATE
 RUN .                  1:   RUN NUMBER
 DD  .F               455:   DEPTH DRILLER
 DL  .F               447:   DEPTH LOGGER
 BLI .F               445:   BOTTOM LOG INTERVAL
 TLI .F                34:   TOP LOG INTERVAL
 CS  .IN            8.625:   CASING SIZE
 BS  .IN            7.875:   BIT SIZE
 BSD .F               455:   BIT SIZE AT DEPTH
 DFT .           KCL- GEL:   DRILLING FLUID TYPE
 DFD .                8.3:   DRILLING FLUID DENSITY
 TCS .HRS            0100:   TIME CURCULATED STOPPED
 MRT .F                62:   MAXIMUM RECORDED TEMPERATURE
 ENGI.        E. CALLAHAN:   RECORDING ENGINEER
 WITN.            R. LYON:   WITNESSED BY
 CLNT.            A2DTECH:   CLIENT CODE
 ORIG.           5" PRINT:   ORIGIN OF DATA
 UWI .       490251033400:   UNIQUE WELL ID
 DICO. A2D Technologies, Inc.:   DIGITIZING COMPANY
~OTHER INFORMATION
~A   DEPT      SPR        ILD        ILM       SGRD       CALD        GRD        CORR        RHOB     DPHI   
# ...
  399.0000   -26.9141    10.8697    11.6466    14.6963     7.6105   102.2911     0.0516     2.4807     0.1092
  399.5000   -26.7651    11.0566    11.8081    15.1074     7.6124   102.9024     0.0472     2.4725     0.1128
  400.0000   -26.7669    11.2011    11.8363    15.5301     7.6143   105.3042     0.0443     2.4676     0.1146
  400.5000   -26.8066    11.3584    12.0234    15.7114     7.6163   104.5780     0.0424     2.4614     0.1140
  401.0000   -26.8463    11.5158    12.2105    15.9611     7.6187   102.2038     0.0447     2.4645     0.1130
  401.5000   -26.8861    11.6732    12.3976    16.5210     7.6057   102.3707     0.0538     2.4721     0.1097
  402.0000   -26.9248    11.8305    12.5847    16.8479     7.6077   104.4809     0.0630     2.4849     0.1055
  402.5000   -26.8450    11.9879    12.7718    16.6808     7.6097   105.6942     0.0617     2.4947     0.1020
  403.0000   -26.7672    12.1554    12.9589    16.6017     7.6117   105.5621     0.0513     2.4956     0.1013
  403.5000   -26.6894    12.2777    13.1460    17.1778     7.6287   104.9817     0.0439     2.4836     0.1063
  404.0000   -26.6115    12.3589    13.3298    17.5331     7.6303   103.8033     0.0410     2.4657     0.1147
  404.5000   -26.5337    12.4407    13.4169    17.5237     7.6172   102.3260     0.0472     2.4492     0.1200
  405.0000   -26.4558    12.4364    13.5044    17.5162     7.6193   100.2508     0.0564     2.4583     0.1176
  405.5000   -26.3780    12.5187    13.6042    17.3877     7.6213    99.3714     0.0641     2.4749     0.1113
  406.0000   -26.3002    12.5144    13.6813    17.0226     7.6083    98.7910     0.0627     2.4787     0.1085
  406.5000   -26.2223    12.5101    13.8665    16.6652     7.5937    98.3557     0.0598     2.4698     0.1124
  407.0000   -26.1445    12.5928    13.8590    17.2454     7.5824    98.5270     0.0495     2.4579     0.1208
  407.5000   -26.0666    12.6761    13.8531    17.9699     7.5845    98.9929     0.0421     2.4459     0.1243
  408.0000   -25.9888    12.6718    13.8471    18.3396     7.5715    99.9072     0.0377     2.4362     0.1261
  408.5000   -25.9110    12.6674    13.6505    18.4612     7.5735   101.4194     0.0349     2.4415     0.1225
  409.0000   -25.8331    12.5756    13.5504    18.1973     7.5755   102.6327     0.0350     2.4514     0.1203
  409.5000   -25.7553    12.5712    13.4510    17.5700     7.5775   103.0942     0.0367     2.4485     0.1209
  410.0000   -25.6774    12.4801    13.1683    16.9643     7.5795   101.9202     0.0413     2.4485     0.1200
  410.5000   -25.6033    12.3896    13.1627    16.7236     7.5815   100.8870     0.0460     2.4599     0.1169
  411.0000   -25.4548    12.2997    13.2500    16.7164     7.5984   100.9088     0.0522     2.4585     0.1175
  411.5000   -25.1564    12.2955    13.1514    17.4187     7.6004   102.5705     0.0598     2.4585     0.1121
  412.0000   -25.1582    12.2913    13.1458    17.6667     7.5875   104.2322     0.0660     2.4691     0.1057
  412.5000   -25.1601    12.2870    13.0493    17.0457     7.5895   104.9971     0.0707     2.4857     0.1009
  413.0000   -25.0111    12.1974    12.9536    16.8038     7.5915   105.6124     0.0693     2.4956     0.0976
  413.5000   -25.0135    12.1933    12.8585    17.0310     7.5785   106.9752     0.0695     2.4986     0.0996
  414.0000   -24.8645    12.1048    12.6759    17.0178     7.5805   108.3380     0.0771     2.4867     0.1014
  414.5000   -24.8668    12.0170    12.4960    16.6661     7.5975   109.4018     0.0818     2.4965     0.0972
  415.0000   -24.8687    11.8474    12.4043    16.3161     7.5845   110.3161     0.0865     2.5011     0.0944
  415.5000   -24.7197    11.6797    12.3133    16.1783     7.5865   110.9315     0.0911     2.4944     0.0947
  416.0000   -24.5712    11.4353    12.2229    15.8550     7.5885   111.6963     0.0958     2.4900     0.0992
  416.5000   -24.5735    11.2739    12.0493    15.3084     7.5905   111.4148     0.0959     2.4893     0.0934
  417.0000   -24.4250    11.0379    11.9540    14.8835     7.5771   110.2365     0.0961     2.4917     0.0988
  417.5000   -24.4269    10.8822    11.7808    14.7743     7.5796   110.4034     0.0962     2.4970     0.0991
  418.0000   -24.4288    10.7286    11.5432    15.0783     7.5816   111.1683     0.0934     2.5061     0.0886
  418.5000   -24.2798    10.5772    11.2996    15.1782     7.5836   111.4847     0.0875     2.5129     0.0828
  419.0000   -24.2821    10.5004    11.0622    14.9613     7.5856   111.9506     0.0809     2.5160     0.0795
  419.5000   -24.2840    10.3522    10.9051    14.4455     7.5876   112.5659     0.0781     2.5161     0.0788
  420.0000   -24.1350    10.2772    10.6760    14.6409     7.5896   113.6297     0.0767     2.5071     0.0824
  420.5000   -23.9865    10.1321    10.5977    14.7379     7.5916   114.5441     0.0799     2.4959     0.0896
  421.0000   -23.9889    10.0586    10.5199    14.5273     7.5936   115.4584     0.0860     2.5043     0.0851
  421.5000   -23.9907     9.9167    10.3705    14.1240     7.5956   116.2232     0.0914     2.5089     0.0832
  422.0000   -23.8417     9.8448    10.2944    13.8275     7.5976   116.5396     0.0931     2.5112     0.0826
  422.5000   -23.6932     9.7734    10.2189    13.6313     7.5996   116.7066     0.0932     2.5079     0.0838
  423.0000   -23.5452     9.7025    10.2145    13.5313     7.5867   115.5282     0.0828     2.4937     0.0895
  423.5000   -23.3967     9.6991    10.2823    13.5255     7.5887   112.2572     0.0747     2.4791     0.0969
  424.0000   -23.2482     9.6958    10.3494    13.6138     7.5907   109.5841     0.0666     2.4799     0.1065
  424.5000   -23.0996     9.6925    10.3439    13.7028     7.5927   110.1995     0.0608     2.4714     0.1074
  425.0000   -22.9512     9.6888    10.3394    13.7921     7.5792   110.3664     0.0564     2.4616     0.1116
  425.5000   -22.8027     9.6854    10.2636    13.9784     7.5817   109.1880     0.0520     2.4633     0.1139
  426.0000   -22.8045     9.6821    10.1883    13.9724     7.5837   105.0202     0.0492     2.4656     0.1121
  426.5000   -22.5056     9.6453    10.1135    13.7742     7.5857    98.6101     0.0508     2.4592     0.1150
  427.0000   -22.5075     9.6086    10.0393    13.5787     7.5877    86.3705     0.0510     2.4575     0.1163
  427.5000   -22.3527     9.5763     9.9656    13.3802     7.5897    55.8420     0.0526     2.4707     0.1102
  428.0000   -22.2105     9.4292     9.8925    13.1869     7.5763    52.4680     0.0558     2.4723     0.1081
  428.5000   -22.0482     9.2822     9.8171    12.9189     7.5788  -999.2500     0.0575     2.4656     0.1114
  429.0000   -21.7631     9.1351     9.6748    12.7356     7.5808  -999.2500     0.0576     2.4724     0.1081
  429.5000   -21.5933     9.0113     9.5347    12.4671     7.5828  -999.2500     0.0578     2.4793     0.1046
  430.0000   -21.1403     8.8841     9.4074    12.2902     7.5848  -999.2500     0.0564     2.4696     0.1098
  430.5000   -20.8665     8.8197     9.3375    12.2001     7.5865  -999.2500     0.0535     2.4734     0.1073
  431.0000   -20.8688     8.7557     9.2690    12.1106     7.5888  -999.2500     0.0522     2.4780     0.1082
  431.5000   -21.0210     8.6922     9.2010    12.1054     7.5908  -999.2500     0.0478     2.4638     0.1154
  432.0000   -21.0229     8.5695     9.1335    11.9337     7.5928  -999.2500     0.0465     2.4481     0.1205
  432.5000   -21.3255     8.3902     9.0665    11.8461     7.6097  -999.2500     0.0481     2.4444     0.1207
  433.0000   -21.6281     8.2146     8.9378    11.7593     7.5963  -999.2500     0.0588     2.4588     0.1183
  433.5000   -22.2315     8.0427     8.8109    11.8373     7.5988  -999.2500     0.0695     2.4731     0.1072
  434.0000   -23.1356     7.9292     8.5069    11.9145     7.6004  -999.2500     0.0787     2.4702     0.1125
  434.5000   -24.4909     7.7633     8.3282    11.7442     7.6024  -999.2500     0.0833     2.4642     0.1131
  435.0000   -27.0491     7.4961     8.3834    10.8023     7.6044  -999.2500     0.0895     2.4673     0.1086
