~VERSION INFORMATION
 VERS.                2.0:   CWLS LOG ASCII STANDARD - VERSION 2.0
 WRAP.                 NO:   ONE LINE PER DEPTH STEP
~WELL INFORMATION
#MNEM.UNIT      DATA TYPE    INFORMATION
#----------   ------------   ------------------------------
 STRT.F           30.0000:   START DEPTH
 STOP.F         3375.5000:   STOP DEPTH
 STEP.F            0.5000:   STEP LENGTH
 NULL.          -999.2500:   NO VALUE
 COMP.       INTEX OIL CO:   COMPANY
 WELL.   NPR ##3 57-SX-34:   WELL
 FLD .             TEAPOT:   FIELD
 LOC .      S34 T39N R78W:   LOCATION
 CNTY.            NATRONA:   COUNTY
 STAT.            WYOMING:   STATE
 CTRY. UNITED STATES OF AMERICA:   COUNTRY
 SRVC.       Schlumberger:   SERVICE COMPANY
 DATE.        12-AUG-1967:   LOGDATE
 API .       490251023200:   API NUMBER
~CURVE INFORMATION
#MNEM.UNIT       API CODE    CURVE DESCRIPTION
#----------   ------------   ------------------------------
 DEPT.F                  :   
 SPR .MV     07 010 01 00:   SPONTANEOUS POTENTIAL
 ILD .OHMM   07 120 46 00:   INDUCTION LOG DEEP
 ASN .OHMM   05 041 16 00:   AMPLIFIED SHORT NORMAL 16"
 CILD.MMHO   07 110 46 00:   CONDUCTIVITY INDUCTION LOG DEEP
 LL8 .OHMM   07 220 08 00:   LATEROLOG-8 RES.
 ILM .OHMM   07 120 44 00:   INDUCTION LOG MEDIUM
 CALD.IN     45 280 60 00:   CALIPER
 GRD .GAPI   45 310 01 00:   GAMMA RAY FROM DENSITY LOG
 RHOB.G/C3   45 350 01 00:   BULK DENSITY
 DPHI.DEC    45 890 12 00:   DENSITY POROSITY SANDSTONE
 CORR.G/C3   45 356 01 00:   DENSITY CORRECTION
~PARAMETER INFORMATION
#MNEM.UNIT          VALUE    DESCRIPTION
#----------   ------------   ------------------------------
 PD  .                 GL:   PERMANENT DATUM
 EPD .F              5084:   ELEVATION PERMANENT DATUM
 LMF .                 KB:   LOG MEASURED FROM
 DAPD.F                12:   FEET ABOVE PERMANENT DATUM
 DMF .                 KB:   DRILLING MEASURED FROM
 EKB .F              5096:   KELLING BUSHING
 EGL .F              5084:   GROUND LEVEL
 DATE.            8-12-67:   RUN DATE
 RUN .                  2:   RUN NUMBER
 DD  .F              3380:   DEPTH DRILLER
 DL  .F              3371:   DEPTH LOGGER
 BLI .F              3368:   BOTTOM LOG INTERVAL
 TLI .F               630:   TOP LOG INTERVAL
 CS  .IN            10.75:   CASING SIZE
 CBD .F               643:   CASING BOTTOM DRILLER
 BS  .IN            9.875:   BIT SIZE
 BSD .F              3380:   BIT SIZE AT DEPTH
 DFT .               CHEM:   DRILLING FLUID TYPE
 DFD .                9.4:   DRILLING FLUID DENSITY
 DFV .                 48:   DRILLING FLUID VISCOSITY
 DFPH.                8.5:   DRILLING FLUID PH
 DFL .                3.6:   DRILLING FLUID LOSS
 MSS .          FLOW LINE:   MUD SAMPLE SOURCE
 RMS .OHMM           2.81:   RESISTIVITY MUD SAMPLE
 MST .F                88:   MUD SAMPLE TEMPERATURE
 RMF .OHMM            1.7:   RESISTIVITY MUD FILTRATE SAMPLE
 MFST.F                86:   MUD FILTRATE SAMPLE TEMPERATURE
 MFSS.                  M:   MUD FILTRATE SAMPLE SOURCE
 RMB .OHMM           2.03:   RESISTIVITY MUD AT BHT
 BHT .F               122:   BOTTOM HOLE TEMPERATURE
 TCS .HRS             2.5:   TIME CURCULATED STOPPED
 MRT .F               122:   MAXIMUM RECORDED TEMPERATURE
 LUN .               7030:   LOGGING UNIT NUMBER
 LUL .               CSPR:   LOGGING UNIT LOCATION
 ENGI.             SCHODE:   RECORDING ENGINEER
 WITN.                MAY:   WITNESSED BY
 CLNT.            A2DTECH:   CLIENT CODE
 ORIG.   1" 2.5" 5" PRINT:   ORIGIN OF DATA
 UWI .       490251023200:   UNIQUE WELL ID
 DICO. A2D Technologies, Inc.:   DIGITIZING COMPANY
~OTHER INFORMATION
~A   DEPT      SPR        ILD        ASN       CILD        LL8        ILM       CALD         GRD      RHOB       DPHI       CORR   
# ...
 2714.0000   -32.9877    10.7043  -999.2500  -999.2500    13.7515    12.2452    11.5612    74.1543     2.5551     0.0647     0.0310
 2714.5000   -32.9816    10.5005  -999.2500  -999.2500    14.2752    11.9354    11.5656    74.5592     2.5213     0.0784     0.0360
 2715.0000   -32.9196    10.2132  -999.2500  -999.2500    13.9141    11.6334    11.5700    75.5120     2.5337     0.0746     0.0269
 2715.5000   -32.8626    10.3996  -999.2500  -999.2500    13.3039    11.3837    11.5744    76.4348     2.5295     0.0709     0.0221
 2716.0000   -32.8063    10.5077  -999.2500  -999.2500    12.6883    11.7251    11.5787    77.3506     2.5174     0.0781     0.0449
 2716.5000   -32.7472    10.6024  -999.2500  -999.2500    13.0345    12.0295    11.5831    78.2652     2.5035     0.0848     0.0400
 2717.0000   -32.6900    10.6979  -999.2500  -999.2500    13.7005    12.3417    11.5875    79.2941     2.5099     0.0828     0.0212
 2717.5000   -32.6384    10.7826  -999.2500  -999.2500    14.4005    12.6621    11.5919    79.4821     2.5157     0.0784     0.0224
 2718.0000   -32.4848    11.1190  -999.2500  -999.2500    15.2033    12.9908    11.5963    78.4866     2.5069     0.0941     0.0250
 2718.5000   -32.2328    11.4279  -999.2500  -999.2500    13.8890    13.3754    11.6007    77.7064     2.4955     0.0918     0.0272
 2719.0000   -32.3559    11.7454  -999.2500  -999.2500    14.2233    13.8188    11.6023    76.6084     2.5011     0.0827     0.0074
 2719.5000   -32.4958    12.0718  -999.2500  -999.2500    15.4038    14.2770    11.5989    77.3080     2.5411     0.0737     0.0082
 2720.0000   -32.6479    12.4072  -999.2500  -999.2500    16.6821    14.7503    11.5962    79.5567     2.5358     0.0650     0.0095
 2720.5000   -32.7922    12.7519  -999.2500  -999.2500    18.5492    15.2033    11.5934    79.8516     2.5300     0.0744     0.0170
 2721.0000   -32.9379    13.1556  -999.2500  -999.2500    17.8661    15.2033    11.5906    77.3654     2.5282     0.0727     0.0235
 2721.5000   -33.0884    13.1556  -999.2500  -999.2500    16.8921    15.1250    11.5878    75.3391     2.5335     0.0716     0.0307
 2722.0000   -33.2283    13.1556  -999.2500  -999.2500    15.4807    15.0349    11.5849    72.8563     2.5189     0.0800     0.0362
 2722.5000   -33.3880    13.1556  -999.2500  -999.2500    15.6527    14.9452    11.5821    72.4709     2.4942     0.0933     0.0355
 2723.0000   -33.3977    13.1556  -999.2500  -999.2500    16.0476    14.8561    11.5793    72.3240     2.4982     0.0914     0.0178
 2723.5000   -33.4010    13.1556  -999.2500  -999.2500    16.4339    14.7676    11.5765    79.2338     2.5051     0.0869     0.0160
 2724.0000   -33.3705    13.1556  -999.2500  -999.2500    16.9248    14.6632    11.5737    77.5938     2.5125     0.0825     0.0219
 2724.5000   -33.3382    13.2571  -999.2500  -999.2500    16.8212    14.9966    11.5709    72.7853     2.5066     0.0807     0.0283
 2725.0000   -33.3040    13.3829  -999.2500  -999.2500    16.6619    15.4162    11.5680    69.4877     2.4991     0.0917     0.0340
 2725.5000   -33.2702    13.5098  -999.2500  -999.2500    17.1470    15.8476    11.5652    70.4577     2.5036     0.0887     0.0271
 2726.0000   -33.2365    13.6380  -999.2500  -999.2500    18.7417    16.2911    11.5630    71.3967     2.5127     0.0835     0.0204
 2726.5000   -33.2028    13.7674  -999.2500  -999.2500    18.2171    16.7469    11.5630    72.4363     2.5215     0.0784     0.0297
 2727.0000   -33.1690    13.8980  -999.2500  -999.2500    18.6977    16.9456    11.5630    69.4332     2.5296     0.0733     0.0399
 2727.5000   -33.1348    14.0299  -999.2500  -999.2500    19.9406    16.8152    11.5630    67.4907     2.5382     0.0650     0.0405
 2728.0000   -33.1035    14.1422  -999.2500  -999.2500    19.0489    16.4408    11.5630    66.7611     2.5285     0.0692     0.0349
 2728.5000   -33.0656    14.3013  -999.2500  -999.2500    17.5454    16.0502    11.5630    66.1193     2.5127     0.0805     0.0286
 2729.0000   -33.0346    14.3996  -999.2500  -999.2500    16.3437    16.2186    11.5630    65.7895     2.5089     0.0831     0.0225
 2729.5000   -33.0227    14.2002  -999.2500  -999.2500    16.9456    16.5305    11.5630    70.4623     2.5135     0.0831     0.0160
 2730.0000   -33.2188    14.0273  -999.2500  -999.2500    19.6010    16.8483    11.5630    71.8989     2.5146     0.0854     0.0098
 2730.5000   -33.3793    13.8565  -999.2500  -999.2500    21.8276    16.4886    11.5630    72.2608     2.5067     0.0885     0.0119
 2731.0000   -33.2465    13.6414  -999.2500  -999.2500    18.8413    15.4807    11.5631    72.6224     2.5003     0.0917     0.0209
 2731.5000   -33.1109    13.6811  -999.2500  -999.2500    15.7218    15.5239    11.5617    72.9996     2.4947     0.0878     0.0153
 2732.0000   -33.0286    13.7428  -999.2500  -999.2500    16.1472    15.6696    11.5581    73.2544     2.4873     0.0936     0.0117
 2732.5000   -33.1359    13.8047  -999.2500  -999.2500    16.8762    15.8167    11.5546    75.1521     2.4927     0.0980     0.0115
 2733.0000   -33.2364    13.8667  -999.2500  -999.2500    17.6410    15.9652    11.5511    79.4452     2.4899     0.0942     0.0173
 2733.5000   -33.3422    13.9288  -999.2500  -999.2500    18.1158    16.1150    11.5475    78.7189     2.5062     0.0908     0.0243
 2734.0000   -33.4471    13.9908  -999.2500  -999.2500    17.7089    16.2663    11.5440    76.0772     2.5017     0.0886     0.0322
 2734.5000   -33.5511    14.0530  -999.2500  -999.2500    17.3169    16.4190    11.5405    73.5445     2.4998     0.0910     0.0296
 2735.0000   -33.6566    14.1194  -999.2500  -999.2500    16.7416    16.5731    11.5370    73.2899     2.5001     0.0891     0.0261
 2735.5000   -33.7612    14.2948  -999.2500  -999.2500    17.0393    16.7287    11.5335    73.0821     2.5090     0.0855     0.0236
 2736.0000   -33.8647    14.5372  -999.2500  -999.2500    19.5833    16.8857    11.5298    72.9498     2.5109     0.0816     0.0282
 2736.5000   -33.9734    14.7837  -999.2500  -999.2500    18.9527    17.2970    11.5265    72.8257     2.5012     0.0817     0.0351
 2737.0000   -34.0716    15.0345  -999.2500  -999.2500    17.7197    17.4920    11.5239    72.6568     2.4883     0.0907     0.0301
 2737.5000   -34.1774    15.2894  -999.2500  -999.2500    16.3437    17.8701    11.5347    73.5978     2.4773     0.0988     0.0209
 2738.0000   -34.0410    15.5487  -999.2500  -999.2500    20.0799    18.3781    11.5489    75.2031     2.4675     0.1037     0.0118
 2738.5000   -33.8883    15.7632  -999.2500  -999.2500    24.7730    19.2323    11.5630    76.8694     2.4745     0.1014     0.0107
 2739.0000   -33.6471    15.5363  -999.2500  -999.2500    22.8742    19.0502    11.5771    78.7872     2.4861     0.0979     0.0181
 2739.5000   -33.3084    15.3474  -999.2500  -999.2500    21.3861    18.5533    11.5913    76.4905     2.4986     0.0920     0.0289
 2740.0000   -33.0009    15.1608  -999.2500  -999.2500    19.9948    18.0671    11.6020    74.4032     2.5107     0.0861     0.0249
 2740.5000   -32.6387    14.9766  -999.2500  -999.2500    18.8876    17.5920    11.6044    73.3772     2.5186     0.0811     0.0157
 2741.0000   -32.6875    14.7945  -999.2500  -999.2500    18.2168    17.1297    11.6107    72.4936     2.5207     0.0769     0.0045
 2741.5000   -32.7724    14.6146  -999.2500  -999.2500    18.2168    16.6804    11.6162    70.7132     2.5266     0.0728     0.0104
 2742.0000   -32.8740    14.4370  -999.2500  -999.2500    17.3965    16.0560    11.6221    69.0271     2.5335     0.0720     0.0229
 2742.5000   -32.9626    14.1424  -999.2500  -999.2500    16.2083    16.2723    11.6279    69.4865     2.5117     0.0808     0.0352
 2743.0000   -33.0567    14.1709  -999.2500  -999.2500    16.6420    16.7217    11.6336    71.9433     2.4994     0.0909     0.0358
 2743.5000   -33.1504    14.2620  -999.2500  -999.2500    18.6850    17.1855    11.6396    74.0346     2.4937     0.0916     0.0289
 2744.0000   -33.2427    14.3537  -999.2500  -999.2500    21.2166    17.6621    11.6419    73.8493     2.5025     0.0867     0.0234
