~VERSION INFORMATION
 VERS.                2.0:   CWLS LOG ASCII STANDARD - VERSION 2.0
 WRAP.                 NO:   ONE LINE PER DEPTH STEP
~WELL INFORMATION
#MNEM.UNIT      DATA TYPE    INFORMATION
#----------   ------------   ------------------------------
 STRT.F           24.5000:   START DEPTH
 STOP.F          576.0000:   STOP DEPTH
 STEP.F            0.5000:   STEP LENGTH
 NULL.          -999.2500:   NO VALUE
 COMP. FENIX & SCISSON INC:   COMPANY
 WELL.    NPR-3 SX #61-15:   WELL
 FLD .             TEAPOT:   FIELD
 LOC .      S15 T38N R78W:   LOCATION
 CNTY.            NATRONA:   COUNTY
 STAT.            WYOMING:   STATE
 CTRY. UNITED STATES OF AMERICA:   COUNTRY
 SRVC.            Unknown:   SERVICE COMPANY
 DATE.        29-MAY-1978:   LOGDATE
 API .       490251062300:   API NUMBER
~CURVE INFORMATION
#MNEM.UNIT       API CODE    CURVE DESCRIPTION
#----------   ------------   ------------------------------
 DEPT.F                  :   
 GRD .GAPI   45 310 01 00:   GAMMA RAY FROM DENSITY LOG
 CALD.IN     45 280 60 00:   CALIPER FROM DENSITY LOG
 SN  .OHMM   05 040 16 00:   SHORT NORMAL 16'
 SPR .MV     05 010 01 00:   SPONTANEOUS POTENTIAL
 ILD .OHMM   05 120 46 00:   INDUCTION LOG DEEP
 RHOB.G/C3   45 350 01 00:   BULK DENSITY
 DPHI.DEC    45 890 12 00:   DENSITY POROSITY SANDSTONE
 CORR.G/C3   45 356 01 00:   DENSITY CORRECTION
~PARAMETER INFORMATION
#MNEM.UNIT          VALUE    DESCRIPTION
#----------   ------------   ------------------------------
 PD  .                 GL:   PERMANENT DATUM
 EPD .F              5221:   ELEVATION PERMANENT DATUM
 LMF .                 KB:   LOG MEASURED FROM
 DAPD.F                 4:   FEET ABOVE PERMANENT DATUM
 DMF .                 KB:   DRILLING MEASURED FROM
 EKB .F              5225:   KELLING BUSHING
 EGL .F              5221:   GROUND LEVEL
 DATE.          5-29-1978:   RUN DATE
 RUN .                  1:   RUN NUMBER
 DD  .F               565:   DEPTH DRILLER
 DL  .F               578:   DEPTH LOGGER
 BLI .F               570:   BOTTOM LOG INTERVAL
 TLI .F                40:   TOP LOG INTERVAL
 CS  .IN            8.625:   CASING SIZE
 CBD .F                40:   CASING BOTTOM DRILLER
 CBL .F                40:   CASING BOTTOM LOGGER
 BS  .IN            7.875:   BIT SIZE
 BSD .F               565:   BIT SIZE AT DEPTH
 DFT .                KCL:   DRILLING FLUID TYPE
 DFD .                8.7:   DRILLING FLUID DENSITY
 DFV .                 34:   DRILLING FLUID VISCOSITY
 DFPH.                9.5:   DRILLING FLUID PH
 DFL .               10.4:   DRILLING FLUID LOSS
 BHT .F                76:   BOTTOM HOLE TEMPERATURE
 TCS .HRS               3:   TIME CURCULATED STOPPED
 MRT .F                76:   MAXIMUM RECORDED TEMPERATURE
 LUN .               2958:   LOGGING UNIT NUMBER
 LUL .              CASP.:   LOGGING UNIT LOCATION
 ENGI.             MILLER:   RECORDING ENGINEER
 WITN.           MCGINLEY:   WITNESSED BY
 CLNT.            A2DTECH:   CLIENT CODE
 ORIG.      2" , 5" PRINT:   ORIGIN OF DATA
 UWI .       490251062300:   UNIQUE WELL ID
 DICO. A2D Technologies, Inc.:   DIGITIZING COMPANY
~OTHER INFORMATION
~A   DEPT       GRD      CALD         SN        SPR        ILD       RHOB       DPHI       CORR   
# ...
  470.0000    62.2200     7.7063    16.2033     1.6480    21.1111     2.3865     0.1717     0.0668
  470.5000    62.4132     7.7849    16.0961     1.6532    20.1849     2.3921     0.1609     0.0643
  471.0000    62.4078     7.8175    15.9934     1.6584    19.8168     2.3985     0.1589     0.0632
  471.5000    62.3988     7.7975    15.8913     1.6636    19.4555     2.4017     0.1622     0.0608
  472.0000    62.4633     7.7982    15.7899     1.6687    19.4509     2.3986     0.1701     0.0501
  472.5000    64.1653     7.7975    15.6891     1.6739    19.4209     2.3878     0.1738     0.0375
  473.0000    65.9382     7.8183    15.5889     1.6793    19.3909     2.3779     0.1751     0.0346
  473.5000    65.5573     7.8175    15.4894     1.6856    19.3610     2.3761     0.1765     0.0342
  474.0000    63.4705     7.7900    15.3906     1.6892    19.3311     2.3759     0.1743     0.0338
  474.5000    61.4575     7.7621    15.2923     1.5939    19.3013     2.3759     0.1732     0.0334
  475.0000    60.8638     7.7345    15.1947     1.1481    19.2715     2.3759     0.1741     0.0330
  475.5000    60.4794     7.7069    15.0977     0.7192    19.2417     2.3759     0.1761     0.0326
  476.0000    60.2115     7.6794    15.0014     0.2875    19.2120     2.3733     0.1852     0.0262
  476.5000    60.3956     7.6516    14.9056     0.1026    19.1825     2.3649     0.1937     0.0161
  477.0000    61.8524     7.6361    14.8105     0.0991    19.1522     2.3540     0.1815     0.0159
  477.5000    63.3897     7.6257    14.7160     0.0992    19.1294     2.3522     0.1776     0.0304
  478.0000    63.3927     7.6194    14.6220     0.1003    19.1241     2.3756     0.1753     0.0407
  478.5000    62.3803     7.6196    14.5287     0.0999    18.5921     2.3778     0.1769     0.0397
  479.0000    62.3486     7.6191    14.4360     0.0995    18.2198     2.3779     0.1773     0.0372
  479.5000    62.5115     7.6491    14.3425    -0.3573    17.8122     2.3778     0.1729     0.0346
  480.0000    62.6809     7.6945    14.2576    -1.2535    17.4147     2.3795     0.1705     0.0309
  480.5000    63.0029     7.7191    14.0126    -1.1682    17.0260     2.3838     0.1556     0.0340
  481.0000    64.1437     7.7185    13.8686    -1.4057    16.6459     2.3877     0.1508     0.0402
  481.5000    66.3249     7.7400    13.7214    -2.2405    16.2744     2.3980     0.1480     0.0374
  482.0000    68.0287     7.7629    13.5761    -3.0658    15.9111     2.4167     0.1446     0.0323
  482.5000    67.9542     7.7794    13.4319    -3.6945    15.5560     2.4340     0.1420     0.0280
  483.0000    67.9093     7.7978    13.2946    -3.6587    15.2088     2.4352     0.1416     0.0266
  483.5000    67.8603     7.8181    13.0923    -3.6356    14.7626     2.4356     0.1429     0.0265
  484.0000    67.8160     7.8384    13.0937    -3.6131    14.6274     2.4360     0.1391     0.0278
  484.5000    67.9408     7.8588    13.0983    -3.5909    14.6785     2.4364     0.1368     0.0322
  485.0000    68.7972     7.8780    13.0984    -3.5688    14.7731     2.4376     0.1368     0.0365
  485.5000    69.5068     7.8786    13.0981    -3.5463    14.8683     2.4389     0.1366     0.0406
  486.0000    67.9851     7.8785    13.0615    -3.5224    14.9641     2.4400     0.1361     0.0451
  486.5000    66.4097     7.8785    13.0007    -3.5026    15.0367     2.4400     0.1359     0.0465
  487.0000    65.3202     7.8785    12.9406    -3.6311    14.9695     2.4399     0.1355     0.0466
  487.5000    65.0678     7.8785    12.8808    -4.2830    14.8683     2.4399     0.1350     0.0461
  488.0000    64.8174     7.8785    12.8212    -4.9358    14.7677     2.4400     0.1349     0.0453
  488.5000    64.9369     7.8785    12.7620    -5.0115    14.6678     2.4366     0.1399     0.0445
  489.0000    65.3996     7.8785    12.7030    -4.9212    14.5686     2.4339     0.1411     0.0438
  489.5000    65.9907     7.8785    12.6442    -4.8265    14.4701     2.4332     0.1403     0.0430
  490.0000    67.2163     7.8801    12.5858    -4.7356    14.3722     2.4324     0.1411     0.0422
  490.5000    68.4472     7.8847    12.5276    -4.7748    14.2750     2.4317     0.1454     0.0415
  491.0000    69.6860     7.8892    12.4697    -4.9951    14.1784     2.4309     0.1464     0.0406
  491.5000    70.4559     7.8937    12.4120    -5.2159    14.0825     2.4300     0.1456     0.0432
  492.0000    68.2736     7.8982    12.3726    -5.2784    13.9873     2.4302     0.1387     0.0466
  492.5000    65.9920     7.9027    12.3011    -5.2791    13.8926     2.4354     0.1316     0.0500
  493.0000    63.6925     7.9072    12.2299    -5.2787    13.7987     2.4464     0.1322     0.0526
  493.5000    62.1238     7.9115    12.1592    -5.2802    13.7053     2.4502     0.1348     0.0525
  494.0000    63.1106     7.9155    12.0889    -5.3706    13.6126     2.4497     0.1332     0.0522
  494.5000    63.7193     7.8970    12.0191    -5.6041    13.5206     2.4493     0.1268     0.0518
  495.0000    62.7392     7.9027    11.9496    -5.8365    13.4291     2.4520     0.1286     0.0514
  495.5000    61.7905     7.9082    11.8805    -6.0687    13.3383     2.4534     0.1312     0.0510
  496.0000    60.7997     7.9132    11.8118    -6.2792    13.2480     2.4517     0.1328     0.0506
  496.5000    62.0507     7.9183    11.7435    -6.1638    13.1584     2.4509     0.1288     0.0546
  497.0000    65.8258     7.9233    11.6756    -6.2866    13.0694     2.4556     0.1245     0.0616
  497.5000    69.4793     7.9284    11.6081    -6.9233    12.9810     2.4621     0.1216     0.0684
  498.0000    69.3371     7.9335    11.5410    -7.5610    12.8934     2.4627     0.1188     0.0693
  498.5000    66.6107     7.9387    11.5152    -7.6535    12.8592     2.4684     0.1160     0.0710
  499.0000    65.7577     7.9191    11.5090    -7.6334    12.8405     2.4759     0.1155     0.0727
  499.5000    66.5628     7.8965    11.4993    -7.6111    12.8179     2.4772     0.1159     0.0744
  500.0000    67.3922     7.8742    11.4895    -7.5901    12.7954     2.4774     0.1164     0.0746
  500.5000    67.3431     7.8597    11.4798    -7.5694    12.7728     2.4777     0.1161     0.0744
  501.0000    66.9900     7.8723    11.4701    -7.5486    12.7503     2.4779     0.1152     0.0741
  501.5000    68.1828     7.8846    11.4605    -7.5278    12.7278     2.4792     0.1144     0.0739
  502.0000    70.0407     7.8970    11.4508    -7.5058    12.7054     2.4809     0.1124     0.0737
  502.5000    69.9319     7.9093    11.4411    -7.4802    12.6830     2.4826     0.1121     0.0735
  503.0000    69.7853     7.9215    11.4314    -7.4990    12.6607     2.4844     0.1116     0.0732
  503.5000    70.1146     7.9333    11.4218    -8.3054    12.6384     2.4857     0.1085     0.0730
  504.0000    69.8170     7.9152    11.4121    -9.1268    12.6161     2.4874     0.1068     0.0728
  504.5000    67.2904     7.9087    11.4025    -9.8568    12.5938     2.4891     0.1068     0.0726
  505.0000    67.3312     7.9015    11.3929    -9.8643    12.5717     2.4908     0.1047     0.0725
  505.5000    68.0516     7.8940    11.3833    -9.8608    12.5495     2.4924     0.0971     0.0756
  506.0000    68.3859     7.8865    11.3737    -9.8617    12.5275     2.5006     0.0896     0.0798
  506.5000    68.3311     7.8791    11.3640    -9.8525    12.5091     2.5118     0.0869     0.0841
  507.0000    67.6675     7.8716    11.3545   -10.3404    12.4969     2.5190     0.0888     0.0884
  507.5000    66.2001     7.8641    11.3449   -11.0017    12.4330     2.5191     0.0875     0.0872
  508.0000    64.8384     7.8567    11.3353   -11.4621    12.3700     2.5174     0.0883     0.0853
  508.5000    65.0108     7.8492    11.3257   -11.4489    12.3073     2.5160     0.0912     0.0834
  509.0000    67.3417     7.8417    11.3161   -11.4841    12.2449     2.5145     0.0942     0.0815
  509.5000    70.3038     7.8342    11.3066   -12.1112    12.1828     2.5130     0.0964     0.0796
  510.0000    73.4146     7.8267    11.2970   -12.2316    12.1210     2.5115     0.0918     0.0785
