~VERSION INFORMATION
 VERS.                2.0:   CWLS LOG ASCII STANDARD - VERSION 2.0
 WRAP.                 NO:   ONE LINE PER DEPTH STEP
~WELL INFORMATION
#MNEM.UNIT      DATA TYPE    INFORMATION
#----------   ------------   ------------------------------
 STRT.F           16.0000:   START DEPTH
 STOP.F         1254.0000:   STOP DEPTH
 STEP.F            0.5000:   STEP LENGTH
 NULL.          -999.2500:   NO VALUE
 COMP. FENIX & SCISSON INC:   COMPANY
 WELL. NAVAL PET RESERVE 3   75-S-14 #75-14:   WELL
 FLD .             TEAPOT:   FIELD
 LOC .      S14 T38N R78W:   LOCATION
 CNTY.            NATRONA:   COUNTY
 STAT.            WYOMING:   STATE
 CTRY. UNITED STATES OF AMERICA:   COUNTRY
 SRVC.              Welex:   SERVICE COMPANY
 DATE.        17-FEB-1977:   LOGDATE
 API .       490251027400:   API NUMBER
~CURVE INFORMATION
#MNEM.UNIT       API CODE    CURVE DESCRIPTION
#----------   ------------   ------------------------------
 DEPT.F                  :   
 SGRD.OHMM   07 220 05 00:   SHALLOW RESISTIVITY
 ILM .OHMM   07 120 44 00:   INDUCTION LOG MEDIUM
 SPR .MV     07 010 01 00:   SPONTANEOUS POTENTIAL
 ILD .OHMM   07 120 46 00:   INDUCTION LOG DEEP
 CALD.IN     45 280 60 00:   CALIPER
 GRD .GAPI   45 310 01 00:   GAMMA RAY FROM DENSITY LOG
 DPHI.DEC    45 890 12 00:   DENSITY POROSITY SANDSTONE
 RHOB.G/C3   45 350 01 00:   BULK DENSITY
 CORR.G/C3   45 356 01 00:   DENSITY CORRECTION
~PARAMETER INFORMATION
#MNEM.UNIT          VALUE    DESCRIPTION
#----------   ------------   ------------------------------
 PD  .                 GL:   PERMANENT DATUM
 EPD .F              5336:   ELEVATION PERMANENT DATUM
 LMF .                 GL:   LOG MEASURED FROM
 DMF .                 GL:   DRILLING MEASURED FROM
 EKB .F              5341:   KELLING BUSHING
 EGL .F              5336:   GROUND LEVEL
 DATE.          2-17-1977:   RUN DATE
 RUN .                  1:   RUN NUMBER
 DD  .F              1260:   DEPTH DRILLER
 DL  .F              1258:   DEPTH LOGGER
 BLI .F              1256:   BOTTOM LOG INTERVAL
 TLI .F                30:   TOP LOG INTERVAL
 CS  .IN            8.625:   CASING SIZE
 CBD .F                42:   CASING BOTTOM DRILLER
 CBL .F                42:   CASING BOTTOM LOGGER
 BS  .IN            7.875:   BIT SIZE
 BSD .F              1260:   BIT SIZE AT DEPTH
 DFT .          KCL WATER:   DRILLING FLUID TYPE
 DFD .                9.5:   DRILLING FLUID DENSITY
 DFV .                 34:   DRILLING FLUID VISCOSITY
 MSS .          FLOW LINE:   MUD SAMPLE SOURCE
 RMS .OHMM            .30:   RESISTIVITY MUD SAMPLE
 MST .F                43:   MUD SAMPLE TEMPERATURE
 RMF .OHMM            .28:   RESISTIVITY MUD FILTRATE SAMPLE
 MFST.F                43:   MUD FILTRATE SAMPLE TEMPERATURE
 RMC .OHMM            .40:   RESISTIVITY MUD CAKE
 MCST.F                43:   MUD CAKE SAMPLE TEMPERATURE
 MFSS.           MEASURED:   MUD FILTRATE SAMPLE SOURCE
 MCSS.           MEASURED:   MUD CAKE SAMPLE SOURCE
 RMB .OHMM            .13:   RESISTIVITY MUD AT BHT
 BHT .F               101:   BOTTOM HOLE TEMPERATURE
 TCS .HRS               5:   TIME CURCULATED STOPPED
 MRT .F               101:   MAXIMUM RECORDED TEMPERATURE
 LUN .               8611:   LOGGING UNIT NUMBER
 LUL .           GILLETTE:   LOGGING UNIT LOCATION
 ENGI.             LAWSON:   RECORDING ENGINEER
 WITN.         STUEBINGER:   WITNESSED BY
 CLNT.            A2DTECH:   CLIENT CODE
 ORIG.       2", 5" PRINT:   ORIGIN OF DATA
 UWI .       490251027400:   UNIQUE WELL ID
 DICO. A2D Technologies, Inc.:   DIGITIZING COMPANY
~OTHER INFORMATION
~A   DEPT     SGRD        ILM        SPR        ILD       CALD         GRD      DPHI       RHOB       CORR   
# ...
  454.0000     7.5647     5.1241   -43.9027     4.4340     8.1021   107.3444     0.1191     2.4395     0.0609
  454.5000     7.0062     5.2815   -43.7124     4.4227     8.0954   109.6786     0.1186     2.4425     0.0600
  455.0000     7.4412     5.4359   -43.5204     4.4903     8.0887   112.0716     0.1188     2.4415     0.0589
  455.5000     8.1012     5.5949   -43.3282     4.5368     8.0820   114.4537     0.1197     2.4402     0.0581
  456.0000     8.6575     5.7585   -43.1387     4.5837     8.0816   116.8394     0.1198     2.4389     0.0581
  456.5000     8.4235     5.9268   -43.0269     4.6311     8.0817   119.2597     0.1177     2.4416     0.0585
  457.0000     8.2683     6.0477   -43.1266     4.6790     8.0817   119.5470     0.1157     2.4491     0.0606
  457.5000     9.0544     5.9863   -43.2234     4.7275     8.0817   117.6223     0.1134     2.4514     0.0626
  458.0000     9.6713     5.9316   -43.3205     4.7764     8.0814   115.6806     0.1166     2.4413     0.0645
  458.5000     8.6259     5.8774   -43.4175     4.8045     8.0825   115.1272     0.1182     2.4356     0.0665
  459.0000     8.1116     5.8286   -43.5151     4.7980     8.0619   115.5869     0.1152     2.4449     0.0685
  459.5000     8.9741     5.8286   -43.6108     4.7935     8.1041   116.0983     0.1122     2.4543     0.0705
  460.0000     9.5753     5.8620   -43.5746     4.7890     8.1512   114.8858     0.1094     2.4622     0.0725
  460.5000     9.1736     5.9227   -43.5248     4.7845     8.1445   112.9233     0.1126     2.4580     0.0742
  461.0000     8.8408     5.9840   -43.4753     4.7800     8.1118   112.6493     0.1150     2.4541     0.0742
  461.5000     8.5201     5.9917   -43.4261     4.7755     8.0790   113.6628     0.1127     2.4493     0.0742
  462.0000     8.2111     5.7269   -43.3769     4.7710     8.0456   114.7114     0.1124     2.4430     0.0711
  462.5000     7.9695     5.5558   -43.3276     4.7665     8.0266   114.9118     0.1173     2.4367     0.0676
  463.0000     8.1795     5.3639   -43.2783     4.7607     8.0224   114.3710     0.1220     2.4306     0.0642
  463.5000     8.4218     5.4612   -43.2285     4.7842     8.0264   113.4054     0.1267     2.4293     0.0626
  464.0000     8.4110     5.6130   -43.2119     4.8212     8.0299   111.6167     0.1203     2.4295     0.0638
  464.5000     8.3897     5.7680   -43.3020     4.8582     8.0333   109.8246     0.1126     2.4494     0.0650
  465.0000     8.3686     5.9272   -43.4247     4.8955     8.0367   109.4276     0.1050     2.4710     0.0662
  465.5000     8.3447     6.0908   -43.5481     4.9330     8.0401   110.1166     0.0974     2.4886     0.0674
  466.0000     9.3523     6.2738   -43.6712     4.9709     8.0435   109.8657     0.0982     2.4871     0.0673
  466.5000    10.7969     6.3904   -43.7943     5.0091     8.0469   109.1370     0.1095     2.4728     0.0652
  467.0000    10.0889     6.0868   -43.9175     5.0477     8.0504   110.4707     0.1187     2.4554     0.0614
  467.5000     9.3967     5.8336   -44.0404     5.0779     8.0538   112.1718     0.1278     2.4380     0.0558
  468.0000     8.7519     5.5909   -44.1644     5.0177     8.0572   113.8902     0.1370     2.4207     0.0503
  468.5000     8.1514     5.3583   -44.2110     4.9281     8.0606   114.0322     0.1462     2.4033     0.0449
  469.0000     7.6815     5.1241   -44.2118     4.8401     8.0640   113.3038     0.1553     2.3861     0.0401
  469.5000     7.8354     5.0307   -44.2125     4.7537     8.0674   115.3791     0.1615     2.3740     0.0360
  470.0000     8.0472     5.0307   -44.1697     4.6689     8.0708   117.0769     0.1615     2.3753     0.0369
  470.5000     8.1175     5.2682   -44.1114     4.5855     8.0743   114.1390     0.1604     2.3816     0.0377
  471.0000     7.1364     5.4395   -44.0527     4.5037     8.0777   111.2390     0.1593     2.3879     0.0395
  471.5000     7.5193     5.5169   -43.9942     4.4233     8.0811   108.5536     0.1535     2.3942     0.0428
  472.0000     7.9584     5.3497   -43.9357     4.3443     8.0818   109.1910     0.1479     2.4003     0.0459
  472.5000     8.1175     5.2181   -43.8772     4.2629     8.0875   109.9463     0.1497     2.4022     0.0450
  473.0000     7.4729     5.2882   -43.8186     4.2629     8.0996   110.6858     0.1516     2.3961     0.0438
  473.5000     7.0062     5.3918   -43.7601     4.3042     8.1124   111.4018     0.1518     2.3901     0.0427
  474.0000     7.3991     5.4965   -43.7015     4.3414     8.1375   111.1908     0.1509     2.3937     0.0433
  474.5000     7.8435     5.6031   -43.6431     4.3790     8.1216   109.5019     0.1452     2.4089     0.0460
  475.0000     8.2683     5.7223   -43.6127     4.4169     8.0965   107.8317     0.1376     2.4240     0.0514
  475.5000     8.0807     5.6952   -43.6128     4.4551     8.0715   106.1544     0.1303     2.4383     0.0603
  476.0000     7.7327     5.6556   -43.6127     4.4935     8.0480   104.4808     0.1316     2.4322     0.0657
  476.5000     7.4724     5.6168   -43.6128     4.5344     8.0162   103.1073     0.1342     2.4248     0.0633
  477.0000     8.0883     5.5784   -43.6128     4.5905     8.0186   103.3771     0.1369     2.4174     0.0610
  477.5000     8.6575     5.5403   -43.6128     4.5875     8.0541   103.8397     0.1395     2.4100     0.0587
  478.0000     8.6575     5.5024   -43.6128     4.5452     8.0905   104.3067     0.1422     2.4026     0.0565
  478.5000     8.2367     5.4647   -43.6128     4.5064     8.1278   104.6711     0.1448     2.3971     0.0542
  479.0000     7.9380     5.4274   -43.6128     4.4681     8.1626   103.8692     0.1444     2.4027     0.0520
  479.5000     7.6500     5.3903   -43.6128     4.4301     8.1617   103.0627     0.1426     2.4111     0.0504
  480.0000     7.3725     5.3534   -43.6128     4.3924     8.1578   103.8619     0.1407     2.4145     0.0524
  480.5000     7.2023     5.3168   -43.6128     4.3550     8.1527   107.4459     0.1423     2.4098     0.0544
  481.0000     8.3468     5.2805   -43.6128     4.3180     8.1473   111.0076     0.1449     2.4051     0.0564
  481.5000     8.2185     5.2442   -43.6131     4.2812     8.1434   111.6582     0.1471     2.4004     0.0581
  482.0000     7.9466     5.2085   -43.6129     4.2628     8.1186   111.5394     0.1467     2.3957     0.0576
  482.5000     7.6813     5.1715   -43.5926     4.2627     8.1118   109.1834     0.1467     2.3910     0.0572
  483.0000     7.4250     5.2801   -43.4908     4.2630     8.1036   106.2582     0.1495     2.3914     0.0568
  483.5000     7.1794     5.3955   -43.3915     4.2972     8.0956   103.2824     0.1521     2.3941     0.0564
  484.0000     7.0062     5.5134   -43.2924     4.3531     8.0877   100.3012     0.1539     2.3969     0.0556
  484.5000     7.5750     5.6338   -43.1932     4.4098     8.0796    97.3362     0.1544     2.3935     0.0540
  485.0000     8.2640     5.7569   -43.0941     4.4672     8.0718    94.3537     0.1550     2.3886     0.0523
  485.5000     9.1583     5.8828   -42.9949     4.5253     8.0642    93.1015     0.1556     2.3838     0.0521
  486.0000     8.8804     6.0132   -42.8958     4.5842     8.0831    96.2250     0.1563     2.3799     0.0521
  486.5000     8.3199     6.1594   -42.7966     4.6439     8.0814    99.1464     0.1557     2.3816     0.0521
  487.0000     7.9695     6.1092   -42.6975     4.7043     8.0996   102.7184     0.1495     2.3885     0.0523
  487.5000     8.9821     6.0160   -42.5984     4.7656     8.1216   106.2460     0.1463     2.3932     0.0559
  488.0000     8.4691     5.9243   -42.4992     4.8276     8.1435   108.9016     0.1516     2.3892     0.0546
  488.5000     7.6111     5.8339   -42.3997     4.8938     8.1542   107.8448     0.1591     2.3852     0.0533
  489.0000     8.1990     5.7450   -42.2996     4.8938     8.1047   106.7595     0.1528     2.3815     0.0522
  489.5000     8.4218     5.7223   -42.2155     4.8598     8.0564   105.6546     0.1443     2.3812     0.0536
  490.0000     7.8242     5.7223   -42.3801     4.8238     8.0212   104.5436     0.1359     2.3932     0.0563
