~VERSION INFORMATION
 VERS.                2.0:   CWLS LOG ASCII STANDARD - VERSION 2.0
 WRAP.                 NO:   ONE LINE PER DEPTH STEP
~WELL INFORMATION
#MNEM.UNIT      DATA TYPE    INFORMATION
#----------   ------------   ------------------------------
 STRT.F           80.0000:   START DEPTH
 STOP.F          782.0000:   STOP DEPTH
 STEP.F            0.5000:   STEP LENGTH
 NULL.          -999.2500:   NO VALUE
 COMP.            US NAVY:   COMPANY
 WELL. NPR 3 TEAPOT DOM #87-S-34:   WELL
 FLD .             TEAPOT:   FIELD
 LOC .      S34 T39N R78W:   LOCATION
 CNTY.            NATRONA:   COUNTY
 STAT.            WYOMING:   STATE
 CTRY. UNITED STATES OF AMERICA:   COUNTRY
 SRVC.       Schlumberger:   SERVICE COMPANY
 DATE.        07-AUG-1961:   LOGDATE
 API .       490250651100:   API NUMBER
~CURVE INFORMATION
#MNEM.UNIT       API CODE    CURVE DESCRIPTION
#----------   ------------   ------------------------------
 DEPT.F                  :   
 GR  .GAPI   30 310 01 00:   GAMMA RAY
 SPR .MV     05 010 01 00:   SPONTANEOUS POTENTIAL FROM RES.
 ASN .OHMM   05 041 16 00:   AMPLIFIED SHORT NORMAL 16"
 ILD .OHMM   05 120 46 00:   INDUCTION LOG DEEP
 CILD.MMHO   05 110 46 00:   CONDUCTIVITY INDUCTION LOG DEEP
~PARAMETER INFORMATION
#MNEM.UNIT          VALUE    DESCRIPTION
#----------   ------------   ------------------------------
 PD  .                 KB:   PERMANENT DATUM
 EPD .F                  :   ELEVATION PERMANENT DATUM
 LMF .                 KB:   LOG MEASURED FROM
 DAPD.F                  :   FEET ABOVE PERMANENT DATUM
 DMF .                 KB:   DRILLING MEASURED FROM
 EKB .F              5102:   KELLING BUSHING
 EDF .F                  :   DRILLING FLOOR
 EGL .F              5097:   GROUND LEVEL
 DATE.        07-AUG-1961:   RUN DATE
 RUN .                  1:   RUN NUMBER
 DD  .F               770:   DEPTH DRILLER
 DL  .F               783:   DEPTH LOGGER
 BLI .F               782:   BOTTOM LOG INTERVAL
 TLI .F               100:   TOP LOG INTERVAL
 CS  .IN                 :   CASING SIZE
 CBD .F                  :   CASING BOTTOM DRILLER
 CBL .F                  :   CASING BOTTOM LOGGER
 BS  .IN             6.75:   BIT SIZE
 BSD .F               770:   BIT SIZE AT DEPTH
 DFT .       OIL EMULSION:   DRILLING FLUID TYPE
 DFD .               10.4:   DRILLING FLUID DENSITY
 DFV .                 45:   DRILLING FLUID VISCOSITY
 DFPH.                   :   DRILLING FLUID PH
 DFL .                   :   DRILLING FLUID LOSS
 MSS .                   :   MUD SAMPLE SOURCE
 RMS .OHMM           0.95:   RESISTIVITY MUD SAMPLE
 MST .F                72:   MUD SAMPLE TEMPERATURE
 RMF .OHMM               :   RESISTIVITY MUD FILTRATE SAMPLE
 MFST.F                  :   MUD FILTRATE SAMPLE TEMPERATURE
 RMC .OHMM               :   RESISTIVITY MUD CAKE
 MCST.F                  :   MUD CAKE SAMPLE TEMPERATURE
 MFSS.                   :   MUD FILTRATE SAMPLE SOURCE
 MCSS.                   :   MUD CAKE SAMPLE SOURCE
 RMB .OHMM               :   RESISTIVITY MUD AT BHT
 BHT .F                  :   BOTTOM HOLE TEMPERATURE
 TCS .HRS               1:   TIME CURCULATED STOPPED
 TLAB.HRS                :   TIME LOGGER AT BOTTOM
 MRT .F                  :   MAXIMUM RECORDED TEMPERATURE
 LUN .               2544:   LOGGING UNIT NUMBER
 LUL .                   :   LOGGING UNIT LOCATION
 ENGI.             QUINBY:   RECORDING ENGINEER
 WITN.          JORGENSON:   WITNESSED BY
 CLNT.            A2DTECH:   CLIENT CODE
 ORIG.       2", 5" PRINT:   ORIGIN OF DATA
 UWI .       490250651100:   UNIQUE WELL ID
 DICO. A2D Technologies, Inc.:   DIGITIZING COMPANY
 OS  .                   :   OTHER SERVICES
 PWI .                   :   PRIMARY WELL IDENTIFIER
 R1  .                   :   REMARKS 1
 R2  .                   :   REMARKS 2
~OTHER INFORMATION
~A   DEPT       GR        SPR         ASN         ILD      CILD  
# ...
  751.0000  -999.2500   -21.6867    12.6267    10.3117    91.7293
  751.5000  -999.2500   -21.5361    12.6245    10.3095    91.7293
  752.0000  -999.2500   -21.8373    12.6224    10.3821    91.7293
  752.5000  -999.2500   -21.9880    12.6959    10.5306    91.7293
  753.0000  -999.2500   -21.9880    12.7684    10.7543    91.7293
  753.5000  -999.2500   -21.9880    13.0665    10.9027    91.7293
  754.0000  -999.2500   -22.1386    13.2147    10.9759    91.7293
  754.5000  -999.2500   -22.5904    13.3835    10.8984    91.7293
  755.0000  -999.2500   -22.7410    13.2331    10.9391    93.2331
  755.5000  -999.2500   -22.7410    13.0075    10.8621    93.2331
  756.0000  -999.2500   -22.5904    12.7775    10.7099    93.2331
  756.5000  -999.2500   -22.5896    12.5564    10.5576    93.2331
  757.0000  -999.2500   -22.2892    12.5564    10.4809    93.2331
  757.5000  -999.2500   -21.9880    12.4812    10.4039    93.2331
  758.0000  -999.2500   -21.6867    12.3106    10.3271    93.2331
  758.5000  -999.2500   -21.5361    12.2343    10.1749    93.2331
  759.0000  -999.2500   -21.3804    12.3835    10.0982    93.2331
  759.5000  -999.2500   -21.2349    12.4575    10.0214    93.2331
  760.0000  -999.2500   -21.0843    12.3056     9.9444    93.3998
  760.5000  -999.2500   -21.2349    12.1540     9.8677    94.7368
  761.0000  -999.2500   -21.3855    12.0025     9.7910    96.2406
  761.5000  -999.2500   -21.3855    11.9261     9.7898    97.7444
  762.0000  -999.2500   -21.3855    11.8494     9.6372    97.7444
  762.5000  -999.2500   -21.5361    11.7731     9.4850    97.7444
  763.0000  -999.2500   -21.5361    11.6215     9.4082    99.2481
  763.5000  -999.2500   -21.6867    11.6203     9.3315    99.2481
  764.0000  -999.2500   -22.0015    11.4684     9.2002   102.2556
  764.5000  -999.2500   -22.2892    11.3169     8.9832   103.7594
  765.0000  -999.2500   -22.4398    11.1653     8.7233   105.2632
  765.5000  -999.2500   -22.2892    11.0138     8.4955   108.2707
  766.0000  -999.2500   -22.2892    10.8538     8.2678   111.2782
  766.5000  -999.2500   -22.2892    10.5600     8.0400   114.2857
  767.0000  -999.2500   -22.2892    10.3177     7.7342   117.2932
  767.5000  -999.2500   -22.1386    10.0422     7.1309   124.8120
  768.0000  -999.2500   -21.8373     9.7443     6.4500   133.8346
  768.5000  -999.2500   -21.5361     9.3371     5.7689   150.3759
  769.0000  -999.2500   -21.3637     8.9348     5.1635   165.4135
  769.5000  -999.2500   -20.9337     8.4171     4.4826   180.5020
  770.0000  -999.2500   -20.1807     7.7843     4.1037   189.4737
  770.5000  -999.2500   -20.3058     7.1816     4.0267   189.4737
  771.0000  -999.2500   -20.3307     6.8195     4.1013   186.4662
  771.5000  -999.2500   -20.7631     6.6827     4.2512   184.9624
  772.0000  -999.2500   -21.4697     6.7116     4.4008   183.4586
  772.5000  -999.2500   -22.1386     6.9210     4.7835   177.4436
  773.0000  -999.2500   -22.4398     7.4160     5.4555   154.8872
  773.5000  -999.2500   -22.5904     8.8868     6.6627   138.3459
  774.0000  -999.2500   -22.7410     9.8064     7.7190   126.3158
  774.5000  -999.2500   -22.7410    10.3145     8.2465   114.1769
  775.0000  -999.2500   -22.5904    10.5472     8.4719   108.2707
  775.5000  -999.2500   -22.5904    10.6961     8.5462   103.7594
  776.0000  -999.2500   -22.2892    10.7978     8.5447   100.7519
  776.5000  -999.2500   -22.1386    10.8996     8.5435   102.2556
  777.0000  -999.2500   -21.9880    11.0601     8.5449   103.7594
  777.5000  -999.2500   -21.8373    11.2092     8.6166   105.2632
  778.0000  -999.2500   -21.8373    11.4336     8.6151   106.7669
  778.5000  -999.2500   -21.6791    11.6577     8.6140   108.2707
  779.0000  -999.2500   -21.3855    11.8072     8.6128   109.7744
  779.5000  -999.2500   -20.9337    11.9564     8.6116   111.2782
  780.0000  -999.2500   -20.6325    12.1805     8.5345   111.2782
  780.5000  -999.2500   -20.3313    12.4797     8.3823   112.7820
  781.0000  -999.2500   -20.1690    12.7793     8.3056   112.7820
  781.5000  -999.2500   -20.0301    13.1540     8.2288   112.7820
  782.0000  -999.2500   -20.0301    13.5288     8.2274   112.7820
