~VERSION INFORMATION
 VERS.                2.0:   CWLS LOG ASCII STANDARD - VERSION 2.0
 WRAP.                 NO:   ONE LINE PER DEPTH STEP
~WELL INFORMATION
#MNEM.UNIT      DATA TYPE    INFORMATION
#----------   ------------   ------------------------------
 STRT.F           18.0000:   START DEPTH
 STOP.F         2312.0000:   STOP DEPTH
 STEP.F            0.5000:   STEP LENGTH
 NULL.          -999.2500:   NO VALUE
 COMP. FENIX & SCISSON INC:   COMPANY
 WELL.  NPR 3 #51 SHX -15:   WELL
 FLD .             TEAPOT:   FIELD
 LOC .      S15 T38N R78W:   LOCATION
 CNTY.            NATRONA:   COUNTY
 STAT.            WYOMING:   STATE
 CTRY. UNITED STATES OF AMERICA:   COUNTRY
 SRVC.            Unknown:   SERVICE COMPANY
 DATE.        14-MAR-1978:   LOGDATE
 API .       490251060000:   API NUMBER
~CURVE INFORMATION
#MNEM.UNIT       API CODE    CURVE DESCRIPTION
#----------   ------------   ------------------------------
 DEPT.F                  :   
 ILD .OHMM   05 120 46 00:   INDUCTION LOG DEEP
 CILD.MMHO   05 110 46 00:   CONDUCTIVITY INDUCTION LOG DEEP
 CALD.IN     45 280 60 00:   CALIPER FROM DENSITY LOG
 GRD .GAPI   45 310 01 00:   GAMMA RAY FROM DENSITY LOG
 CORR.G/C3   45 356 01 00:   DENSITY CORRECTION
 RHOB.G/C3   45 350 01 00:   BULK DENSITY
 DPHI.DEC    45 890 12 00:   DENSITY POROSITY SANDSTONE
~PARAMETER INFORMATION
#MNEM.UNIT          VALUE    DESCRIPTION
#----------   ------------   ------------------------------
 PD  .                 GL:   PERMANENT DATUM
 EPD .F              5223:   ELEVATION PERMANENT DATUM
 LMF .                 KB:   LOG MEASURED FROM
 DAPD.F                10:   FEET ABOVE PERMANENT DATUM
 DMF .                 KB:   DRILLING MEASURED FROM
 EKB .F              5233:   KELLING BUSHING
 EGL .F              5223:   GROUND LEVEL
 DATE.            3-14-78:   RUN DATE
 RUN .                  1:   RUN NUMBER
 DD  .F              2323:   DEPTH DRILLER
 DL  .F              2314:   DEPTH LOGGER
 BLI .F              2312:   BOTTOM LOG INTERVAL
 TLI .F                20:   TOP LOG INTERVAL
 CS  .IN                9:   CASING SIZE
 CBD .F               680:   CASING BOTTOM DRILLER
 CBL .F               682:   CASING BOTTOM LOGGER
 BS  .IN            7.875:   BIT SIZE
 BSD .F              2323:   BIT SIZE AT DEPTH
 DFT .           AIR MIST:   DRILLING FLUID TYPE
 TCS .HRS               2:   TIME CURCULATED STOPPED
 LUN .               2958:   LOGGING UNIT NUMBER
 LUL .               CASP:   LOGGING UNIT LOCATION
 ENGI.             MILLER:   RECORDING ENGINEER
 WITN.           MCGINLEY:   WITNESSED BY
 CLNT.            A2DTECH:   CLIENT CODE
 ORIG.       2", 5" PRINT:   ORIGIN OF DATA
 UWI .       490251060000:   UNIQUE WELL ID
 DICO. A2D Technologies, Inc.:   DIGITIZING COMPANY
~OTHER INFORMATION
~A   DEPT      ILD       CILD       CALD         GRD      CORR       RHOB       DPHI   
# ...
 1610.5000  -999.2500  -999.2500     9.7339    88.7098    -0.0070     2.5459     0.0716
 1611.0000  -999.2500  -999.2500     9.7213    84.0629    -0.0073     2.5444     0.0656
 1611.5000  -999.2500  -999.2500     9.7087    80.3123    -0.0109     2.5526     0.0696
 1612.0000  -999.2500  -999.2500     9.6962    83.0454    -0.0152     2.5476     0.0744
 1612.5000  -999.2500  -999.2500     9.6850    83.8891    -0.0195     2.5410     0.0752
 1613.0000  -999.2500  -999.2500     9.6854    82.0815    -0.0215     2.5373     0.0759
 1613.5000  -999.2500  -999.2500     9.6854    83.0876    -0.0215     2.5409     0.0730
 1614.0000  -999.2500  -999.2500     9.6854    84.6096    -0.0215     2.5361     0.0683
 1614.5000  -999.2500  -999.2500     9.6854    84.7692    -0.0210     2.5505     0.0724
 1615.0000  -999.2500  -999.2500     9.6854    81.6784    -0.0173     2.5419     0.0728
 1615.5000  -999.2500  -999.2500     9.6854    78.7999    -0.0135     2.5463     0.0671
 1616.0000  -999.2500  -999.2500     9.6854    83.5116    -0.0097     2.5523     0.0681
 1616.5000  -999.2500  -999.2500     9.6854    90.5989    -0.0102     2.5522     0.0700
 1617.0000  -999.2500  -999.2500     9.6854    89.0362    -0.0111     2.5487     0.0677
 1617.5000  -999.2500  -999.2500     9.6854    84.9625    -0.0119     2.5491     0.0673
 1618.0000  -999.2500  -999.2500     9.6854    81.7962    -0.0127     2.5536     0.0717
 1618.5000  -999.2500  -999.2500     9.6854    90.5670    -0.0136     2.5399     0.0752
 1619.0000  -999.2500  -999.2500     9.6854    96.3298    -0.0144     2.5362     0.0764
 1619.5000  -999.2500  -999.2500     9.6844    93.7884    -0.0153     2.5361     0.0796
 1620.0000  -999.2500  -999.2500     9.6802    90.0058    -0.0133     2.5312     0.0811
 1620.5000  -999.2500  -999.2500     9.6761    86.1916    -0.0100     2.5267     0.0837
 1621.0000  -999.2500  -999.2500     9.6720    82.4467    -0.0047     2.5233     0.0829
 1621.5000  -999.2500  -999.2500     9.6680    80.3383     0.0045     2.5308     0.0814
 1622.0000  -999.2500  -999.2500     9.6704    78.5637     0.0181     2.5300     0.0788
 1622.5000  -999.2500  -999.2500     9.6815    75.2234     0.0309     2.5354     0.0712
 1623.0000  -999.2500  -999.2500     9.6854    72.9565     0.0396     2.5427     0.0724
 1623.5000  -999.2500  -999.2500     9.6854    76.5551     0.0435     2.5392     0.0749
 1624.0000  -999.2500  -999.2500     9.6854    78.5674     0.0476     2.5390     0.0788
 1624.5000  -999.2500  -999.2500     9.6854    78.0202     0.0516     2.5347     0.0896
 1625.0000  -999.2500  -999.2500     9.6854    75.7089     0.0553     2.5294     0.0960
 1625.5000  -999.2500  -999.2500     9.6855    74.6899     0.0732     2.5026     0.0878
 1626.0000  -999.2500  -999.2500     9.6937    74.8509     0.0936     2.5110     0.0864
 1626.5000  -999.2500  -999.2500     9.7153    75.1437     0.1117     2.5214     0.0840
 1627.0000  -999.2500  -999.2500     9.7367    75.7820     0.1143     2.5186     0.0971
 1627.5000  -999.2500  -999.2500     9.7582    78.3222     0.1174     2.4935     0.1044
 1628.0000  -999.2500  -999.2500     9.7801    76.7685     0.1209     2.4905     0.0992
 1628.5000  -999.2500  -999.2500     9.7808    77.9085     0.1068     2.4872     0.1060
 1629.0000  -999.2500  -999.2500     9.7742    79.1230     0.0896     2.4616     0.1128
 1629.5000  -999.2500  -999.2500     9.7674    80.3491     0.0727     2.4693     0.1108
 1630.0000  -999.2500  -999.2500     9.7605    83.8393     0.0743     2.4671     0.0779
 1630.5000  -999.2500  -999.2500     9.7537    85.8304     0.0844     2.4866     0.0573
 1631.0000  -999.2500  -999.2500     9.7465    83.9379     0.0750     2.5694     0.0575
 1631.5000  -999.2500  -999.2500     9.7531    85.4387     0.0570     2.5641     0.0698
 1632.0000  -999.2500  -999.2500     9.7639    87.5594     0.0394     2.5691     0.0709
 1632.5000  -999.2500  -999.2500     9.7749    88.4877     0.0215     2.5473     0.0730
 1633.0000  -999.2500  -999.2500     9.7859    84.0815     0.0068     2.5411     0.0757
 1633.5000  -999.2500  -999.2500     9.7968    80.1140     0.0003     2.5369     0.0774
 1634.0000  -999.2500  -999.2500     9.8043    83.9491     0.0005     2.5325     0.0803
 1634.5000  -999.2500  -999.2500     9.8019    87.9521    -0.0003     2.5262     0.0859
 1635.0000  -999.2500  -999.2500     9.7997    85.5756    -0.0015     2.5171     0.0914
 1635.5000  -999.2500  -999.2500     9.7976    73.8341    -0.0027     2.5031     0.0932
 1636.0000  -999.2500  -999.2500     9.7954    73.4433    -0.0039     2.5136     0.0857
 1636.5000  -999.2500  -999.2500     9.7933    72.3095    -0.0051     2.5230     0.0891
 1637.0000  -999.2500  -999.2500     9.7911    71.1259    -0.0014     2.5175     0.0925
 1637.5000  -999.2500  -999.2500     9.7890    71.8107     0.0075     2.5154     0.0847
 1638.0000  -999.2500  -999.2500     9.7870    75.0317     0.0112     2.5285     0.0800
 1638.5000  -999.2500  -999.2500     9.7840    78.0323     0.0086     2.5264     0.0860
 1639.0000  -999.2500  -999.2500     9.7613    77.5320     0.0089     2.5213     0.0811
 1639.5000  -999.2500  -999.2500     9.7386    76.6762     0.0205     2.5261     0.0721
 1640.0000  -999.2500  -999.2500     9.7260    77.8894     0.0316     2.5453     0.0574
 1640.5000  -999.2500  -999.2500     9.7276    82.6897     0.0382     2.5838     0.0543
 1641.0000  -999.2500  -999.2500     9.7291    83.7369     0.0249     2.5907     0.0584
 1641.5000  -999.2500  -999.2500     9.7308    89.6329     0.0145     2.5675     0.0624
 1642.0000  -999.2500  -999.2500     9.7324    92.4136     0.0168     2.5642     0.0600
 1642.5000  -999.2500  -999.2500     9.7341    84.4597     0.0182     2.5636     0.0547
 1643.0000  -999.2500  -999.2500     9.7357    76.9163     0.0072     2.5727     0.0618
 1643.5000  -999.2500  -999.2500     9.7374    76.3539    -0.0043     2.5635     0.0701
 1644.0000  -999.2500  -999.2500     9.7390    81.4993    -0.0108     2.5515     0.0739
 1644.5000  -999.2500  -999.2500     9.7408    84.5152    -0.0060     2.5407     0.0713
 1645.0000  -999.2500  -999.2500     9.7425    79.7028    -0.0012     2.5498     0.0692
 1645.5000  -999.2500  -999.2500     9.7434    78.6137     0.0036     2.5507     0.0651
 1646.0000  -999.2500  -999.2500     9.7221    79.5657     0.0082     2.5617     0.0600
 1646.5000  -999.2500  -999.2500     9.6431    75.7822     0.0068     2.5465     0.0682
 1647.0000  -999.2500  -999.2500     9.6271    74.2796     0.0224     2.5562     0.0606
 1647.5000  -999.2500  -999.2500     9.6280    74.2957     0.0246     2.5796     0.0542
 1648.0000  -999.2500  -999.2500     9.6295    75.3815     0.0139     2.5733     0.0640
 1648.5000  -999.2500  -999.2500     9.6310    82.6443     0.0044     2.5605     0.0715
 1649.0000  -999.2500  -999.2500     9.6323    94.7877     0.0028     2.5514     0.0724
 1649.5000  -999.2500  -999.2500     9.6337   101.2609     0.0012     2.5443     0.0724
 1650.0000  -999.2500  -999.2500     9.6351    86.7782     0.0014     2.5490     0.0714
 1650.5000  -999.2500  -999.2500     9.6364    85.8143     0.0065     2.5472     0.0700
 1651.0000  -999.2500  -999.2500     9.6378    84.9815     0.0224     2.5261     0.0685
 1651.5000  -999.2500  -999.2500     9.6392    82.3317     0.0256     2.5379     0.0675
 1652.0000  -999.2500  -999.2500     9.6406    80.9715     0.0241     2.5492     0.0720
 1652.5000  -999.2500  -999.2500     9.6419    75.7821     0.0224     2.5347     0.0802
 1653.0000  -999.2500  -999.2500     9.6432    72.7325     0.0210     2.5361     0.0901
 1653.5000  -999.2500  -999.2500     9.6444    72.6487     0.0321     2.5112     0.0932
 1654.0000  -999.2500  -999.2500     9.6463    80.7757     0.0429     2.5185     0.0729
 1654.5000  -999.2500  -999.2500     9.6698    92.4290     0.0507     2.5337     0.0648
 1655.0000  -999.2500  -999.2500     9.7634    93.4000     0.0499     2.5559     0.0621
 1655.5000  -999.2500  -999.2500     9.7802    92.8634     0.0256     2.5786     0.0592
