~VERSION INFORMATION
 VERS.                2.0:   CWLS LOG ASCII STANDARD - VERSION 2.0
 WRAP.                 NO:   ONE LINE PER DEPTH STEP
~WELL INFORMATION
#MNEM.UNIT      DATA TYPE    INFORMATION
#----------   ------------   ------------------------------
 STRT.F           11.0000:   START DEPTH
 STOP.F          915.0000:   STOP DEPTH
 STEP.F            0.5000:   STEP LENGTH
 NULL.          -999.2500:   NO VALUE
 COMP. U S NAVY/INTEX OIL CO:   COMPANY
 WELL.       N.P.R. #3-35:   WELL
 FLD .           TEAPOT E:   FIELD
 LOC .      S35 T39N R78W:   LOCATION
 CNTY.            NATRONA:   COUNTY
 STAT.            WYOMING:   STATE
 CTRY. UNITED STATES OF AMERICA:   COUNTRY
 SRVC.       Schlumberger:   SERVICE COMPANY
 DATE.        25-JUL-1953:   LOGDATE
 API .       490250653700:   API NUMBER
~CURVE INFORMATION
#MNEM.UNIT       API CODE    CURVE DESCRIPTION
#----------   ------------   ------------------------------
 DEPT.F                  :   
 SPR .MV     05 010 01 00:   SPONTANEOUS POTENTIAL FROM RES.
 CILD.MMHO   05 110 46 00:   CONDUCTIVITY INDUCTION LOG DEEP
 ILD .OHMM   05 120 46 00:   INDUCTION LOG DEEP
 ASN .OHMM   05 041 16 00:   AMPLIFIED SHORT NORMAL 16"
 GR  .GAPI   30 310 01 00:   GAMMA RAY
~PARAMETER INFORMATION
#MNEM.UNIT          VALUE    DESCRIPTION
#----------   ------------   ------------------------------
 EPD .F              5097:   ELEVATION PERMANENT DATUM
 LMF .                 KB:   LOG MEASURED FROM
 DMF .                 KB:   DRILLING MEASURED FROM
 EKB .F              5102:   KELLING BUSHING
 EGL .F              5097:   GROUND LEVEL
 DATE.           7-2-1963:   RUN DATE
 RUN .                  1:   RUN NUMBER
 DD  .F               916:   DEPTH DRILLER
 DL  .F               916:   DEPTH LOGGER
 BLI .F               915:   BOTTOM LOG INTERVAL
 TLI .F                90:   TOP LOG INTERVAL
 CS  .IN            8.625:   CASING SIZE
 CBD .F                10:   CASING BOTTOM DRILLER
 BS  .IN             6.75:   BIT SIZE
 BSD .F               916:   BIT SIZE AT DEPTH
 DFT .            GEL/OIL:   DRILLING FLUID TYPE
 DFD .                9.6:   DRILLING FLUID DENSITY
 DFV .                 67:   DRILLING FLUID VISCOSITY
 DFPH.                  9:   DRILLING FLUID PH
 DFL .                4.2:   DRILLING FLUID LOSS
 MSS .          FLOW LINE:   MUD SAMPLE SOURCE
 RMS .OHMM           2.92:   RESISTIVITY MUD SAMPLE
 MST .F                86:   MUD SAMPLE TEMPERATURE
 RMF .OHMM            2.6:   RESISTIVITY MUD FILTRATE SAMPLE
 MFST.F                86:   MUD FILTRATE SAMPLE TEMPERATURE
 RMC .OHMM           2.49:   RESISTIVITY MUD CAKE
 MCST.F                86:   MUD CAKE SAMPLE TEMPERATURE
 MFSS.                  M:   MUD FILTRATE SAMPLE SOURCE
 MCSS.                  M:   MUD CAKE SAMPLE SOURCE
 TCS .HRS              .5:   TIME CURCULATED STOPPED
 LUN .               4507:   LOGGING UNIT NUMBER
 ENGI.             KNOBEL:   RECORDING ENGINEER
 WITN.          JORGENSON:   WITNESSED BY
 CLNT.            A2DTECH:   CLIENT CODE
 ORIG.       2", 5" PRINT:   ORIGIN OF DATA
 UWI .       490250653700:   UNIQUE WELL ID
 DICO. A2D Technologies, Inc.:   DIGITIZING COMPANY
~OTHER INFORMATION
~A   DEPT      SPR       CILD        ILD        ASN          GR  
# ...
  621.0000   -28.8716   131.7717     7.4688     8.6807    54.9977
  621.5000   -28.8931   132.3199     7.4551     8.6521    56.7363
  622.0000   -29.1263   132.8693     7.4413     8.6443    61.7629
  622.5000   -29.3604   133.4183     7.4277     8.6632    63.9978
  623.0000   -29.5964   133.9670     7.4138     8.6751    62.8678
  623.5000   -29.8322   134.5159     7.3978     8.6596    64.2359
  624.0000   -30.0652   134.2685     7.4618     8.6445    63.5831
  624.5000   -30.1985   132.8961     7.5396     8.6365    65.2344
  625.0000   -30.0560   131.5237     7.6179     8.6894    59.2864
  625.5000   -30.0209   130.1513     7.6933     8.7720    60.2479
  626.0000   -30.0180   128.0483     7.8354     8.9456    61.8034
  626.5000   -30.0325   125.4322     7.9892     9.1779    63.1369
  627.0000   -30.3208   122.8314     8.1440     9.4112    59.3713
  627.5000   -30.6019   120.2247     8.2986     9.6123    58.0840
  628.0000   -30.8549   117.6164     8.4531     9.7513    60.8702
  628.5000   -30.8593   115.4784     8.6076     9.9302    56.2108
  629.0000   -30.8590   113.4844     8.7621    10.1454    54.8265
  629.5000   -30.8574   111.4903     8.9166    10.2872    55.0129
  630.0000   -30.4996   109.4963     9.0711    10.3694    55.2197
  630.5000   -30.0833   107.5023     9.2261    10.9914    54.5657
  631.0000   -30.3499   105.5083     9.3880    10.3309    51.8325
  631.5000   -30.7651   103.5143     9.6027    10.5922    44.4073
  632.0000   -31.1886   101.5203     9.8295    10.7761    38.5475
  632.5000   -31.6180    99.5263    10.0568    10.9509    40.7642
  633.0000   -32.0616    97.5322    10.2842    11.1447    43.5163
  633.5000   -31.6752    95.5382    10.5116    11.4107    42.9135
  634.0000   -31.1472    93.5442    10.7393    11.6707    41.5069
  634.5000   -31.3894    91.5502    10.9675    11.8360    39.5366
  635.0000   -31.5951    89.7167    11.1750    11.9022    36.5106
  635.5000   -31.0557    89.7167    11.1674    11.9663    34.1332
  636.0000   -30.9577    91.4682    10.9312    11.9712    36.3752
  636.5000   -31.1978    93.4741    10.6994    11.7810    38.0510
  637.0000   -31.4380    95.4799    10.4693    11.5968    37.6711
  637.5000   -31.6802    97.4857    10.2390    11.4130    40.9837
  638.0000   -31.9171    99.4915    10.0251    11.2286    37.7502
  638.5000   -32.0448   100.1603    10.0283    11.0433    36.9939
  639.0000   -31.6065   100.0758    10.0379    10.8625    37.4112
  639.5000   -31.1782    99.9921    10.0466    10.6403    38.8142
  640.0000   -30.7406    99.9085    10.0550    10.6619    39.6856
  640.5000   -30.5677    99.8256    10.0634    10.6812    42.8269
  641.0000   -30.4561    99.7428    10.0718    10.6994    43.6279
  641.5000   -30.5818    99.6600    10.0802    10.7181    39.4167
  642.0000   -30.7641    99.5773    10.0886    10.7367    40.6584
  642.5000   -30.9482    99.4945    10.0971    10.7553    43.4260
  643.0000   -31.1051    99.4115    10.1056    10.7739    41.9651
  643.5000   -31.2094    99.3291    10.1136    10.7926    40.8950
  644.0000   -31.3150    99.2462    10.1220    10.8113    45.1696
  644.5000   -31.4081    99.1606    10.0781    10.8301    47.1390
  645.0000   -31.2538   100.0000     9.9965    10.8488    47.5975
  645.5000   -30.7614   100.8692     9.9145    10.8402    49.4277
  646.0000   -30.3243   101.7384     9.8345    10.6869    50.4914
  646.5000   -30.1352   103.2057     9.6600    10.3833    50.6843
  647.0000   -30.4291   105.8132     9.4581    10.0413    50.8812
  647.5000   -30.3627   108.4208     9.2453     9.5925    51.0029
  648.0000   -30.3040   111.0283     8.9062     9.4249    52.2786
  648.5000   -30.2465   112.3826     8.8236    10.4977    54.5492
  649.0000   -30.1884   113.2551     8.7878    10.3820    56.0076
  649.5000   -30.1303   114.1276     8.7493    10.3980    49.2376
  650.0000   -30.0723   115.0002     8.7090    10.2603    43.9413
  650.5000   -30.0142   115.8727     8.6690    10.1038    45.0833
  651.0000   -29.9562   116.7452     8.5963     9.9486    46.1903
  651.5000   -29.8984   117.6582     8.5107     9.8029    44.3893
  652.0000   -29.8406   118.5877     8.4249     9.7261    47.7240
  652.5000   -29.8354   119.5173     8.3392     9.6506    50.9124
  653.0000   -29.8805   120.4469     8.2534     9.5744    47.7236
  653.5000   -29.9259   121.3765     8.1676     9.5386    43.6396
  654.0000   -29.9707   122.3021     8.0817     9.5405    46.4240
  654.5000   -30.0268   123.2897     7.9960     9.4539    43.8366
  655.0000   -30.4330   123.2913     7.9223     9.3414    41.1003
  655.5000   -30.0309   123.2949     7.9221     9.2722    43.6656
  656.0000   -29.9556   123.2949     7.9223     9.3019    46.7218
  656.5000   -30.2215   123.2949     7.9223     9.2894    49.0386
  657.0000   -30.2593   123.2949     7.9223     9.2681    46.5538
  657.5000   -30.2880   123.2949     7.9223     9.1863    46.8243
  658.0000   -30.3178   123.2949     7.9224     9.1181    47.3039
  658.5000   -30.3478   123.2949     7.9222     9.2125    51.7598
  659.0000   -30.3783   123.2949     7.9223     9.0936    51.3969
  659.5000   -30.4112   124.8073     7.9271     9.0443    51.8759
  660.0000   -30.4267   128.8457     7.7726     9.1492    50.5372
  660.5000   -29.7830   132.8842     7.5482     9.0294    47.8591
  661.0000   -29.1857   136.9227     7.3186     8.8399    46.2195
  661.5000   -29.4330   140.9612     7.0892     8.6037    51.9436
  662.0000   -29.8273   144.9996     6.8585     8.3715    51.7739
  662.5000   -30.5820   147.9061     6.7285     8.1671    52.1284
  663.0000   -31.3307   149.1033     6.6637     7.9754    53.1643
  663.5000   -31.1872   150.3005     6.6273     7.8541    55.1382
  664.0000   -30.7466   151.4977     6.5914     7.7764    56.8546
  664.5000   -30.0831   152.6758     6.5634     7.7428    54.3773
  665.0000   -29.4173   149.4054     6.7143     7.7079    49.1424
  665.5000   -29.4737   146.1863     6.8702     7.8471    52.1335
  666.0000   -29.5681   142.9672     7.0272     7.9718    56.9987
  666.5000   -29.6592   141.4911     7.0638     8.0427    58.8279
  667.0000   -29.7491   142.3229     7.0352     8.1126    54.6513
  667.5000   -29.8389   143.1546     7.0054     8.1125    51.2854
  668.0000   -29.9290   143.9863     6.9808     8.0291    46.3698
  668.5000   -30.0198   143.0449     7.0489     8.1473    47.2141
  669.0000   -30.0968   141.1295     7.1182     8.2532    48.5744
  669.5000   -30.1740   139.2140     7.1871     8.1910    48.3399
  670.0000   -30.2513   137.2985     7.2558     8.1403    48.6623
  670.5000   -30.3311   135.3830     7.3575     8.3285    52.3426
  671.0000   -30.4104   133.4666     7.4982     8.4993    54.6412
  671.5000   -30.7242   131.5505     7.6384     8.6132    50.0641
  672.0000   -31.1918   129.6343     7.7530     8.7241    51.1250
  672.5000   -31.3164   127.7169     7.8005     8.8569    53.4566
  673.0000   -30.8614   128.6234     7.7239     8.9379    53.7219
  673.5000   -30.4105   129.9081     7.6507     8.8744    55.6518
  674.0000   -30.3172   131.1929     7.5776     8.8147    57.7867
  674.5000   -30.4533   132.4777     7.5043     8.7554    56.7930
  675.0000   -30.5921   133.7624     7.4310     8.6960    55.3651
  675.5000   -30.7324   135.0472     7.3578     8.5777    56.7500
  676.0000   -30.8721   136.3320     7.2956     8.4325    58.7914
  676.5000   -31.0136   137.6168     7.3172     8.4097    55.6777
  677.0000   -31.0108   137.6438     7.3399     8.3896    55.3935
  677.5000   -30.9206   137.1649     7.3624     8.3684    59.2784
  678.0000   -30.8295   136.6861     7.3848     8.3594    56.3320
  678.5000   -30.7377   136.2072     7.4072     8.5169    51.8426
  679.0000   -30.6506   135.7283     7.4297     8.7101    50.0320
  679.5000   -30.6479   135.2495     7.4521     8.8031    50.4005
  680.0000   -30.6496   134.7706     7.4745     8.8044    50.2938
  680.5000   -30.5624   134.2917     7.4984     8.7268    51.8398
  681.0000   -30.4251   133.7917     7.4667     8.6307    55.1647
  681.5000   -30.2873   134.7216     7.4193     8.5343    56.1387
