~VERSION INFORMATION
 VERS.                2.0:   CWLS LOG ASCII STANDARD - VERSION 2.0
 WRAP.                 NO:   ONE LINE PER DEPTH STEP
~WELL INFORMATION
#MNEM.UNIT      DATA TYPE    INFORMATION
#----------   ------------   ------------------------------
 STRT.F           89.0000:   START DEPTH
 STOP.F         2840.5000:   STOP DEPTH
 STEP.F            0.5000:   STEP LENGTH
 NULL.          -999.2500:   NO VALUE
 COMP. U S NAVY/INTEX OIL CO:   COMPANY
 WELL. RES3 TEAPO DOME AX #41-29:   WELL
 FLD .             TEAPOT:   FIELD
 LOC .      S29 T39N R78W:   LOCATION
 CNTY.            NATRONA:   COUNTY
 STAT.            WYOMING:   STATE
 CTRY. UNITED STATES OF AMERICA:   COUNTRY
 SRVC.       Schlumberger:   SERVICE COMPANY
 DATE.        02-JUN-1966:   LOGDATE
 API .       490250945000:   API NUMBER
~CURVE INFORMATION
#MNEM.UNIT       API CODE    CURVE DESCRIPTION
#----------   ------------   ------------------------------
 DEPT.F                  :   
 GRD .GAPI   45 310 01 00:   GAMMA RAY FROM DENSITY LOG
 CALD.IN     45 280 60 00:   CALIPER FROM DENSITY LOG
 DPHI.DEC    45 890 12 00:   DENSITY POROSITY SANDSTONE
 RHOB.G/C3   45 350 01 00:   BULK DENSITY
 CORR.G/C3   45 356 01 00:   DENSITY CORRECTION
 SPR .MV     05 010 01 00:   SPONTANEOUS POTENTIAL FROM RES.
 ASN .OHMM   05 041 16 00:   AMPLIFIED SHORT NORMAL 16"
 ILD .OHMM   05 120 46 00:   INDUCTION LOG DEEP
 CILD.MMHO   05 110 46 00:   CONDUCTIVITY INDUCTION LOG DEEP
~PARAMETER INFORMATION
#MNEM.UNIT          VALUE    DESCRIPTION
#----------   ------------   ------------------------------
 PD  .                 GL:   PERMANENT DATUM
 EPD .F              5007:   ELEVATION PERMANENT DATUM
 LMF .                 KB:   LOG MEASURED FROM
 DAPD.F              10.3:   FEET ABOVE PERMANENT DATUM
 DMF .                 KB:   DRILLING MEASURED FROM
 EKB .F            5017.3:   KELLING BUSHING
 EGL .F              5007:   GROUND LEVEL
 DATE.             6-2-66:   RUN DATE
 RUN .                  1:   RUN NUMBER
 DD  .F              2840:   DEPTH DRILLER
 DL  .F              2838:   DEPTH LOGGER
 BLI .F              2837:   BOTTOM LOG INTERVAL
 TLI .F                88:   TOP LOG INTERVAL
 CS  .IN            10.75:   CASING SIZE
 CBD .F                30:   CASING BOTTOM DRILLER
 BS  .IN            7.875:   BIT SIZE
 BSD .F              2840:   BIT SIZE AT DEPTH
 DFT .  LIGNO-SULFATE LCM:   DRILLING FLUID TYPE
 DFD .                9.9:   DRILLING FLUID DENSITY
 DFV .                 48:   DRILLING FLUID VISCOSITY
 DFPH.                7.6:   DRILLING FLUID PH
 DFL .                8.1:   DRILLING FLUID LOSS
 MSS .         CIRCULATED:   MUD SAMPLE SOURCE
 RMS .OHMM           1.62:   RESISTIVITY MUD SAMPLE
 MST .F                73:   MUD SAMPLE TEMPERATURE
 RMF .OHMM           1.06:   RESISTIVITY MUD FILTRATE SAMPLE
 MFST.F                72:   MUD FILTRATE SAMPLE TEMPERATURE
 MFSS.                 FP:   MUD FILTRATE SAMPLE SOURCE
 RMB .OHMM           1.13:   RESISTIVITY MUD AT BHT
 BHT .F               105:   BOTTOM HOLE TEMPERATURE
 TCS .HRS               2:   TIME CURCULATED STOPPED
 MRT .F               105:   MAXIMUM RECORDED TEMPERATURE
 LUN .               4507:   LOGGING UNIT NUMBER
 LUL .               CSPR:   LOGGING UNIT LOCATION
 ENGI.               HAUG:   RECORDING ENGINEER
 WITN.             TUTTLE:   WITNESSED BY
 CLNT.            A2DTECH:   CLIENT CODE
 ORIG.        2" 5" PRINT:   ORIGIN OF DATA
 UWI .       490250945000:   UNIQUE WELL ID
 DICO. A2D Technologies, Inc.:   DIGITIZING COMPANY
~OTHER INFORMATION
~A   DEPT      GRD       CALD       DPHI       RHOB       CORR        SPR          ASN      ILD        CILD  
# ...
 2680.5000   112.4697     9.9631     0.0905     2.4947     0.0018   -31.2223     6.1846     5.0125   208.2917
 2681.0000   111.5260     9.9519     0.0954     2.4898     0.0036   -31.2367     6.3616     5.2807   198.0505
 2681.5000   111.8394     9.9407     0.0928     2.4932     0.0071   -31.0697     6.5418     5.4264   193.2125
 2682.0000   112.8934     9.9294     0.0934     2.4967     0.0105   -30.4828     6.6694     5.3435   195.3047
 2682.5000   114.9549     9.9182     0.0946     2.4976     0.0113   -30.2325     6.7156     5.2512   198.4141
 2683.0000   117.3936     9.9164     0.0932     2.4938     0.0078   -30.3401     6.6922     5.1535   201.8810
 2683.5000   119.8327     9.9151     0.0970     2.4920     0.0077   -30.3974     6.5633     5.1007   204.1116
 2684.0000   121.9101     9.9138     0.0921     2.4950     0.0116   -30.0361     6.4406     5.0481   206.3362
 2684.5000   122.7177     9.9124     0.0917     2.4957     0.0154   -29.8425     6.3080     4.9960   208.5466
 2685.0000   123.2175     9.9110     0.0941     2.4923     0.0150   -30.0207     6.1891     4.9436   210.7540
 2685.5000   124.0211     9.9096     0.0962     2.4890     0.0108   -30.1387     6.0328     4.8918   212.9632
 2686.0000   124.8420     9.9082     0.0919     2.4939     0.0130   -30.2882     6.0775     4.8391   215.1718
 2686.5000   123.3737     9.9069     0.0862     2.5054     0.0155   -30.4208     6.1798     4.7903   218.6654
 2687.0000   121.9277     9.9055     0.0830     2.5078     0.0120   -30.5605     6.2760     4.7226   223.1972
 2687.5000   123.5558     9.9041     0.0880     2.5042     0.0078   -30.7007     6.3446     4.4986   230.8606
 2688.0000   127.2063     9.9028     0.0914     2.5009     0.0034   -30.8119     6.3791     4.2975   241.7112
 2688.5000   130.8088     9.9014     0.0804     2.5165     0.0057   -30.7647     6.2254     4.0888   252.4925
 2689.0000   136.0204     9.9000     0.0711     2.5363     0.0112   -30.7095     5.9513     3.8868   266.8731
 2689.5000   145.0004     9.8986     0.0797     2.5210     0.0166   -30.6527     5.6345     3.6670   282.4875
 2690.0000   157.9054     9.8933     0.0883     2.4923     0.0142   -30.5990     5.2789     3.5906   300.1998
 2690.5000   161.1977     9.8821     0.0972     2.4743     0.0078   -30.5415     4.9430     3.5343   303.0962
 2691.0000   149.9448     9.8709     0.1071     2.4602     0.0098   -30.4881     4.5932     3.4671   306.4421
 2691.5000   138.9979     9.8597     0.1134     2.4506     0.0110   -30.4311     4.5045     3.4659   309.1908
 2692.0000   129.7061     9.8484     0.1070     2.4791     0.0112   -30.5204     4.4868     3.5292   303.1968
 2692.5000   124.0375     9.8372     0.0951     2.5037     0.0196   -30.6583     4.7432     3.5873   290.2098
 2693.0000   123.1350     9.8260     0.0832     2.5129     0.0223   -30.7851     5.1712     3.8235   273.6445
 2693.5000   120.7231     9.8148     0.0823     2.5084     0.0054   -30.9206     5.5484     4.1507   250.2498
 2694.0000   119.4941     9.8036     0.0850     2.5078    -0.0012   -31.0448     5.9387     4.4239   238.6057
 2694.5000   119.8572     9.7924     0.0813     2.5108     0.0160   -31.1859     6.2737     4.7570   223.3631
 2695.0000   118.5003     9.7811     0.0813     2.5134     0.0220   -31.1707     6.4410     5.0040   209.2907
 2695.5000   117.1443     9.7736     0.0879     2.5024     0.0155   -31.0459     6.5945     5.1253   203.3750
 2696.0000   117.4404     9.7677     0.0929     2.4927     0.0095   -30.9516     6.7559     5.2838   197.8810
 2696.5000   115.6317     9.7618     0.0898     2.5084     0.0131   -30.8401     6.9085     5.4251   192.3871
 2697.0000   112.5003     9.7560     0.0870     2.5206     0.0177   -30.9947     7.0810     5.5755   186.8931
 2697.5000   110.9548     9.7501     0.0821     2.5150     0.0223   -31.2197     7.2327     5.7210   181.3992
 2698.0000   108.5831     9.7442     0.0801     2.5087     0.0205   -31.4362     7.3561     5.8689   175.9052
 2698.5000   108.3823     9.7383     0.0815     2.5170     0.0196   -31.6639     7.4994     6.0159   171.3287
 2699.0000   111.1582     9.7324     0.0777     2.5262     0.0317   -31.7689     7.6348     6.1635   167.3545
 2699.5000   114.0566     9.7266     0.0725     2.5354     0.0327   -31.1743     7.7745     6.3109   163.9489
 2700.0000   116.9007     9.7207     0.0710     2.5418     0.0193   -31.2613     7.9119     6.4586   160.5434
 2700.5000   118.2623     9.7148     0.0776     2.5254     0.0099   -31.8780     8.0509     6.6063   157.1378
 2701.0000   116.0836     9.7089     0.0870     2.5087     0.0004   -31.8359     8.1887     6.7537   153.7323
 2701.5000   113.5047     9.7030     0.0926     2.4971    -0.0004   -31.3586     8.3278     6.9035   150.3268
 2702.0000   108.8042     9.6975     0.0869     2.5046     0.0053   -30.9522     8.4662     7.0328   146.3537
 2702.5000   105.2837     9.6964     0.0813     2.5139     0.0097   -30.9685     8.6104     7.0108   146.7116
 2703.0000   107.9161     9.6954     0.0774     2.5231     0.0063   -31.3116     8.6792     6.9792   147.1412
 2703.5000   112.1251     9.6945     0.0866     2.5230     0.0062   -31.5907     8.7402     6.9247   149.5338
 2704.0000   117.0920     9.6935     0.0845     2.5146     0.0113   -31.7877     8.7679     6.7059   153.8295
 2704.5000   122.1641     9.6926     0.0834     2.5061     0.0105   -31.3827     8.6354     6.4649   157.3427
 2705.0000   126.9578     9.6916     0.0896     2.4975     0.0077   -30.8940     8.4888     6.2224   166.9913
 2705.5000   128.4477     9.6906     0.0959     2.4890     0.0050   -31.0710     8.2021     5.9228   176.3237
 2706.0000   130.3068     9.6897     0.1010     2.4804     0.0023   -31.3904     7.8510     5.5267   189.1499
 2706.5000   134.1807     9.6887     0.1041     2.4718     0.0004   -31.2314     7.5043     5.0877   204.1235
 2707.0000   139.6191     9.6878     0.1054     2.4744     0.0041   -31.0104     7.1547     4.7277   218.7487
 2707.5000   144.5816     9.6868     0.1074     2.4677     0.0088   -30.7784     6.7971     4.4774   236.8721
 2708.0000   156.3384     9.6859     0.1178     2.4564     0.0110   -30.6564     6.4943     4.1730   249.7283
 2708.5000   166.4610     9.6849     0.1226     2.4498     0.0097   -30.9264     6.2001     4.0614   264.8570
 2709.0000   156.9254     9.6839     0.1276     2.4461     0.0084   -31.1718     5.9103     4.1101   259.6389
 2709.5000   151.0541     9.6830     0.1314     2.4485     0.0071   -31.3663     5.4862     4.2464   252.0837
 2710.0000   129.3697     9.6820     0.1164     2.4983     0.0067   -30.8387     5.1205     4.3706   242.2434
 2710.5000   109.9326     9.6811     0.1034     2.5340     0.0080   -30.2830     5.3232     4.4794   234.0210
 2711.0000   105.5132     9.6801     0.0950     2.5396     0.0093   -30.6867     5.7246     4.7679   221.2787
 2711.5000   102.9245     9.6791     0.0956     2.5455     0.0106   -31.3211     6.6469     5.2851   201.7294
 2712.0000   104.2058     9.6782     0.0984     2.5505     0.0112   -31.7523     7.8582     5.6425   182.2555
 2712.5000   107.2726     9.6779     0.1002     2.5310     0.0102   -31.2360     8.5382     6.3404   162.7817
 2713.0000   108.8785     9.6824     0.0995     2.5112     0.0087   -30.8672     8.6544     6.9195   149.8035
 2713.5000   105.2781     9.6867     0.0998     2.5175     0.0066   -31.0021     8.5932     7.1030   143.5365
 2714.0000   102.4224     9.6911     0.1011     2.5184     0.0045   -31.1868     8.4024     7.1096   139.3606
 2714.5000   101.4617     9.6955     0.1028     2.5114     0.0023   -31.0716     8.1863     7.0074   146.7213
 2715.0000   104.9986     9.6999     0.1042     2.5044     0.0004   -30.7381     7.9820     6.7056   152.9071
 2715.5000   107.7913     9.7043     0.1022     2.4983     0.0028   -30.4847     7.7512     6.4223   159.9427
 2716.0000   110.2218     9.7086     0.0870     2.5041     0.0113   -30.1581     7.5838     6.1432   169.1317
 2716.5000   112.0831     9.7130     0.0857     2.5138     0.0149   -30.1343     7.3880     5.8537   178.3208
