~VERSION INFORMATION
 VERS.                2.0:   CWLS LOG ASCII STANDARD - VERSION 2.0
 WRAP.                 NO:   ONE LINE PER DEPTH STEP
~WELL INFORMATION
#MNEM.UNIT      DATA TYPE    INFORMATION
#----------   ------------   ------------------------------
 STRT.F            0.5000:   START DEPTH
 STOP.F          696.0000:   STOP DEPTH
 STEP.F            0.5000:   STEP LENGTH
 NULL.          -999.2500:   NO VALUE
 COMP. LAWRENCE/ALLISON INC:   COMPANY
 WELL. SX 11 WP #26-44-11:   WELL
 FLD .             TEAPOT:   FIELD
 LOC .      S11 T38N R78W:   LOCATION
 CNTY.            NATRONA:   COUNTY
 STAT.            WYOMING:   STATE
 CTRY. UNITED STATES OF AMERICA:   COUNTRY
 SRVC.      Dresser Atlas:   SERVICE COMPANY
 DATE.        08-SEP-1984:   LOGDATE
 API .       490251097600:   API NUMBER
~CURVE INFORMATION
#MNEM.UNIT       API CODE    CURVE DESCRIPTION
#----------   ------------   ------------------------------
 DEPT.F                  :   
 AC  .US/F   60 520 00 00:   ACCOUSTIC
 SPR .MV     07 010 01 00:   SPONTANEOUS POTENTIAL FROM RES.
 RILD.OHMM   07 120 46 00:   RESISTIVITY INDUCTION LOG DEEP
 RILM.OHMM   07 120 44 00:   RESISTIVITY INDUCTION LOG MEDIUM
 RFOC.OHMM   07 220 04 00:   RESISTIVITY FOCUSED LOG
 GRR .GAPI   07 310 01 00:   GAMMA RAY FROM RESISTIVITY
 CALD.IN     45 280 60 00:   CALIPER FROM DENSITY LOG
 DEN .G/C3   45 350 01 00:   COMPENSATED BULK DENSTIY
 CORR.G/C3   45 356 01 00:   DENSITY CORRECTION
 PORD.DEC    45 890 12 00:   POROSITY DENSITY SANDSTONE
 CNC .DEC    42 890 03 00:   NEUTRON POROSITY SANDSTONE
~PARAMETER INFORMATION
#MNEM.UNIT          VALUE    DESCRIPTION
#----------   ------------   ------------------------------
 PD  .                 GL:   PERMANENT DATUM
 EPD .F              5186:   ELEVATION PERMANENT DATUM
 LMF .                 GL:   LOG MEASURED FROM
 DMF .                 GL:   DRILLING MEASURED FROM
 EGL .F              5186:   GROUND LEVEL
 DATE.         8-SEP-1984:   RUN DATE
 RUN .                  1:   RUN NUMBER
 DD  .F               712:   DEPTH DRILLER
 DL  .F               695:   DEPTH LOGGER
 BLI .F               693:   BOTTOM LOG INTERVAL
 CS  .IN            8.625:   CASING SIZE
 CBD .F                40:   CASING BOTTOM DRILLER
 CBL .F                45:   CASING BOTTOM LOGGER
 BS  .IN            7.875:   BIT SIZE
 BSD .F               712:   BIT SIZE AT DEPTH
 DFT .          KCL WATER:   DRILLING FLUID TYPE
 MSS .           FLOWLINE:   MUD SAMPLE SOURCE
 RMS .OHMM            .22:   RESISTIVITY MUD SAMPLE
 MST .F                72:   MUD SAMPLE TEMPERATURE
 RMF .OHMM            .17:   RESISTIVITY MUD FILTRATE SAMPLE
 MFST.F                72:   MUD FILTRATE SAMPLE TEMPERATURE
 RMC .OHMM            .28:   RESISTIVITY MUD CAKE
 MCST.F                72:   MUD CAKE SAMPLE TEMPERATURE
 MFSS.               CALC:   MUD FILTRATE SAMPLE SOURCE
 MCSS.               CALC:   MUD CAKE SAMPLE SOURCE
 RMB .OHMM            .18:   RESISTIVITY MUD AT BHT
 BHT .F                90:   BOTTOM HOLE TEMPERATURE
 TCS .HRS               3:   TIME CURCULATED STOPPED
 MRT .F                90:   MAXIMUM RECORDED TEMPERATURE
 LUN .               6274:   LOGGING UNIT NUMBER
 LUL .               GLTE:   LOGGING UNIT LOCATION
 ENGI.             RAUTIO:   RECORDING ENGINEER
 WITN.           JENNINGS:   WITNESSED BY
 CLNT.            A2DTECH:   CLIENT CODE
 ORIG. 1", 2', 2.5", 5" PRNT:   ORIGIN OF DATA
 UWI .       490251097600:   UNIQUE WELL ID
 DICO. A2D Technologies, Inc.:   DIGITIZING COMPANY
~OTHER INFORMATION
~A    DEPT      AC        SPR       RILD       RILM       RFOC         GRR      CALD        DEN       CORR       PORD        CNC   
# ...
  244.5000   103.5960    -4.3880     8.2850     8.6510     8.6520    96.1874     7.8780     2.4620    -0.0180     0.1300     0.2988
  245.0000   104.2800    -4.2460     8.2250     8.6850     8.5900    95.0213     7.8800     2.4630    -0.0130     0.1290     0.2928
  245.5000   104.9650    -4.0950     8.1650     8.7190     8.5460    93.5664     7.8810     2.4610    -0.0060     0.1310     0.2905
  246.0000   105.2390    -4.3110     8.1050     8.7530     8.6550    94.1819     7.8830     2.4600     0.0070     0.1320     0.2989
  246.5000   105.1250    -4.6680     8.0140     8.7870     8.7560    95.3937     7.8850     2.4710     0.0220     0.1260     0.3050
  247.0000   104.8410    -5.0260     8.0870     8.8220     8.8560    96.3055     7.8870     2.4860     0.0310     0.1190     0.3043
  247.5000   104.5560    -5.3830     8.3140     8.8660     8.9480    97.8098     7.8880     2.4980     0.0190     0.1110     0.3049
  248.0000   104.4800    -5.6240     8.2680     8.8200     8.8370   101.0919     7.8900     2.4920     0.0080     0.1110     0.3021
  248.5000   104.5420    -5.5210     8.1740     8.7530     8.7130    99.9258     7.8900     2.4840     0.0080     0.1160     0.2999
  249.0000   104.6040    -5.4260     8.0800     8.6860     8.6250    98.7710     7.8840     2.4830     0.0120     0.1180     0.2967
  249.5000   104.5810    -5.3320     8.0140     8.6200     8.6250    99.6828     7.8790     2.4810     0.0090     0.1180     0.2954
  250.0000   104.4310    -5.2540     8.1140     8.5460     8.6430    98.8129     7.8730     2.4770     0.0060     0.1200     0.3163
  250.5000   104.2810    -5.3470     8.1910     8.4930     8.7030    97.6580     7.8680     2.4840     0.0110     0.1190     0.3064
  251.0000   104.1310    -5.4430     8.2680     8.4350     8.7640    96.4917     7.8630     2.4910     0.0170     0.1140     0.3022
  251.5000   103.9380    -5.5640     8.3450     8.3760     8.8240    95.3292     7.8570     2.4950     0.0190     0.1120     0.3039
  252.0000   103.6870    -5.6920     8.4220     8.3140     8.8840    94.1667     7.8520     2.4910     0.0220     0.1130     0.3002
  252.5000   103.4460    -5.8200     8.4990     8.3420     8.9450    93.3005     7.8520     2.4910     0.0310     0.1120     0.2914
  253.0000   102.6630    -5.9480     8.5770     8.3820     9.0050    95.4048     7.8510     2.4970     0.0370     0.1110     0.2825
  253.5000   101.9100    -6.0770     8.6540     8.4210     9.0650    95.4275     7.8510     2.4990     0.0260     0.1110     0.2800
  254.0000   101.1570    -6.2070     8.7310     8.4600     9.1250    94.5575     7.8510     2.4940     0.0130     0.1120     0.2796
  254.5000   100.4040    -6.2830     8.8080     8.4990     9.1860    95.4766     7.8510     2.4890     0.0100     0.1130     0.2848
  255.0000    99.8610    -6.3450     8.8850     8.5390     9.2760    96.6845     7.8510     2.4890     0.0120     0.1130     0.2890
  255.5000    99.8610    -6.4090     8.9480     8.5780     9.2580    96.1146     7.8510     2.4890     0.0150     0.1130     0.2921
  256.0000    99.9590    -6.4460     8.8060     8.6170     9.1920    95.8372     7.8520     2.4880     0.0120     0.1150     0.2936
  256.5000   100.2590    -6.0060     8.6870     8.6250     9.1270    95.8674     7.8530     2.4850     0.0050     0.1170     0.2967
  257.0000   101.2560    -5.4640     8.5680     8.6250     9.0610    95.8901     7.8550     2.4820     0.0010     0.1190     0.2996
  257.5000   102.1590    -4.9160     8.4480     8.6250     8.9950    95.6127     7.8570     2.4780     0.0050     0.1200     0.2965
  258.0000   103.0630    -4.3610     8.3290     8.6250     8.9300    95.6430     7.8600     2.4760     0.0090     0.1220     0.2891
  258.5000   103.8450    -4.3980     8.2240     8.6260     8.8660    95.6657     7.8620     2.4870     0.0140     0.1150     0.2980
  259.0000   104.0440    -4.5280     8.1650     8.6250     8.9220    95.6883     7.8640     2.4980     0.0180     0.1070     0.3130
  259.5000   104.0440    -4.6450     8.1060     8.5280     8.9770    95.7110     7.8670     2.5080     0.0100     0.1030     0.3238
  260.0000   103.9810    -4.7620     8.0470     8.4350     9.0310    96.3301     7.8690     2.5030    -0.0040     0.1070     0.3183
  260.5000   103.8970    -4.9240     7.9880     8.3420     9.1140    97.2417     7.8710     2.4920    -0.0120     0.1120     0.3054
  261.0000   103.9520    -5.2580     7.9290     8.2490     9.0860    98.4495     7.8690     2.4880     0.0030     0.1150     0.3032
  261.5000   104.2380    -5.5900     7.8710     8.1620     9.0740    99.6574     7.8660     2.4890     0.0210     0.1140     0.3112
  262.0000   104.5250    -5.9220     7.8120     8.0760     8.8530   101.7579     7.8640     2.4940     0.0360     0.1120     0.3127
  262.5000   104.8120    -6.2540     7.7530     7.9890     8.5590   102.9658     7.8610     2.5000     0.0340     0.1110     0.3055
  263.0000   105.0990    -6.5840     7.6940     7.9030     8.2380   100.6181     7.8590     2.4940     0.0260     0.1120     0.2986
  263.5000   105.4380    -6.6230     7.6350     7.8170     8.2450    98.2742     7.8560     2.4870     0.0170     0.1150     0.2870
  264.0000   105.4380    -6.4320     7.5840     7.7240     8.2610    97.1079     7.8540     2.4850     0.0110     0.1180     0.2947
  264.5000   105.2180    -5.3010     7.5840     7.8070     8.2760    95.6491     7.8520     2.4940     0.0090     0.1120     0.2998
  265.0000   105.0030    -4.0110     7.5840     7.8960     8.2910    94.7867     7.8510     2.5020     0.0150     0.1050     0.2982
  265.5000   104.7880    -3.0120     7.7080     7.9850     8.3070    94.5131     7.8510     2.5070     0.0220     0.1010     0.2945
  266.0000   104.5730    -2.8810     7.7820     8.0740     8.4090    93.6431     7.8510     2.5000     0.0280     0.1080     0.2892
  266.5000   104.3570    -2.9230     7.8560     8.1630     8.5810    93.0770     7.8510     2.4890     0.0270     0.1130     0.2879
  267.0000   104.2140    -2.9770     7.9300     8.2520     8.7530    93.6960     7.8510     2.4850     0.0110     0.1170     0.2929
  267.5000   104.1510    -3.0310     8.0040     8.3410     8.9250    95.7966     7.8510     2.4820    -0.0030     0.1190     0.2999
  268.0000   104.0880    -3.0870     8.0780     8.4300     9.0460    97.2969     7.8510     2.4790     0.0000     0.1200     0.3020
  268.5000   103.9330    -3.1420     8.1520     8.5200     9.0840    94.6567     7.8510     2.4780     0.0040     0.1210     0.2995
  269.0000   103.5570    -3.1970     8.2260     8.6090     9.1230    94.0831     7.8510     2.4780     0.0080     0.1200     0.2970
  269.5000   103.1730    -3.2530     8.3000     8.6980     9.1620    95.8911     7.8510     2.4800     0.0100     0.1190     0.2945
  270.0000   102.7870    -3.3080     8.3830     8.7850     9.2010    97.9878     7.8510     2.4890     0.0090     0.1140     0.2869
  270.5000   102.4010    -3.3630     8.4690     8.8030     9.2390    96.2327     7.8510     2.4990     0.0090     0.1070     0.2795
  271.0000   102.0150    -3.4170     8.5550     8.8240     9.2780    93.8850     7.8510     2.5060     0.0100     0.1030     0.2776
  271.5000   101.6290    -3.4460     8.6400     8.8460     9.3170    91.5411     7.8510     2.5050     0.0180     0.1060     0.2785
  272.0000   101.3990    -3.3120     8.7050     8.8660     9.3690    90.3749     7.8510     2.5030     0.0250     0.1070     0.3191
  272.5000   101.2990    -3.1820     8.6310     8.8300     9.3220    91.5865     7.8510     2.5030     0.0320     0.1050     0.3203
  273.0000   101.4530    -3.1150     8.5730     8.7960     9.2510    92.7982     7.8510     2.5040     0.0290     0.1050     0.3177
  273.5000   101.8040    -3.4020     8.5140     8.7620     9.1800    94.0060     7.8510     2.5010     0.0220     0.1080     0.3226
  274.0000   102.1560    -3.6860     8.4550     8.7280     9.1090    96.3991     7.8510     2.4980     0.0240     0.1080     0.3275
  274.5000   102.5070    -3.8340     8.3900     8.6940     9.0310    98.7921     7.8510     2.4970     0.0360     0.1090     0.3237
