~VERSION INFORMATION
 VERS.                2.0:   CWLS LOG ASCII STANDARD - VERSION 2.0
 WRAP.                 NO:   ONE LINE PER DEPTH STEP
~WELL INFORMATION
#MNEM.UNIT      DATA TYPE    INFORMATION
#----------   ------------   ------------------------------
 STRT.F           24.0000:   START DEPTH
 STOP.F          609.0000:   STOP DEPTH
 STEP.F            0.5000:   STEP LENGTH
 NULL.          -999.2500:   NO VALUE
 COMP. FENIX & SCISSON INC:   COMPANY
 WELL.        S 34 #48-34:   WELL
 FLD .            NPR - 3:   FIELD
 LOC .      S34 T39N R78W:   LOCATION
 CNTY.            NATRONA:   COUNTY
 STAT.            WYOMING:   STATE
 CTRY. UNITED STATES OF AMERICA:   COUNTRY
 SRVC.              Welex:   SERVICE COMPANY
 DATE.        03-MAY-1977:   LOGDATE
 API .       490251035700:   API NUMBER
~CURVE INFORMATION
#MNEM.UNIT       API CODE    CURVE DESCRIPTION
#----------   ------------   ------------------------------
 DEPT.F                  :   
 CALD.IN     45 280 60 00:   CALIPER FROM DENSITY LOG
 CORR.G/C3   45 356 01 00:   DENSITY CORRECTION
 DPHI.DEC    45 890 12 00:   DENSITY POROSITY SANDSTONE
 GRD .GAPI   45 310 01 00:   GAMMA RAY FROM DENSITY LOG
 RHOB.G/C3   45 350 01 00:   BULK DENSITY
 GURD.OHMM   07 220 05 00:   SHALLOW GUARD RESISTIVITY
 ILD .OHMM   07 120 46 00:   INDUCTION LOG DEEP
 ILM .OHMM   07 120 44 00:   INDUCTION LOG MEDIUM
 SPR .MV     07 010 01 00:   SPONTANEOUS POTENTIAL FROM RES.
~PARAMETER INFORMATION
#MNEM.UNIT          VALUE    DESCRIPTION
#----------   ------------   ------------------------------
 PD  .                 GL:   PERMANENT DATUM
 EPD .F              5160:   ELEVATION PERMANENT DATUM
 LMF .                 GL:   LOG MEASURED FROM
 DMF .                 GL:   DRILLING MEASURED FROM
 EGL .F              5160:   GROUND LEVEL
 DATE.        03-MAY-1977:   RUN DATE
 RUN .                  1:   RUN NUMBER
 DD  .F               610:   DEPTH DRILLER
 DL  .F               611:   DEPTH LOGGER
 BLI .F               609:   BOTTOM LOG INTERVAL
 TLI .F                30:   TOP LOG INTERVAL
 CS  .IN            8.625:   CASING SIZE
 CBD .F                40:   CASING BOTTOM DRILLER
 CBL .F                32:   CASING BOTTOM LOGGER
 BS  .IN            7.875:   BIT SIZE
 BSD .F               610:   BIT SIZE AT DEPTH
 DFT .            KCL GEL:   DRILLING FLUID TYPE
 DFD .                8.9:   DRILLING FLUID DENSITY
 DFV .                 33:   DRILLING FLUID VISCOSITY
 DFPH.                8.0:   DRILLING FLUID PH
 DFL .                7.2:   DRILLING FLUID LOSS
 MSS .            MUD PIT:   MUD SAMPLE SOURCE
 RMS .OHMM           0.19:   RESISTIVITY MUD SAMPLE
 MST .F                65:   MUD SAMPLE TEMPERATURE
 RMF .OHMM           0.16:   RESISTIVITY MUD FILTRATE SAMPLE
 MFST.F                65:   MUD FILTRATE SAMPLE TEMPERATURE
 RMC .OHMM           0.24:   RESISTIVITY MUD CAKE
 MCST.F                65:   MUD CAKE SAMPLE TEMPERATURE
 MFSS.               MEAS:   MUD FILTRATE SAMPLE SOURCE
 MCSS.               MEAS:   MUD CAKE SAMPLE SOURCE
 RMB .OHMM           0.17:   RESISTIVITY MUD AT BHT
 BHT .F                72:   BOTTOM HOLE TEMPERATURE
 TCS .HRS               2:   TIME CURCULATED STOPPED
 MRT .F                72:   MAXIMUM RECORDED TEMPERATURE
 LUN .               8766:   LOGGING UNIT NUMBER
 LUL .             CASPER:   LOGGING UNIT LOCATION
 ENGI.          T. JOYNER:   RECORDING ENGINEER
 WITN.           ROB LYON:   WITNESSED BY
 CLNT.            A2DTECH:   CLIENT CODE
 ORIG.           5" PRINT:   ORIGIN OF DATA
 UWI .       490251035700:   UNIQUE WELL ID
 DICO. A2D Technologies, Inc.:   DIGITIZING COMPANY
~OTHER INFORMATION
~A   DEPT       CALD      CORR        DPHI      GRD         RHOB     GURD        ILD        ILM        SPR   
# ...
  206.5000     7.7967     0.0088     0.1156   115.7336     2.4913    13.5418     7.4968     9.6469   -31.5703
  207.0000     7.7977     0.0089     0.1156   118.4157     2.4877    13.6646     7.5034     9.8620   -31.4010
  207.5000     7.8455     0.0090     0.1281   121.4540     2.4719    14.0466     7.5101     9.9339   -31.2317
  208.0000     7.8467     0.0047     0.1386   120.8154     2.4559    14.5543     7.4649     9.9429   -31.2112
  208.5000     7.8478    -0.0027     0.1402   118.7497     2.4459    15.0805     7.4220     9.8826   -30.8931
  209.0000     7.8493    -0.0058     0.1419   118.1649     2.4430    14.6815     7.4364     9.8936   -30.8726
  209.5000     7.8353    -0.0084     0.1425   119.0694     2.4416    13.8066     7.4508     9.8319   -30.8521
  210.0000     7.8216    -0.0083     0.1410   125.0156     2.4446    13.4384     7.4652     9.7074   -30.8316
  210.5000     7.8078    -0.0040     0.1395   124.5820     2.4477    13.4521     7.4247     9.3854   -30.6623
  211.0000     7.8093    -0.0039     0.1382   122.6647     2.4508    13.4649     7.3282     8.9472   -30.6418
  211.5000     7.8104    -0.0022     0.1370   124.5421     2.4516    13.1998     7.2831     8.9572   -30.6213
  212.0000     7.8116    -0.0021     0.1352   127.4354     2.4532    12.8502     7.2384     9.0274   -30.6008
  212.5000     7.8128     0.0040     0.1328   123.8889     2.4570    13.3152     7.1939     9.2251   -30.5804
  213.0000     7.8140     0.0101     0.1298   120.9330     2.4631    13.7013     7.2006     9.3621   -30.4107
  213.5000     7.8152     0.0132     0.1261   117.3837     2.4708    13.8089     7.2561     9.5671   -30.2212
  214.0000     7.8165     0.0164     0.1231   120.0658     2.4775    13.4435     7.2616     9.7766   -29.7697
  214.5000     7.8027     0.0165     0.1210   120.5332     2.4791    13.2704     7.3175     9.9907   -29.6004
  215.0000     7.8188     0.0166     0.1213   118.8428     2.4761    13.6090     7.3738    10.1391   -29.2823
  215.5000     7.8199     0.0167     0.1232   115.6520     2.4725    14.2504     7.4822    10.2186   -29.1130
  216.0000     7.7913     0.0153     0.1269   113.2896     2.4688    14.3622     7.5922    10.3733   -28.7949
  216.5000     7.7776     0.0110     0.1290   110.0370     2.4651    14.7787     7.7573    10.6045   -28.6256
  217.0000     7.7639     0.0111     0.1311   103.8170     2.4622    14.9982     7.9810    10.7631   -28.4563
  217.5000     7.7654     0.0052     0.1325   100.2677     2.4600    15.3266     8.1546    10.9925   -28.4358
  218.0000     7.7665    -0.0007     0.1334   100.0474     2.4593    15.5542     8.3327    11.2335   -28.1177
  218.5000     7.7677    -0.0005     0.1280   102.1049     2.4669    15.7852     8.5758    11.8020   -27.9484
  219.0000     7.7838     0.0056     0.1238   104.4593     2.4731    16.0196     8.8261    11.9772   -27.6303
  219.5000     7.7997     0.0117     0.1220   104.4708     2.4775    16.2574     9.0210    11.6577   -27.3122
  220.0000     7.8009     0.0178     0.1210   105.0757     2.4791    16.6135     9.2728    11.5076   -27.1429
  220.5000     7.8023     0.0239     0.1204   110.8735     2.4815    16.8602     9.5402    12.0092   -26.8244
  221.0000     7.7885     0.0255     0.1186   111.6269     2.4860    17.1105     9.8154    12.4433   -26.6548
  221.5000     7.7897     0.0257     0.1152   110.1547     2.4914    17.0075    10.0288    12.9828   -26.4810
  222.0000     7.7757     0.0258     0.1134   105.7151     2.4944    17.2601    10.3180    13.6397   -26.4605
  222.5000     7.7920     0.0259     0.1173   105.7715     2.4863    17.9179    10.5424    13.1872   -26.4400
  223.0000     7.8080     0.0260     0.1206   107.5213     2.4796    18.5306    10.8464    12.9247   -26.2707
  223.5000     7.8094     0.0262     0.1221   107.3844     2.4752    19.7399    11.0059    13.6761   -26.1014
  224.0000     7.8106     0.0247     0.1217   106.3545     2.4760    18.1819    11.3233    13.8792   -26.0809
  224.5000     7.8116     0.0249     0.1208   105.7725     2.4791    18.0584    11.4897    13.5120   -26.0605
  225.0000     7.8129     0.0190     0.1226   108.1607     2.4787    18.3628    11.6586    12.8841   -26.0400
  225.5000     7.7840     0.0174     0.1283   107.5787     2.4650    18.7467    11.7484    12.6304   -26.0195
  226.0000     7.7855     0.0132     0.1333   102.2490     2.4545    18.5053    11.6762    12.7297   -26.1529
  226.5000     7.7866     0.0089     0.1390   104.6372     2.4479    18.3899    11.5244    12.9333   -26.1273
  227.0000     7.7878     0.0075     0.1399   107.6160     2.4464    18.2792    11.3742    13.3884   -26.1068
  227.5000     7.7892     0.0016     0.1395   110.8916     2.4442    18.0438    11.1492    13.8725   -26.2351
  228.0000     7.7902     0.0017     0.1417   111.1969     2.4413    17.9352    10.8530    12.8664   -26.0655
  228.5000     7.7915     0.0018     0.1434   109.4309     2.4414    17.8273    10.6380    12.3537   -26.0446
  229.0000     7.7926     0.0020     0.1386   107.8103     2.4460    17.4802    10.4245    12.9788   -26.1736
  229.5000     7.7938     0.0021     0.1338   105.8556     2.4551    17.0177    10.2207    13.4451   -26.1480
  230.0000     7.7949     0.0022     0.1304   107.9845     2.4635    16.5675    10.1488    12.8231   -26.1275
  230.5000     7.7964     0.0023     0.1289   110.0703     2.4672    16.4642    10.0258    12.7431   -26.1070
  231.0000     7.7975     0.0024     0.1289   108.4526     2.4628    16.9454    10.0353    12.7572   -26.0866
  231.5000     7.7987     0.0026     0.1301   106.6836     2.4613    17.4369    10.0428    12.7686   -26.0661
  232.0000     7.7998     0.0027     0.1312   101.7989     2.4659    17.6958    10.0504    12.7799   -26.0456
  232.5000     7.8010     0.0028     0.1312   102.4039     2.4630    17.3474    10.0579    12.7913   -26.0251
  233.0000     7.8021     0.0044     0.1294   104.2077     2.4623    17.0057     9.9942    12.8916   -26.1585
  233.5000     7.8033     0.0061     0.1288   107.2680     2.4677    17.8664    10.0036    12.8140   -26.1329
  234.0000     7.8047     0.0092     0.1288   105.4086     2.4677    17.6284    10.0807    12.3034   -26.1124
  234.5000     7.8058     0.0093     0.1290   102.3043     2.4678    17.0243    10.0187    12.2294   -26.0919
  235.0000     7.8380     0.0094     0.1287   101.2743     2.4679    16.3536    10.0262    12.2404   -25.9226
  235.5000     7.8676     0.0095     0.1290   104.7011     2.4649    15.6144    10.0338    12.4327   -26.0509
  236.0000     7.8687     0.0096     0.1313   106.6414     2.4588    15.9564    10.0413    12.3329   -26.0298
  236.5000     7.8698     0.0113     0.1358   108.4333     2.4516    16.1933     9.9089    12.0206   -26.1536
  237.0000     7.8710     0.0129     0.1370   109.6320     2.4502    15.9848     9.7819    11.8684   -26.1331
  237.5000     7.8722     0.0145     0.1352   110.8330     2.4548    15.4545     9.6547    11.7156   -26.2615
  238.0000     7.8736     0.0131     0.1336   112.0314     2.4548    14.9419     9.4635    11.5647   -26.3949
  238.5000     7.8746     0.0132     0.1327   109.3723     2.4564    14.7462     9.2759    11.4951   -26.3693
  239.0000     7.8758     0.0134     0.1333   107.8972     2.4595    15.1772     9.0296    11.2688   -26.4976
  239.5000     7.8770     0.0135     0.1360   109.3952     2.4551    15.0859     8.9741    11.1212   -26.6259
  240.0000     7.8782     0.0106     0.1387   111.1871     2.4506    14.6868     8.9189    10.9779   -26.7594
  240.5000     7.8793     0.0107     0.1411   110.8293     2.4455    14.3944     9.0500    10.9901   -26.8877
  241.0000     7.8805     0.0109     0.1425   106.7619     2.4417    14.3078     8.7904    10.9999   -27.0109
  241.5000     7.8819     0.0080     0.1425   105.2868     2.4396    14.4232     8.5755    11.1632   -26.9904
  242.0000     7.8831     0.0051     0.1428   106.7849     2.4397    14.8415     8.7032    11.7582   -27.1190
  242.5000     7.8842     0.0052     0.1427   105.4610     2.4405    14.7522     8.7702    10.9532   -27.3958
