~VERSION INFORMATION
 VERS.                2.0:   CWLS LOG ASCII STANDARD - VERSION 2.0
 WRAP.                 NO:   ONE LINE PER DEPTH STEP
~WELL INFORMATION
#MNEM.UNIT      DATA TYPE    INFORMATION
#----------   ------------   ------------------------------
 STRT.F           32.0000:   START DEPTH
 STOP.F          557.0000:   STOP DEPTH
 STEP.F            0.5000:   STEP LENGTH
 NULL.          -999.2500:   NO VALUE
 COMP. FENIX & SCISSON U.S. NAVY:   COMPANY
 WELL.   S-3 NPR #3 #31-3:   WELL
 FLD .              NPR-3:   FIELD
 LOC .       S3 T38N R78W:   LOCATION
 CNTY.            NATRONA:   COUNTY
 STAT.            WYOMING:   STATE
 CTRY. UNITED STATES OF AMERICA:   COUNTRY
 SRVC.              Welex:   SERVICE COMPANY
 DATE.        05-MAR-1977:   LOGDATE
 API .       490251039500:   API NUMBER
~CURVE INFORMATION
#MNEM.UNIT       API CODE    CURVE DESCRIPTION
#----------   ------------   ------------------------------
 DEPT.F                  :   
 CALD.IN     45 280 60 00:   CALIPER FROM DENSITY LOG
 DPHI.DEC    45 890 12 00:   DENSITY POROSITY SANDSTONE
 DRHO.G/C3   45 356 01 00:   DENSITY CORRECTION
 GRD .GAPI   45 310 01 00:   GAMMA RAY FROM DENSITY LOG
 RHOB.G/C3   45 350 01 00:   BULK DENSITY
 ILD .OHMM   07 120 46 00:   INDUCTION LOG DEEP
 ILM .OHMM   07 120 44 00:   INDUCTION LOG MEDIUM
 SGRD.OHMM   07 220 05 00:   SHALLOW GUARD RESISTIVITY
 SPR .MV     07 010 01 00:   SPONTANEOUS POTENTIAL FROM RES.
~PARAMETER INFORMATION
#MNEM.UNIT          VALUE    DESCRIPTION
#----------   ------------   ------------------------------
 PD  .                 GL:   PERMANENT DATUM
 EPD .F              5178:   ELEVATION PERMANENT DATUM
 LMF .                 GL:   LOG MEASURED FROM
 DMF .                 GL:   DRILLING MEASURED FROM
 EGL .F              5178:   GROUND LEVEL
 DATE.        05-MAR-1977:   RUN DATE
 RUN .                  1:   RUN NUMBER
 DD  .F               560:   DEPTH DRILLER
 DL  .F               560:   DEPTH LOGGER
 BLI .F               558:   BOTTOM LOG INTERVAL
 TLI .F                40:   TOP LOG INTERVAL
 CS  .IN            8.625:   CASING SIZE
 CBD .F                43:   CASING BOTTOM DRILLER
 CBL .F                43:   CASING BOTTOM LOGGER
 BS  .IN            7.875:   BIT SIZE
 BSD .F               560:   BIT SIZE AT DEPTH
 DFT .                KCL:   DRILLING FLUID TYPE
 DFD .                8.8:   DRILLING FLUID DENSITY
 DFV .                 32:   DRILLING FLUID VISCOSITY
 MSS .           FLOWLINE:   MUD SAMPLE SOURCE
 RMS .OHMM           1.46:   RESISTIVITY MUD SAMPLE
 MST .F                48:   MUD SAMPLE TEMPERATURE
 RMF .OHMM          0.972:   RESISTIVITY MUD FILTRATE SAMPLE
 MFST.F                48:   MUD FILTRATE SAMPLE TEMPERATURE
 RMC .OHMM           2.32:   RESISTIVITY MUD CAKE
 MCST.F                48:   MUD CAKE SAMPLE TEMPERATURE
 MFSS.               MEAS:   MUD FILTRATE SAMPLE SOURCE
 MCSS.               MEAS:   MUD CAKE SAMPLE SOURCE
 RMB .OHMM           1.03:   RESISTIVITY MUD AT BHT
 BHT .F                68:   BOTTOM HOLE TEMPERATURE
 TCS .HRS               2:   TIME CURCULATED STOPPED
 MRT .F                68:   MAXIMUM RECORDED TEMPERATURE
 LUN .               8611:   LOGGING UNIT NUMBER
 LUL .           GILLETTE:   LOGGING UNIT LOCATION
 ENGI.          D. LAWSON:   RECORDING ENGINEER
 WITN.     MR. STUEBINGER:   WITNESSED BY
 CLNT.            A2DTECH:   CLIENT CODE
 ORIG.           5" PRINT:   ORIGIN OF DATA
 UWI .       490251039500:   UNIQUE WELL ID
 DICO. A2D Technologies, Inc.:   DIGITIZING COMPANY
~OTHER INFORMATION
~A   DEPT       CALD     DPHI        DRHO        GRD        RHOB      ILD        ILM       SGRD        SPR   
# ...
  178.0000     8.2543     0.0839     0.0038   114.0263     2.5050     9.9451    10.7375    12.3211   -19.7001
  178.5000     8.2554     0.0863     0.0040   114.1899     2.4998    10.2261    11.0453    12.6738   -19.6855
  179.0000     8.2566     0.0884     0.0026   114.0555     2.4976    10.5189    11.3620    13.0365   -19.6710
  179.5000     8.2577     0.0898     0.0012   113.0269     2.4962    10.7445    11.8505    13.2254   -19.6564
  180.0000     8.2589     0.0931     0.0014   112.2963     2.4887    10.9749    12.1063    13.2325   -19.6419
  180.5000     8.2601     0.0910     0.0015   111.1186     2.4948    11.1330    12.3678    13.2397   -19.6273
  181.0000     8.2615     0.0862     0.0046   108.1526     2.5032    11.2934    12.5478    15.8581   -19.6128
  181.5000     8.2475     0.0813     0.0078   104.7395     2.5085    11.2987    12.5570    20.6389   -19.5982
  182.0000     8.2341     0.0786     0.0109    99.6870     2.5145    11.3825    12.5647    14.6103   -19.5833
  182.5000     8.2353     0.0816     0.0141   101.1177     2.5130    11.3879    12.5724    13.8309   -19.5655
  183.0000     8.2364     0.0836     0.0157   103.7904     2.5070    11.3147    12.5800    13.8385   -19.5509
  183.5000     8.2525     0.0833     0.0173   104.8015     2.5035    11.2398    12.5877    14.2626   -19.5364
  184.0000     8.3280     0.0818     0.0205   105.2632     2.5096    11.1609    12.5954    13.4771   -19.5218
  184.5000     8.3887     0.0806     0.0206   106.7681     2.5119    10.8717    12.5162    13.4844   -19.5073
  185.0000     8.3601     0.0796     0.0208   107.9750     2.5135    10.7262    12.2667    13.5854   -19.6452
  185.5000     8.3315     0.0811     0.0194   109.7780     2.5091    10.5838    11.9392    13.4972   -19.6270
  186.0000     8.3178     0.0844     0.0180   111.8790     2.5069    10.1597    11.7826    13.1376   -19.7649
  186.5000     8.3041     0.0870     0.0197   113.3839     2.5032    10.1645    11.7899    13.1447   -19.7467
  187.0000     8.2907     0.0909     0.0213   114.8888     2.4913    10.0981    11.7157    12.7928   -19.7321
  187.5000     8.2767     0.0943     0.0214   115.6607     2.4884    10.0333    11.6420    12.1104   -19.7173
  188.0000     8.2781     0.0978     0.0186   113.4277     2.4854    10.0392    11.4909    11.6241   -19.7024
  188.5000     8.2793     0.1010     0.0187   110.7228     2.4781     9.9060    11.4979    12.1247   -19.6848
  189.0000     8.2804     0.1036     0.0158   109.8802     2.4729     9.9107    11.3452    12.6609   -19.6703
  189.5000     8.2816     0.1042     0.0160   110.7926     2.4707     9.9155    11.3538    12.8278   -19.6557
  190.0000     8.2828     0.1018     0.0131   111.6977     2.4783     9.9213    11.4396    12.1449   -19.7936
  190.5000     8.2839     0.1006     0.0132   111.1162     2.4776     9.9260    11.5260    11.9828   -19.7754
  191.0000     8.2851     0.1017     0.0134   112.9228     2.4769     9.9307    11.6130    12.6735   -19.7609
  191.5000     8.2863     0.1005     0.0105   112.4903     2.4800     9.8657    11.7007    13.2179   -19.5975
  192.0000     8.2877     0.0975     0.0106   110.5675     2.4861     9.8035    11.6272    12.8640   -19.5829
  192.5000     8.2740     0.0945     0.0123   109.3899     2.4891     9.8082    11.4680    12.0939   -19.5684
  193.0000     8.2600     0.0963     0.0139   108.2122     2.4877     9.6114    11.2331    11.6083   -19.5536
  193.5000     8.2615     0.0986     0.0140   110.6113     2.4831     9.4185    10.7970    12.1911   -19.5387
  194.0000     8.2775     0.0944     0.0142   113.6066     2.4909     9.2295    10.5072    11.8652   -19.5211
  194.5000     8.2935     0.0961     0.0143   114.0810     2.4872     9.1702    10.4428    11.2308   -19.5065
  195.0000     8.3245     0.0976     0.0174   115.1764     2.4865     9.0486    10.4492    11.2384   -19.6408
  195.5000     8.3554     0.0889     0.0206   116.6310     2.4986     9.0539    10.4555    11.4012   -19.6262
  196.0000     8.3566     0.0841     0.0238   114.7118     2.5046     9.0582    10.4619    11.5663   -19.7641
  196.5000     8.2982     0.0876     0.0239   108.0200     2.4965     9.0001    10.4683    11.7340   -19.7459
  197.0000     8.2696     0.0930     0.0210   105.7991     2.4868     8.9412    10.4022    11.7402   -19.7314
  197.5000     8.2410     0.0996     0.0166   107.7512     2.4779     8.9465    10.4088    11.1927   -19.7168
  198.0000     8.2425     0.1049     0.0152   109.5541     2.4705     9.0129    10.4152    10.9672   -19.7023
  198.5000     8.2436     0.1046     0.0139   110.1648     2.4728     8.9539    10.4217    11.2826   -19.6875
  199.0000     8.2448     0.1043     0.0155   110.2037     2.4737     8.9592    10.4281    11.5255   -19.6726
  199.5000     8.2460     0.1042     0.0157   107.2134     2.4744     8.9635    10.2925    11.6103   -19.6550
  200.0000     8.2471     0.1051     0.0128   104.3993     2.4723     8.8455    10.1558    11.0688   -19.6404
  200.5000     8.2182     0.1070     0.0129   103.6673     2.4679     8.8514    10.0213    10.9969   -19.9271
  201.0000     8.2357     0.1113     0.0131   103.3868     2.4612     8.8573     9.8902    11.0044   -19.7601
  201.5000     8.2378     0.1200     0.0072   103.4087     2.4515     8.8632     9.8957    11.0103   -19.5968
  202.0000     8.2396     0.1223     0.0013   103.4262     2.4426     8.8080     9.7648     9.9358   -19.5822
  202.5000     8.2260     0.1223     0.0015   103.7418     2.4396     8.6870     9.6359     9.9483   -19.5983
  203.0000     8.2129     0.1190     0.0017   105.5477     2.4435     8.5200     9.6423    10.2300   -19.6157
  203.5000     8.2299     0.1132     0.0018   106.4839     2.4645     8.4086     9.6474    10.5241   -19.6331
  204.0000     8.2763     0.1015     0.0065   105.4337     2.4760     8.4156     9.7196    10.2437   -19.6505
  204.5000     8.2925     0.0994     0.0096   104.3835     2.4813     8.3042     9.6577    10.5382   -19.6679
  205.0000     8.2500     0.0967     0.0113   103.5072     2.4865     8.3111     9.6630    11.4583   -19.6853
  205.5000     8.2220     0.0969     0.0144   102.9571     2.4881     8.2593     9.5353    10.2642   -19.7027
  206.0000     8.2393     0.1077     0.0191   102.5275     2.4762     8.2079     9.4094    10.2002   -19.7201
  206.5000     8.2591     0.1131     0.0147   102.0979     2.4643     8.2147     9.4156    10.4211   -19.7375
  207.0000     8.3170     0.1192     0.0119   102.7116     2.4514     8.1059     9.2900    10.0734   -19.7318
  207.5000     8.3485     0.1226     0.0090   103.3252     2.4389     8.0568     9.2322    10.4368   -19.7173
  208.0000     8.3503     0.1213     0.0092   103.6408     2.4405     8.0621     9.1734    10.7351   -19.6995
  208.5000     8.3520     0.1195     0.0093   104.5525     2.4481     8.0118     8.9837    10.0257   -19.6851
  209.0000     8.3384     0.1174     0.0095   105.4642     2.4571     7.9072     8.8724    10.0324   -19.8231
  209.5000     8.3253     0.1137     0.0142   106.6740     2.4662     7.8051     8.8148    10.0407   -19.9575
  210.0000     8.3275     0.1098     0.0158   108.1818     2.4753     7.4928     8.6995     9.9077   -19.9395
  210.5000     8.3143     0.1014     0.0190   109.3916     2.4814     7.0943     8.7042     9.8476   -19.9251
  211.0000     8.3012     0.0972     0.0191   107.9941     2.4859     7.0991     8.7088     9.7846   -19.9107
  211.5000     8.3030     0.1001     0.0162   106.3013     2.4827     7.1038     8.7135     9.7927   -19.8958
  212.0000     8.3048     0.1025     0.0164   108.7034     2.4771     7.1085     8.8397     9.7992   -19.7296
  212.5000     8.3065     0.0988     0.0120   110.6583     2.4824     7.1135     8.9068     9.8059   -19.7152
  213.0000     8.3087     0.1000     0.0107   111.5700     2.4787     7.1686     8.9734     9.8140   -19.8532
  213.5000     8.3104     0.1117     0.0078   113.0778     2.4623     7.2231     8.9782     9.5524   -19.8352
  214.0000     8.3122     0.1161     0.0065   115.4799     2.4504     7.2279     8.9830     9.2963   -19.8208
