~VERSION INFORMATION
 VERS.                2.0:   CWLS LOG ASCII STANDARD - VERSION 2.0
 WRAP.                 NO:   ONE LINE PER DEPTH STEP
~WELL INFORMATION
#MNEM.UNIT      DATA TYPE    INFORMATION
#----------   ------------   ------------------------------
 STRT.F            3.0000:   START DEPTH
 STOP.F          462.0000:   STOP DEPTH
 STEP.F            0.5000:   STEP LENGTH
 NULL.          -999.2500:   NO VALUE
 COMP. LAWRENCE/ALLISON INC:   COMPANY
 WELL.    67-15-1 SX #3-3:   WELL
 FLD .             TEAPOT:   FIELD
 LOC .       S3 T38N R78W:   LOCATION
 CNTY.            NATRONA:   COUNTY
 STAT.            WYOMING:   STATE
 CTRY. UNITED STATES OF AMERICA:   COUNTRY
 SRVC.           Gearhart:   SERVICE COMPANY
 DATE.        11-JUN-1988:   LOGDATE
 API .       490251121800:   API NUMBER
~CURVE INFORMATION
#MNEM.UNIT       API CODE    CURVE DESCRIPTION
#----------   ------------   ------------------------------
 DEPT.F                  :   
 GRR .GAPI   07 310 01 00:   GAMMA RAY
 RILD.OHMM   07 120 46 00:   INDUCTION LOG DEEP RESISTIVITY
 RILM.OHMM   07 120 44 00:   INDUCTION LOG MEDIUM RESISTIVITY
~PARAMETER INFORMATION
#MNEM.UNIT          VALUE    DESCRIPTION
#----------   ------------   ------------------------------
 PD  .                 GL:   PERMANENT DATUM
 EPD .F              5175:   ELEVATION PERMANENT DATUM
 LMF .                 KB:   LOG MEASURED FROM
 DAPD.F                 5:   FEET ABOVE PERMANENT DATUM
 DMF .                 KB:   DRILLING MEASURED FROM
 EKB .F              5180:   KELLING BUSHING
 EGL .F              5175:   GROUND LEVEL
 DATE.        11-JUN-1988:   RUN DATE
 RUN .                  1:   RUN NUMBER
 DD  .F               470:   DEPTH DRILLER
 DL  .F             470.5:   DEPTH LOGGER
 BLI .F             461.5:   BOTTOM LOG INTERVAL
 TLI .F                41:   TOP LOG INTERVAL
 CS  .IN            8.625:   CASING SIZE
 CBD .F                41:   CASING BOTTOM DRILLER
 CBL .F                41:   CASING BOTTOM LOGGER
 BS  .IN            7.875:   BIT SIZE
 BSD .F               470:   BIT SIZE AT DEPTH
 DFT .                AIR:   DRILLING FLUID TYPE
 TLAB.HRS            0318:   TIME LOGGER AT BOTTOM
 MRT .F                70:   MAXIMUM RECORDED TEMPERATURE
 LUN .               7597:   LOGGING UNIT NUMBER
 LUL .           GILLETTE:   LOGGING UNIT LOCATION
 ENGI.          HUCKFELDT:   RECORDING ENGINEER
 WITN.             STRONG:   WITNESSED BY
 CLNT.            A2DTECH:   CLIENT CODE
 ORIG.        2" 5" PRINT:   ORIGIN OF DATA
 UWI .       490251121800:   UNIQUE WELL ID
 DICO. A2D Technologies, Inc.:   DIGITIZING COMPANY
~OTHER INFORMATION
~A    DEPT      GRR      RILD       RILM   
# ...
  185.0000   110.0610     5.6752     5.3556
  185.5000   111.6056     6.1686     5.7811
  186.0000   112.1951     6.5199     6.1108
  186.5000   111.2195     6.7012     6.3251
  187.0000   110.3659     6.7454     6.4562
  187.5000   111.3314     6.7889     6.4529
  188.0000   113.4146     6.7369     6.3602
  188.5000   112.8049     6.6397     6.2251
  189.0000   112.5000     6.4982     6.0929
  189.5000   112.1951     6.1843     5.9635
  190.0000   112.8049     5.9269     5.7962
  190.5000   116.1585     5.6802     5.5936
  191.0000   119.8171     5.4820     5.3981
  191.5000   122.2561     5.3278     5.2095
  192.0000   122.8659     5.1779     5.0274
  192.5000   120.4268     5.0676     4.9229
  193.0000   114.3293     5.0648     4.9206
  193.5000   109.7561     5.1693     4.9914
  194.0000   107.3171     5.4256     5.1002
  194.5000   106.7073     5.6947     5.3118
  195.0000   111.5854     6.0190     5.5439
  195.5000   116.7683     6.3175     5.8613
  196.0000   118.5976     6.6773     6.3100
  196.5000   118.5976     7.0084     6.6699
  197.0000   117.3781     7.4596     7.0997
  197.5000   114.3293     7.8295     7.5046
  198.0000   110.6707     8.0471     7.8224
  198.5000   109.1463     8.0426     7.9843
  199.0000   110.0610     8.2086     8.0938
  199.5000   112.5000     8.2616     8.1466
  200.0000   115.8537     8.2570     8.1998
  200.5000   115.5357     8.1942     8.0810
  201.0000   114.3041     8.0759     7.9094
  201.5000   112.7677     7.9038     7.6875
  202.0000   113.3654     7.7354     7.4197
  202.5000   114.8777     7.4655     7.3131
  203.0000   114.8656     7.3064     7.2080
  203.5000   115.1585     7.1010     7.0549
  204.0000   114.8336     6.9012     6.8570
  204.5000   113.6099     6.7071     6.6646
  205.0000   115.7929     6.5185     6.4325
  205.5000   118.2459     6.2472     6.1651
  206.0000   120.2811     6.0715     5.9089
  206.5000   118.7416     5.8596     5.5458
  207.0000   117.5100     5.6551     5.2415
  207.5000   117.8058     5.5346     4.9539
  208.0000   119.3151     5.4930     4.7480
  208.5000   121.4372     5.4900     4.7424
  209.0000   120.8154     5.5254     4.9122
  209.5000   118.9741     5.6814     5.4149
  210.0000   117.4376     5.9218     5.9273
  210.5000   116.2060     6.2216     6.4027
  211.0000   115.8891     6.5334     6.8202
  211.5000   117.0965     6.8610     7.1588
  212.0000   119.2186     7.3348     7.5107
  212.5000   120.1212     7.5916     7.7671
  213.0000   120.1091     7.8574     7.9279
  213.5000   119.4873     8.0206     7.9796
  214.0000   118.2557     8.1280     8.0881
  214.5000   116.4144     8.1816     8.1971
  215.0000   115.7926     8.1759     8.1931
  215.5000   115.4756     8.1714     8.2466
  216.0000   115.7685     8.2242     8.2426
  216.5000   116.3952     8.2196     8.2386
  217.0000   117.3537     8.2739     8.2346
  217.5000   118.5876     8.2681     8.1732
  218.0000   119.6836     8.2636     8.1123
  218.5000   120.2813     8.2014     8.1084
  219.0000   119.3516     8.2555     8.1044
  219.5000   117.5103     8.1923     8.1005
  220.0000   117.1933     8.1878     8.0402
  220.5000   118.0989     8.1833     7.9802
  221.0000   119.3063     8.1217     7.9764
  221.5000   119.5992     8.1172     7.9725
  222.0000   119.5841     8.0562     7.9686
  222.5000   119.5720     7.9956     7.9093
  223.0000   119.5599     7.8791     7.7956
  223.5000   119.5479     7.7062     7.5769
  224.0000   119.5358     7.4904     7.4160
  224.5000   119.5238     7.2713     7.2079
  225.0000   121.3410     7.0140     7.0057
  225.5000   122.8533     6.6432     6.7129
  226.0000   125.2803     6.5017     6.4745
  226.5000   127.7072     6.4078     6.3429
  227.0000   130.1381     6.3597     6.2957
  227.5000   130.4270     6.3118     6.2926
  228.0000   128.8331     6.2207     6.2889
  228.5000   126.7022     6.0882     6.2420
  229.0000   125.7623     5.9585     6.0246
  229.5000   126.7172     5.9137     5.7340
  230.0000   128.5344     5.8692     5.2699
  230.5000   128.8302     5.8251     4.9807
  231.0000   128.8151     5.7813     4.7405
  231.5000   126.3640     5.7378     4.7057
  232.0000   122.0837     5.8162     5.0435
  232.5000   119.9375     6.1038     5.5596
  233.0000   119.6205     6.3618     6.1715
  233.5000   120.2182     6.6773     6.5234
  234.0000   121.4257     6.9596     6.7997
  234.5000   122.6361     7.2538     7.0383
  235.0000   122.6210     7.4035     7.1849
  235.5000   121.9992     7.4514     7.1805
  236.0000   120.4628     7.2926     7.0773
  236.5000   116.1824     6.8434     6.5961
  237.0000   113.1216     6.6008     6.1907
  237.5000   113.7193     6.3265     5.8510
  238.0000   117.3657     6.0565     5.4152
  238.5000   121.6249     5.8549     5.1540
  239.0000   124.9636     5.8101     5.1156
  239.5000   124.9239     5.8485     5.2581
  240.0000   120.5487     6.0102     5.4808
  240.5000   118.8293     6.2643     5.8367
  241.0000   119.7324     6.6211     6.2594
  241.5000   120.6319     6.9982     6.6194
  242.0000   118.4857     7.3968     7.0068
  242.5000   116.3395     7.7095     7.4117
  243.0000   114.8030     7.8686     7.9714
  243.5000   114.1812     8.0310     8.3090
  244.0000   115.0838     8.2542     8.6608
  244.5000   114.7669     8.4257     8.7786
  245.0000   113.2304     8.5385     8.8359
  245.5000   112.3037     8.6551     8.8946
  246.0000   112.5965     8.7110     8.8892
  246.5000   113.4991     8.7661     8.8849
  247.0000   113.1821     8.7612     8.9440
  247.5000   112.5603     8.8180     8.9386
  248.0000   111.3287     8.7515     8.9981
  248.5000   112.5362     8.7467     8.9926
  249.0000   114.0485     8.7418     8.9256
  249.5000   115.5608     8.7370     8.8591
  250.0000   115.5488     8.7934     8.8862
  250.5000   114.6341     8.8491     8.8496
  251.0000   114.6341     8.5397     8.7212
  251.5000   115.9147     8.4158     8.7158
  252.0000   118.7194     8.5291     8.8331
  252.5000   120.7317     8.7044     8.9622
  253.0000   114.9390     8.9458     8.9449
  253.5000   110.0610     9.1299     8.8152
  254.0000   106.7073     9.1883     8.2146
  254.5000   106.0976     8.8050     7.2385
  255.0000   107.3171     8.2051     6.6053
  255.5000   109.4512     7.5399     6.1124
  256.0000   112.1951     7.1252     5.8167
  256.5000   117.0732     6.9243     5.6924
  257.0000   119.8171     6.8718     5.6492
  257.5000   121.0366     6.9674     5.7654
  258.0000   116.7683     7.2169     6.3991
  258.5000   111.2805     7.6904     7.1024
  259.0000   108.2317     8.3718     7.8280
  259.5000   108.5366     9.3642     8.6884
  260.0000   110.3659    10.3411     9.3773
  260.5000   108.2317    10.8532     9.7731
  261.0000   108.5366    11.0763    10.0440
  261.5000   108.5366    11.3059    10.1098
  262.0000   108.5366    11.5384    10.0331
  262.5000   106.7073    11.6121    10.0959
  263.0000   104.8781    11.7664    10.2314
  263.5000   104.8476    12.1775    10.4418
  264.0000   105.7927    12.9605    10.8825
  264.5000   104.5732    13.8907    12.0786
  265.0000    97.5610    15.3099    13.4061
  265.5000    86.5049    16.6398    15.8646
  266.0000    76.4223    18.0852    17.7362
  266.5000    70.0610    19.5191    18.9953
  267.0000    68.9024    21.0668    20.2595
  267.5000    69.9697    22.7371    22.0349
  268.0000    73.4756    24.8856    24.7105
  268.5000    75.0000    26.8587    26.6698
  269.0000    71.9512    28.1887    27.9904
  269.5000    70.1219    29.5844    29.1717
  270.0000    68.5976    30.6181    30.4028
  270.5000    67.0732    31.6878    31.4650
  271.0000    65.8537    32.3445    32.7930
  271.5000    64.3293    33.2361    33.7022
  272.0000    64.6341    34.3973    34.1556
  272.5000    64.3293    35.1053    34.8580
  273.0000    64.0244    35.5768    34.8362
  273.5000    63.7195    36.0554    35.0643
  274.0000    64.9390    36.0328    35.5360
  274.5000    65.2439    36.2632    35.7630
  275.0000    64.6341    36.2404    35.9915
  275.5000    63.1098    36.2175    35.9635
