~VERSION INFORMATION
 VERS.                2.0:   CWLS LOG ASCII STANDARD - VERSION 2.0
 WRAP.                 NO:   ONE LINE PER DEPTH STEP
~WELL INFORMATION
#MNEM.UNIT      DATA TYPE    INFORMATION
#----------   ------------   ------------------------------
 STRT.F           28.0000:   START DEPTH
 STOP.F          884.0000:   STOP DEPTH
 STEP.F            0.5000:   STEP LENGTH
 NULL.          -999.2500:   NO VALUE
 COMP. U S NAVY-INTEX OIL:   COMPANY
 WELL. NPR 3 TEAPOT DOM #43-SX-2:   WELL
 FLD .             TEAPOT:   FIELD
 LOC .       S2 T38N R78W:   LOCATION
 CNTY.            NATRONA:   COUNTY
 STAT.            WYOMING:   STATE
 CTRY. UNITED STATES OF AMERICA:   COUNTRY
 SRVC.       Schlumberger:   SERVICE COMPANY
 DATE.        19-JUL-1963:   LOGDATE
 API .       490250967900:   API NUMBER
~CURVE INFORMATION
#MNEM.UNIT       API CODE    CURVE DESCRIPTION
#----------   ------------   ------------------------------
 DEPT.F                  :   
 ASN .OHMM   05 041 16 00:   AMPLIFIED SHORT NORMAL 16"
 CILD.MMHO   05 110 46 00:   CONDUCTIVITY INDUCTION LOG DEEP
 ILD .OHMM   05 120 46 00:   INDUCTION LOG DEEP
 SPR .MV     05 010 01 00:   SPONTANEOUS POTENTIAL FROM RES.
 GR  .GAPI   30 310 01 00:   GAMMA RAY
~PARAMETER INFORMATION
#MNEM.UNIT          VALUE    DESCRIPTION
#----------   ------------   ------------------------------
 LMF .                 KB:   LOG MEASURED FROM
 DMF .                 KB:   DRILLING MEASURED FROM
 EKB .F              5151:   KELLING BUSHING
 EGL .F              5146:   GROUND LEVEL
 DATE.        19-JUL-1963:   RUN DATE
 RUN .                  1:   RUN NUMBER
 DD  .F               881:   DEPTH DRILLER
 DL  .F               885:   DEPTH LOGGER
 BLI .F               884:   BOTTOM LOG INTERVAL
 TLI .F                30:   TOP LOG INTERVAL
 CS  .IN            8.625:   CASING SIZE
 CBD .F                12:   CASING BOTTOM DRILLER
 BS  .IN             6.75:   BIT SIZE
 BSD .F               881:   BIT SIZE AT DEPTH
 DFT .           GEL- OIL:   DRILLING FLUID TYPE
 DFD .                9.6:   DRILLING FLUID DENSITY
 DFV .                 39:   DRILLING FLUID VISCOSITY
 DFPH.                8.5:   DRILLING FLUID PH
 DFL .                4.4:   DRILLING FLUID LOSS
 RMS .OHMM           2.58:   RESISTIVITY MUD SAMPLE
 MST .F                72:   MUD SAMPLE TEMPERATURE
 RMF .OHMM           2.26:   RESISTIVITY MUD FILTRATE SAMPLE
 MFST.F                72:   MUD FILTRATE SAMPLE TEMPERATURE
 TCS .HRS               3:   TIME CURCULATED STOPPED
 LUN .               4507:   LOGGING UNIT NUMBER
 LUL .             CASPER:   LOGGING UNIT LOCATION
 ENGI.            WINKLER:   RECORDING ENGINEER
 WITN.          JORGENSEN:   WITNESSED BY
 CLNT.            A2DTECH:   CLIENT CODE
 ORIG.      2.5" 5" PRINT:   ORIGIN OF DATA
 UWI .       490250967900:   UNIQUE WELL ID
 DICO. A2D Technologies, Inc.:   DIGITIZING COMPANY
~OTHER INFORMATION
~A   DEPT      ASN         CILD       ILD       SPR         GR   
# ...
  699.0000     3.2637   414.8489     2.3106   -31.0182    72.1355
  699.5000     3.3841   379.9168     2.7715   -31.0211    68.8241
  700.0000     3.6556   354.1033     3.1818   -31.0241    67.7710
  700.5000     4.3236   307.5941     3.7879   -31.0286    68.6811
  701.0000     4.4779   256.0814     4.2424   -31.0603    68.3855
  701.5000     5.5822   222.5374     4.6970   -31.3389    68.6929
  702.0000     6.3420   196.6153     5.1515   -31.3434    65.5362
  702.5000     6.5967   178.3152     5.4545   -31.3479    63.4336
  703.0000     6.7124   169.1614     5.7576   -31.6536    66.0441
  703.5000     6.7351   161.5320     5.9091   -31.6581    67.6638
  704.0000     6.7347   158.4147     5.9091   -31.9639    70.0793
  704.5000     6.7647   156.8115     6.0606   -31.9684    72.3443
  705.0000     6.8369   155.4116     6.0480   -31.9729    73.7041
  705.5000     6.9719   155.6782     5.8902   -31.9774    74.0127
  706.0000     7.0066   159.4822     5.7323   -31.9819    72.2114
  706.5000     6.8831   169.2507     5.4230   -31.9864    69.0546
  707.0000     6.7124   181.7226     5.2652   -31.9918    65.8979
  707.5000     6.4909   195.3130     5.1073   -31.9962    71.1749
  708.0000     6.3697   208.1908     4.7980   -32.0006    73.0203
  708.5000     6.1277   219.1388     4.4318   -32.0050    73.3071
  709.0000     5.6139   227.7894     4.0909   -32.0095    76.4261
  709.5000     5.4927   233.2499     4.0909   -32.0139    75.4169
  710.0000     5.4018   236.1281     4.0909   -32.0183    72.8611
  710.5000     5.3616   237.6448     4.1730   -32.0227    74.0733
  711.0000     5.5220   234.5873     4.3308   -32.0271    75.7358
  711.5000     5.7332   226.9579     4.5455   -32.0316    73.9345
  712.0000     5.9444   216.2797     4.8485   -32.0361    72.4343
  712.5000     6.1254   205.6015     5.1515   -32.0030    71.6872
  713.0000     6.4030   194.9233     5.6061   -31.7436    71.0907
  713.5000     6.6783   182.7208     5.9091   -31.7485    70.9458
  714.0000     6.9619   173.5670     6.2121   -31.7530    68.8435
  714.5000     7.3266   164.3826     6.5152   -31.6657    69.0000
  715.0000     7.6284   159.6290     6.6667   -31.4601    70.2309
  715.5000     7.8976   153.3813     6.9697   -31.4654    71.3374
  716.0000     8.1426   145.6100     7.1212   -31.4699    80.3144
  716.5000     8.2474   139.3624     7.1212   -31.4744    76.7058
  717.0000     8.2677   133.8872     7.1212   -31.4789    73.6997
  717.5000     8.2674   133.8796     7.1212   -31.4834    73.4044
  718.0000     8.2671   133.8719     7.1212   -31.6506    71.7537
  718.5000     8.2668   135.9884     6.9697   -31.7937    69.6512
  719.0000     8.1444   139.1007     6.9318   -31.7988    68.3016
  719.5000     7.9737   143.7373     6.6667   -31.8033    69.5124
  720.0000     7.7824   147.6627     6.4646   -31.8077    73.8857
  720.5000     7.6613   153.8950     6.3068   -31.8121    74.2008
  721.0000     7.4495   161.2639     5.9975   -31.8165    72.6806
  721.5000     7.2679   167.3540     5.6187   -31.5196    70.2410
  722.0000     7.0259   179.5416     5.2273   -31.5241    67.4335
  722.5000     6.8142   199.3513     4.9874   -31.2274    68.4951
  723.0000     6.4513   220.6853     4.6086   -31.2319    70.3082
  723.5000     6.2093   234.3974     4.0909   -31.2019    68.6575
  724.0000     5.9674   242.0119     3.9394   -30.9394    63.8426
  724.5000     5.3024   234.3825     4.2424   -30.9443    67.7657
  725.0000     5.3927   231.3262     4.5455   -30.9488    68.3740
  725.5000     5.7332   229.7230     4.6970   -30.8645    68.9823
  726.0000     6.1341   223.1207     5.0000   -30.6559    70.2189
  726.5000     6.5616   205.6316     5.3030   -30.6611    69.5964
  727.0000     6.8610   185.3812     5.4545   -30.9669    65.9880
  727.5000     7.1072   168.5341     5.7576   -30.9714    65.5221
  728.0000     7.3535   154.8778     6.0606   -31.1325    61.6104
  728.5000     7.5695   146.9333     6.3699   -31.2816    64.9529
  729.0000     7.7855   143.8059     6.5278   -31.2870    68.7239
  729.5000     7.9604   142.8430     6.8371   -31.5926    70.0852
  730.0000     8.1027   141.3110     6.9697   -31.8983    70.9948
  730.5000     8.1520   141.3034     7.1212   -31.9027    71.6016
  731.0000     8.2278   140.4420     7.1591   -31.9071    68.4463
  731.5000     8.2903   139.7623     7.2727   -31.6099    70.4101
  732.0000     8.3662   138.2304     7.2727   -31.6147    67.5545
  732.5000     8.4697   138.2230     7.2727   -31.3178    67.4096
  733.0000     8.5601   136.6911     7.1212   -31.3224    68.7712
  733.5000     8.5900   136.6837     7.0518   -31.3268    71.7972
  734.0000     8.6501   138.2006     6.9697   -31.3313    69.5360
  734.5000     8.6498   139.7176     6.9697   -31.3358    71.5012
  735.0000     8.5589   141.2345     6.9697   -31.3404    72.7119
  735.5000     8.4982   142.7515     6.9697   -31.3449    73.9226
  736.0000     8.4072   144.2684     7.1212   -31.3494    76.9406
  736.5000     8.3767   144.2607     7.1212   -31.6551    81.1634
  737.0000     8.3462   144.2531     7.2727   -31.6596    84.7837
  737.5000     8.3459   144.2454     7.2727   -31.6642    84.7896
  738.0000     8.3456   144.2378     7.4242   -31.6687    86.6028
  738.5000     8.3127   144.2302     6.9697   -31.6732    81.0364
  739.0000     8.2471   145.6255     6.5152   -31.6009    79.2209
  739.5000     8.1586   153.4527     6.3636   -31.3810    79.5422
  740.0000     8.0604   164.3290     6.0606   -31.3864    78.7951
  740.5000     7.8329   169.2708     6.0606   -31.3908    78.9739
  741.0000     7.3215   170.1067     5.9091   -31.3953    79.4108
  741.5000     7.1459   171.6235     5.9091   -31.2884    78.3610
  742.0000     6.9511   173.1402     5.7576   -31.1024    79.4226
  742.5000     6.7900   174.6570     5.7576   -31.1073    84.5490
  743.0000     6.8284   177.6970     5.6061   -31.1117    79.2838
  743.5000     6.9514   180.7383     5.4545   -31.1162    79.8921
  744.0000     7.0586   183.7796     5.4041   -31.1206    80.8002
  744.5000     7.1332   188.3454     5.3030   -30.8238    78.3979
  745.0000     7.0422   192.9111     5.2399   -30.8283    73.2833
  745.5000     6.8909   199.0012     5.1515   -30.8328    73.4398
  746.0000     6.6187   200.5183     5.1515   -30.8373    71.6102
  746.5000     6.1048   200.5008     5.1515   -30.5403    70.4396
  747.0000     6.0139   198.9787     5.2399   -30.5452    71.0494
  747.5000     6.0740   198.8187     5.3030   -30.5497    72.4107
  748.0000     6.0737   197.4390     5.4545   -30.5542    76.3323
  748.5000     6.2547   197.1366     5.6061   -30.2567    78.1440
  749.0000     6.5565   191.0208     5.7576   -30.2620    76.4947
  749.5000     6.9187   176.9390     5.9091   -30.2666    77.7054
  750.0000     7.2508   162.8559     6.3636   -30.2711    74.7354
  750.5000     7.4329   156.6080     6.3636   -30.2756    73.3753
  751.0000     7.4943   151.0114     5.9091   -30.2801    75.3435
  751.5000     7.5254   150.1296     5.7576   -30.2854    73.8321
  752.0000     7.5819   154.7561     5.3030   -30.2899    73.3797
  752.5000     7.5030   169.0159     4.9937   -30.2943    75.6582
  753.0000     7.3178   192.7882     4.6970   -30.2987    73.8365
  753.5000     7.0770   200.4027     4.5455   -30.3031    72.3255
  754.0000     6.5873   203.4440     4.5455   -30.3075    67.3342
  754.5000     6.1580   203.4366     4.6970   -30.0105    70.3618
  755.0000     6.0272   204.9543     4.7348   -30.0152    71.1197
  755.5000     6.0353   203.4217     4.8927   -30.0196    71.5746
  756.0000     6.2320   200.3655     5.2020   -29.7228    69.9123
  756.5000     6.6789   192.7361     5.5114   -29.7274    71.4267
  757.0000     7.1668   180.5335     5.8839   -29.6928    73.3949
  757.5000     7.5181   166.5024     6.4331   -29.4349    65.6559
  758.0000     7.8501   151.0674     6.8182   -29.4398    63.4130
  758.5000     8.0915   140.4903     7.2033   -29.5241    65.2303
  759.0000     8.3027   135.7678     7.5126   -29.7500    66.7446
  759.5000     8.4837   132.9038     7.5758   -29.7545    67.3512
