~VERSION INFORMATION
 VERS.                2.0:   CWLS LOG ASCII STANDARD - VERSION 2.0
 WRAP.                 NO:   ONE LINE PER DEPTH STEP
~WELL INFORMATION
#MNEM.UNIT      DATA TYPE    INFORMATION
#----------   ------------   ------------------------------
 STRT.F          149.5000:   START DEPTH
 STOP.F          864.5000:   STOP DEPTH
 STEP.F            0.5000:   STEP LENGTH
 NULL.          -999.2500:   NO VALUE
 COMP. U S NAVY/INTEX OIL CO:   COMPANY
 WELL.    NPR #3 #78-S-27:   WELL
 FLD .             TEAPOT:   FIELD
 LOC .      S27 T39N R78W:   LOCATION
 CNTY.            NATRONA:   COUNTY
 STAT.            WYOMING:   STATE
 CTRY. UNITED STATES OF AMERICA:   COUNTRY
 SRVC. Schlumberger Well Surveying Corp:   SERVICE COMPANY
 DATE.        25-FEB-1961:   LOGDATE
 API .       490250657800:   API NUMBER
~CURVE INFORMATION
#MNEM.UNIT       API CODE    CURVE DESCRIPTION
#----------   ------------   ------------------------------
 DEPT.F                  :   
 SPR .MV     05 010 01 00:   SPONTANEOUS POTENTIAL FROM RES.
 CILD.MMHO   05 110 46 00:   CONDUCTIVITY INDUCTION LOG DEEP
 ASN .OHMM   05 041 16 00:   AMPLIFIED SHORT NORMAL 16"
 ILD .OHMM   05 120 46 00:   INDUCTION LOG DEEP
 GR  .GAPI   81 310 01 00:   GAMMA RAY
~PARAMETER INFORMATION
#MNEM.UNIT          VALUE    DESCRIPTION
#----------   ------------   ------------------------------
 PD  .                 GL:   PERMANENT DATUM
 EPD .F              5038:   ELEVATION PERMANENT DATUM
 LMF .                 KB:   LOG MEASURED FROM
 DAPD.F                 4:   FEET ABOVE PERMANENT DATUM
 DMF .                 KB:   DRILLING MEASURED FROM
 EKB .F              5042:   KELLING BUSHING
 EGL .F              5038:   GROUND LEVEL
 DATE.            2-25-61:   RUN DATE
 RUN .                  1:   RUN NUMBER
 DD  .F               865:   DEPTH DRILLER
 DL  .F               869:   DEPTH LOGGER
 BLI .F               864:   BOTTOM LOG INTERVAL
 TLI .F               150:   TOP LOG INTERVAL
 CBD .F                12:   CASING BOTTOM DRILLER
 BS  .IN            7.875:   BIT SIZE
 BSD .F               865:   BIT SIZE AT DEPTH
 DFT .       OIL EMULSION:   DRILLING FLUID TYPE
 DFD .               10.2:   DRILLING FLUID DENSITY
 DFV .                 48:   DRILLING FLUID VISCOSITY
 DFPH.                8.5:   DRILLING FLUID PH
 DFL .               10.2:   DRILLING FLUID LOSS
 RMS .OHMM            1.7:   RESISTIVITY MUD SAMPLE
 MST .F                57:   MUD SAMPLE TEMPERATURE
 MFSS.                  C:   MUD FILTRATE SAMPLE SOURCE
 MCSS.                  C:   MUD CAKE SAMPLE SOURCE
 RMB .OHMM            1.3:   RESISTIVITY MUD AT BHT
 BHT .F                75:   BOTTOM HOLE TEMPERATURE
 TCS .HRS               1:   TIME CURCULATED STOPPED
 MRT .F                75:   MAXIMUM RECORDED TEMPERATURE
 LUN .               2572:   LOGGING UNIT NUMBER
 LUL .                 NC:   LOGGING UNIT LOCATION
 ENGI.             ROUSER:   RECORDING ENGINEER
 WITN.          JORGENSEN:   WITNESSED BY
 CLNT.            A2DTECH:   CLIENT CODE
 ORIG.       2", 5" PRINT:   ORIGIN OF DATA
 UWI .       490250657800:   UNIQUE WELL ID
 DICO. A2D Technologies, Inc.:   DIGITIZING COMPANY
~OTHER INFORMATION
~A   DEPT      SPR       CILD        ASN        ILD         GR   
  149.5000   -60.1000  -999.2500  -999.2500  -999.2500  -999.2500
  150.0000   -60.4952  -999.2500     3.7459     6.3755  -999.2500
  150.5000   -60.4762   160.3853     4.7468     6.2351  -999.2500
  151.0000   -60.4571   161.7088     5.7477     6.1636  -999.2500
  151.5000   -60.4381   163.0323     6.6968     6.0921  -999.2500
  152.0000   -60.4190   164.3558     6.9354     6.0206  -999.2500
  152.5000   -60.4000   165.6793     7.0163     5.9491  -999.2500
  153.0000   -60.4916   167.0028     6.9779     5.8776  -999.2500
  153.5000   -60.3722   168.3262     6.9820     5.8515  -999.2500
  154.0000   -60.3513   168.9880     7.0048     5.7776  -999.2500
  154.5000   -60.3340   170.3115     7.0200     5.7720  -999.2500
  155.0000   -60.3109   170.8417     7.0402     5.7730  -999.2500
  155.5000   -60.3211   170.8417     7.0592     5.7727  -999.2500
  156.0000   -60.3999   170.4108     7.0337     5.7729  -999.2500
  156.5000   -60.4792   170.0138     6.9744     5.7729  -999.2500
  157.0000   -60.5601   169.6167     6.9256     5.7730  -999.2500
  157.5000   -60.6398   169.2197     6.8619     5.7730  -999.2500
  158.0000   -60.7207   168.8226     6.8825     5.7732  -999.2500
  158.5000   -60.7998   168.4256     6.9437     5.7733  -999.2500
  159.0000   -60.8821   168.0286     6.9989     5.7737  -999.2500
  159.5000   -60.9586   167.8357     7.0536     5.7734  -999.2500
  160.0000   -61.0467   167.8357     7.1154     5.7742  -999.2500
  160.5000   -61.0691   167.8357     7.1333     5.7729  -999.2500
  161.0000   -60.9573   167.8357     7.0494     5.7760  -999.2500
  161.5000   -60.8439   171.2440     6.9169     5.7593  -999.2500
  162.0000   -60.7290   174.7182     6.7375     5.6006  -999.2500
  162.5000   -60.6138   178.1923     6.5671     5.4160  -999.2500
  163.0000   -60.5011   181.6665     6.3898     5.2451  -999.2500
  163.5000   -60.3820   185.1406     6.2270     5.0533  -999.2500
  164.0000   -60.3013   188.6147     6.1825     4.9611  -999.2500
  164.5000   -60.2996   192.0889     6.1568     4.9729  -999.2500
  165.0000   -60.2990   195.8918     6.1535     4.9671  -999.2500
  165.5000   -60.3001   195.8918     6.1529     4.9703  -999.2500
  166.0000   -60.3189   195.8918     6.1662     4.9686  -999.2500
  166.5000   -60.3468   195.4906     6.1974     4.9696  -999.2500
  167.0000   -60.3739   194.4396     6.2256     4.9693  -999.2500
  167.5000   -60.3994   193.3886     6.2554     4.9694  -999.2500
  168.0000   -60.4287   192.3376     6.2840     4.9694  -999.2500
  168.5000   -60.4499   191.2866     6.3149     4.9712  -999.2500
  169.0000   -60.4878   190.2356     6.3524     5.0078  -999.2500
  169.5000   -60.4433   189.1846     6.3930     5.0449  -999.2500
  170.0000   -60.2533   188.1336     6.4320     5.1206  -999.2500
  170.5000   -60.0392   186.8737     6.4796     5.2437  -999.2500
  171.0000   -59.9499   184.0105     6.5932     5.3621  -999.2500
  171.5000   -60.1229   180.4371     6.7231     5.4835  -999.2500
  172.0000   -60.2985   176.8637     6.8501     5.6030  -999.2500
  172.5000   -60.4772   173.2903     6.9783     5.7243  -999.2500
  173.0000   -60.6512   169.7169     7.1060     5.8431  -999.2500
  173.5000   -60.7052   166.1000     7.2337     5.9662  -999.2500
  174.0000   -60.6965   162.5077     7.3623     6.0816  -999.2500
  174.5000   -60.7029   159.7437     7.4883     6.2133  -999.2500
  175.0000   -60.7027   157.2949     7.5008     6.2824  -999.2500
  175.5000   -60.8681   155.7229     7.4564     6.2741  -999.2500
  176.0000   -61.1001   155.7238     7.4079     6.2726  -999.2500
  176.5000   -61.3365   156.9919     7.3573     6.1873  -999.2500
  177.0000   -61.4952   158.8208     7.3102     6.0859  -999.2500
  177.5000   -61.5063   160.6659     7.2571     5.9861  -999.2500
  178.0000   -61.4358   162.5198     7.2152     5.8860  -999.2500
  178.5000   -61.1849   164.3651     7.0925     5.7752  -999.2500
  179.0000   -60.9411   165.9246     6.8597     5.6078  -999.2500
  179.5000   -60.6797   174.0046     6.6328     5.4157  -999.2500
  180.0000   -60.5059   181.0367     6.4013     5.2266  -999.2500
  180.5000   -60.6077   188.0616     6.1725     5.0367  -999.2500
  181.0000   -60.7621   195.0902     5.9398     4.8458  -999.2500
  181.5000   -60.9107   202.1487     5.7173     4.6583  -999.2500
  182.0000   -61.0621   209.2073     5.4685     4.4638  -999.2500
  182.5000   -61.2115   216.2659     5.3509     4.2823  -999.2500
  183.0000   -61.3632   223.3244     5.2281     4.0712  -999.2500
  183.5000   -61.5120   229.9599     5.1083     3.9534  -999.2500
  184.0000   -61.6608   235.5711     4.9915     3.9687  -999.2500
  184.5000   -61.7043   237.9760     4.8629     3.9605  -999.2500
  185.0000   -61.6995   237.9760     4.8392     3.9652  -999.2500
  185.5000   -61.6993   236.5815     4.9669     3.9695  -999.2500
  186.0000   -61.7192   233.9679     5.2568     4.1335  -999.2500
  186.5000   -61.7920   224.2704     5.5449     4.3851  -999.2500
  187.0000   -61.8634   213.0681     5.8337     4.6890  -999.2500
  187.5000   -61.9373   201.8658     6.1521     5.0186  -999.2500
  188.0000   -62.0089   190.6635     6.4075     5.3289  -999.2500
  188.5000   -62.0802   179.4612     6.7249     5.6743  -999.2500
  189.0000   -62.0706   168.1057     6.9826     5.9951  -999.2500
  189.5000   -62.0209   156.8576     7.2351     6.2917  -999.2500
  190.0000   -61.9794   149.6048     7.3493     6.6428  -999.2500
  190.5000   -61.9318   147.4003     7.4708     6.7400  -999.2500
  191.0000   -61.9011   145.2079     7.5784     6.8045  -999.2500
  191.5000   -61.9001   143.0124     7.6980     6.8777  -999.2500
  192.0000   -61.8998   141.1030     7.8108     6.9473  -999.2500
  192.5000   -61.8999   139.6222     7.9231     7.0180  -999.2500
  193.0000   -61.8998   138.2045     8.0554     7.0897  -999.2500
  193.5000   -61.8999   136.7156     8.1156     7.1578  -999.2500
  194.0000   -61.8999   135.7715     8.1006     7.2368  -999.2500
  194.5000   -61.9002   136.6365     8.0863     7.2794  -999.2500
  195.0000   -61.9001   139.0629     7.9313     7.1128  -999.2500
  195.5000   -61.9006   141.4892     7.7295     6.8881  -999.2500
  196.0000   -61.9000   143.9156     7.5325     6.6709  -999.2500
  196.5000   -61.9014   146.7936     7.3323     6.4501  -999.2500
  197.0000   -61.8988   151.0532     7.1349     6.2320  -999.2500
  197.5000   -61.9043   156.2870     6.9359     6.0107  -999.2500
  198.0000   -61.8646   161.5208     6.7383     5.7940  -999.2500
  198.5000   -61.7332   166.7545     6.5435     5.5689  -999.2500
  199.0000   -61.5999   171.9883     6.3288     5.3603  -999.2500
  199.5000   -61.4667   178.0148     6.1160     5.1136  -999.2500
  200.0000   -61.3186   186.2762     5.8849     4.8730  -999.2500
  200.5000   -61.2957   194.4943     5.6240     4.4949  -999.2500
  201.0000   -61.3011   202.6764     5.3797     4.2366  -999.2500
  201.5000   -61.2986   212.7583     5.0935     4.1908  -999.2500
  202.0000   -61.3000   216.9238     5.0148     4.0305  -999.2500
  202.5000   -61.2994   222.3456     5.0736     3.9606  -999.2500
  203.0000   -61.2999   228.8893     5.2099     3.9705  -999.2500
  203.5000   -61.2998   228.9347     5.3520     4.1070  -999.2500
  204.0000   -61.3000   225.7509     5.4964     4.3037  -999.2500
  204.5000   -61.3000   215.4265     5.6329     4.4845  -999.2500
  205.0000   -61.3000   205.0789     5.7900     4.6788  -999.2500
  205.5000   -61.3000   194.7313     5.8952     4.8561  -999.2500
  206.0000   -61.3001   186.9024     5.9254     5.0654  -999.2500
  206.5000   -61.3000   184.0180     5.9699     5.1825  -999.2500
  207.0000   -61.3003   181.1337     6.0139     5.1681  -999.2500
  207.5000   -61.3000   177.8557     6.0402     5.1756  -999.2500
  208.0000   -61.3006   177.8557     6.0148     5.1732  -999.2500
  208.5000   -61.2996   177.8557     5.9474     5.1635  -999.2500
  209.0000   -61.3019   177.8557     5.8615     5.0004  -999.2500
  209.5000   -61.2851   178.8577     5.7879     4.7883  -999.2500
  210.0000   -61.2349   186.5875     5.6435     4.5975  -999.2500
