~VERSION INFORMATION
 VERS.                2.0:   CWLS LOG ASCII STANDARD - VERSION 2.0
 WRAP.                 NO:   ONE LINE PER DEPTH STEP
~WELL INFORMATION
#MNEM.UNIT      DATA TYPE    INFORMATION
#----------   ------------   ------------------------------
 STRT.F           24.0000:   START DEPTH
 STOP.F          464.0000:   STOP DEPTH
 STEP.F            0.5000:   STEP LENGTH
 NULL.          -999.2500:   NO VALUE
 COMP.    FENIX & SCISSON:   COMPANY
 WELL.       NPR #62-S-10:   WELL
 FLD .             TEAPOT:   FIELD
 LOC .      S10 T38N R78W:   LOCATION
 CNTY.            NATRONA:   COUNTY
 STAT.            WYOMING:   STATE
 CTRY. UNITED STATES OF AMERICA:   COUNTRY
 SRVC.              Welex:   SERVICE COMPANY
 DATE.        12-APR-1977:   LOGDATE
 API .       490251033300:   API NUMBER
~CURVE INFORMATION
#MNEM.UNIT       API CODE    CURVE DESCRIPTION
#----------   ------------   ------------------------------
 DEPT.F                  :   
 SPR .MV     07 010 01 00:   SPONTANEOUS POTENTIAL
 ILD .OHMM   07 120 46 00:   INDUCTION LOG DEEP
 ILM .OHMM   07 120 44 00:   INDUCTION LOG MEDIUM
 SGRD.OHMM   07 221 05 00:   SHALLOW SHORT GUARD RESISTIVITY
 GRD .GAPI   45 310 01 00:   GAMMA RAY FROM DENSITY LOG
 CALD.IN     45 280 60 00:   CALIPER FROM DENSITY LOG
 CORR.G/C3   45 356 01 00:   DENSITY CORRECTION
 RHOB.G/C3   45 350 01 00:   BULK DENSITY
 DPHI.DEC    45 890 12 00:   DENSITY POROSITY SANDSTONE
~PARAMETER INFORMATION
#MNEM.UNIT          VALUE    DESCRIPTION
#----------   ------------   ------------------------------
 PD  .                 GL:   PERMANENT DATUM
 EPD .F              5155:   ELEVATION PERMANENT DATUM
 LMF .                 GL:   LOG MEASURED FROM
 DMF .                 GL:   DRILLING MEASURED FROM
 EGL .F              5155:   GROUND LEVEL
 DATE.        12-APR-1977:   RUN DATE
 RUN .                  1:   RUN NUMBER
 DD  .F               460:   DEPTH DRILLER
 DL  .F               464:   DEPTH LOGGER
 BLI .F               462:   BOTTOM LOG INTERVAL
 TLI .F                30:   TOP LOG INTERVAL
 CS  .IN            8.625:   CASING SIZE
 BS  .IN            7.875:   BIT SIZE
 BSD .F               460:   BIT SIZE AT DEPTH
 DFT .            KCL GEL:   DRILLING FLUID TYPE
 DFD .                8.8:   DRILLING FLUID DENSITY
 TCS .HRS            0100:   TIME CURCULATED STOPPED
 MRT .F                65:   MAXIMUM RECORDED TEMPERATURE
 ENGI.        E. CALLAHAN:   RECORDING ENGINEER
 WITN.            R. LYON:   WITNESSED BY
 CLNT.            A2DTECH:   CLIENT CODE
 ORIG.           5" PRINT:   ORIGIN OF DATA
 UWI .       490251033300:   UNIQUE WELL ID
 DICO. A2D Technologies, Inc.:   DIGITIZING COMPANY
~OTHER INFORMATION
~A   DEPT      SPR        ILD        ILM       SGRD        GRD       CALD       CORR       RHOB       DPHI   
# ...
  316.0000   -31.1107    23.9259    29.4775    40.8386    74.3659     8.0541     0.0334     2.3257     0.1957
  316.5000   -31.2637    23.6071    29.4980    42.2958    75.7317     8.0403     0.0348     2.3424     0.1917
  317.0000   -31.5522    23.2914    29.5143    40.5966    77.3994     8.0421     0.0349     2.3567     0.1815
  317.5000   -31.6720    22.8211    28.9239    38.6925    78.0135     8.0286     0.0318     2.3560     0.1775
  318.0000   -31.6597    22.3604    28.3454    40.0779    78.6297     8.0301     0.0320     2.3523     0.1799
  318.5000   -31.4985    21.7633    27.9674    39.2741    78.9515     8.0163     0.0351     2.3577     0.1763
  319.0000   -31.1881    21.3253    27.5983    37.9578    79.2624     8.0181     0.0385     2.3698     0.1702
  319.5000   -31.0269    20.8881    26.8635    36.9403    79.4373     8.0196     0.0428     2.3909     0.1606
  320.0000   -30.8633    20.3253    26.1056    34.9693    79.7551     8.0361     0.0413     2.3895     0.1564
  320.5000   -30.8514    19.9149    25.4414    35.4734    79.9115     8.0376     0.0399     2.3797     0.1617
  321.0000   -30.8395    19.6482    25.9902    35.9849    80.5407     8.0391     0.0370     2.3715     0.1692
  321.5000   -30.8276    19.3978    25.2615    34.3012    81.7871     8.0405     0.0356     2.3708     0.1674
  322.0000   -30.8157    19.2721    24.7880    33.1476    82.5093     8.0420     0.0402     2.3777     0.1641
  322.5000   -30.8038    19.2803    25.4978    34.0979    81.9090     8.0435     0.0478     2.3898     0.1601
  323.0000   -30.7919    19.2883    24.9574    33.4140    81.1744     8.0450     0.0538     2.4019     0.1532
  323.5000   -30.7800    19.2963    25.0949    32.7399    80.7396     8.0465     0.0629     2.4095     0.1453
  324.0000   -30.7681    19.3043    26.8732    35.1052    81.2484     8.0480     0.0660     2.4155     0.1443
  324.5000   -30.7562    19.3123    27.8005    40.3313    82.5364     8.0495     0.0661     2.4028     0.1522
  325.0000   -30.7443    19.3204    27.7194    44.1460    84.9324     8.0510     0.0617     2.3795     0.1624
  325.5000   -30.5831    19.3284    26.6673    42.6665    86.9289     8.0674     0.0557     2.3668     0.1708
  326.0000   -30.5712    19.3364    26.6827    35.4174    90.2871     8.0689     0.0483     2.3608     0.1753
  326.5000   -30.5593    19.3444    26.5128    34.7029    87.6049     8.0704     0.0468     2.3571     0.1774
  327.0000   -30.5474    19.3540    26.3445    34.2470    88.9748     8.0719     0.0439     2.3564     0.1782
  327.5000   -30.3863    19.3620    26.3591    32.8712    90.7903     8.0734     0.0425     2.3565     0.1782
  328.0000   -30.2251    19.3701    25.9855    33.5764    92.3060     8.0749     0.0426     2.3588     0.1773
  328.5000   -30.2132    19.3781    25.4909    34.0564    93.3720     8.0763     0.0411     2.3596     0.1770
  329.0000   -30.0521    19.3861    25.3052    32.0210    92.3389     8.0778     0.0367     2.3606     0.1775
  329.5000   -30.0402    19.3941    24.9949    31.8119    90.4064     8.0793     0.0338     2.3597     0.1778
  330.0000   -29.8790    19.2665    24.8363    31.8312    88.3239     8.0808     0.0308     2.3568     0.1769
  330.5000   -30.0193    19.1416    24.8505    30.7644    86.3913     8.0673     0.0249     2.3501     0.1793
  331.0000   -30.0045    19.0176    25.2108    30.1438    85.6540     8.0689     0.0219     2.3501     0.1816
  331.5000   -30.1448    18.8944    25.4216    30.3713    86.1243     8.0853     0.0250     2.3592     0.1792
  332.0000   -30.4284    18.7719    25.3307    30.5969    88.2397     8.0868     0.0296     2.3713     0.1686
  332.5000   -30.5688    18.6503    23.6899    30.8241    90.3551     8.0883     0.0312     2.3767     0.1659
  333.0000   -31.1509    18.4037    23.2529    30.6266    91.1212     8.1051     0.0328     2.3782     0.1656
  333.5000   -31.5868    18.1584    23.6084    30.2206    92.1871     8.0916     0.0359     2.3798     0.1643
  334.0000   -32.1719    17.9164    23.9324    29.6145    94.1526     8.0931     0.0344     2.3837     0.1610
  334.5000   -32.1600    17.5559    23.2753    28.6220    91.7703     8.0946     0.0315     2.3898     0.1562
  335.0000   -31.9988    17.0840    22.8103    26.5386    89.3879     8.0512     0.0271     2.3913     0.1552
  335.5000   -31.6884    16.7402    22.2149    26.3653    86.8556     8.0227     0.0256     2.3922     0.1561
  336.0000   -31.5273    16.4016    21.7429    27.3093    85.0730     8.0242     0.0257     2.3999     0.1530
  336.5000   -31.2168    16.0732    20.6095    27.8919    83.5902     8.0407     0.0288     2.4092     0.1472
  337.0000   -31.2049    15.8574    21.3469    26.2249    83.1569     8.0421     0.0319     2.4232     0.1388
  337.5000   -31.0468    15.5398    20.7520    25.3460    83.4732     8.0436     0.0335     2.4169     0.1380
  338.0000   -31.1841    15.4376    19.7719    24.8377    84.2392     8.0451     0.0335     2.4133     0.1417
  338.5000   -31.1692    15.2334    18.6188    24.8497    83.9558     8.0466     0.0321     2.4105     0.1446
  339.0000   -31.1573    15.1347    19.5738    25.0343    83.2186     8.0481     0.0322     2.4076     0.1467
  339.5000   -31.2977    15.1410    20.5558    25.0464    83.9887     8.0496     0.0323     2.4084     0.1469
  340.0000   -31.4350    15.0413    21.4281    25.0586    85.5044     8.0511     0.0323     2.4122     0.1441
  340.5000   -31.4201    15.0491    21.1079    24.8949    85.9707     8.0526     0.0369     2.4168     0.1410
  341.0000   -31.5575    15.0553    20.0081    24.8024    86.1370     8.0540     0.0385     2.4214     0.1383
  341.5000   -31.3963    15.0615    20.1584    24.9211    86.3034     8.0555     0.0401     2.4290     0.1358
  342.0000   -31.3844    15.0678    20.3096    25.6602    86.6197     8.0570     0.0432     2.4328     0.1326
  342.5000   -31.2233    15.0740    20.4618    26.9440    87.6856     8.0585     0.0447     2.4291     0.1326
  343.0000   -31.2114    15.0803    20.1918    27.9034    88.3018     8.0600     0.0388     2.4254     0.1342
  343.5000   -31.3493    14.9810    19.6398    28.8969    88.4682     8.0615     0.0329     2.4217     0.1376
  344.0000   -31.4866    14.7829    18.0955    26.4236    88.6346     8.0779     0.0299     2.4210     0.1400
  344.5000   -31.6239    14.5859    18.4902    23.9956    88.4970     8.0794     0.0300     2.4233     0.1403
  345.0000   -31.6115    14.3915    18.4956    23.0299    88.5175     8.0656     0.0361     2.4279     0.1361
  345.5000   -31.5996    14.2968    17.1390    22.2565    88.3799     8.0674     0.0377     2.4377     0.1279
  346.0000   -31.3347    14.0091    16.1230    21.5091    88.2465     8.0689     0.0362     2.4415     0.1252
  346.5000   -31.0616    13.7286    16.0206    20.9310    88.1130     8.0704     0.0333     2.4280     0.1303
  347.0000   -30.7885    13.4523    15.9168    20.6521    88.1336     8.0719     0.0289     2.4213     0.1371
  347.5000   -30.4994    13.1815    15.5970    20.3769    88.1500     8.0734     0.0214     2.4206     0.1398
  348.0000   -30.3396    12.9149    15.3947    20.3854    88.4663     8.0749     0.0080     2.4116     0.1446
  348.5000   -30.1799    12.7428    16.0573    20.3938    88.7826     8.0913    -0.0010     2.4170     0.1416
  349.0000   -30.1694    12.5743    15.6251    20.2617    89.2488     8.0778    -0.0024     2.4193     0.1391
  349.5000   -30.0096    12.4915    15.2083    20.1304    90.3148     8.0793     0.0037     2.4209     0.1379
  350.0000   -29.9991    12.4106    15.1860    20.0000    91.3468     8.0509     0.0098     2.4390     0.1373
  350.5000   -29.8394    12.4184    15.0717    19.8704    92.9711     8.0321     0.0246     2.4722     0.1240
  351.0000   -29.6796    12.3396    15.1368    19.7417    94.7056     8.0395     0.0461     2.4821     0.1078
  351.5000   -29.6691    12.3465    15.2535    19.7499    95.9184     8.0713     0.0507     2.5002     0.0985
  352.0000   -29.6586    12.3534    15.6936    19.7581    96.3815     8.0862     0.0507     2.5063     0.0951
