~VERSION INFORMATION
 VERS.                2.0:   CWLS LOG ASCII STANDARD - VERSION 2.0
 WRAP.                 NO:   ONE LINE PER DEPTH STEP
~WELL INFORMATION
#MNEM.UNIT      DATA TYPE    INFORMATION
#----------   ------------   ------------------------------
 STRT.F            3.0000:   START DEPTH
 STOP.F          477.0000:   STOP DEPTH
 STEP.F            0.5000:   STEP LENGTH
 NULL.          -999.2500:   NO VALUE
 COMP. BROWN JOHN E&C INC:   COMPANY
 WELL. NAVAL PETROLEUM RESERVE 3 SX-1 #73-4-10:   WELL
 FLD .             TEAPOT:   FIELD
 LOC .      S10 T38N R78W:   LOCATION
 CNTY.            NATRONA:   COUNTY
 STAT.            WYOMING:   STATE
 CTRY. UNITED STATES OF AMERICA:   COUNTRY
 SRVC.     Atlas Wireline:   SERVICE COMPANY
 DATE.        19-SEP-1991:   LOGDATE
 API .       490252244500:   API NUMBER
~CURVE INFORMATION
#MNEM.UNIT       API CODE    CURVE DESCRIPTION
#----------   ------------   ------------------------------
 DEPT.F                  :   
 GRR .GAPI   07 310 01 00:   GAMMA RAY
 RILD.OHMM   07 120 46 00:   INDUCTION LOG DEEP
 RILM.OHMM   07 120 44 00:   RESITIVITY LONG MEDIUM
~PARAMETER INFORMATION
#MNEM.UNIT          VALUE    DESCRIPTION
#----------   ------------   ------------------------------
 PD  .                 GL:   PERMANENT DATUM
 EPD .F              5171:   ELEVATION PERMANENT DATUM
 LMF .                 GL:   LOG MEASURED FROM
 DMF .                 GL:   DRILLING MEASURED FROM
 EGL .F              5171:   GROUND LEVEL
 DATE.        19-SEP-1991:   RUN DATE
 RUN .                  1:   RUN NUMBER
 DD  .F               490:   DEPTH DRILLER
 DL  .F               489:   DEPTH LOGGER
 BLI .F               482:   BOTTOM LOG INTERVAL
 CS  .IN                7:   CASING SIZE
 CBD .F                80:   CASING BOTTOM DRILLER
 BS  .IN             6.25:   BIT SIZE
 BSD .F               490:   BIT SIZE AT DEPTH
 DFT .                AIR:   DRILLING FLUID TYPE
 LUN .            HL 6272:   LOGGING UNIT NUMBER
 LUL .             CASPER:   LOGGING UNIT LOCATION
 ENGI.          OTTERHOLT:   RECORDING ENGINEER
 WITN.             STRONG:   WITNESSED BY
 CLNT.            A2DTECH:   CLIENT CODE
 ORIG.           5" PRINT:   ORIGIN OF DATA
 UWI .       490252244500:   UNIQUE WELL ID
 DICO. A2D Technologies, Inc.:   DIGITIZING COMPANY
~OTHER INFORMATION
~A    DEPT      GRR      RILD       RILM   
# ...
  185.0000   130.0468     7.7656     8.6098
  185.5000   129.7518     7.8189     8.7304
  186.0000   129.4590     7.9819     8.7310
  186.5000   130.6767     8.0366     8.8131
  187.0000   129.1772     8.1475     8.8539
  187.5000   125.8678     8.1464     8.9779
  188.0000   121.6534     8.2022     8.9785
  188.5000   121.6623     8.2582     8.9791
  189.0000   124.6998     8.2568     9.0420
  189.5000   128.3831     8.2556     9.1055
  190.0000   131.0425     8.2545     9.2331
  190.5000   129.8447     8.1963     9.2979
  191.0000   127.1386     8.2523     9.2985
  191.5000   122.6226     8.3168     9.2350
  192.0000   118.7099     8.3652     9.2356
  192.5000   118.1132     8.3638     9.2363
  193.0000   122.3475     8.3627     9.2369
  193.5000   125.3729     8.3038     9.1737
  194.0000   129.0017     8.2452     9.0483
  194.5000   130.8205     8.2441     8.8630
  195.0000   130.1659     8.1860     8.6217
  195.5000   126.0139     8.1283     8.5033
  196.0000   125.7188     8.0153     8.3828
  196.5000   127.8415     7.9038     8.1590
  197.0000   130.5653     7.7400     7.8822
  197.5000   129.3675     7.5272     7.5100
  198.0000   128.4692     7.2643     7.2051
  198.5000   127.8747     6.8230     6.9125
  199.0000   131.2040     6.4591     6.5861
  199.5000   133.0228     6.0675     5.9372
  200.0000   135.4440     5.8196     6.2322
  200.5000   132.7231     6.0245     5.5667
  201.0000   131.2088     4.9264     4.6341
  201.5000   129.6945     4.4703     3.8587
  202.0000   124.2587     3.7066     3.4347
  202.5000   124.2528     3.2488     2.9314
  203.0000   125.1518     2.9073     2.6607
  203.5000   125.7492     2.6018     2.5001
  204.0000   125.4415     2.4612     2.4487
  204.5000   124.5306     2.4440     2.4657
  205.0000   123.6197     2.4609     2.6978
  205.5000   122.1054     2.5653     2.9929
  206.0000   118.7812     2.8661     3.3202
  206.5000   119.3786     3.0723     3.6327
  207.0000   126.0493     3.2279     4.2890
  207.5000   131.5836     3.6118     4.7582
  208.0000   136.2936     4.7916     5.3152
  208.5000   137.2077     5.5756     5.5790
  209.0000   139.2568     6.1438     5.9375
  209.5000   141.6641     6.4044     6.1893
  210.0000   142.8648     6.4935     6.3630
  210.5000   143.7638     6.5837     6.4071
  211.0000   144.3626     6.5377     6.3618
  211.5000   141.6403     6.4921     6.2755
  212.0000   135.9028     6.4022     6.1841
  212.5000   134.3885     5.9315     6.0551
  213.0000   137.3992     5.7688     5.7356
  213.5000   136.7899     5.5333     5.3893
  214.0000   139.4989     5.3074     5.1701
  214.5000   144.0178     4.9859     5.0290
  215.0000   146.1234     4.8829     4.9599
  215.5000   144.9108     4.8153     4.9599
  216.0000   137.0617     4.8163     5.0290
  216.5000   126.4977     4.8513     5.2422
  217.0000   126.5118     4.9944     5.4644
  217.5000   132.5691     5.2681     5.6961
  218.0000   138.1036     5.4536     6.0203
  218.5000   140.6519     5.6850     6.2755
  219.0000   139.7394     5.9674     6.4964
  219.5000   136.1136     6.3074     6.8189
  220.0000   135.5058     6.5750     7.1573
  220.5000   139.1182     6.7595     7.4093
  221.0000   145.1455     7.0462     7.6172
  221.5000   146.6478     7.2943     7.7774
  222.0000   146.0385     7.4472     7.8854
  222.5000   143.9210     7.4467     7.9401
  223.0000   140.2951     7.4981     7.8310
  223.5000   136.0659     7.5497     7.7234
  224.0000   137.5682     7.5491     7.6701
  224.5000   139.6754     7.5486     7.6172
  225.0000   137.8580     7.3416     7.5125
  225.5000   138.4553     7.0882     7.3074
  226.0000   141.1643     6.8386     7.1079
  226.5000   145.6832     6.5618     6.8189
  227.0000   148.6939     6.2573     6.4964
  227.5000   148.6878     6.0018     6.2755
  228.0000   147.9980     5.7969     6.0203
  228.5000   146.1519     5.5218     5.5024
  229.0000   145.3518     5.0454     5.1701
  229.5000   150.4725     4.7727     5.0991
  230.0000   152.8798     4.7724     5.0639
  230.5000   154.9855     4.7721     5.1701
  231.0000   155.2827     4.9060     5.3893
  231.5000   154.0686     5.0787     5.7755
  232.0000   148.6328     5.3310     6.2322
  232.5000   149.2301     5.5958     6.7298
  233.0000   149.8290     5.8332     7.1159
  233.5000   144.9950     6.0807     7.4093
  234.0000   140.1625     6.3827     7.5738
  234.5000   137.7433     6.7483     7.8310
  235.0000   137.6873     7.2338     7.9401
  235.5000   143.7645     7.3881     8.0508
  236.0000   145.5686     7.4845     8.1630
  236.5000   144.9593     7.5361     8.2197
  237.0000   141.6249     7.5354     8.2767
  237.5000   140.7241     7.5349     8.2767
  238.0000   142.6084     7.5870     8.2767
  238.5000   145.6490     7.6393     8.1630
  239.0000   146.7394     7.6386     8.1630
  239.5000   145.5253     7.6381     8.1067
  240.0000   143.1061     7.6376     8.1067
  240.5000   143.1001     7.5843     8.1630
  241.0000   147.0157     7.5313     8.1630
  241.5000   148.2179     7.4271     8.1630
  242.0000   147.3055     7.3243     8.1067
  242.5000   145.7912     7.3238     8.1067
  243.0000   145.4836     7.3233     8.1067
  243.5000   148.1926     7.4250     8.1067
  244.0000   150.9016     7.4245     8.1067
  244.5000   152.1022     7.4240     8.1067
  245.0000   152.0963     7.4304     8.0508
  245.5000   149.6770     7.5267     7.9953
  246.0000   148.1628     7.4224     7.8310
  246.5000   150.5701     7.3196     7.6701
  247.0000   150.5540     7.1514     7.5125
  247.5000   149.3263     7.0203     7.3074
  248.0000   149.0439     6.7337     7.1079
  248.5000   153.9748     6.5490     6.8189
  249.0000   158.0803     6.4584     6.6327
  249.5000   161.6942     6.2812     6.6788
  250.0000   163.8011     6.0668     6.8189
  250.5000   161.0892     5.8540     6.5400
  251.0000   158.6789     5.4976     6.1865
  251.5000   156.2686     5.2697     5.8521
  252.0000   149.0318     5.1351     5.7307
  252.5000   149.0348     5.0992     5.6508
  253.0000   149.6411     5.0636     5.6888
  253.5000   149.0407     5.0632     5.7669
  254.0000   144.2172     5.1693     5.8867
  254.5000   144.2373     5.2412     6.0927
  255.0000   146.6365     5.3510     6.3937
  255.5000   145.3897     5.5780     6.7097
  256.0000   145.4359     5.9782     7.0412
  256.5000   144.8354     6.4071     7.2876
  257.0000   144.5375     6.6327     7.4389
  257.5000   143.6355     6.7717     7.5934
  258.0000   141.8285     6.8185     7.6980
  258.5000   140.9265     6.6313     7.6430
  259.0000   143.9461     6.3166     7.2299
  259.5000   146.6640     5.9340     6.4708
  260.0000   148.7786     5.4598     6.0788
  260.5000   149.6866     5.2007     5.7503
  261.0000   149.9905     5.1277     5.5921
  261.5000   147.2793     5.0551     5.5524
  262.0000   146.3773     4.9877     5.5513
  262.5000   144.5696     5.0220     5.7854
  263.0000   150.3048     5.1272     6.1559
  263.5000   152.7211     5.4193     6.7340
  264.0000   153.3274     5.7281     6.9696
  264.5000   150.9171     5.9298     7.0653
  265.0000   143.6803     6.2677     7.3142
  265.5000   141.5686     6.6249     7.5713
  266.0000   140.0342     6.9539     7.7878
  266.5000   139.4660     7.2489     8.0571
  267.0000   139.4268     7.5042     8.2258
  267.5000   138.8686     7.6616     8.3488
  268.0000   138.8724     7.7681     8.5146
  268.5000   137.9704     7.8759     8.6207
  269.0000   134.6551     7.8753     8.6792
  269.5000   133.4507     7.8748     8.7979
  270.0000   135.2644     7.9291     8.8576
  270.5000   140.3956     7.9285     8.9168
  271.0000   142.8118     7.9280     8.9150
  271.5000   143.1165     7.9274     8.9131
  272.0000   141.9121     7.9269     8.7888
  272.5000   143.1225     7.8715     8.7264
  273.0000   146.4437     7.8790     8.6644
  273.5000   147.3517     7.9253     8.6627
  274.0000   146.4497     7.9246     8.6011
  274.5000   143.7370     7.9793     8.6595
  275.0000   143.1373     8.0342     8.7784
  275.5000   142.2354     8.0897     9.2117
